{"type": "FeatureCollection", "features": [
{"geometry": {"type": "Point", "coordinates": [-80.6106092623, 28.0785634263]}, "type": "Feature", "properties": {"collection_times": [{"days": "Mon-Fri", "time": "5:00pm"}, {"days": "Sat", "time": "3:30pm"}, {"days": "Sun", "time": "Closed"}], "id": "3290100001", "name": "USPS COLLECTION BOX - PO LOBBY", "address": {"city": "MELBOURNE", "state": "FL", "street": "640 E NEW HAVEN AVE", "postcode": "32901"}}},
{"geometry": {"type": "Point", "coordinates": [-80.6217429955, 28.0870351932]}, "type": "Feature", "properties": {"collection_times": [{"days": "Mon-Sat", "time": "1:45pm"}, {"days": "Sun", "time": "Closed"}], "id": "3290100002", "name": "USPS COLLECTION BOX - BLUE BOX", "address": {"city": "MELBOURNE", "state": "FL", "street": "1305 S BABCOCK ST", "postcode": "32901"}}},
{"geometry": {"type": "Point", "coordinates": [-80.6216678726, 28.0934618153]}, "type": "Feature", "properties": {"collection_times": [{"days": "Mon-Sat", "time": "1:45pm"}, {"days": "Sun", "time": "Closed"}], "id": "3290100004", "name": "USPS COLLECTION BOX - BLUE BOX", "address": {"city": "MELBOURNE", "state": "FL", "street": "975 S BABCOCK ST", "postcode": "32901"}}},
{"geometry": {"type": "Point", "coordinates": [-80.6299728117, 28.0900231075]}, "type": "Feature", "properties": {"collection_times": [{"days": "Mon-Sat", "time": "2:00pm"}, {"days": "Sun", "time": "Closed"}], "id": "3290100005", "name": "USPS COLLECTION BOX - BLUE BOX", "address": {"city": "MELBOURNE", "state": "FL", "street": "1205 EDDIE ALLEN RD", "postcode": "32901"}}},
{"geometry": {"type": "Point", "coordinates": [-80.6497471831, 28.0869985215]}, "type": "Feature", "properties": {"collection_times": [{"days": "Mon-Fri", "time": "2:00pm"}, {"days": "Sat-Sun", "time": "Closed"}], "id": "3290100006", "name": "USPS COLLECTION BOX - BLUE BOX", "address": {"city": "MELBOURNE", "state": "FL", "street": "1333 GATEWAY DR", "postcode": "32901"}}},
{"geometry": {"type": "Point", "coordinates": [-80.6108420287, 28.0952946127]}, "type": "Feature", "properties": {"collection_times": [{"days": "Mon-Sat", "time": "1:30pm"}, {"days": "Sun", "time": "Closed"}], "id": "3290100008", "name": "USPS COLLECTION BOX - BLUE BOX", "address": {"city": "MELBOURNE", "state": "FL", "street": "930 S HARBOR CITY BLVD", "postcode": "32901"}}},
{"geometry": {"type": "Point", "coordinates": [-80.6031208555, 28.0791081852]}, "type": "Feature", "properties": {"collection_times": [{"days": "Mon-Fri", "time": "1:15pm"}, {"days": "Sat", "time": "1:30pm"}, {"days": "Sun", "time": "Closed"}], "id": "3290100010", "name": "USPS COLLECTION BOX - BLUE BOX", "address": {"city": "MELBOURNE", "state": "FL", "street": "1917 S HARBOR CITY BLVD", "postcode": "32901"}}},
{"geometry": {"type": "Point", "coordinates": [-80.611898411, 28.0976096634]}, "type": "Feature", "properties": {"collection_times": [{"days": "Mon-Fri", "time": "1:30pm"}, {"days": "Sat-Sun", "time": "Closed"}], "id": "3290100012", "name": "USPS COLLECTION BOX - BLUE BOX", "address": {"city": "MELBOURNE", "state": "FL", "street": "709 S HARBOR CITY BLVD", "postcode": "32901"}}},
{"geometry": {"type": "Point", "coordinates": [-80.6268019273, 28.1062825466]}, "type": "Feature", "properties": {"collection_times": [{"days": "Mon-Sat", "time": "2:00pm"}, {"days": "Sun", "time": "Closed"}], "id": "3290100014", "name": "USPS COLLECTION BOX - BLUE BOX", "address": {"city": "MELBOURNE", "state": "FL", "street": "51 NIEMAN AVE", "postcode": "32901"}}},
{"geometry": {"type": "Point", "coordinates": [-80.6518694115, 28.0882157862]}, "type": "Feature", "properties": {"collection_times": [{"days": "Mon-Fri", "time": "2:00pm"}, {"days": "Sat-Sun", "time": "Closed"}], "id": "3290100015", "name": "USPS COLLECTION BOX - BLUE BOX", "address": {"city": "MELBOURNE", "state": "FL", "street": "1800 PENN ST", "postcode": "32901"}}},
{"geometry": {"type": "Point", "coordinates": [-80.622883368, 28.0901097035]}, "type": "Feature", "properties": {"collection_times": [{"days": "Mon-Sat", "time": "1:45pm"}, {"days": "Sun", "time": "Closed"}], "id": "3290100016", "name": "USPS COLLECTION BOX - BLUE BOX", "address": {"city": "MELBOURNE", "state": "FL", "street": "100 RIALTO PL", "postcode": "32901"}}},
{"geometry": {"type": "Point", "coordinates": [-80.6113613476, 28.0888474863]}, "type": "Feature", "properties": {"collection_times": [{"days": "Mon-Sat", "time": "1:30pm"}, {"days": "Sun", "time": "Closed"}], "id": "3290100017", "name": "USPS COLLECTION BOX - BLUE BOX", "address": {"city": "MELBOURNE", "state": "FL", "street": "611 E SHERIDAN RD", "postcode": "32901"}}},
{"geometry": {"type": "Point", "coordinates": [-80.6106092623, 28.0785634263]}, "type": "Feature", "properties": {"collection_times": [{"days": "Mon-Fri", "time": "5:00pm"}, {"days": "Sat", "time": "3:30pm"}, {"days": "Sun", "time": "Closed"}], "id": "3290100019", "name": "USPS COLLECTION BOX - BLUE BOX", "address": {"city": "MELBOURNE", "state": "FL", "street": "640 E NEW HAVEN AVE", "postcode": "32901"}}},
{"geometry": {"type": "Point", "coordinates": [-80.5713288333, 28.0913790185]}, "type": "Feature", "properties": {"collection_times": [{"days": "Mon-Fri", "time": "5:00pm"}, {"days": "Sat", "time": "12:00pm"}, {"days": "Sun", "time": "Closed"}], "id": "3290300006", "name": "USPS COLLECTION BOX - BLUE BOX", "address": {"city": "INDIALANTIC", "state": "FL", "street": "200 N PALM AVE", "postcode": "32903"}}},
{"geometry": {"type": "Point", "coordinates": [-80.5713288333, 28.0913790185]}, "type": "Feature", "properties": {"collection_times": [{"days": "Mon-Fri", "time": "5:00pm"}, {"days": "Sat", "time": "12:00pm"}, {"days": "Sun", "time": "Closed"}], "id": "3290300010", "name": "USPS COLLECTION BOX - PO LOBBY", "address": {"city": "INDIALANTIC", "state": "FL", "street": "200 N PALM AVE", "postcode": "32903"}}},
{"geometry": {"type": "Point", "coordinates": [-80.5713288333, 28.0913790185]}, "type": "Feature", "properties": {"collection_times": [{"days": "Mon-Fri", "time": "5:00pm"}, {"days": "Sat", "time": "12:00pm"}, {"days": "Sun", "time": "Closed"}], "id": "3290300011", "name": "USPS COLLECTION BOX - PO LOBBY", "address": {"city": "INDIALANTIC", "state": "FL", "street": "200 N PALM AVE", "postcode": "32903"}}},
{"geometry": {"type": "Point", "coordinates": [-80.5763875949, 28.121103932]}, "type": "Feature", "properties": {"collection_times": [{"days": "Mon-Sat", "time": "1:00pm"}, {"days": "Sun", "time": "Closed"}], "id": "3290300012", "name": "USPS COLLECTION BOX - BLUE BOX", "address": {"city": "INDIALANTIC", "state": "FL", "street": "2200 N HIGHWAY A1A", "postcode": "32903"}}},
{"geometry": {"type": "Point", "coordinates": [-80.6706289896, 28.0714001503]}, "type": "Feature", "properties": {"collection_times": [{"days": "Mon-Sat", "time": "5:00pm"}, {"days": "Sun", "time": "Closed"}], "id": "3290400000", "name": "USPS COLLECTION BOX - BLUE BOX", "address": {"city": "MELBOURNE", "state": "FL", "street": "2305 MINTON RD", "postcode": "32904"}}},
{"geometry": {"type": "Point", "coordinates": [-80.6721737192, 28.078969779]}, "type": "Feature", "properties": {"collection_times": [{"days": "Mon-Sat", "time": "2:15pm"}, {"days": "Sun", "time": "Closed"}], "id": "3290400002", "name": "USPS COLLECTION BOX - BLUE BOX", "address": {"city": "MELBOURNE", "state": "FL", "street": "3090 W NEW HAVEN AVE", "postcode": "32904"}}},
{"geometry": {"type": "Point", "coordinates": [-80.6979054426, 28.094767013]}, "type": "Feature", "properties": {"collection_times": [{"days": "Mon-Sat", "time": "2:15pm"}, {"days": "Sun", "time": "Closed"}], "id": "3290400005", "name": "USPS COLLECTION BOX - BLUE BOX", "address": {"city": "MELBOURNE", "state": "FL", "street": "4316 FORTUNE PL", "postcode": "32904"}}},
{"geometry": {"type": "Point", "coordinates": [-80.6837560138, 28.099216241]}, "type": "Feature", "properties": {"collection_times": [{"days": "Mon-Sat", "time": "2:15pm"}, {"days": "Sun", "time": "Closed"}], "id": "3290400006", "name": "USPS COLLECTION BOX - BLUE BOX", "address": {"city": "MELBOURNE", "state": "FL", "street": "7815 ELLIS RD", "postcode": "32904"}}},
{"geometry": {"type": "Point", "coordinates": [-80.6379968517, 28.0807666936]}, "type": "Feature", "properties": {"collection_times": [{"days": "Mon-Sat", "time": "2:15pm"}, {"days": "Sun", "time": "Closed"}], "id": "3290400010", "name": "USPS COLLECTION BOX - BLUE BOX", "address": {"city": "MELBOURNE", "state": "FL", "street": "1900 DAIRY RD", "postcode": "32904"}}},
{"geometry": {"type": "Point", "coordinates": [-80.6477657268, 28.0352819214]}, "type": "Feature", "properties": {"collection_times": [{"days": "Mon-Sat", "time": "12:30pm"}, {"days": "Sun", "time": "Closed"}], "id": "3290400018", "name": "USPS COLLECTION BOX - BLUE BOX", "address": {"city": "MELBOURNE", "state": "FL", "street": "845 PALM BAY RD NE", "postcode": "32904"}}},
{"geometry": {"type": "Point", "coordinates": [-80.6706843738, 28.0713964757]}, "type": "Feature", "properties": {"collection_times": [{"days": "Mon-Sat", "time": "5:00pm"}, {"days": "Sun", "time": "Closed"}], "id": "3290400019", "name": "USPS COLLECTION BOX - PO LOBBY", "address": {"city": "MELBOURNE", "state": "FL", "street": "2305 MINTON RD", "postcode": "32904"}}},
{"geometry": {"type": "Point", "coordinates": [-80.6706843738, 28.0713964757]}, "type": "Feature", "properties": {"collection_times": [{"days": "Mon-Sat", "time": "5:00pm"}, {"days": "Sun", "time": "Closed"}], "id": "3290400020", "name": "USPS COLLECTION BOX - APC", "address": {"city": "MELBOURNE", "state": "FL", "street": "2305 MINTON RD", "postcode": "32904"}}},
{"geometry": {"type": "Point", "coordinates": [-80.6528264253, 28.0789520346]}, "type": "Feature", "properties": {"collection_times": [{"days": "Mon-Fri", "time": "2:15pm"}, {"days": "Sat-Sun", "time": "Closed"}], "id": "3290400022", "name": "USPS COLLECTION BOX - BLUE BOX", "address": {"city": "MELBOURNE", "state": "FL", "street": "1990 W NEW HAVEN AVE", "postcode": "32904"}}},
{"geometry": {"type": "Point", "coordinates": [-80.7690257611, 28.0720201277]}, "type": "Feature", "properties": {"collection_times": [{"days": "Mon-Sat", "time": "2:15pm"}, {"days": "Sun", "time": "Closed"}], "id": "3290400023", "name": "USPS COLLECTION BOX - BLUE BOX", "address": {"city": "MELBOURNE", "state": "FL", "street": "2020 WESTGATE BLVD", "postcode": "32904"}}},
{"geometry": {"type": "Point", "coordinates": [-80.6706843738, 28.0713964757]}, "type": "Feature", "properties": {"collection_times": [{"days": "Mon-Sat", "time": "5:00pm"}, {"days": "Sun", "time": "Closed"}], "id": "3290400024", "name": "USPS COLLECTION BOX - PO LOBBY", "address": {"city": "MELBOURNE", "state": "FL", "street": "2305 MINTON RD", "postcode": "32904"}}},
{"geometry": {"type": "Point", "coordinates": [-80.6706843738, 28.0713964757]}, "type": "Feature", "properties": {"collection_times": [{"days": "Mon-Sat", "time": "5:00pm"}, {"days": "Sun", "time": "Closed"}], "id": "3290400025", "name": "USPS COLLECTION BOX - PO LOBBY", "address": {"city": "MELBOURNE", "state": "FL", "street": "2305 MINTON RD", "postcode": "32904"}}},
{"geometry": {"type": "Point", "coordinates": [-80.5756138883, 28.0242459545]}, "type": "Feature", "properties": {"collection_times": [{"days": "Mon-Sat", "time": "2:00pm"}, {"days": "Sun", "time": "Closed"}], "id": "3290500001", "name": "USPS COLLECTION BOX - BLUE BOX", "address": {"city": "PALM BAY", "state": "FL", "street": "2499 PORT MALABAR BLVD NE", "postcode": "32905"}}},
{"geometry": {"type": "Point", "coordinates": [-80.622219728, 28.0175836724]}, "type": "Feature", "properties": {"collection_times": [{"days": "Mon-Sat", "time": "2:00pm"}, {"days": "Sun", "time": "Closed"}], "id": "3290500004", "name": "USPS COLLECTION BOX - BLUE BOX", "address": {"city": "PALM BAY", "state": "FL", "street": "5270 BABCOCK ST NE", "postcode": "32905"}}},
{"geometry": {"type": "Point", "coordinates": [-80.6217666547, 28.0339830325]}, "type": "Feature", "properties": {"collection_times": [{"days": "Mon-Sat", "time": "2:00pm"}, {"days": "Sun", "time": "Closed"}], "id": "3290500008", "name": "USPS COLLECTION BOX - BLUE BOX", "address": {"city": "PALM BAY", "state": "FL", "street": "4711 BABCOCK ST NE", "postcode": "32905"}}},
{"geometry": {"type": "Point", "coordinates": [-80.6053779412, 28.0366375924]}, "type": "Feature", "properties": {"collection_times": [{"days": "Mon-Fri", "time": "5:00pm"}, {"days": "Sat", "time": "4:00pm"}, {"days": "Sun", "time": "Closed"}], "id": "3290500016", "name": "USPS COLLECTION BOX - PO LOBBY", "address": {"city": "PALM BAY", "state": "FL", "street": "4660 LIPSCOMB ST NE", "postcode": "32905"}}},
{"geometry": {"type": "Point", "coordinates": [-80.6053779412, 28.0366375924]}, "type": "Feature", "properties": {"collection_times": [{"days": "Mon-Fri", "time": "5:00pm"}, {"days": "Sat", "time": "4:00pm"}, {"days": "Sun", "time": "Closed"}], "id": "3290500018", "name": "USPS COLLECTION BOX - BLUE BOX", "address": {"city": "PALM BAY", "state": "FL", "street": "4660 LIPSCOMB ST NE", "postcode": "32905"}}},
{"geometry": {"type": "Point", "coordinates": [-80.6053779412, 28.0366375924]}, "type": "Feature", "properties": {"collection_times": [{"days": "Mon-Fri", "time": "5:00pm"}, {"days": "Sat", "time": "4:00pm"}, {"days": "Sun", "time": "Closed"}], "id": "3290500026", "name": "USPS COLLECTION BOX - PO LOBBY", "address": {"city": "PALM BAY", "state": "FL", "street": "4660 LIPSCOMB ST NE", "postcode": "32905"}}},
{"geometry": {"type": "Point", "coordinates": [-80.669875142, 27.9989199338]}, "type": "Feature", "properties": {"collection_times": [{"days": "Mon-Sat", "time": "1:00pm"}, {"days": "Sun", "time": "Closed"}], "id": "3290700003", "name": "USPS COLLECTION BOX - BLUE BOX", "address": {"city": "MELBOURNE", "state": "FL", "street": "160 MALABAR RD SW", "postcode": "32907"}}},
{"geometry": {"type": "Point", "coordinates": [-80.7009275355, 28.0178867979]}, "type": "Feature", "properties": {"collection_times": [{"days": "Mon-Sat", "time": "12:00pm"}, {"days": "Sun", "time": "Closed"}], "id": "3290700006", "name": "USPS COLLECTION BOX - BLUE BOX", "address": {"city": "MELBOURNE", "state": "FL", "street": "6050 BABCOCK ST SE", "postcode": "32907"}}},
{"geometry": {"type": "Point", "coordinates": [-80.7009275355, 28.0178867979]}, "type": "Feature", "properties": {"collection_times": [{"days": "Mon-Sat", "time": "5:00pm"}, {"days": "Sun", "time": "Closed"}], "id": "3290700009", "name": "USPS COLLECTION BOX - BLUE BOX", "address": {"city": "MELBOURNE", "state": "FL", "street": "950 MALABAR RD SW", "postcode": "32907"}}},
{"geometry": {"type": "Point", "coordinates": [-80.7009275355, 28.0178867979]}, "type": "Feature", "properties": {"collection_times": [{"days": "Mon-Fri", "time": "5:00pm"}, {"days": "Sat", "time": "1:00pm"}, {"days": "Sun", "time": "Closed"}], "id": "3290700010", "name": "USPS COLLECTION BOX - PO LOBBY", "address": {"city": "MELBOURNE", "state": "FL", "street": "950 MALABAR RD SW", "postcode": "32907"}}},
{"geometry": {"type": "Point", "coordinates": [-80.6603926308, 28.0304104964]}, "type": "Feature", "properties": {"collection_times": [{"days": "Mon-Sat", "time": "12:00pm"}, {"days": "Sun", "time": "Closed"}], "id": "3290700011", "name": "USPS COLLECTION BOX - BLUE BOX", "address": {"city": "MELBOURNE", "state": "FL", "street": "1275 CULVER DR NE", "postcode": "32907"}}},
{"geometry": {"type": "Point", "coordinates": [-80.6716650468, 28.0301183055]}, "type": "Feature", "properties": {"collection_times": [{"days": "Mon-Sat", "time": "2:00pm"}, {"days": "Sun", "time": "Closed"}], "id": "3290700012", "name": "USPS COLLECTION BOX - BLUE BOX", "address": {"city": "MELBOURNE", "state": "FL", "street": "5156 MINTON RD NW", "postcode": "32907"}}},
{"geometry": {"type": "Point", "coordinates": [-80.6405214399, 27.9990102483]}, "type": "Feature", "properties": {"collection_times": [{"days": "Mon-Fri", "time": "5:00pm"}, {"days": "Sat", "time": "2:30pm"}, {"days": "Sun", "time": "Closed"}], "id": "3291000000", "name": "USPS COLLECTION BOX - PO LOBBY", "address": {"city": "MELBOURNE", "state": "FL", "street": "1155 MALABAR RD NE", "postcode": "32910"}}},
{"geometry": {"type": "Point", "coordinates": [-80.6405214399, 27.9990102483]}, "type": "Feature", "properties": {"collection_times": [{"days": "Mon-Fri", "time": "5:00pm"}, {"days": "Sat", "time": "2:30pm"}, {"days": "Sun", "time": "Closed"}], "id": "3291000001", "name": "USPS COLLECTION BOX - BLUE BOX", "address": {"city": "MELBOURNE", "state": "FL", "street": "1155 MALABAR RD NE", "postcode": "32910"}}},
{"geometry": {"type": "Point", "coordinates": [-80.6405214399, 27.9990102483]}, "type": "Feature", "properties": {"collection_times": [{"days": "Mon-Fri", "time": "5:00pm"}, {"days": "Sat", "time": "2:30pm"}, {"days": "Sun", "time": "Closed"}], "id": "3291000002", "name": "USPS COLLECTION BOX - APC", "address": {"city": "MELBOURNE", "state": "FL", "street": "1155 MALABAR RD NE", "postcode": "32910"}}},
{"geometry": {"type": "Point", "coordinates": [-80.6192848068, 28.406079226]}, "type": "Feature", "properties": {"collection_times": [{"days": "Mon-Sat", "time": "1:45pm"}, {"days": "Sun", "time": "Closed"}], "id": "3292000003", "name": "USPS COLLECTION BOX - BLUE BOX", "address": {"city": "CAPE CANAVERAL", "state": "FL", "street": "445 CHALLENGER RD", "postcode": "32920"}}},
{"geometry": {"type": "Point", "coordinates": [-80.6047734492, 28.3846700347]}, "type": "Feature", "properties": {"collection_times": [{"days": "Mon-Sat", "time": "1:30pm"}, {"days": "Sun", "time": "Closed"}], "id": "3292000004", "name": "USPS COLLECTION BOX - BLUE BOX", "address": {"city": "CAPE CANAVERAL", "state": "FL", "street": "110 POLK AVE", "postcode": "32920"}}},
{"geometry": {"type": "Point", "coordinates": [-80.6055885079, 28.3866692353]}, "type": "Feature", "properties": {"collection_times": [{"days": "Mon-Sat", "time": "1:30pm"}, {"days": "Sun", "time": "Closed"}], "id": "3292000010", "name": "USPS COLLECTION BOX - BLUE BOX", "address": {"city": "CAPE CANAVERAL", "state": "FL", "street": "7700 N ATLANTIC AVE", "postcode": "32920"}}},
{"geometry": {"type": "Point", "coordinates": [-80.6055754954, 28.3811613784]}, "type": "Feature", "properties": {"collection_times": [{"days": "Mon-Sat", "time": "1:30pm"}, {"days": "Sun", "time": "Closed"}], "id": "3292000011", "name": "USPS COLLECTION BOX - BLUE BOX", "address": {"city": "CAPE CANAVERAL", "state": "FL", "street": "7077 N ATLANTIC AVE", "postcode": "32920"}}},
{"geometry": {"type": "Point", "coordinates": [-80.6115375818, 28.3956292009]}, "type": "Feature", "properties": {"collection_times": [{"days": "Mon-Fri", "time": "5:00pm"}, {"days": "Sat", "time": "2:15pm"}, {"days": "Sun", "time": "Closed"}], "id": "3292000013", "name": "USPS COLLECTION BOX - BLUE BOX", "address": {"city": "CAPE CANAVERAL", "state": "FL", "street": "8700 ASTRONAUT BLVD", "postcode": "32920"}}},
{"geometry": {"type": "Point", "coordinates": [-80.6115375818, 28.3956292009]}, "type": "Feature", "properties": {"collection_times": [{"days": "Mon-Fri", "time": "5:00pm"}, {"days": "Sat", "time": "2:15pm"}, {"days": "Sun", "time": "Closed"}], "id": "3292000015", "name": "USPS COLLECTION BOX - PO LOBBY", "address": {"city": "CAPE CANAVERAL", "state": "FL", "street": "8700 ASTRONAUT BLVD", "postcode": "32920"}}},
{"geometry": {"type": "Point", "coordinates": [-80.6055612998, 28.3906889299]}, "type": "Feature", "properties": {"collection_times": [{"days": "Mon-Sat", "time": "1:30pm"}, {"days": "Sun", "time": "Closed"}], "id": "3292000016", "name": "USPS COLLECTION BOX - BLUE BOX", "address": {"city": "CAPE CANAVERAL", "state": "FL", "street": "8177 N ATLANTIC AVE", "postcode": "32920"}}},
{"geometry": {"type": "Point", "coordinates": [-80.6115375818, 28.3956292009]}, "type": "Feature", "properties": {"collection_times": [{"days": "Mon-Fri", "time": "5:00pm"}, {"days": "Sat", "time": "2:15pm"}, {"days": "Sun", "time": "Closed"}], "id": "3292000018", "name": "USPS COLLECTION BOX - PO LOBBY", "address": {"city": "CAPE CANAVERAL", "state": "FL", "street": "8700 ASTRONAUT BLVD", "postcode": "32920"}}},
{"geometry": {"type": "Point", "coordinates": [-80.6115375818, 28.3956292009]}, "type": "Feature", "properties": {"collection_times": [{"days": "Mon-Fri", "time": "5:00pm"}, {"days": "Sat", "time": "2:15pm"}, {"days": "Sun", "time": "Closed"}], "id": "3292000019", "name": "USPS COLLECTION BOX - PO LOBBY", "address": {"city": "CAPE CANAVERAL", "state": "FL", "street": "8700 ASTRONAUT BLVD", "postcode": "32920"}}},
{"geometry": {"type": "Point", "coordinates": [-80.7253607372, 28.3550534741]}, "type": "Feature", "properties": {"collection_times": [{"days": "Mon-Sat", "time": "1:00pm"}, {"days": "Sun", "time": "Closed"}], "id": "3292200002", "name": "USPS COLLECTION BOX - BLUE BOX", "address": {"city": "COCOA", "state": "FL", "street": "318 DELANNOY AVE", "postcode": "32922"}}},
{"geometry": {"type": "Point", "coordinates": [-80.724704195, 28.3564742078]}, "type": "Feature", "properties": {"collection_times": [{"days": "Mon-Sat", "time": "1:00pm"}, {"days": "Sun", "time": "Closed"}], "id": "3292200003", "name": "USPS COLLECTION BOX - BLUE BOX", "address": {"city": "COCOA", "state": "FL", "street": "96 WILLARD ST", "postcode": "32922"}}},
{"geometry": {"type": "Point", "coordinates": [-80.7402967771, 28.3761349858]}, "type": "Feature", "properties": {"collection_times": [{"days": "Mon-Sat", "time": "3:00pm"}, {"days": "Sun", "time": "Closed"}], "id": "3292200006", "name": "USPS COLLECTION BOX - BLUE BOX", "address": {"city": "COCOA", "state": "FL", "street": "801 DIXON BLVD", "postcode": "32922"}}},
{"geometry": {"type": "Point", "coordinates": [-80.7277503143, 28.3531891307]}, "type": "Feature", "properties": {"collection_times": [{"days": "Mon-Fri", "time": "4:30pm"}, {"days": "Sat", "time": "1:00pm"}, {"days": "Sun", "time": "Closed"}], "id": "3292200008", "name": "USPS COLLECTION BOX - BLUE BOX", "address": {"city": "COCOA", "state": "FL", "street": "600 FLORIDA AVE", "postcode": "32922"}}},
{"geometry": {"type": "Point", "coordinates": [-80.7277503143, 28.3531891307]}, "type": "Feature", "properties": {"collection_times": [{"days": "Mon-Fri", "time": "4:30pm"}, {"days": "Sat", "time": "1:00pm"}, {"days": "Sun", "time": "Closed"}], "id": "3292200010", "name": "USPS COLLECTION BOX - BLUE BOX", "address": {"city": "COCOA", "state": "FL", "street": "600 FLORIDA AVE", "postcode": "32922"}}},
{"geometry": {"type": "Point", "coordinates": [-80.7454314358, 28.3564859436]}, "type": "Feature", "properties": {"collection_times": [{"days": "Mon-Fri", "time": "4:30pm"}, {"days": "Sat", "time": "1:00pm"}, {"days": "Sun", "time": "Closed"}], "id": "3292200024", "name": "USPS COLLECTION BOX - BLUE BOX", "address": {"city": "COCOA", "state": "FL", "street": "1114 LAKE DR", "postcode": "32922"}}},
{"geometry": {"type": "Point", "coordinates": [-80.7610482432, 28.3969385021]}, "type": "Feature", "properties": {"collection_times": [{"days": "Mon-Sat", "time": "5:00pm"}, {"days": "Sun", "time": "Closed"}], "id": "3292200025", "name": "USPS COLLECTION BOX - BLUE BOX", "address": {"city": "COCOA", "state": "FL", "street": "2000 STATE ROAD 524", "postcode": "32922"}}},
{"geometry": {"type": "Point", "coordinates": [-80.7610482432, 28.3969385021]}, "type": "Feature", "properties": {"collection_times": [{"days": "Mon-Sat", "time": "5:00pm"}, {"days": "Sun", "time": "Closed"}], "id": "3292200026", "name": "USPS COLLECTION BOX - PO LOBBY", "address": {"city": "COCOA", "state": "FL", "street": "2000 STATE ROAD 524", "postcode": "32922"}}},
{"geometry": {"type": "Point", "coordinates": [-80.6059295118, 28.2559786735]}, "type": "Feature", "properties": {"collection_times": [{"days": "Mon-Fri", "time": "4:00pm"}, {"days": "Sat-Sun", "time": "Closed"}], "id": "3292500009", "name": "USPS COLLECTION BOX - BLUE BOX", "address": {"city": "PATRICK AFB", "state": "FL", "street": "424 FALCON AVE", "postcode": "32925"}}},
{"geometry": {"type": "Point", "coordinates": [-80.7571444787, 28.4221532725]}, "type": "Feature", "properties": {"collection_times": [{"days": "Mon-Fri", "time": "12:00pm"}, {"days": "Sat-Sun", "time": "Closed"}], "id": "3292600006", "name": "USPS COLLECTION BOX - BLUE BOX", "address": {"city": "COCOA", "state": "FL", "street": "2323 STATE ROAD 524", "postcode": "32926"}}},
{"geometry": {"type": "Point", "coordinates": [-80.7980507862, 28.3590678437]}, "type": "Feature", "properties": {"collection_times": [{"days": "Mon-Sat", "time": "11:00am"}, {"days": "Sun", "time": "Closed"}], "id": "3292600011", "name": "USPS COLLECTION BOX - BLUE BOX", "address": {"city": "COCOA", "state": "FL", "street": "106 ROSEWOOD DR", "postcode": "32926"}}},
{"geometry": {"type": "Point", "coordinates": [-80.7679268329, 28.4741330144]}, "type": "Feature", "properties": {"collection_times": [{"days": "Mon-Sat", "time": "3:00pm"}, {"days": "Sun", "time": "Closed"}], "id": "3292700002", "name": "USPS COLLECTION BOX - BLUE BOX", "address": {"city": "COCOA", "state": "FL", "street": "680 WEST AVE", "postcode": "32927"}}},
{"geometry": {"type": "Point", "coordinates": [-80.6100175063, 28.3414920325]}, "type": "Feature", "properties": {"collection_times": [{"days": "Mon-Sat", "time": "1:00pm"}, {"days": "Sun", "time": "Closed"}], "id": "3293100007", "name": "USPS COLLECTION BOX - BLUE BOX", "address": {"city": "COCOA BEACH", "state": "FL", "street": "1980 N ATLANTIC AVE", "postcode": "32931"}}},
{"geometry": {"type": "Point", "coordinates": [-80.6115837439, 28.3553385672]}, "type": "Feature", "properties": {"collection_times": [{"days": "Mon-Sat", "time": "1:30pm"}, {"days": "Sun", "time": "Closed"}], "id": "3293100013", "name": "USPS COLLECTION BOX - BLUE BOX", "address": {"city": "COCOA BEACH", "state": "FL", "street": "3950 S BANANA RIVER BLVD", "postcode": "32931"}}},
{"geometry": {"type": "Point", "coordinates": [-80.6258620586, 28.3578440742]}, "type": "Feature", "properties": {"collection_times": [{"days": "Mon-Sat", "time": "11:15am"}, {"days": "Sun", "time": "Closed"}], "id": "3293100017", "name": "USPS COLLECTION BOX - BLUE BOX", "address": {"city": "COCOA BEACH", "state": "FL", "street": "701 W COCOA BEACH CSWY", "postcode": "32931"}}},
{"geometry": {"type": "Point", "coordinates": [-80.6105495907, 28.3295944053]}, "type": "Feature", "properties": {"collection_times": [{"days": "Mon-Sat", "time": "1:00pm"}, {"days": "Sun", "time": "Closed"}], "id": "3293100019", "name": "USPS COLLECTION BOX - BLUE BOX", "address": {"city": "COCOA BEACH", "state": "FL", "street": "100 COCOA ISLES BLVD", "postcode": "32931"}}},
{"geometry": {"type": "Point", "coordinates": [-80.6109165551, 28.3260059167]}, "type": "Feature", "properties": {"collection_times": [{"days": "Mon-Fri", "time": "5:00pm"}, {"days": "Sat", "time": "12:15pm"}, {"days": "Sun", "time": "Closed"}], "id": "3293100031", "name": "USPS COLLECTION BOX - BLUE BOX", "address": {"city": "COCOA BEACH", "state": "FL", "street": "500 N BREVARD AVE", "postcode": "32931"}}},
{"geometry": {"type": "Point", "coordinates": [-80.6109165551, 28.3260059167]}, "type": "Feature", "properties": {"collection_times": [{"days": "Mon-Fri", "time": "4:45pm"}, {"days": "Sat", "time": "12:15pm"}, {"days": "Sun", "time": "Closed"}], "id": "3293100036", "name": "USPS COLLECTION BOX - PO LOBBY", "address": {"city": "COCOA BEACH", "state": "FL", "street": "500 N BREVARD AVE", "postcode": "32931"}}},
{"geometry": {"type": "Point", "coordinates": [-80.6991534643, 28.1207578044]}, "type": "Feature", "properties": {"collection_times": [{"days": "Mon-Sat", "time": "1:15pm"}, {"days": "Sun", "time": "Closed"}], "id": "3293400002", "name": "USPS COLLECTION BOX - BLUE BOX", "address": {"city": "MELBOURNE", "state": "FL", "street": "4450 W EAU GALLIE BLVD", "postcode": "32934"}}},
{"geometry": {"type": "Point", "coordinates": [-80.6740391062, 28.1467103323]}, "type": "Feature", "properties": {"collection_times": [{"days": "Mon-Sat", "time": "1:30pm"}, {"days": "Sun", "time": "Closed"}], "id": "3293400004", "name": "USPS COLLECTION BOX - BLUE BOX", "address": {"city": "MELBOURNE", "state": "FL", "street": "3128 LAKE WASHINGTON RD", "postcode": "32934"}}},
{"geometry": {"type": "Point", "coordinates": [-80.6725960355, 28.1181990642]}, "type": "Feature", "properties": {"collection_times": [{"days": "Mon-Fri", "time": "2:00pm"}, {"days": "Sat", "time": "2:30pm"}, {"days": "Sun", "time": "Closed"}], "id": "3293500007", "name": "USPS COLLECTION BOX - BLUE BOX", "address": {"city": "MELBOURNE", "state": "FL", "street": "700 N WICKHAM RD", "postcode": "32935"}}},
{"geometry": {"type": "Point", "coordinates": [-80.6404313813, 28.1334497711]}, "type": "Feature", "properties": {"collection_times": [{"days": "Mon-Sat", "time": "1:45pm"}, {"days": "Sun", "time": "Closed"}], "id": "3293500012", "name": "USPS COLLECTION BOX - BLUE BOX", "address": {"city": "MELBOURNE", "state": "FL", "street": "1268 AURORA RD", "postcode": "32935"}}},
{"geometry": {"type": "Point", "coordinates": [-80.6406242036, 28.1288374141]}, "type": "Feature", "properties": {"collection_times": [{"days": "Mon-Sat", "time": "1:30pm"}, {"days": "Sun", "time": "Closed"}], "id": "3293500013", "name": "USPS COLLECTION BOX - BLUE BOX", "address": {"city": "MELBOURNE", "state": "FL", "street": "1301 W EAU GALLIE BLVD", "postcode": "32935"}}},
{"geometry": {"type": "Point", "coordinates": [-80.644445161, 28.1216036201]}, "type": "Feature", "properties": {"collection_times": [{"days": "Mon-Fri", "time": "2:15pm"}, {"days": "Sat", "time": "3:00pm"}, {"days": "Sun", "time": "Closed"}], "id": "3293500018", "name": "USPS COLLECTION BOX - BLUE BOX", "address": {"city": "MELBOURNE", "state": "FL", "street": "1515 SARNO RD", "postcode": "32935"}}},
{"geometry": {"type": "Point", "coordinates": [-80.6457263056, 28.1216260963]}, "type": "Feature", "properties": {"collection_times": [{"days": "Mon-Fri", "time": "2:15pm"}, {"days": "Sat", "time": "3:00pm"}, {"days": "Sun", "time": "Closed"}], "id": "3293500019", "name": "USPS COLLECTION BOX - BLUE BOX", "address": {"city": "MELBOURNE", "state": "FL", "street": "1600 SARNO RD", "postcode": "32935"}}},
{"geometry": {"type": "Point", "coordinates": [-80.6578173292, 28.1286647021]}, "type": "Feature", "properties": {"collection_times": [{"days": "Mon-Sat", "time": "1:30pm"}, {"days": "Sun", "time": "Closed"}], "id": "3293500022", "name": "USPS COLLECTION BOX - BLUE BOX", "address": {"city": "MELBOURNE", "state": "FL", "street": "2290 W EAU GALLIE BLVD", "postcode": "32935"}}},
{"geometry": {"type": "Point", "coordinates": [-80.6429833518, 28.1629820362]}, "type": "Feature", "properties": {"collection_times": [{"days": "Mon-Sat", "time": "12:45pm"}, {"days": "Sun", "time": "Closed"}], "id": "3293500030", "name": "USPS COLLECTION BOX - BLUE BOX", "address": {"city": "MELBOURNE", "state": "FL", "street": "3502 N US 1", "postcode": "32935"}}},
{"geometry": {"type": "Point", "coordinates": [-80.6726545275, 28.1128400158]}, "type": "Feature", "properties": {"collection_times": [{"days": "Mon-Fri", "time": "2:00pm"}, {"days": "Sat", "time": "2:30pm"}, {"days": "Sun", "time": "Closed"}], "id": "3293500031", "name": "USPS COLLECTION BOX - BLUE BOX", "address": {"city": "MELBOURNE", "state": "FL", "street": "380 N WICKHAM RD", "postcode": "32935"}}},
{"geometry": {"type": "Point", "coordinates": [-80.671630741, 28.1268902637]}, "type": "Feature", "properties": {"collection_times": [{"days": "Mon-Fri", "time": "1:45pm"}, {"days": "Sat", "time": "2:15pm"}, {"days": "Sun", "time": "Closed"}], "id": "3293500033", "name": "USPS COLLECTION BOX - BLUE BOX", "address": {"city": "MELBOURNE", "state": "FL", "street": "1270 N WICKHAM RD", "postcode": "32935"}}},
{"geometry": {"type": "Point", "coordinates": [-80.6718015756, 28.150086867]}, "type": "Feature", "properties": {"collection_times": [{"days": "Mon-Fri", "time": "1:15pm"}, {"days": "Sat", "time": "2:00pm"}, {"days": "Sun", "time": "Closed"}], "id": "3293500035", "name": "USPS COLLECTION BOX - BLUE BOX", "address": {"city": "MELBOURNE", "state": "FL", "street": "2727 N WICKHAM RD", "postcode": "32935"}}},
{"geometry": {"type": "Point", "coordinates": [-80.6716129966, 28.1233236424]}, "type": "Feature", "properties": {"collection_times": [{"days": "Mon-Fri", "time": "1:45pm"}, {"days": "Sat", "time": "2:15pm"}, {"days": "Sun", "time": "Closed"}], "id": "3293500037", "name": "USPS COLLECTION BOX - BLUE BOX", "address": {"city": "MELBOURNE", "state": "FL", "street": "1000 N WICKHAM RD", "postcode": "32935"}}},
{"geometry": {"type": "Point", "coordinates": [-80.6580055064, 28.1217156386]}, "type": "Feature", "properties": {"collection_times": [{"days": "Mon-Fri", "time": "2:00pm"}, {"days": "Sat", "time": "2:45pm"}, {"days": "Sun", "time": "Closed"}], "id": "3293500040", "name": "USPS COLLECTION BOX - BLUE BOX", "address": {"city": "MELBOURNE", "state": "FL", "street": "2108 SARNO RD", "postcode": "32935"}}},
{"geometry": {"type": "Point", "coordinates": [-80.6554278221, 28.1575901624]}, "type": "Feature", "properties": {"collection_times": [{"days": "Mon-Fri", "time": "1:15pm"}, {"days": "Sat", "time": "2:30pm"}, {"days": "Sun", "time": "Closed"}], "id": "3293500042", "name": "USPS COLLECTION BOX - BLUE BOX", "address": {"city": "MELBOURNE", "state": "FL", "street": "2500 PARKWAY DR", "postcode": "32935"}}},
{"geometry": {"type": "Point", "coordinates": [-80.6294949256, 28.1311394523]}, "type": "Feature", "properties": {"collection_times": [{"days": "Mon-Fri", "time": "5:00pm"}, {"days": "Sat", "time": "2:45pm"}, {"days": "Sun", "time": "Closed"}], "id": "3293600001", "name": "USPS COLLECTION BOX - BLUE BOX", "address": {"city": "MELBOURNE", "state": "FL", "street": "681 SAINT CLAIR ST", "postcode": "32936"}}},
{"geometry": {"type": "Point", "coordinates": [-80.6294949256, 28.1311394523]}, "type": "Feature", "properties": {"collection_times": [{"days": "Mon-Fri", "time": "5:00pm"}, {"days": "Sat", "time": "2:45pm"}, {"days": "Sun", "time": "Closed"}], "id": "3293600002", "name": "USPS COLLECTION BOX - PO LOBBY", "address": {"city": "MELBOURNE", "state": "FL", "street": "681 SAINT CLAIR ST", "postcode": "32936"}}},
{"geometry": {"type": "Point", "coordinates": [-80.6294949256, 28.1311394523]}, "type": "Feature", "properties": {"collection_times": [{"days": "Mon-Fri", "time": "5:00pm"}, {"days": "Sat", "time": "2:45pm"}, {"days": "Sun", "time": "Closed"}], "id": "3293600003", "name": "USPS COLLECTION BOX - APC", "address": {"city": "MELBOURNE", "state": "FL", "street": "681 SAINT CLAIR ST", "postcode": "32936"}}},
{"geometry": {"type": "Point", "coordinates": [-80.5928397591, 28.1856383718]}, "type": "Feature", "properties": {"collection_times": [{"days": "Mon-Sat", "time": "2:15pm"}, {"days": "Sun", "time": "Closed"}], "id": "3293700002", "name": "USPS COLLECTION BOX - BLUE BOX", "address": {"city": "INDN HBR BCH", "state": "FL", "street": "1024 HIGHWAY A1A", "postcode": "32937"}}},
{"geometry": {"type": "Point", "coordinates": [-80.5967074483, 28.1723502094]}, "type": "Feature", "properties": {"collection_times": [{"days": "Mon-Sat", "time": "2:00pm"}, {"days": "Sun", "time": "Closed"}], "id": "3293700008", "name": "USPS COLLECTION BOX - BLUE BOX", "address": {"city": "INDN HBR BCH", "state": "FL", "street": "218 E EAU GALLIE BLVD", "postcode": "32937"}}},
{"geometry": {"type": "Point", "coordinates": [-80.6061527793, 28.1853319854]}, "type": "Feature", "properties": {"collection_times": [{"days": "Mon-Fri", "time": "5:00pm"}, {"days": "Sat", "time": "12:00pm"}, {"days": "Sun", "time": "Closed"}], "id": "3293700012", "name": "USPS COLLECTION BOX - PO LOBBY", "address": {"city": "INDN HBR BCH", "state": "FL", "street": "1071 SOUTH PATRICK DR", "postcode": "32937"}}},
{"geometry": {"type": "Point", "coordinates": [-80.6059942628, 28.1754223382]}, "type": "Feature", "properties": {"collection_times": [{"days": "Mon-Sat", "time": "2:15pm"}, {"days": "Sun", "time": "Closed"}], "id": "3293700014", "name": "USPS COLLECTION BOX - BLUE BOX", "address": {"city": "INDN HBR BCH", "state": "FL", "street": "1301 SOUTH PATRICK DR", "postcode": "32937"}}},
{"geometry": {"type": "Point", "coordinates": [-80.599859227, 28.1533985961]}, "type": "Feature", "properties": {"collection_times": [{"days": "Mon-Sat", "time": "2:00pm"}, {"days": "Sun", "time": "Closed"}], "id": "3293700015", "name": "USPS COLLECTION BOX - BLUE BOX", "address": {"city": "INDN HBR BCH", "state": "FL", "street": "1861 SOUTH PATRICK DR", "postcode": "32937"}}},
{"geometry": {"type": "Point", "coordinates": [-80.5925608401, 28.1524604946]}, "type": "Feature", "properties": {"collection_times": [{"days": "Mon-Sat", "time": "1:30pm"}, {"days": "Sun", "time": "Closed"}], "id": "3293700017", "name": "USPS COLLECTION BOX - BLUE BOX", "address": {"city": "INDN HBR BCH", "state": "FL", "street": "1104 PINETREE DR", "postcode": "32937"}}},
{"geometry": {"type": "Point", "coordinates": [-80.6000475372, 28.1746405876]}, "type": "Feature", "properties": {"collection_times": [{"days": "Mon-Sat", "time": "1:15pm"}, {"days": "Sun", "time": "Closed"}], "id": "3293700018", "name": "USPS COLLECTION BOX - BLUE BOX", "address": {"city": "INDN HBR BCH", "state": "FL", "street": "100 ALAMANDA AVE", "postcode": "32937"}}},
{"geometry": {"type": "Point", "coordinates": [-80.606940603, 28.2091139271]}, "type": "Feature", "properties": {"collection_times": [{"days": "Mon-Sat", "time": "1:30pm"}, {"days": "Sun", "time": "Closed"}], "id": "3293700019", "name": "USPS COLLECTION BOX - BLUE BOX", "address": {"city": "INDN HBR BCH", "state": "FL", "street": "400 SKYLARK BLVD", "postcode": "32937"}}},
{"geometry": {"type": "Point", "coordinates": [-80.6061527793, 28.1853319854]}, "type": "Feature", "properties": {"collection_times": [{"days": "Mon-Fri", "time": "5:00pm"}, {"days": "Sat", "time": "4:00pm"}, {"days": "Sun", "time": "Closed"}], "id": "3293700026", "name": "USPS COLLECTION BOX - BLUE BOX", "address": {"city": "INDN HBR BCH", "state": "FL", "street": "1071 SOUTH PATRICK DR", "postcode": "32937"}}},
{"geometry": {"type": "Point", "coordinates": [-80.5830000302, 28.1386010528]}, "type": "Feature", "properties": {"collection_times": [{"days": "Mon-Sat", "time": "1:30pm"}, {"days": "Sun", "time": "Closed"}], "id": "3293700027", "name": "USPS COLLECTION BOX - BLUE BOX", "address": {"city": "INDN HBR BCH", "state": "FL", "street": "981 E EAU GALLIE BLVD", "postcode": "32937"}}},
{"geometry": {"type": "Point", "coordinates": [-80.672008966, 28.2105003452]}, "type": "Feature", "properties": {"collection_times": [{"days": "Mon-Fri", "time": "5:00pm"}, {"days": "Sat", "time": "3:45pm"}, {"days": "Sun", "time": "Closed"}], "id": "3294000001", "name": "USPS COLLECTION BOX - BLUE BOX", "address": {"city": "MELBOURNE", "state": "FL", "street": "6105 N WICKHAM RD", "postcode": "32940"}}},
{"geometry": {"type": "Point", "coordinates": [-80.6763117096, 28.2218475628]}, "type": "Feature", "properties": {"collection_times": [{"days": "Mon-Sat", "time": "1:30pm"}, {"days": "Sun", "time": "Closed"}], "id": "3294000006", "name": "USPS COLLECTION BOX - BLUE BOX", "address": {"city": "MELBOURNE", "state": "FL", "street": "6767 N WICKHAM RD", "postcode": "32940"}}},
{"geometry": {"type": "Point", "coordinates": [-80.6897891611, 28.2090041773]}, "type": "Feature", "properties": {"collection_times": [{"days": "Mon-Sat", "time": "2:30pm"}, {"days": "Sun", "time": "Closed"}], "id": "3294000007", "name": "USPS COLLECTION BOX - BLUE BOX", "address": {"city": "MELBOURNE", "state": "FL", "street": "723 KENWOOD CIR", "postcode": "32940"}}},
{"geometry": {"type": "Point", "coordinates": [-80.7129219237, 28.2317879669]}, "type": "Feature", "properties": {"collection_times": [{"days": "Mon-Sat", "time": "12:00pm"}, {"days": "Sun", "time": "Closed"}], "id": "3294000008", "name": "USPS COLLECTION BOX - BLUE BOX", "address": {"city": "MELBOURNE", "state": "FL", "street": "7380 MURRELL RD", "postcode": "32940"}}},
{"geometry": {"type": "Point", "coordinates": [-80.7359044504, 28.2476029453]}, "type": "Feature", "properties": {"collection_times": [{"days": "Mon-Sat", "time": "12:00pm"}, {"days": "Sun", "time": "Closed"}], "id": "3294000009", "name": "USPS COLLECTION BOX - BLUE BOX", "address": {"city": "MELBOURNE", "state": "FL", "street": "2725 JUDGE FRAN JAMIESON WAY", "postcode": "32940"}}},
{"geometry": {"type": "Point", "coordinates": [-80.6921645341, 28.2382335731]}, "type": "Feature", "properties": {"collection_times": [{"days": "Mon-Sat", "time": "1:45pm"}, {"days": "Sun", "time": "Closed"}], "id": "3294000010", "name": "USPS COLLECTION BOX - BLUE BOX", "address": {"city": "MELBOURNE", "state": "FL", "street": "7550 SPYGLASS HILL RD", "postcode": "32940"}}},
{"geometry": {"type": "Point", "coordinates": [-80.6709576373, 28.2030893824]}, "type": "Feature", "properties": {"collection_times": [{"days": "Mon-Sat", "time": "2:30pm"}, {"days": "Sun", "time": "Closed"}], "id": "3294000011", "name": "USPS COLLECTION BOX - BLUE BOX", "address": {"city": "MELBOURNE", "state": "FL", "street": "2955 PINEDA CSWY", "postcode": "32940"}}},
{"geometry": {"type": "Point", "coordinates": [-80.6973920384, 28.2307304016]}, "type": "Feature", "properties": {"collection_times": [{"days": "Mon-Sat", "time": "2:15pm"}, {"days": "Sun", "time": "Closed"}], "id": "3294000019", "name": "USPS COLLECTION BOX - BLUE BOX", "address": {"city": "MELBOURNE", "state": "FL", "street": "7777 N WICKHAM RD", "postcode": "32940"}}},
{"geometry": {"type": "Point", "coordinates": [-80.6720755336, 28.2101232565]}, "type": "Feature", "properties": {"collection_times": [{"days": "Mon-Fri", "time": "5:00pm"}, {"days": "Sat", "time": "3:45pm"}, {"days": "Sun", "time": "Closed"}], "id": "3294000024", "name": "USPS COLLECTION BOX - PO LOBBY", "address": {"city": "MELBOURNE", "state": "FL", "street": "6105 N WICKHAM RD", "postcode": "32940"}}},
{"geometry": {"type": "Point", "coordinates": [-80.6720755336, 28.2101232565]}, "type": "Feature", "properties": {"collection_times": [{"days": "Mon-Fri", "time": "5:00pm"}, {"days": "Sat", "time": "3:45pm"}, {"days": "Sun", "time": "Closed"}], "id": "3294000025", "name": "USPS COLLECTION BOX - APC", "address": {"city": "MELBOURNE", "state": "FL", "street": "6105 N WICKHAM RD", "postcode": "32940"}}},
{"geometry": {"type": "Point", "coordinates": [-80.7230823582, 28.230257218]}, "type": "Feature", "properties": {"collection_times": [{"days": "Mon-Sat", "time": "12:15pm"}, {"days": "Sun", "time": "Closed"}], "id": "3294000027", "name": "USPS COLLECTION BOX - BLUE BOX", "address": {"city": "MELBOURNE", "state": "FL", "street": "8500 N WICKHAM RD", "postcode": "32940"}}},
{"geometry": {"type": "Point", "coordinates": [-80.6720755336, 28.2101232565]}, "type": "Feature", "properties": {"collection_times": [{"days": "Mon-Fri", "time": "5:00pm"}, {"days": "Sat", "time": "3:45pm"}, {"days": "Sun", "time": "Closed"}], "id": "3294000028", "name": "USPS COLLECTION BOX - PO LOBBY", "address": {"city": "MELBOURNE", "state": "FL", "street": "6105 N WICKHAM RD", "postcode": "32940"}}},
{"geometry": {"type": "Point", "coordinates": [-80.5962392074, 27.7678574755]}, "type": "Feature", "properties": {"collection_times": [{"days": "Mon-Fri", "time": "5:00pm"}, {"days": "Sat", "time": "12:00pm"}, {"days": "Sun", "time": "Closed"}], "id": "3294800001", "name": "USPS COLLECTION BOX - BLUE BOX", "address": {"city": "FELLSMERE", "state": "FL", "street": "15 N OAK ST", "postcode": "32948"}}},
{"geometry": {"type": "Point", "coordinates": [-80.5962392074, 27.7678574755]}, "type": "Feature", "properties": {"collection_times": [{"days": "Mon-Fri", "time": "5:00pm"}, {"days": "Sat", "time": "12:00pm"}, {"days": "Sun", "time": "Closed"}], "id": "3294800002", "name": "USPS COLLECTION BOX - PO LOBBY", "address": {"city": "FELLSMERE", "state": "FL", "street": "15 N OAK ST", "postcode": "32948"}}},
{"geometry": {"type": "Point", "coordinates": [-80.5260357005, 27.9258570342]}, "type": "Feature", "properties": {"collection_times": [{"days": "Mon-Fri", "time": "5:00pm"}, {"days": "Sat", "time": "11:00am"}, {"days": "Sun", "time": "Closed"}], "id": "3294900001", "name": "USPS COLLECTION BOX - PO LOBBY", "address": {"city": "GRANT", "state": "FL", "street": "5560 OLD DIXIE HWY", "postcode": "32949"}}},
{"geometry": {"type": "Point", "coordinates": [-80.5260357005, 27.9258570342]}, "type": "Feature", "properties": {"collection_times": [{"days": "Mon-Fri", "time": "5:00pm"}, {"days": "Sat", "time": "11:00am"}, {"days": "Sun", "time": "Closed"}], "id": "3294900002", "name": "USPS COLLECTION BOX - BLUE BOX", "address": {"city": "GRANT", "state": "FL", "street": "5560 OLD DIXIE HWY", "postcode": "32949"}}},
{"geometry": {"type": "Point", "coordinates": [-80.5869734656, 27.998018714]}, "type": "Feature", "properties": {"collection_times": [{"days": "Mon-Fri", "time": "4:30pm"}, {"days": "Sat", "time": "2:30pm"}, {"days": "Sun", "time": "Closed"}], "id": "3295000001", "name": "USPS COLLECTION BOX - BLUE BOX", "address": {"city": "MALABAR", "state": "FL", "street": "1720 MALABAR RD", "postcode": "32950"}}},
{"geometry": {"type": "Point", "coordinates": [-80.5869734656, 27.998018714]}, "type": "Feature", "properties": {"collection_times": [{"days": "Mon-Fri", "time": "4:30pm"}, {"days": "Sat", "time": "2:30pm"}, {"days": "Sun", "time": "Closed"}], "id": "3295000002", "name": "USPS COLLECTION BOX - PO LOBBY", "address": {"city": "MALABAR", "state": "FL", "street": "1720 MALABAR RD", "postcode": "32950"}}},
{"geometry": {"type": "Point", "coordinates": [-80.5636360512, 28.0683917599]}, "type": "Feature", "properties": {"collection_times": [{"days": "Mon-Fri", "time": "5:00pm"}, {"days": "Sat", "time": "3:00pm"}, {"days": "Sun", "time": "Closed"}], "id": "3295100001", "name": "USPS COLLECTION BOX - BLUE BOX", "address": {"city": "MELBOURNE BEACH", "state": "FL", "street": "504 OCEAN AVE", "postcode": "32951"}}},
{"geometry": {"type": "Point", "coordinates": [-80.5636360512, 28.0683917599]}, "type": "Feature", "properties": {"collection_times": [{"days": "Mon-Fri", "time": "4:00pm"}, {"days": "Sat", "time": "3:00pm"}, {"days": "Sun", "time": "Closed"}], "id": "3295100004", "name": "USPS COLLECTION BOX - PO LOBBY", "address": {"city": "MELBOURNE BEACH", "state": "FL", "street": "504 OCEAN AVE", "postcode": "32951"}}},
{"geometry": {"type": "Point", "coordinates": [-80.5330352687, 28.0157690133]}, "type": "Feature", "properties": {"collection_times": [{"days": "Mon-Sat", "time": "11:30am"}, {"days": "Sun", "time": "Closed"}], "id": "3295100012", "name": "USPS COLLECTION BOX - BLUE BOX", "address": {"city": "MELBOURNE BEACH", "state": "FL", "street": "3830 S HIGHWAY A1A", "postcode": "32951"}}},
{"geometry": {"type": "Point", "coordinates": [-80.5636360512, 28.0683917599]}, "type": "Feature", "properties": {"collection_times": [{"days": "Mon-Fri", "time": "4:00pm"}, {"days": "Sat", "time": "3:00pm"}, {"days": "Sun", "time": "Closed"}], "id": "3295100013", "name": "USPS COLLECTION BOX - PO LOBBY", "address": {"city": "MELBOURNE BEACH", "state": "FL", "street": "504 OCEAN AVE", "postcode": "32951"}}},
{"geometry": {"type": "Point", "coordinates": [-80.6871286864, 28.3570917123]}, "type": "Feature", "properties": {"collection_times": [{"days": "Mon-Fri", "time": "3:45pm"}, {"days": "Sat", "time": "3:00pm"}, {"days": "Sun", "time": "Closed"}], "id": "3295200003", "name": "USPS COLLECTION BOX - BLUE BOX", "address": {"city": "MERRITT ISLAND", "state": "FL", "street": "777 E MERRITT ISLAND CSWY", "postcode": "32952"}}},
{"geometry": {"type": "Point", "coordinates": [-80.6883826229, 28.3570822487]}, "type": "Feature", "properties": {"collection_times": [{"days": "Mon-Fri", "time": "3:45pm"}, {"days": "Sat", "time": "3:00pm"}, {"days": "Sun", "time": "Closed"}], "id": "3295200005", "name": "USPS COLLECTION BOX - BLUE BOX", "address": {"city": "MERRITT ISLAND", "state": "FL", "street": "775 E MERRITT ISLAND CSWY", "postcode": "32952"}}},
{"geometry": {"type": "Point", "coordinates": [-80.7001016977, 28.3556596424]}, "type": "Feature", "properties": {"collection_times": [{"days": "Mon-Fri", "time": "4:00pm"}, {"days": "Sat", "time": "3:15pm"}, {"days": "Sun", "time": "Closed"}], "id": "3295200008", "name": "USPS COLLECTION BOX - BLUE BOX", "address": {"city": "MERRITT ISLAND", "state": "FL", "street": "100 S COURTENAY PKWY", "postcode": "32952"}}},
{"geometry": {"type": "Point", "coordinates": [-80.6609900251, 28.3419805945]}, "type": "Feature", "properties": {"collection_times": [{"days": "Mon-Fri", "time": "3:30pm"}, {"days": "Sat", "time": "2:45pm"}, {"days": "Sun", "time": "Closed"}], "id": "3295200012", "name": "USPS COLLECTION BOX - BLUE BOX", "address": {"city": "MERRITT ISLAND", "state": "FL", "street": "860 N BANANA RIVER DR", "postcode": "32952"}}},
{"geometry": {"type": "Point", "coordinates": [-80.7056171521, 28.4036446965]}, "type": "Feature", "properties": {"collection_times": [{"days": "Mon-Fri", "time": "3:15pm"}, {"days": "Sat", "time": "2:30pm"}, {"days": "Sun", "time": "Closed"}], "id": "3295300007", "name": "USPS COLLECTION BOX - BLUE BOX", "address": {"city": "MERRITT ISLAND", "state": "FL", "street": "2575 N COURTENAY PKWY", "postcode": "32953"}}},
{"geometry": {"type": "Point", "coordinates": [-80.7065315793, 28.3882697788]}, "type": "Feature", "properties": {"collection_times": [{"days": "Mon-Fri", "time": "5:00pm"}, {"days": "Sat", "time": "3:45pm"}, {"days": "Sun", "time": "Closed"}], "id": "3295300008", "name": "USPS COLLECTION BOX - BLUE BOX", "address": {"city": "MERRITT ISLAND", "state": "FL", "street": "333 CROCKETT BLVD", "postcode": "32953"}}},
{"geometry": {"type": "Point", "coordinates": [-80.7065315793, 28.3882697788]}, "type": "Feature", "properties": {"collection_times": [{"days": "Mon-Fri", "time": "5:00pm"}, {"days": "Sat", "time": "3:45pm"}, {"days": "Sun", "time": "Closed"}], "id": "3295300009", "name": "USPS COLLECTION BOX - BLUE BOX", "address": {"city": "MERRITT ISLAND", "state": "FL", "street": "333 CROCKETT BLVD", "postcode": "32953"}}},
{"geometry": {"type": "Point", "coordinates": [-80.7065315793, 28.3882697788]}, "type": "Feature", "properties": {"collection_times": [{"days": "Mon-Fri", "time": "4:45pm"}, {"days": "Sat", "time": "3:45pm"}, {"days": "Sun", "time": "Closed"}], "id": "3295300011", "name": "USPS COLLECTION BOX - PO LOBBY", "address": {"city": "MERRITT ISLAND", "state": "FL", "street": "333 CROCKETT BLVD", "postcode": "32953"}}},
{"geometry": {"type": "Point", "coordinates": [-80.7065315793, 28.3882697788]}, "type": "Feature", "properties": {"collection_times": [{"days": "Mon-Fri", "time": "4:45pm"}, {"days": "Sat", "time": "3:45pm"}, {"days": "Sun", "time": "Closed"}], "id": "3295300012", "name": "USPS COLLECTION BOX - PO LOBBY", "address": {"city": "MERRITT ISLAND", "state": "FL", "street": "333 CROCKETT BLVD", "postcode": "32953"}}},
{"geometry": {"type": "Point", "coordinates": [-80.7065315793, 28.3882697788]}, "type": "Feature", "properties": {"collection_times": [{"days": "Mon-Fri", "time": "4:45pm"}, {"days": "Sat", "time": "3:45pm"}, {"days": "Sun", "time": "Closed"}], "id": "3295300013", "name": "USPS COLLECTION BOX - APC", "address": {"city": "MERRITT ISLAND", "state": "FL", "street": "333 CROCKETT BLVD", "postcode": "32953"}}},
{"geometry": {"type": "Point", "coordinates": [-80.7425964493, 28.3319798594]}, "type": "Feature", "properties": {"collection_times": [{"days": "Mon-Fri", "time": "2:30pm"}, {"days": "Sat-Sun", "time": "Closed"}], "id": "3295500008", "name": "USPS COLLECTION BOX - BLUE BOX", "address": {"city": "ROCKLEDGE", "state": "FL", "street": "1610 FISKE BLVD", "postcode": "32955"}}},
{"geometry": {"type": "Point", "coordinates": [-80.7221407229, 28.3073885085]}, "type": "Feature", "properties": {"collection_times": [{"days": "Mon-Fri", "time": "5:00pm"}, {"days": "Sat", "time": "3:15pm"}, {"days": "Sun", "time": "Closed"}], "id": "3295500012", "name": "USPS COLLECTION BOX - BLUE BOX", "address": {"city": "ROCKLEDGE", "state": "FL", "street": "3000 MURRELL RD", "postcode": "32955"}}},
{"geometry": {"type": "Point", "coordinates": [-80.7221407229, 28.3073885085]}, "type": "Feature", "properties": {"collection_times": [{"days": "Mon-Fri", "time": "5:00pm"}, {"days": "Sat", "time": "3:15pm"}, {"days": "Sun", "time": "Closed"}], "id": "3295500022", "name": "USPS COLLECTION BOX - PO LOBBY", "address": {"city": "ROCKLEDGE", "state": "FL", "street": "3000 MURRELL RD", "postcode": "32955"}}},
{"geometry": {"type": "Point", "coordinates": [-80.7221407229, 28.3073885085]}, "type": "Feature", "properties": {"collection_times": [{"days": "Mon-Fri", "time": "5:00pm"}, {"days": "Sat", "time": "3:15pm"}, {"days": "Sun", "time": "Closed"}], "id": "3295500023", "name": "USPS COLLECTION BOX - APC", "address": {"city": "ROCKLEDGE", "state": "FL", "street": "3000 MURRELL RD", "postcode": "32955"}}},
{"geometry": {"type": "Point", "coordinates": [-80.491430724, 27.8366455325]}, "type": "Feature", "properties": {"collection_times": [{"days": "Mon-Fri", "time": "4:00pm"}, {"days": "Sat", "time": "10:00am"}, {"days": "Sun", "time": "Closed"}], "id": "3295700001", "name": "USPS COLLECTION BOX - PO LOBBY", "address": {"city": "ROSELAND", "state": "FL", "street": "13305 ROSELAND RD", "postcode": "32957"}}},
{"geometry": {"type": "Point", "coordinates": [-80.4779223934, 27.8163812797]}, "type": "Feature", "properties": {"collection_times": [{"days": "Mon-Fri", "time": "5:00pm"}, {"days": "Sat", "time": "2:45pm"}, {"days": "Sun", "time": "Closed"}], "id": "3295800001", "name": "USPS COLLECTION BOX - BLUE BOX", "address": {"city": "SEBASTIAN", "state": "FL", "street": "1290 MAIN ST", "postcode": "32958"}}},
{"geometry": {"type": "Point", "coordinates": [-80.4779223934, 27.8163812797]}, "type": "Feature", "properties": {"collection_times": [{"days": "Mon-Fri", "time": "5:00pm"}, {"days": "Sat", "time": "2:45pm"}, {"days": "Sun", "time": "Closed"}], "id": "3295800003", "name": "USPS COLLECTION BOX - BLUE BOX", "address": {"city": "SEBASTIAN", "state": "FL", "street": "1290 MAIN ST", "postcode": "32958"}}},
{"geometry": {"type": "Point", "coordinates": [-80.4779223934, 27.8163812797]}, "type": "Feature", "properties": {"collection_times": [{"days": "Mon-Fri", "time": "4:45pm"}, {"days": "Sat", "time": "2:45pm"}, {"days": "Sun", "time": "Closed"}], "id": "3295800018", "name": "USPS COLLECTION BOX - PO LOBBY", "address": {"city": "SEBASTIAN", "state": "FL", "street": "1290 MAIN ST", "postcode": "32958"}}},
{"geometry": {"type": "Point", "coordinates": [-80.7632489748, 28.4435117864]}, "type": "Feature", "properties": {"collection_times": [{"days": "Mon-Fri", "time": "4:45pm"}, {"days": "Sat", "time": "11:45am"}, {"days": "Sun", "time": "Closed"}], "id": "3295900001", "name": "USPS COLLECTION BOX - BLUE BOX", "address": {"city": "SHARPES", "state": "FL", "street": "4425 N COCOA BLVD", "postcode": "32959"}}},
{"geometry": {"type": "Point", "coordinates": [-80.7632489748, 28.4435117864]}, "type": "Feature", "properties": {"collection_times": [{"days": "Mon-Fri", "time": "4:45pm"}, {"days": "Sat", "time": "11:45am"}, {"days": "Sun", "time": "Closed"}], "id": "3295900002", "name": "USPS COLLECTION BOX - PO LOBBY", "address": {"city": "SHARPES", "state": "FL", "street": "4425 N COCOA BLVD", "postcode": "32959"}}},
{"geometry": {"type": "Point", "coordinates": [-80.3983364631, 27.6392887738]}, "type": "Feature", "properties": {"collection_times": [{"days": "Mon-Fri", "time": "5:00pm"}, {"days": "Sat", "time": "2:15pm"}, {"days": "Sun", "time": "Closed"}], "id": "3296000001", "name": "USPS COLLECTION BOX - BLUE BOX", "address": {"city": "VERO BEACH", "state": "FL", "street": "2050 13TH AVE", "postcode": "32960"}}},
{"geometry": {"type": "Point", "coordinates": [-80.3983364631, 27.6392887738]}, "type": "Feature", "properties": {"collection_times": [{"days": "Mon-Fri", "time": "5:00pm"}, {"days": "Sat", "time": "2:15pm"}, {"days": "Sun", "time": "Closed"}], "id": "3296000002", "name": "USPS COLLECTION BOX - BLUE BOX", "address": {"city": "VERO BEACH", "state": "FL", "street": "2050 13TH AVE", "postcode": "32960"}}},
{"geometry": {"type": "Point", "coordinates": [-80.3892832782, 27.6245384585]}, "type": "Feature", "properties": {"collection_times": [{"days": "Mon-Sat", "time": "1:00pm"}, {"days": "Sun", "time": "Closed"}], "id": "3296000009", "name": "USPS COLLECTION BOX - BLUE BOX", "address": {"city": "VERO BEACH", "state": "FL", "street": "1255 US 1", "postcode": "32960"}}},
{"geometry": {"type": "Point", "coordinates": [-80.3820461152, 27.6476695098]}, "type": "Feature", "properties": {"collection_times": [{"days": "Mon-Fri", "time": "1:00pm"}, {"days": "Sat-Sun", "time": "Closed"}], "id": "3296000017", "name": "USPS COLLECTION BOX - BLUE BOX", "address": {"city": "VERO BEACH", "state": "FL", "street": "2770 INDIAN RIVER BLVD", "postcode": "32960"}}},
{"geometry": {"type": "Point", "coordinates": [-80.3999, 27.6597]}, "type": "Feature", "properties": {"collection_times": [{"days": "Mon-Fri", "time": "1:00pm"}, {"days": "Sat-Sun", "time": "Closed"}], "id": "3296000020", "name": "USPS COLLECTION BOX - BLUE BOX", "address": {"city": "VERO BEACH", "state": "FL", "street": "3663 15TH AVE", "postcode": "32960"}}},
{"geometry": {"type": "Point", "coordinates": [-80.4237605042, 27.665318254]}, "type": "Feature", "properties": {"collection_times": [{"days": "Mon-Fri", "time": "1:00pm"}, {"days": "Sat-Sun", "time": "Closed"}], "id": "3296000027", "name": "USPS COLLECTION BOX - BLUE BOX", "address": {"city": "VERO BEACH", "state": "FL", "street": "4055 41ST AVE", "postcode": "32960"}}},
{"geometry": {"type": "Point", "coordinates": [-80.3911760125, 27.6384216649]}, "type": "Feature", "properties": {"collection_times": [{"days": "Mon-Fri", "time": "1:00pm"}, {"days": "Sat-Sun", "time": "Closed"}], "id": "3296000028", "name": "USPS COLLECTION BOX - BLUE BOX", "address": {"city": "VERO BEACH", "state": "FL", "street": "2001 9TH AVE", "postcode": "32960"}}},
{"geometry": {"type": "Point", "coordinates": [-80.400454835, 27.6392920715]}, "type": "Feature", "properties": {"collection_times": [{"days": "Mon-Fri", "time": "1:00pm"}, {"days": "Sat-Sun", "time": "Closed"}], "id": "3296000041", "name": "USPS COLLECTION BOX - BLUE BOX", "address": {"city": "VERO BEACH", "state": "FL", "street": "2059 15TH AVE", "postcode": "32960"}}},
{"geometry": {"type": "Point", "coordinates": [-80.400454835, 27.6392920715]}, "type": "Feature", "properties": {"collection_times": [{"days": "Mon-Fri", "time": "1:00pm"}, {"days": "Sat-Sun", "time": "Closed"}], "id": "3296000042", "name": "USPS COLLECTION BOX - BLUE BOX", "address": {"city": "VERO BEACH", "state": "FL", "street": "2059 15TH AVE", "postcode": "32960"}}},
{"geometry": {"type": "Point", "coordinates": [-80.3790798421, 27.6328060895]}, "type": "Feature", "properties": {"collection_times": [{"days": "Mon-Fri", "time": "1:00pm"}, {"days": "Sat-Sun", "time": "Closed"}], "id": "3296000056", "name": "USPS COLLECTION BOX - BLUE BOX", "address": {"city": "VERO BEACH", "state": "FL", "street": "1717 INDIAN RIVER BLVD", "postcode": "32960"}}},
{"geometry": {"type": "Point", "coordinates": [-80.3762624489, 27.5760702638]}, "type": "Feature", "properties": {"collection_times": [{"days": "Mon-Fri", "time": "1:00pm"}, {"days": "Sat-Sun", "time": "Closed"}], "id": "3296000058", "name": "USPS COLLECTION BOX - BLUE BOX", "address": {"city": "VERO BEACH", "state": "FL", "street": "1436 OLD DIXIE HWY", "postcode": "32960"}}},
{"geometry": {"type": "Point", "coordinates": [-80.400454835, 27.6392920715]}, "type": "Feature", "properties": {"collection_times": [{"days": "Mon-Fri", "time": "1:00pm"}, {"days": "Sat-Sun", "time": "Closed"}], "id": "3296000061", "name": "USPS COLLECTION BOX - BLUE BOX", "address": {"city": "VERO BEACH", "state": "FL", "street": "2059 15TH AVE", "postcode": "32960"}}},
{"geometry": {"type": "Point", "coordinates": [-80.3983364631, 27.6392887738]}, "type": "Feature", "properties": {"collection_times": [{"days": "Mon-Fri", "time": "5:00pm"}, {"days": "Sat", "time": "2:15pm"}, {"days": "Sun", "time": "Closed"}], "id": "3296000070", "name": "USPS COLLECTION BOX - BLUE BOX", "address": {"city": "VERO BEACH", "state": "FL", "street": "2050 13TH AVE", "postcode": "32960"}}},
{"geometry": {"type": "Point", "coordinates": [-80.3983364631, 27.6392887738]}, "type": "Feature", "properties": {"collection_times": [{"days": "Mon-Fri", "time": "5:00pm"}, {"days": "Sat", "time": "2:15pm"}, {"days": "Sun", "time": "Closed"}], "id": "3296000071", "name": "USPS COLLECTION BOX - BLUE BOX", "address": {"city": "VERO BEACH", "state": "FL", "street": "2050 13TH AVE", "postcode": "32960"}}},
{"geometry": {"type": "Point", "coordinates": [-80.3879808404, 27.6602508067]}, "type": "Feature", "properties": {"collection_times": [{"days": "Mon-Fri", "time": "1:00pm"}, {"days": "Sat-Sun", "time": "Closed"}], "id": "3296000073", "name": "USPS COLLECTION BOX - BLUE BOX", "address": {"city": "VERO BEACH", "state": "FL", "street": "777 37TH ST", "postcode": "32960"}}},
{"geometry": {"type": "Point", "coordinates": [-80.3879808404, 27.6602508067]}, "type": "Feature", "properties": {"collection_times": [{"days": "Mon-Fri", "time": "1:00pm"}, {"days": "Sat-Sun", "time": "Closed"}], "id": "3296000074", "name": "USPS COLLECTION BOX - BLUE BOX", "address": {"city": "VERO BEACH", "state": "FL", "street": "777 37TH ST", "postcode": "32960"}}},
{"geometry": {"type": "Point", "coordinates": [-80.389248136, 27.629854189]}, "type": "Feature", "properties": {"collection_times": [{"days": "Mon-Fri", "time": "5:00pm"}, {"days": "Sat", "time": "4:00pm"}, {"days": "Sun", "time": "Closed"}], "id": "3296000076", "name": "USPS COLLECTION BOX - BLUE BOX", "address": {"city": "VERO BEACH", "state": "FL", "street": "1551 US 1", "postcode": "32960"}}},
{"geometry": {"type": "Point", "coordinates": [-80.3983364631, 27.6392887738]}, "type": "Feature", "properties": {"collection_times": [{"days": "Mon-Fri", "time": "5:00pm"}, {"days": "Sat", "time": "2:15pm"}, {"days": "Sun", "time": "Closed"}], "id": "3296000077", "name": "USPS COLLECTION BOX - APC", "address": {"city": "VERO BEACH", "state": "FL", "street": "2050 13TH AVE", "postcode": "32960"}}},
{"geometry": {"type": "Point", "coordinates": [-80.3983364631, 27.6392887738]}, "type": "Feature", "properties": {"collection_times": [{"days": "Mon-Fri", "time": "5:00pm"}, {"days": "Sat", "time": "2:15pm"}, {"days": "Sun", "time": "Closed"}], "id": "3296000078", "name": "USPS COLLECTION BOX - PO LOBBY", "address": {"city": "VERO BEACH", "state": "FL", "street": "2050 13TH AVE", "postcode": "32960"}}},
{"geometry": {"type": "Point", "coordinates": [-80.3983364631, 27.6392887738]}, "type": "Feature", "properties": {"collection_times": [{"days": "Mon-Fri", "time": "5:00pm"}, {"days": "Sat", "time": "2:15pm"}, {"days": "Sun", "time": "Closed"}], "id": "3296000079", "name": "USPS COLLECTION BOX - PO LOBBY", "address": {"city": "VERO BEACH", "state": "FL", "street": "2050 13TH AVE", "postcode": "32960"}}},
{"geometry": {"type": "Point", "coordinates": [-80.3983364631, 27.6392887738]}, "type": "Feature", "properties": {"collection_times": [{"days": "Mon-Fri", "time": "5:00pm"}, {"days": "Sat", "time": "2:15pm"}, {"days": "Sun", "time": "Closed"}], "id": "3296000080", "name": "USPS COLLECTION BOX - PO LOBBY", "address": {"city": "VERO BEACH", "state": "FL", "street": "2050 13TH AVE", "postcode": "32960"}}},
{"geometry": {"type": "Point", "coordinates": [-80.389248136, 27.629854189]}, "type": "Feature", "properties": {"collection_times": [{"days": "Mon-Fri", "time": "5:00pm"}, {"days": "Sat", "time": "4:00pm"}, {"days": "Sun", "time": "Closed"}], "id": "3296000081", "name": "USPS COLLECTION BOX - PO LOBBY", "address": {"city": "VERO BEACH", "state": "FL", "street": "1551 US 1", "postcode": "32960"}}},
{"geometry": {"type": "Point", "coordinates": [-80.389248136, 27.629854189]}, "type": "Feature", "properties": {"collection_times": [{"days": "Mon-Fri", "time": "5:00pm"}, {"days": "Sat", "time": "4:00pm"}, {"days": "Sun", "time": "Closed"}], "id": "3296000082", "name": "USPS COLLECTION BOX - APC", "address": {"city": "VERO BEACH", "state": "FL", "street": "1551 US 1", "postcode": "32960"}}},
{"geometry": {"type": "Point", "coordinates": [-80.3852730473, 27.6119009079]}, "type": "Feature", "properties": {"collection_times": [{"days": "Mon-Sat", "time": "5:00pm"}, {"days": "Sun", "time": "Closed"}], "id": "3296200003", "name": "USPS COLLECTION BOX - BLUE BOX", "address": {"city": "VERO BEACH", "state": "FL", "street": "600 6TH AVE", "postcode": "32962"}}},
{"geometry": {"type": "Point", "coordinates": [-80.3782702936, 27.5890882238]}, "type": "Feature", "properties": {"collection_times": [{"days": "Mon-Sat", "time": "1:00pm"}, {"days": "Sun", "time": "Closed"}], "id": "3296200005", "name": "USPS COLLECTION BOX - BLUE BOX", "address": {"city": "VERO BEACH", "state": "FL", "street": "800 S US 1", "postcode": "32962"}}},
{"geometry": {"type": "Point", "coordinates": [-80.3719127087, 27.5654804151]}, "type": "Feature", "properties": {"collection_times": [{"days": "Mon-Sat", "time": "1:00pm"}, {"days": "Sun", "time": "Closed"}], "id": "3296200008", "name": "USPS COLLECTION BOX - BLUE BOX", "address": {"city": "VERO BEACH", "state": "FL", "street": "210 HIGHLAND DR SE", "postcode": "32962"}}},
{"geometry": {"type": "Point", "coordinates": [-80.3780782909, 27.5992728209]}, "type": "Feature", "properties": {"collection_times": [{"days": "Mon-Sat", "time": "1:00pm"}, {"days": "Sun", "time": "Closed"}], "id": "3296200010", "name": "USPS COLLECTION BOX - BLUE BOX", "address": {"city": "VERO BEACH", "state": "FL", "street": "100 VISTA ROYALE BLVD", "postcode": "32962"}}},
{"geometry": {"type": "Point", "coordinates": [-80.3794987225, 27.6099408933]}, "type": "Feature", "properties": {"collection_times": [{"days": "Mon-Sat", "time": "1:00pm"}, {"days": "Sun", "time": "Closed"}], "id": "3296200011", "name": "USPS COLLECTION BOX - BLUE BOX", "address": {"city": "VERO BEACH", "state": "FL", "street": "20 VISTA GARDENS TRL", "postcode": "32962"}}},
{"geometry": {"type": "Point", "coordinates": [-80.38991021, 27.6158904598]}, "type": "Feature", "properties": {"collection_times": [{"days": "Mon-Sat", "time": "1:00pm"}, {"days": "Sun", "time": "Closed"}], "id": "3296200012", "name": "USPS COLLECTION BOX - BLUE BOX", "address": {"city": "VERO BEACH", "state": "FL", "street": "785 8TH CT UNIT 2", "postcode": "32962"}}},
{"geometry": {"type": "Point", "coordinates": [-80.3573830281, 27.6524329268]}, "type": "Feature", "properties": {"collection_times": [{"days": "Mon-Fri", "time": "5:00pm"}, {"days": "Sat", "time": "3:00pm"}, {"days": "Sun", "time": "Closed"}], "id": "3296300001", "name": "USPS COLLECTION BOX - BLUE BOX", "address": {"city": "VERO BEACH", "state": "FL", "street": "3300 CARDINAL DR", "postcode": "32963"}}},
{"geometry": {"type": "Point", "coordinates": [-80.3573830281, 27.6524329268]}, "type": "Feature", "properties": {"collection_times": [{"days": "Mon-Fri", "time": "5:00pm"}, {"days": "Sat", "time": "3:00pm"}, {"days": "Sun", "time": "Closed"}], "id": "3296300002", "name": "USPS COLLECTION BOX - BLUE BOX", "address": {"city": "VERO BEACH", "state": "FL", "street": "3300 CARDINAL DR", "postcode": "32963"}}},
{"geometry": {"type": "Point", "coordinates": [-80.367617033, 27.6777539342]}, "type": "Feature", "properties": {"collection_times": [{"days": "Mon-Sat", "time": "1:00pm"}, {"days": "Sun", "time": "Closed"}], "id": "3296300006", "name": "USPS COLLECTION BOX - BLUE BOX", "address": {"city": "VERO BEACH", "state": "FL", "street": "6001 A1A", "postcode": "32963"}}},
{"geometry": {"type": "Point", "coordinates": [-80.3570996966, 27.63273873]}, "type": "Feature", "properties": {"collection_times": [{"days": "Mon-Fri", "time": "4:00pm"}, {"days": "Sat", "time": "2:00pm"}, {"days": "Sun", "time": "Closed"}], "id": "3296300013", "name": "USPS COLLECTION BOX - BLUE BOX", "address": {"city": "VERO BEACH", "state": "FL", "street": "1701 HIGHWAY A1A", "postcode": "32963"}}},
{"geometry": {"type": "Point", "coordinates": [-80.5021174531, 27.6393041523]}, "type": "Feature", "properties": {"collection_times": [{"days": "Mon-Sat", "time": "5:00pm"}, {"days": "Sun", "time": "Closed"}], "id": "3296600009", "name": "USPS COLLECTION BOX - BLUE BOX", "address": {"city": "VERO BEACH", "state": "FL", "street": "8500 20TH ST", "postcode": "32966"}}},
{"geometry": {"type": "Point", "coordinates": [-80.5021174531, 27.6393041523]}, "type": "Feature", "properties": {"collection_times": [{"days": "Mon-Sat", "time": "5:00pm"}, {"days": "Sun", "time": "Closed"}], "id": "3296600010", "name": "USPS COLLECTION BOX - BLUE BOX", "address": {"city": "VERO BEACH", "state": "FL", "street": "8500 20TH ST", "postcode": "32966"}}},
{"geometry": {"type": "Point", "coordinates": [-80.446415868, 27.645310975]}, "type": "Feature", "properties": {"collection_times": [{"days": "Mon-Sat", "time": "1:00pm"}, {"days": "Sun", "time": "Closed"}], "id": "3296600012", "name": "USPS COLLECTION BOX - BLUE BOX", "address": {"city": "VERO BEACH", "state": "FL", "street": "2500 58TH AVE", "postcode": "32966"}}},
{"geometry": {"type": "Point", "coordinates": [-80.5021174531, 27.6393041523]}, "type": "Feature", "properties": {"collection_times": [{"days": "Mon-Sat", "time": "5:00pm"}, {"days": "Sun", "time": "Closed"}], "id": "3296600013", "name": "USPS COLLECTION BOX - PO LOBBY", "address": {"city": "VERO BEACH", "state": "FL", "street": "8500 20TH ST", "postcode": "32966"}}},
{"geometry": {"type": "Point", "coordinates": [-80.5021174531, 27.6393041523]}, "type": "Feature", "properties": {"collection_times": [{"days": "Mon-Sat", "time": "5:00pm"}, {"days": "Sun", "time": "Closed"}], "id": "3296600014", "name": "USPS COLLECTION BOX - PO LOBBY", "address": {"city": "VERO BEACH", "state": "FL", "street": "8500 20TH ST", "postcode": "32966"}}},
{"geometry": {"type": "Point", "coordinates": [-80.5021174531, 27.6393041523]}, "type": "Feature", "properties": {"collection_times": [{"days": "Mon-Sat", "time": "5:00pm"}, {"days": "Sun", "time": "Closed"}], "id": "3296600015", "name": "USPS COLLECTION BOX - PO LOBBY", "address": {"city": "VERO BEACH", "state": "FL", "street": "8500 20TH ST", "postcode": "32966"}}},
{"geometry": {"type": "Point", "coordinates": [-80.4127732944, 27.6903050621]}, "type": "Feature", "properties": {"collection_times": [{"days": "Mon-Fri", "time": "12:00pm"}, {"days": "Sat-Sun", "time": "Closed"}], "id": "3296700001", "name": "USPS COLLECTION BOX - BLUE BOX", "address": {"city": "VERO BEACH", "state": "FL", "street": "5325 US HIGHWAY 1", "postcode": "32967"}}},
{"geometry": {"type": "Point", "coordinates": [-80.4306379664, 27.5872462493]}, "type": "Feature", "properties": {"collection_times": [{"days": "Mon-Sat", "time": "1:00pm"}, {"days": "Sun", "time": "Closed"}], "id": "3296800002", "name": "USPS COLLECTION BOX - BLUE BOX", "address": {"city": "VERO BEACH", "state": "FL", "street": "4115 9TH ST SW", "postcode": "32968"}}},
{"geometry": {"type": "Point", "coordinates": [-80.4306506719, 27.7413820314]}, "type": "Feature", "properties": {"collection_times": [{"days": "Mon-Fri", "time": "4:30pm"}, {"days": "Sat", "time": "11:00am"}, {"days": "Sun", "time": "Closed"}], "id": "3297000002", "name": "USPS COLLECTION BOX - BLUE BOX", "address": {"city": "WABASSO", "state": "FL", "street": "8114 US HIGHWAY 1", "postcode": "32970"}}},
{"geometry": {"type": "Point", "coordinates": [-80.4306506719, 27.7413820314]}, "type": "Feature", "properties": {"collection_times": [{"days": "Mon-Fri", "time": "4:30pm"}, {"days": "Sat", "time": "11:00am"}, {"days": "Sun", "time": "Closed"}], "id": "3297000003", "name": "USPS COLLECTION BOX - PO LOBBY", "address": {"city": "WABASSO", "state": "FL", "street": "8114 US HIGHWAY 1", "postcode": "32970"}}}
]}
