{"type": "FeatureCollection", "features": [
{"geometry": {"type": "Point", "coordinates": [-80.8145917572, 24.825269212]}, "type": "Feature", "properties": {"collection_times": [{"days": "Mon-Fri", "time": "3:30pm"}, {"days": "Sat", "time": "9:30am"}, {"days": "Sun", "time": "Closed"}], "id": "3300100000", "name": "USPS COLLECTION BOX - BLUE BOX", "address": {"city": "LONG KEY", "state": "FL", "street": "68340 OVERSEAS HWY", "postcode": "33001"}}},
{"geometry": {"type": "Point", "coordinates": [-80.8145917572, 24.825269212]}, "type": "Feature", "properties": {"collection_times": [{"days": "Mon-Fri", "time": "3:30pm"}, {"days": "Sat", "time": "9:30am"}, {"days": "Sun", "time": "Closed"}], "id": "3300100002", "name": "USPS COLLECTION BOX - PO LOBBY", "address": {"city": "LONG KEY", "state": "FL", "street": "68340 OVERSEAS HWY", "postcode": "33001"}}},
{"geometry": {"type": "Point", "coordinates": [-80.132616691, 26.0367914442]}, "type": "Feature", "properties": {"collection_times": [{"days": "Mon-Fri", "time": "2:00pm"}, {"days": "Sat", "time": "3:00pm"}, {"days": "Sun", "time": "Closed"}], "id": "3300400004", "name": "USPS COLLECTION BOX - BLUE BOX", "address": {"city": "DANIA", "state": "FL", "street": "520 SE 12TH ST", "postcode": "33004"}}},
{"geometry": {"type": "Point", "coordinates": [-80.1349872032, 26.0338079163]}, "type": "Feature", "properties": {"collection_times": [{"days": "Mon-Fri", "time": "2:00pm"}, {"days": "Sat", "time": "3:00pm"}, {"days": "Sun", "time": "Closed"}], "id": "3300400007", "name": "USPS COLLECTION BOX - BLUE BOX", "address": {"city": "DANIA", "state": "FL", "street": "499 E SHERIDAN ST", "postcode": "33004"}}},
{"geometry": {"type": "Point", "coordinates": [-80.1383033138, 26.0524710962]}, "type": "Feature", "properties": {"collection_times": [{"days": "Mon-Fri", "time": "2:00pm"}, {"days": "Sat", "time": "3:00pm"}, {"days": "Sun", "time": "Closed"}], "id": "3300400009", "name": "USPS COLLECTION BOX - BLUE BOX", "address": {"city": "DANIA", "state": "FL", "street": "310 E DANIA BEACH BLVD", "postcode": "33004"}}},
{"geometry": {"type": "Point", "coordinates": [-80.1445316793, 26.053379388]}, "type": "Feature", "properties": {"collection_times": [{"days": "Mon-Fri", "time": "5:00pm"}, {"days": "Sat", "time": "4:00pm"}, {"days": "Sun", "time": "Closed"}], "id": "3300400013", "name": "USPS COLLECTION BOX - BLUE BOX", "address": {"city": "DANIA", "state": "FL", "street": "21 NW 1ST AVE", "postcode": "33004"}}},
{"geometry": {"type": "Point", "coordinates": [-80.1627836729, 26.0626609069]}, "type": "Feature", "properties": {"collection_times": [{"days": "Mon-Fri", "time": "5:00pm"}, {"days": "Sat-Sun", "time": "Closed"}], "id": "3300400019", "name": "USPS COLLECTION BOX - BLUE BOX", "address": {"city": "DANIA", "state": "FL", "street": "1855 GRIFFIN RD", "postcode": "33004"}}},
{"geometry": {"type": "Point", "coordinates": [-80.1445316793, 26.053379388]}, "type": "Feature", "properties": {"collection_times": [{"days": "Mon-Fri", "time": "5:00pm"}, {"days": "Sat", "time": "4:00pm"}, {"days": "Sun", "time": "Closed"}], "id": "3300400026", "name": "USPS COLLECTION BOX - BLUE BOX", "address": {"city": "DANIA", "state": "FL", "street": "21 NW 1ST AVE", "postcode": "33004"}}},
{"geometry": {"type": "Point", "coordinates": [-80.1445316793, 26.053379388]}, "type": "Feature", "properties": {"collection_times": [{"days": "Mon-Fri", "time": "5:00pm"}, {"days": "Sat", "time": "4:00pm"}, {"days": "Sun", "time": "Closed"}], "id": "3300400027", "name": "USPS COLLECTION BOX - PO LOBBY", "address": {"city": "DANIA", "state": "FL", "street": "21 NW 1ST AVE", "postcode": "33004"}}},
{"geometry": {"type": "Point", "coordinates": [-80.1357430971, 25.9856064083]}, "type": "Feature", "properties": {"collection_times": [{"days": "Mon-Fri", "time": "2:00pm"}, {"days": "Sat-Sun", "time": "Closed"}], "id": "3300900003", "name": "USPS COLLECTION BOX - BLUE BOX", "address": {"city": "HALNDLE BCH", "state": "FL", "street": "1250 E HALLANDALE BEACH BLVD", "postcode": "33009"}}},
{"geometry": {"type": "Point", "coordinates": [-80.147714811, 25.9846755411]}, "type": "Feature", "properties": {"collection_times": [{"days": "Mon-Fri", "time": "5:00pm"}, {"days": "Sat", "time": "2:00pm"}, {"days": "Sun", "time": "Closed"}], "id": "3300900004", "name": "USPS COLLECTION BOX - BLUE BOX", "address": {"city": "HALNDLE BCH", "state": "FL", "street": "101 SE 1ST AVE", "postcode": "33009"}}},
{"geometry": {"type": "Point", "coordinates": [-80.1264066652, 25.9859647582]}, "type": "Feature", "properties": {"collection_times": [{"days": "Mon-Sat", "time": "2:00pm"}, {"days": "Sun", "time": "Closed"}], "id": "3300900009", "name": "USPS COLLECTION BOX - BLUE BOX", "address": {"city": "HALNDLE BCH", "state": "FL", "street": "2100 E HALLANDALE BEACH BLVD", "postcode": "33009"}}},
{"geometry": {"type": "Point", "coordinates": [-80.158778525, 25.9932574283]}, "type": "Feature", "properties": {"collection_times": [{"days": "Mon-Fri", "time": "2:00pm"}, {"days": "Sat-Sun", "time": "Closed"}], "id": "3300900019", "name": "USPS COLLECTION BOX - BLUE BOX", "address": {"city": "HALNDLE BCH", "state": "FL", "street": "750 NW 8TH AVE", "postcode": "33009"}}},
{"geometry": {"type": "Point", "coordinates": [-80.1362707225, 25.9859028171]}, "type": "Feature", "properties": {"collection_times": [{"days": "Mon-Sat", "time": "2:00pm"}, {"days": "Sun", "time": "Closed"}], "id": "3300900022", "name": "USPS COLLECTION BOX - BLUE BOX", "address": {"city": "HALNDLE BCH", "state": "FL", "street": "1201 E HALLANDALE BEACH BLVD", "postcode": "33009"}}},
{"geometry": {"type": "Point", "coordinates": [-80.1586204468, 25.9842345391]}, "type": "Feature", "properties": {"collection_times": [{"days": "Mon-Sat", "time": "2:00pm"}, {"days": "Sun", "time": "Closed"}], "id": "3300900024", "name": "USPS COLLECTION BOX - BLUE BOX", "address": {"city": "HALNDLE BCH", "state": "FL", "street": "100 NE 8 AVE", "postcode": "33009"}}},
{"geometry": {"type": "Point", "coordinates": [-80.1406362053, 25.9948916816]}, "type": "Feature", "properties": {"collection_times": [{"days": "Mon-Sat", "time": "2:00pm"}, {"days": "Sun", "time": "Closed"}], "id": "3300900027", "name": "USPS COLLECTION BOX - BLUE BOX", "address": {"city": "HALNDLE BCH", "state": "FL", "street": "790 ATLANTIC SHORES BLVD", "postcode": "33009"}}},
{"geometry": {"type": "Point", "coordinates": [-80.1708107789, 25.9866094643]}, "type": "Feature", "properties": {"collection_times": [{"days": "Mon-Sat", "time": "2:00pm"}, {"days": "Sun", "time": "Closed"}], "id": "3300900034", "name": "USPS COLLECTION BOX - BLUE BOX", "address": {"city": "HALNDLE BCH", "state": "FL", "street": "2700 S PARK RD", "postcode": "33009"}}},
{"geometry": {"type": "Point", "coordinates": [-80.1618765272, 25.9852029402]}, "type": "Feature", "properties": {"collection_times": [{"days": "Mon-Sat", "time": "2:00pm"}, {"days": "Sun", "time": "Closed"}], "id": "3300900039", "name": "USPS COLLECTION BOX - BLUE BOX", "address": {"city": "HALNDLE BCH", "state": "FL", "street": "990 W HALLANDALE BEACH BLVD", "postcode": "33009"}}},
{"geometry": {"type": "Point", "coordinates": [-80.1422662194, 25.9792778499]}, "type": "Feature", "properties": {"collection_times": [{"days": "Mon-Fri", "time": "5:00pm"}, {"days": "Sat", "time": "2:00pm"}, {"days": "Sun", "time": "Closed"}], "id": "3300900040", "name": "USPS COLLECTION BOX - BLUE BOX", "address": {"city": "HALNDLE BCH", "state": "FL", "street": "500 S FEDERAL HWY", "postcode": "33009"}}},
{"geometry": {"type": "Point", "coordinates": [-80.1422662194, 25.9792778499]}, "type": "Feature", "properties": {"collection_times": [{"days": "Mon-Fri", "time": "5:00pm"}, {"days": "Sat", "time": "2:00pm"}, {"days": "Sun", "time": "Closed"}], "id": "3300900041", "name": "USPS COLLECTION BOX - BLUE BOX", "address": {"city": "HALNDLE BCH", "state": "FL", "street": "500 S FEDERAL HWY", "postcode": "33009"}}},
{"geometry": {"type": "Point", "coordinates": [-80.1422662194, 25.9792778499]}, "type": "Feature", "properties": {"collection_times": [{"days": "Mon-Fri", "time": "5:00pm"}, {"days": "Sat", "time": "2:00pm"}, {"days": "Sun", "time": "Closed"}], "id": "3300900042", "name": "USPS COLLECTION BOX - BLUE BOX", "address": {"city": "HALNDLE BCH", "state": "FL", "street": "500 S FEDERAL HWY", "postcode": "33009"}}},
{"geometry": {"type": "Point", "coordinates": [-80.1586204468, 25.9842345391]}, "type": "Feature", "properties": {"collection_times": [{"days": "Mon-Sat", "time": "2:00pm"}, {"days": "Sun", "time": "Closed"}], "id": "3300900046", "name": "USPS COLLECTION BOX - BLUE BOX", "address": {"city": "HALNDLE BCH", "state": "FL", "street": "100 NE 8 AVE", "postcode": "33009"}}},
{"geometry": {"type": "Point", "coordinates": [-80.1422810386, 25.9799362443]}, "type": "Feature", "properties": {"collection_times": [{"days": "Mon-Fri", "time": "2:00pm"}, {"days": "Sat-Sun", "time": "Closed"}], "id": "3300900051", "name": "USPS COLLECTION BOX - BLUE BOX", "address": {"city": "HALNDLE BCH", "state": "FL", "street": "400 S FEDERAL HWY", "postcode": "33009"}}},
{"geometry": {"type": "Point", "coordinates": [-80.1300314942, 25.9858162525]}, "type": "Feature", "properties": {"collection_times": [{"days": "Mon-Fri", "time": "5:00pm"}, {"days": "Sat", "time": "2:00pm"}, {"days": "Sun", "time": "Closed"}], "id": "3300900052", "name": "USPS COLLECTION BOX - BLUE BOX", "address": {"city": "HALNDLE BCH", "state": "FL", "street": "1800 E HALLANDALE BEACH BLVD", "postcode": "33009"}}},
{"geometry": {"type": "Point", "coordinates": [-80.1422662194, 25.9792778499]}, "type": "Feature", "properties": {"collection_times": [{"days": "Mon-Sat", "time": "5:00pm"}, {"days": "Sun", "time": "Closed"}], "id": "3300900053", "name": "USPS COLLECTION BOX - PO LOBBY", "address": {"city": "HALNDLE BCH", "state": "FL", "street": "500 S FEDERAL HWY", "postcode": "33009"}}},
{"geometry": {"type": "Point", "coordinates": [-80.1300314942, 25.9858162525]}, "type": "Feature", "properties": {"collection_times": [{"days": "Mon-Fri", "time": "5:00pm"}, {"days": "Sat", "time": "2:00pm"}, {"days": "Sun", "time": "Closed"}], "id": "3300900054", "name": "USPS COLLECTION BOX - PO LOBBY", "address": {"city": "HALNDLE BCH", "state": "FL", "street": "1800 E HALLANDALE BEACH BLVD", "postcode": "33009"}}},
{"geometry": {"type": "Point", "coordinates": [-80.1422662194, 25.9792778499]}, "type": "Feature", "properties": {"collection_times": [{"days": "Mon-Fri", "time": "5:00pm"}, {"days": "Sat", "time": "3:00pm"}, {"days": "Sun", "time": "Closed"}], "id": "3300900055", "name": "USPS COLLECTION BOX - APC", "address": {"city": "HALNDLE BCH", "state": "FL", "street": "500 S FEDERAL HWY", "postcode": "33009"}}},
{"geometry": {"type": "Point", "coordinates": [-80.1300314942, 25.9858162525]}, "type": "Feature", "properties": {"collection_times": [{"days": "Mon-Fri", "time": "5:00pm"}, {"days": "Sat", "time": "2:00pm"}, {"days": "Sun", "time": "Closed"}], "id": "3300900056", "name": "USPS COLLECTION BOX - APC", "address": {"city": "HALNDLE BCH", "state": "FL", "street": "1800 E HALLANDALE BEACH BLVD", "postcode": "33009"}}},
{"geometry": {"type": "Point", "coordinates": [-80.1300314942, 25.9858162525]}, "type": "Feature", "properties": {"collection_times": [{"days": "Mon-Fri", "time": "5:00pm"}, {"days": "Sat", "time": "2:00pm"}, {"days": "Sun", "time": "Closed"}], "id": "3300900058", "name": "USPS COLLECTION BOX - BLUE BOX", "address": {"city": "HALNDLE BCH", "state": "FL", "street": "1800 E HALLANDALE BEACH BLVD", "postcode": "33009"}}},
{"geometry": {"type": "Point", "coordinates": [-80.2736840481, 25.8311096651]}, "type": "Feature", "properties": {"collection_times": [{"days": "Mon-Sat", "time": "1:00pm"}, {"days": "Sun", "time": "Closed"}], "id": "3301000002", "name": "USPS COLLECTION BOX - BLUE BOX", "address": {"city": "HIALEAH", "state": "FL", "street": "1000 E 4TH AVE", "postcode": "33010"}}},
{"geometry": {"type": "Point", "coordinates": [-80.2718206016, 25.8230325432]}, "type": "Feature", "properties": {"collection_times": [{"days": "Mon-Fri", "time": "1:00pm"}, {"days": "Sat-Sun", "time": "Closed"}], "id": "3301000004", "name": "USPS COLLECTION BOX - BLUE BOX", "address": {"city": "HIALEAH", "state": "FL", "street": "475 HIALEAH DR", "postcode": "33010"}}},
{"geometry": {"type": "Point", "coordinates": [-80.2739933744, 25.8392072788]}, "type": "Feature", "properties": {"collection_times": [{"days": "Mon-Sat", "time": "1:00pm"}, {"days": "Sun", "time": "Closed"}], "id": "3301000006", "name": "USPS COLLECTION BOX - BLUE BOX", "address": {"city": "HIALEAH", "state": "FL", "street": "1896 E 4TH AVE", "postcode": "33010"}}},
{"geometry": {"type": "Point", "coordinates": [-80.2617424302, 25.8153011883]}, "type": "Feature", "properties": {"collection_times": [{"days": "Mon-Sat", "time": "10:30am"}, {"days": "Sun", "time": "Closed"}], "id": "3301000010", "name": "USPS COLLECTION BOX - BLUE BOX", "address": {"city": "HIALEAH", "state": "FL", "street": "791 SE 9TH CT", "postcode": "33010"}}},
{"geometry": {"type": "Point", "coordinates": [-80.2655410386, 25.831186863]}, "type": "Feature", "properties": {"collection_times": [{"days": "Mon-Sat", "time": "1:00pm"}, {"days": "Sun", "time": "Closed"}], "id": "3301000014", "name": "USPS COLLECTION BOX - BLUE BOX", "address": {"city": "HIALEAH", "state": "FL", "street": "925 E 8TH AVE", "postcode": "33010"}}},
{"geometry": {"type": "Point", "coordinates": [-80.2686335153, 25.8303783467]}, "type": "Feature", "properties": {"collection_times": [{"days": "Mon-Sat", "time": "1:00pm"}, {"days": "Sun", "time": "Closed"}], "id": "3301000015", "name": "USPS COLLECTION BOX - BLUE BOX", "address": {"city": "HIALEAH", "state": "FL", "street": "634 E 9TH ST", "postcode": "33010"}}},
{"geometry": {"type": "Point", "coordinates": [-80.2817996266, 25.8340886614]}, "type": "Feature", "properties": {"collection_times": [{"days": "Mon-Sat", "time": "12:00pm"}, {"days": "Sun", "time": "Closed"}], "id": "3301000017", "name": "USPS COLLECTION BOX - BLUE BOX", "address": {"city": "HIALEAH", "state": "FL", "street": "1350 PALM AVE", "postcode": "33010"}}},
{"geometry": {"type": "Point", "coordinates": [-80.2820646094, 25.8401998274]}, "type": "Feature", "properties": {"collection_times": [{"days": "Mon-Sat", "time": "11:45am"}, {"days": "Sun", "time": "Closed"}], "id": "3301000018", "name": "USPS COLLECTION BOX - BLUE BOX", "address": {"city": "HIALEAH", "state": "FL", "street": "2000 PALM AVE", "postcode": "33010"}}},
{"geometry": {"type": "Point", "coordinates": [-80.289762495, 25.8396697782]}, "type": "Feature", "properties": {"collection_times": [{"days": "Mon-Sat", "time": "10:00am"}, {"days": "Sun", "time": "Closed"}], "id": "3301000019", "name": "USPS COLLECTION BOX - BLUE BOX", "address": {"city": "HIALEAH", "state": "FL", "street": "2001 W 4TH AVE", "postcode": "33010"}}},
{"geometry": {"type": "Point", "coordinates": [-80.2794076836, 25.8248568496]}, "type": "Feature", "properties": {"collection_times": [{"days": "Mon-Fri", "time": "5:30pm"}, {"days": "Sat", "time": "4:00pm"}, {"days": "Sun", "time": "Closed"}], "id": "3301000031", "name": "USPS COLLECTION BOX - PO LOBBY", "address": {"city": "HIALEAH", "state": "FL", "street": "325 E 1ST AVE", "postcode": "33010"}}},
{"geometry": {"type": "Point", "coordinates": [-80.2779904988, 25.8245812202]}, "type": "Feature", "properties": {"collection_times": [{"days": "Mon-Fri", "time": "5:00pm"}, {"days": "Sat", "time": "1:00pm"}, {"days": "Sun", "time": "Closed"}], "id": "3301000032", "name": "USPS COLLECTION BOX - BLUE BOX", "address": {"city": "HIALEAH", "state": "FL", "street": "149 E 3RD ST", "postcode": "33010"}}},
{"geometry": {"type": "Point", "coordinates": [-80.2779904988, 25.8245812202]}, "type": "Feature", "properties": {"collection_times": [{"days": "Mon-Fri", "time": "5:00pm"}, {"days": "Sat", "time": "1:00pm"}, {"days": "Sun", "time": "Closed"}], "id": "3301000033", "name": "USPS COLLECTION BOX - BLUE BOX", "address": {"city": "HIALEAH", "state": "FL", "street": "149 E 3RD ST", "postcode": "33010"}}},
{"geometry": {"type": "Point", "coordinates": [-80.2826480966, 25.8579715534]}, "type": "Feature", "properties": {"collection_times": [{"days": "Mon-Sat", "time": "1:00pm"}, {"days": "Sun", "time": "Closed"}], "id": "3301200000", "name": "USPS COLLECTION BOX - BLUE BOX", "address": {"city": "HIALEAH", "state": "FL", "street": "3915 PALM AVE", "postcode": "33012"}}},
{"geometry": {"type": "Point", "coordinates": [-80.2838655475, 25.8711356548]}, "type": "Feature", "properties": {"collection_times": [{"days": "Mon-Sat", "time": "1:00pm"}, {"days": "Sun", "time": "Closed"}], "id": "3301200002", "name": "USPS COLLECTION BOX - BLUE BOX", "address": {"city": "HIALEAH", "state": "FL", "street": "35 W 53RD TER", "postcode": "33012"}}},
{"geometry": {"type": "Point", "coordinates": [-80.2915933439, 25.8814708998]}, "type": "Feature", "properties": {"collection_times": [{"days": "Mon-Sat", "time": "1:00pm"}, {"days": "Sun", "time": "Closed"}], "id": "3301200006", "name": "USPS COLLECTION BOX - BLUE BOX", "address": {"city": "HIALEAH", "state": "FL", "street": "6500 W 4TH AVE", "postcode": "33012"}}},
{"geometry": {"type": "Point", "coordinates": [-80.3042962206, 25.8665138854]}, "type": "Feature", "properties": {"collection_times": [{"days": "Mon-Fri", "time": "5:00pm"}, {"days": "Sat", "time": "1:00pm"}, {"days": "Sun", "time": "Closed"}], "id": "3301200009", "name": "USPS COLLECTION BOX - BLUE BOX", "address": {"city": "HIALEAH", "state": "FL", "street": "1050 W 49 ST", "postcode": "33012"}}},
{"geometry": {"type": "Point", "coordinates": [-80.3042962206, 25.8665138854]}, "type": "Feature", "properties": {"collection_times": [{"days": "Mon-Fri", "time": "5:00pm"}, {"days": "Sat", "time": "1:00pm"}, {"days": "Sun", "time": "Closed"}], "id": "3301200010", "name": "USPS COLLECTION BOX - BLUE BOX", "address": {"city": "HIALEAH", "state": "FL", "street": "1050 W 49 ST", "postcode": "33012"}}},
{"geometry": {"type": "Point", "coordinates": [-80.2946480143, 25.8667736392]}, "type": "Feature", "properties": {"collection_times": [{"days": "Mon-Sat", "time": "1:00pm"}, {"days": "Sun", "time": "Closed"}], "id": "3301200012", "name": "USPS COLLECTION BOX - BLUE BOX", "address": {"city": "HIALEAH", "state": "FL", "street": "575 W 49TH ST", "postcode": "33012"}}},
{"geometry": {"type": "Point", "coordinates": [-80.3147817055, 25.8617190339]}, "type": "Feature", "properties": {"collection_times": [{"days": "Mon-Sat", "time": "1:00pm"}, {"days": "Sun", "time": "Closed"}], "id": "3301200017", "name": "USPS COLLECTION BOX - BLUE BOX", "address": {"city": "HIALEAH", "state": "FL", "street": "4410 W 16TH AVE", "postcode": "33012"}}},
{"geometry": {"type": "Point", "coordinates": [-80.293112756, 25.866777193]}, "type": "Feature", "properties": {"collection_times": [{"days": "Mon-Sat", "time": "1:00pm"}, {"days": "Sun", "time": "Closed"}], "id": "3301200018", "name": "USPS COLLECTION BOX - BLUE BOX", "address": {"city": "HIALEAH", "state": "FL", "street": "419 W 49TH ST", "postcode": "33012"}}},
{"geometry": {"type": "Point", "coordinates": [-80.3146209479, 25.8556899061]}, "type": "Feature", "properties": {"collection_times": [{"days": "Mon-Sat", "time": "12:45pm"}, {"days": "Sun", "time": "Closed"}], "id": "3301200020", "name": "USPS COLLECTION BOX - BLUE BOX", "address": {"city": "HIALEAH", "state": "FL", "street": "3750 W 16TH AVE", "postcode": "33012"}}},
{"geometry": {"type": "Point", "coordinates": [-80.2907230532, 25.8552913307]}, "type": "Feature", "properties": {"collection_times": [{"days": "Mon-Sat", "time": "1:00pm"}, {"days": "Sun", "time": "Closed"}], "id": "3301200021", "name": "USPS COLLECTION BOX - BLUE BOX", "address": {"city": "HIALEAH", "state": "FL", "street": "3700 W 4TH AVE", "postcode": "33012"}}},
{"geometry": {"type": "Point", "coordinates": [-80.3063365615, 25.8485053823]}, "type": "Feature", "properties": {"collection_times": [{"days": "Mon-Sat", "time": "1:00pm"}, {"days": "Sun", "time": "Closed"}], "id": "3301200022", "name": "USPS COLLECTION BOX - BLUE BOX", "address": {"city": "HIALEAH", "state": "FL", "street": "2900 W 12TH AVE", "postcode": "33012"}}},
{"geometry": {"type": "Point", "coordinates": [-80.3176816107, 25.86499053]}, "type": "Feature", "properties": {"collection_times": [{"days": "Mon-Sat", "time": "1:00pm"}, {"days": "Sun", "time": "Closed"}], "id": "3301200025", "name": "USPS COLLECTION BOX - BLUE BOX", "address": {"city": "HIALEAH", "state": "FL", "street": "4680 W 17TH CT", "postcode": "33012"}}},
{"geometry": {"type": "Point", "coordinates": [-80.3158724299, 25.8667105292]}, "type": "Feature", "properties": {"collection_times": [{"days": "Mon-Sat", "time": "1:00pm"}, {"days": "Sun", "time": "Closed"}], "id": "3301200027", "name": "USPS COLLECTION BOX - BLUE BOX", "address": {"city": "HIALEAH", "state": "FL", "street": "1635 W 49TH ST", "postcode": "33012"}}},
{"geometry": {"type": "Point", "coordinates": [-80.3127257229, 25.8675557535]}, "type": "Feature", "properties": {"collection_times": [{"days": "Mon-Sat", "time": "1:00pm"}, {"days": "Sun", "time": "Closed"}], "id": "3301200029", "name": "USPS COLLECTION BOX - BLUE BOX", "address": {"city": "HIALEAH", "state": "FL", "street": "1490 W 49TH PL", "postcode": "33012"}}},
{"geometry": {"type": "Point", "coordinates": [-80.3110045176, 25.8665194814]}, "type": "Feature", "properties": {"collection_times": [{"days": "Mon-Sat", "time": "1:00pm"}, {"days": "Sun", "time": "Closed"}], "id": "3301200031", "name": "USPS COLLECTION BOX - BLUE BOX", "address": {"city": "HIALEAH", "state": "FL", "street": "1400 W 49TH ST", "postcode": "33012"}}},
{"geometry": {"type": "Point", "coordinates": [-80.3063839244, 25.8535687133]}, "type": "Feature", "properties": {"collection_times": [{"days": "Mon-Sat", "time": "1:00pm"}, {"days": "Sun", "time": "Closed"}], "id": "3301200032", "name": "USPS COLLECTION BOX - BLUE BOX", "address": {"city": "HIALEAH", "state": "FL", "street": "1197 W 35TH ST", "postcode": "33012"}}},
{"geometry": {"type": "Point", "coordinates": [-80.3038038463, 25.8479872463]}, "type": "Feature", "properties": {"collection_times": [{"days": "Mon-Sat", "time": "12:30pm"}, {"days": "Sun", "time": "Closed"}], "id": "3301200033", "name": "USPS COLLECTION BOX - BLUE BOX", "address": {"city": "HIALEAH", "state": "FL", "street": "1050 W 29TH ST", "postcode": "33012"}}},
{"geometry": {"type": "Point", "coordinates": [-80.3066553344, 25.8575669231]}, "type": "Feature", "properties": {"collection_times": [{"days": "Mon-Sat", "time": "1:00pm"}, {"days": "Sun", "time": "Closed"}], "id": "3301200039", "name": "USPS COLLECTION BOX - BLUE BOX", "address": {"city": "HIALEAH", "state": "FL", "street": "3960 W 12TH AVE", "postcode": "33012"}}},
{"geometry": {"type": "Point", "coordinates": [-80.3153215468, 25.8767068179]}, "type": "Feature", "properties": {"collection_times": [{"days": "Mon-Sat", "time": "1:00pm"}, {"days": "Sun", "time": "Closed"}], "id": "3301200040", "name": "USPS COLLECTION BOX - BLUE BOX", "address": {"city": "HIALEAH", "state": "FL", "street": "5966 W 16TH AVE", "postcode": "33012"}}},
{"geometry": {"type": "Point", "coordinates": [-80.3150727136, 25.8711504278]}, "type": "Feature", "properties": {"collection_times": [{"days": "Mon-Sat", "time": "10:30am"}, {"days": "Sun", "time": "Closed"}], "id": "3301200041", "name": "USPS COLLECTION BOX - BLUE BOX", "address": {"city": "HIALEAH", "state": "FL", "street": "5360 W 16TH AVE", "postcode": "33012"}}},
{"geometry": {"type": "Point", "coordinates": [-80.3221230582, 25.8769775887]}, "type": "Feature", "properties": {"collection_times": [{"days": "Mon-Sat", "time": "12:30pm"}, {"days": "Sun", "time": "Closed"}], "id": "3301200043", "name": "USPS COLLECTION BOX - BLUE BOX", "address": {"city": "HIALEAH", "state": "FL", "street": "1950 W 60TH ST", "postcode": "33012"}}},
{"geometry": {"type": "Point", "coordinates": [-80.3194179327, 25.8792120999]}, "type": "Feature", "properties": {"collection_times": [{"days": "Mon-Sat", "time": "12:45pm"}, {"days": "Sun", "time": "Closed"}], "id": "3301200044", "name": "USPS COLLECTION BOX - BLUE BOX", "address": {"city": "HIALEAH", "state": "FL", "street": "1800 W 62ND ST", "postcode": "33012"}}},
{"geometry": {"type": "Point", "coordinates": [-80.3186302658, 25.8551273401]}, "type": "Feature", "properties": {"collection_times": [{"days": "Mon-Sat", "time": "5:00pm"}, {"days": "Sun", "time": "Closed"}], "id": "3301200045", "name": "USPS COLLECTION BOX - PO LOBBY", "address": {"city": "HIALEAH", "state": "FL", "street": "3690 W 18TH AVE", "postcode": "33012"}}},
{"geometry": {"type": "Point", "coordinates": [-80.3186302658, 25.8551273401]}, "type": "Feature", "properties": {"collection_times": [{"days": "Mon-Sat", "time": "5:00pm"}, {"days": "Sun", "time": "Closed"}], "id": "3301200048", "name": "USPS COLLECTION BOX - BLUE BOX", "address": {"city": "HIALEAH", "state": "FL", "street": "3690 W 18TH AVE", "postcode": "33012"}}},
{"geometry": {"type": "Point", "coordinates": [-80.3042962206, 25.8665138854]}, "type": "Feature", "properties": {"collection_times": [{"days": "Mon-Fri", "time": "5:00pm"}, {"days": "Sat", "time": "4:00pm"}, {"days": "Sun", "time": "Closed"}], "id": "3301200049", "name": "USPS COLLECTION BOX - PO LOBBY", "address": {"city": "HIALEAH", "state": "FL", "street": "1050 W 49 ST", "postcode": "33012"}}},
{"geometry": {"type": "Point", "coordinates": [-80.3043570054, 25.8523750207]}, "type": "Feature", "properties": {"collection_times": [{"days": "Mon-Sat", "time": "1:00pm"}, {"days": "Sun", "time": "Closed"}], "id": "3301300000", "name": "USPS COLLECTION BOX - BLUE BOX", "address": {"city": "HIALEAH", "state": "FL", "street": "1101 E 33RD ST", "postcode": "33013"}}},
{"geometry": {"type": "Point", "coordinates": [-80.2667926449, 25.8599467357]}, "type": "Feature", "properties": {"collection_times": [{"days": "Mon-Sat", "time": "1:00pm"}, {"days": "Sun", "time": "Closed"}], "id": "3301300003", "name": "USPS COLLECTION BOX - BLUE BOX", "address": {"city": "HIALEAH", "state": "FL", "street": "4098 E 8TH AVE", "postcode": "33013"}}},
{"geometry": {"type": "Point", "coordinates": [-80.274640428, 25.868200787]}, "type": "Feature", "properties": {"collection_times": [{"days": "Mon-Sat", "time": "12:45pm"}, {"days": "Sun", "time": "Closed"}], "id": "3301300005", "name": "USPS COLLECTION BOX - BLUE BOX", "address": {"city": "HIALEAH", "state": "FL", "street": "5001 E 4TH AVE", "postcode": "33013"}}},
{"geometry": {"type": "Point", "coordinates": [-80.2699286334, 25.8447565853]}, "type": "Feature", "properties": {"collection_times": [{"days": "Mon-Sat", "time": "12:30pm"}, {"days": "Sun", "time": "Closed"}], "id": "3301300014", "name": "USPS COLLECTION BOX - BLUE BOX", "address": {"city": "HIALEAH", "state": "FL", "street": "600 E 25TH ST", "postcode": "33013"}}},
{"geometry": {"type": "Point", "coordinates": [-80.2750037626, 25.8780436082]}, "type": "Feature", "properties": {"collection_times": [{"days": "Mon-Sat", "time": "1:00pm"}, {"days": "Sun", "time": "Closed"}], "id": "3301300020", "name": "USPS COLLECTION BOX - BLUE BOX", "address": {"city": "HIALEAH", "state": "FL", "street": "6100 E 4TH AVE", "postcode": "33013"}}},
{"geometry": {"type": "Point", "coordinates": [-80.2823272263, 25.8669784695]}, "type": "Feature", "properties": {"collection_times": [{"days": "Mon-Sat", "time": "1:00pm"}, {"days": "Sun", "time": "Closed"}], "id": "3301300021", "name": "USPS COLLECTION BOX - BLUE BOX", "address": {"city": "HIALEAH", "state": "FL", "street": "1 E 49TH ST", "postcode": "33013"}}},
{"geometry": {"type": "Point", "coordinates": [-80.2863977881, 25.85116704]}, "type": "Feature", "properties": {"collection_times": [{"days": "Mon-Fri", "time": "5:00pm"}, {"days": "Sat", "time": "1:00pm"}, {"days": "Sun", "time": "Closed"}], "id": "3301300023", "name": "USPS COLLECTION BOX - BLUE BOX", "address": {"city": "HIALEAH", "state": "FL", "street": "3200 E 2ND AVE", "postcode": "33013"}}},
{"geometry": {"type": "Point", "coordinates": [-80.2863977881, 25.85116704]}, "type": "Feature", "properties": {"collection_times": [{"days": "Mon-Fri", "time": "5:00pm"}, {"days": "Sat", "time": "1:00pm"}, {"days": "Sun", "time": "Closed"}], "id": "3301300024", "name": "USPS COLLECTION BOX - BLUE BOX", "address": {"city": "HIALEAH", "state": "FL", "street": "3200 E 2ND AVE", "postcode": "33013"}}},
{"geometry": {"type": "Point", "coordinates": [-80.2707060306, 25.8584001503]}, "type": "Feature", "properties": {"collection_times": [{"days": "Mon-Fri", "time": "5:00pm"}, {"days": "Sat", "time": "1:00pm"}, {"days": "Sun", "time": "Closed"}], "id": "3301300025", "name": "USPS COLLECTION BOX - EXPRESS", "address": {"city": "HIALEAH", "state": "FL", "street": "3200 E 2ND AVE", "postcode": "33013"}}},
{"geometry": {"type": "Point", "coordinates": [-80.2863977881, 25.85116704]}, "type": "Feature", "properties": {"collection_times": [{"days": "Mon-Sat", "time": "1:00pm"}, {"days": "Sun", "time": "Closed"}], "id": "3301300028", "name": "USPS COLLECTION BOX - PO LOBBY", "address": {"city": "HIALEAH", "state": "FL", "street": "3200 E 2ND AVE", "postcode": "33013"}}},
{"geometry": {"type": "Point", "coordinates": [-80.3026435911, 25.9068432003]}, "type": "Feature", "properties": {"collection_times": [{"days": "Mon-Sat", "time": "1:00pm"}, {"days": "Sun", "time": "Closed"}], "id": "3301400000", "name": "USPS COLLECTION BOX - BLUE BOX", "address": {"city": "HIALEAH", "state": "FL", "street": "6320 MIAMI LAKEWAY S", "postcode": "33014"}}},
{"geometry": {"type": "Point", "coordinates": [-80.3008677422, 25.8965500777]}, "type": "Feature", "properties": {"collection_times": [{"days": "Mon-Sat", "time": "1:00pm"}, {"days": "Sun", "time": "Closed"}], "id": "3301400002", "name": "USPS COLLECTION BOX - BLUE BOX", "address": {"city": "HIALEAH", "state": "FL", "street": "8100 W 8TH CT", "postcode": "33014"}}},
{"geometry": {"type": "Point", "coordinates": [-80.3211915858, 25.9119618252]}, "type": "Feature", "properties": {"collection_times": [{"days": "Mon-Sat", "time": "1:00pm"}, {"days": "Sun", "time": "Closed"}], "id": "3301400007", "name": "USPS COLLECTION BOX - BLUE BOX", "address": {"city": "HIALEAH", "state": "FL", "street": "7425 MIAMI LAKES DR", "postcode": "33014"}}},
{"geometry": {"type": "Point", "coordinates": [-80.3120348748, 25.9037980673]}, "type": "Feature", "properties": {"collection_times": [{"days": "Mon-Sat", "time": "1:00pm"}, {"days": "Sun", "time": "Closed"}], "id": "3301400008", "name": "USPS COLLECTION BOX - BLUE BOX", "address": {"city": "HIALEAH", "state": "FL", "street": "6901 MIAMI LAKEWAY S", "postcode": "33014"}}},
{"geometry": {"type": "Point", "coordinates": [-80.3101433234, 25.9144376002]}, "type": "Feature", "properties": {"collection_times": [{"days": "Mon-Sat", "time": "1:00pm"}, {"days": "Sun", "time": "Closed"}], "id": "3301400011", "name": "USPS COLLECTION BOX - BLUE BOX", "address": {"city": "HIALEAH", "state": "FL", "street": "15500 NEW BARN RD", "postcode": "33014"}}},
{"geometry": {"type": "Point", "coordinates": [-80.3075514603, 25.9157601483]}, "type": "Feature", "properties": {"collection_times": [{"days": "Mon-Sat", "time": "1:00pm"}, {"days": "Sun", "time": "Closed"}], "id": "3301400013", "name": "USPS COLLECTION BOX - BLUE BOX", "address": {"city": "HIALEAH", "state": "FL", "street": "6431 COW PEN RD", "postcode": "33014"}}},
{"geometry": {"type": "Point", "coordinates": [-80.3010345394, 25.9123768857]}, "type": "Feature", "properties": {"collection_times": [{"days": "Mon-Sat", "time": "1:00pm"}, {"days": "Sun", "time": "Closed"}], "id": "3301400016", "name": "USPS COLLECTION BOX - BLUE BOX", "address": {"city": "HIALEAH", "state": "FL", "street": "6175 NW 153RD ST", "postcode": "33014"}}},
{"geometry": {"type": "Point", "coordinates": [-80.298364601, 25.910898187]}, "type": "Feature", "properties": {"collection_times": [{"days": "Mon-Sat", "time": "1:00pm"}, {"days": "Sun", "time": "Closed"}], "id": "3301400023", "name": "USPS COLLECTION BOX - BLUE BOX", "address": {"city": "HIALEAH", "state": "FL", "street": "5979 NW 151ST ST", "postcode": "33014"}}},
{"geometry": {"type": "Point", "coordinates": [-80.2932410418, 25.9223994412]}, "type": "Feature", "properties": {"collection_times": [{"days": "Mon-Sat", "time": "1:00pm"}, {"days": "Sun", "time": "Closed"}], "id": "3301400025", "name": "USPS COLLECTION BOX - BLUE BOX", "address": {"city": "HIALEAH", "state": "FL", "street": "16400 NW 57 AVE", "postcode": "33014"}}},
{"geometry": {"type": "Point", "coordinates": [-80.3041524377, 25.9168674504]}, "type": "Feature", "properties": {"collection_times": [{"days": "Mon-Sat", "time": "1:00pm"}, {"days": "Sun", "time": "Closed"}], "id": "3301400031", "name": "USPS COLLECTION BOX - BLUE BOX", "address": {"city": "HIALEAH", "state": "FL", "street": "15665 MIAMI LAKEWAY N", "postcode": "33014"}}},
{"geometry": {"type": "Point", "coordinates": [-80.312069326, 25.9118126582]}, "type": "Feature", "properties": {"collection_times": [{"days": "Mon-Sat", "time": "1:00pm"}, {"days": "Sun", "time": "Closed"}], "id": "3301400036", "name": "USPS COLLECTION BOX - BLUE BOX", "address": {"city": "HIALEAH", "state": "FL", "street": "15455 BULL RUN RD", "postcode": "33014"}}},
{"geometry": {"type": "Point", "coordinates": [-80.3108607964, 25.9138265913]}, "type": "Feature", "properties": {"collection_times": [{"days": "Mon-Sat", "time": "1:00pm"}, {"days": "Sun", "time": "Closed"}], "id": "3301400039", "name": "USPS COLLECTION BOX - BLUE BOX", "address": {"city": "HIALEAH", "state": "FL", "street": "15450 NEW BARN RD", "postcode": "33014"}}},
{"geometry": {"type": "Point", "coordinates": [-80.299071936, 25.9118133042]}, "type": "Feature", "properties": {"collection_times": [{"days": "Mon-Sat", "time": "1:00pm"}, {"days": "Sun", "time": "Closed"}], "id": "3301400040", "name": "USPS COLLECTION BOX - BLUE BOX", "address": {"city": "HIALEAH", "state": "FL", "street": "15291 NW 60TH AVE", "postcode": "33014"}}},
{"geometry": {"type": "Point", "coordinates": [-80.3243695879, 25.9115701077]}, "type": "Feature", "properties": {"collection_times": [{"days": "Mon-Sat", "time": "1:00pm"}, {"days": "Sun", "time": "Closed"}], "id": "3301400042", "name": "USPS COLLECTION BOX - BLUE BOX", "address": {"city": "HIALEAH", "state": "FL", "street": "15225 NW 77TH AVE", "postcode": "33014"}}},
{"geometry": {"type": "Point", "coordinates": [-80.3082683335, 25.8997215907]}, "type": "Feature", "properties": {"collection_times": [{"days": "Mon-Sat", "time": "1:00pm"}, {"days": "Sun", "time": "Closed"}], "id": "3301400052", "name": "USPS COLLECTION BOX - BLUE BOX", "address": {"city": "HIALEAH", "state": "FL", "street": "13901 NW 67TH AVE", "postcode": "33014"}}},
{"geometry": {"type": "Point", "coordinates": [-80.30859265, 25.8842350719]}, "type": "Feature", "properties": {"collection_times": [{"days": "Mon-Sat", "time": "1:00pm"}, {"days": "Sun", "time": "Closed"}], "id": "3301400053", "name": "USPS COLLECTION BOX - BLUE BOX", "address": {"city": "HIALEAH", "state": "FL", "street": "1247 W 68TH ST", "postcode": "33014"}}},
{"geometry": {"type": "Point", "coordinates": [-80.2877380806, 25.9179202314]}, "type": "Feature", "properties": {"collection_times": [{"days": "Mon-Sat", "time": "5:00pm"}, {"days": "Sun", "time": "Closed"}], "id": "3301400056", "name": "USPS COLLECTION BOX - BLUE BOX", "address": {"city": "HIALEAH", "state": "FL", "street": "5375 NW 159TH ST", "postcode": "33014"}}},
{"geometry": {"type": "Point", "coordinates": [-80.2876413235, 25.9179481006]}, "type": "Feature", "properties": {"collection_times": [{"days": "Mon-Sat", "time": "5:00pm"}, {"days": "Sun", "time": "Closed"}], "id": "3301400057", "name": "USPS COLLECTION BOX - BLUE BOX", "address": {"city": "HIALEAH", "state": "FL", "street": "5375 NW 159TH ST", "postcode": "33014"}}},
{"geometry": {"type": "Point", "coordinates": [-80.298364601, 25.910898187]}, "type": "Feature", "properties": {"collection_times": [{"days": "Mon-Sat", "time": "1:00pm"}, {"days": "Sun", "time": "Closed"}], "id": "3301400060", "name": "USPS COLLECTION BOX - BLUE BOX", "address": {"city": "HIALEAH", "state": "FL", "street": "5979 NW 151ST ST", "postcode": "33014"}}},
{"geometry": {"type": "Point", "coordinates": [-80.2877380806, 25.9179202314]}, "type": "Feature", "properties": {"collection_times": [{"days": "Mon-Sat", "time": "5:00pm"}, {"days": "Sun", "time": "Closed"}], "id": "3301400061", "name": "USPS COLLECTION BOX - PO LOBBY", "address": {"city": "HIALEAH", "state": "FL", "street": "5375 NW 159TH ST", "postcode": "33014"}}},
{"geometry": {"type": "Point", "coordinates": [-80.3112109409, 25.9319810076]}, "type": "Feature", "properties": {"collection_times": [{"days": "Mon-Sat", "time": "1:00pm"}, {"days": "Sun", "time": "Closed"}], "id": "3301500001", "name": "USPS COLLECTION BOX - BLUE BOX", "address": {"city": "HIALEAH", "state": "FL", "street": "17401 NW 67TH PL", "postcode": "33015"}}},
{"geometry": {"type": "Point", "coordinates": [-80.298320965, 25.939957051]}, "type": "Feature", "properties": {"collection_times": [{"days": "Mon-Fri", "time": "5:00pm"}, {"days": "Sat", "time": "1:00pm"}, {"days": "Sun", "time": "Closed"}], "id": "3301500002", "name": "USPS COLLECTION BOX - BLUE BOX", "address": {"city": "HIALEAH", "state": "FL", "street": "6193 NW 183RD ST", "postcode": "33015"}}},
{"geometry": {"type": "Point", "coordinates": [-80.298320965, 25.939957051]}, "type": "Feature", "properties": {"collection_times": [{"days": "Mon-Fri", "time": "5:00pm"}, {"days": "Sat", "time": "1:00pm"}, {"days": "Sun", "time": "Closed"}], "id": "3301500004", "name": "USPS COLLECTION BOX - BLUE BOX", "address": {"city": "HIALEAH", "state": "FL", "street": "6193 NW 183RD ST", "postcode": "33015"}}},
{"geometry": {"type": "Point", "coordinates": [-80.298320965, 25.939957051]}, "type": "Feature", "properties": {"collection_times": [{"days": "Mon-Fri", "time": "5:00pm"}, {"days": "Sat", "time": "1:00pm"}, {"days": "Sun", "time": "Closed"}], "id": "3301500005", "name": "USPS COLLECTION BOX - BLUE BOX", "address": {"city": "HIALEAH", "state": "FL", "street": "6193 NW 183RD ST", "postcode": "33015"}}},
{"geometry": {"type": "Point", "coordinates": [-80.298320965, 25.939957051]}, "type": "Feature", "properties": {"collection_times": [{"days": "Mon-Fri", "time": "5:00pm"}, {"days": "Sat", "time": "1:00pm"}, {"days": "Sun", "time": "Closed"}], "id": "3301500006", "name": "USPS COLLECTION BOX - EXPRESS", "address": {"city": "HIALEAH", "state": "FL", "street": "6193 NW 183RD ST", "postcode": "33015"}}},
{"geometry": {"type": "Point", "coordinates": [-80.3070663166, 25.9417051293]}, "type": "Feature", "properties": {"collection_times": [{"days": "Mon-Sat", "time": "9:30am"}, {"days": "Sun", "time": "Closed"}], "id": "3301500013", "name": "USPS COLLECTION BOX - BLUE BOX", "address": {"city": "HIALEAH", "state": "FL", "street": "18524 NW 67TH AVE", "postcode": "33015"}}},
{"geometry": {"type": "Point", "coordinates": [-80.327036635, 25.9331722172]}, "type": "Feature", "properties": {"collection_times": [{"days": "Mon-Sat", "time": "1:00pm"}, {"days": "Sun", "time": "Closed"}], "id": "3301500017", "name": "USPS COLLECTION BOX - BLUE BOX", "address": {"city": "HIALEAH", "state": "FL", "street": "17687 NW 78TH AVE", "postcode": "33015"}}},
{"geometry": {"type": "Point", "coordinates": [-80.3412795384, 25.9424667405]}, "type": "Feature", "properties": {"collection_times": [{"days": "Mon-Sat", "time": "1:00pm"}, {"days": "Sun", "time": "Closed"}], "id": "3301500019", "name": "USPS COLLECTION BOX - BLUE BOX", "address": {"city": "HIALEAH", "state": "FL", "street": "8599 NW 186TH ST", "postcode": "33015"}}},
{"geometry": {"type": "Point", "coordinates": [-80.298320965, 25.939957051]}, "type": "Feature", "properties": {"collection_times": [{"days": "Mon-Fri", "time": "5:00pm"}, {"days": "Sat", "time": "1:00pm"}, {"days": "Sun", "time": "Closed"}], "id": "3301500021", "name": "USPS COLLECTION BOX - BLUE BOX", "address": {"city": "HIALEAH", "state": "FL", "street": "6193 NW 183RD ST", "postcode": "33015"}}},
{"geometry": {"type": "Point", "coordinates": [-80.3119840076, 25.9380151553]}, "type": "Feature", "properties": {"collection_times": [{"days": "Mon-Sat", "time": "9:30am"}, {"days": "Sun", "time": "Closed"}], "id": "3301500022", "name": "USPS COLLECTION BOX - BLUE BOX", "address": {"city": "HIALEAH", "state": "FL", "street": "18191 NW 68TH AVE", "postcode": "33015"}}},
{"geometry": {"type": "Point", "coordinates": [-80.298320965, 25.939957051]}, "type": "Feature", "properties": {"collection_times": [{"days": "Mon-Sat", "time": "5:00pm"}, {"days": "Sun", "time": "Closed"}], "id": "3301500023", "name": "USPS COLLECTION BOX - PO LOBBY", "address": {"city": "HIALEAH", "state": "FL", "street": "6193 NW 183RD ST", "postcode": "33015"}}},
{"geometry": {"type": "Point", "coordinates": [-80.298320965, 25.939957051]}, "type": "Feature", "properties": {"collection_times": [{"days": "Mon-Sat", "time": "5:00pm"}, {"days": "Sun", "time": "Closed"}], "id": "3301500024", "name": "USPS COLLECTION BOX - APC", "address": {"city": "HIALEAH", "state": "FL", "street": "6193 NW 183RD ST", "postcode": "33015"}}},
{"geometry": {"type": "Point", "coordinates": [-80.3389767652, 25.867425628]}, "type": "Feature", "properties": {"collection_times": [{"days": "Mon-Sat", "time": "1:00pm"}, {"days": "Sun", "time": "Closed"}], "id": "3301600003", "name": "USPS COLLECTION BOX - BLUE BOX", "address": {"city": "HIALEAH", "state": "FL", "street": "10001 NW 87TH AVE", "postcode": "33016"}}},
{"geometry": {"type": "Point", "coordinates": [-80.3304464481, 25.9133634735]}, "type": "Feature", "properties": {"collection_times": [{"days": "Mon-Sat", "time": "1:00pm"}, {"days": "Sun", "time": "Closed"}], "id": "3301600005", "name": "USPS COLLECTION BOX - BLUE BOX", "address": {"city": "HIALEAH", "state": "FL", "street": "7975 NW 154TH ST", "postcode": "33016"}}},
{"geometry": {"type": "Point", "coordinates": [-80.3253549928, 25.8915319658]}, "type": "Feature", "properties": {"collection_times": [{"days": "Mon-Sat", "time": "1:00pm"}, {"days": "Sun", "time": "Closed"}], "id": "3301600010", "name": "USPS COLLECTION BOX - BLUE BOX", "address": {"city": "HIALEAH", "state": "FL", "street": "2100 W 76TH ST", "postcode": "33016"}}},
{"geometry": {"type": "Point", "coordinates": [-80.3361116745, 25.8974812802]}, "type": "Feature", "properties": {"collection_times": [{"days": "Mon-Sat", "time": "1:00pm"}, {"days": "Sun", "time": "Closed"}], "id": "3301600016", "name": "USPS COLLECTION BOX - BLUE BOX", "address": {"city": "HIALEAH", "state": "FL", "street": "2590 W 84TH ST", "postcode": "33016"}}},
{"geometry": {"type": "Point", "coordinates": [-80.3329673337, 25.9120988903]}, "type": "Feature", "properties": {"collection_times": [{"days": "Mon-Sat", "time": "1:00pm"}, {"days": "Sun", "time": "Closed"}], "id": "3301600022", "name": "USPS COLLECTION BOX - BLUE BOX", "address": {"city": "HIALEAH", "state": "FL", "street": "15255 NW 82ND AVE", "postcode": "33016"}}},
{"geometry": {"type": "Point", "coordinates": [-80.332626704, 25.887342232]}, "type": "Feature", "properties": {"collection_times": [{"days": "Mon-Fri", "time": "1:00pm"}, {"days": "Sat-Sun", "time": "Closed"}], "id": "3301600023", "name": "USPS COLLECTION BOX - EXPRESS", "address": {"city": "HIALEAH", "state": "FL", "street": "7850 NW 146TH ST", "postcode": "33016"}}},
{"geometry": {"type": "Point", "coordinates": [-80.3272950455, 25.9060622507]}, "type": "Feature", "properties": {"collection_times": [{"days": "Mon-Sat", "time": "1:00pm"}, {"days": "Sun", "time": "Closed"}], "id": "3301600024", "name": "USPS COLLECTION BOX - BLUE BOX", "address": {"city": "HIALEAH", "state": "FL", "street": "7850 NW 146TH ST", "postcode": "33016"}}},
{"geometry": {"type": "Point", "coordinates": [-80.3307066991, 25.9030397906]}, "type": "Feature", "properties": {"collection_times": [{"days": "Mon-Fri", "time": "5:00pm"}, {"days": "Sat-Sun", "time": "Closed"}], "id": "3301600032", "name": "USPS COLLECTION BOX - BLUE BOX", "address": {"city": "HIALEAH", "state": "FL", "street": "14211 COMMERCE WAY", "postcode": "33016"}}},
{"geometry": {"type": "Point", "coordinates": [-80.331949989, 25.8906577591]}, "type": "Feature", "properties": {"collection_times": [{"days": "Mon-Sat", "time": "1:00pm"}, {"days": "Sun", "time": "Closed"}], "id": "3301600034", "name": "USPS COLLECTION BOX - BLUE BOX", "address": {"city": "HIALEAH", "state": "FL", "street": "7590 W 24TH AVE", "postcode": "33016"}}},
{"geometry": {"type": "Point", "coordinates": [-80.3220387152, 25.8861273285]}, "type": "Feature", "properties": {"collection_times": [{"days": "Mon-Fri", "time": "5:00pm"}, {"days": "Sat", "time": "1:00pm"}, {"days": "Sun", "time": "Closed"}], "id": "3301600037", "name": "USPS COLLECTION BOX - BLUE BOX", "address": {"city": "HIALEAH", "state": "FL", "street": "7000 W 19 CT", "postcode": "33016"}}},
{"geometry": {"type": "Point", "coordinates": [-80.3333938902, 25.8769062405]}, "type": "Feature", "properties": {"collection_times": [{"days": "Mon-Fri", "time": "6:00pm"}, {"days": "Sat", "time": "4:30pm"}, {"days": "Sun", "time": "Closed"}], "id": "3301600041", "name": "USPS COLLECTION BOX - PO LOBBY", "address": {"city": "HIALEAH", "state": "FL", "street": "2440 W 60TH ST", "postcode": "33016"}}},
{"geometry": {"type": "Point", "coordinates": [-80.3144741362, 25.8985504613]}, "type": "Feature", "properties": {"collection_times": [{"days": "Mon-Fri", "time": "5:00pm"}, {"days": "Sat", "time": "2:00pm"}, {"days": "Sun", "time": "Closed"}], "id": "3301800000", "name": "USPS COLLECTION BOX - BLUE BOX", "address": {"city": "HIALEAH", "state": "FL", "street": "1500 W 84TH ST", "postcode": "33018"}}},
{"geometry": {"type": "Point", "coordinates": [-80.3144741362, 25.8985504613]}, "type": "Feature", "properties": {"collection_times": [{"days": "Mon-Fri", "time": "5:00pm"}, {"days": "Sat", "time": "2:00pm"}, {"days": "Sun", "time": "Closed"}], "id": "3301800001", "name": "USPS COLLECTION BOX - BLUE BOX", "address": {"city": "HIALEAH", "state": "FL", "street": "1500 W 84TH ST", "postcode": "33018"}}},
{"geometry": {"type": "Point", "coordinates": [-80.3518881134, 25.8984915161]}, "type": "Feature", "properties": {"collection_times": [{"days": "Mon-Fri", "time": "5:00pm"}, {"days": "Sat", "time": "2:00pm"}, {"days": "Sun", "time": "Closed"}], "id": "3301800004", "name": "USPS COLLECTION BOX - EXPRESS", "address": {"city": "HIALEAH", "state": "FL", "street": "1500 W 84TH ST", "postcode": "33018"}}},
{"geometry": {"type": "Point", "coordinates": [-80.3144741362, 25.8985504613]}, "type": "Feature", "properties": {"collection_times": [{"days": "Mon-Fri", "time": "5:00pm"}, {"days": "Sat", "time": "2:00pm"}, {"days": "Sun", "time": "Closed"}], "id": "3301800005", "name": "USPS COLLECTION BOX - PO LOBBY", "address": {"city": "HIALEAH", "state": "FL", "street": "1500 W 84TH ST", "postcode": "33018"}}},
{"geometry": {"type": "Point", "coordinates": [-80.1173798744, 26.0137955567]}, "type": "Feature", "properties": {"collection_times": [{"days": "Mon-Fri", "time": "3:00pm"}, {"days": "Sat", "time": "1:00pm"}, {"days": "Sun", "time": "Closed"}], "id": "3301900007", "name": "USPS COLLECTION BOX - BLUE BOX", "address": {"city": "HOLLYWOOD", "state": "FL", "street": "101 N OCEAN DR", "postcode": "33019"}}},
{"geometry": {"type": "Point", "coordinates": [-80.150158198, 26.0158501146]}, "type": "Feature", "properties": {"collection_times": [{"days": "Mon-Sat", "time": "5:30pm"}, {"days": "Sun", "time": "Closed"}], "id": "3302000000", "name": "USPS COLLECTION BOX - EXPRESS", "address": {"city": "HOLLYWOOD", "state": "FL", "street": "1801 POLK ST", "postcode": "33020"}}},
{"geometry": {"type": "Point", "coordinates": [-80.1470371331, 26.0115587201]}, "type": "Feature", "properties": {"collection_times": [{"days": "Mon-Fri", "time": "3:00pm"}, {"days": "Sat-Sun", "time": "Closed"}], "id": "3302000006", "name": "USPS COLLECTION BOX - BLUE BOX", "address": {"city": "HOLLYWOOD", "state": "FL", "street": "2001 HOLLYWOOD BLVD", "postcode": "33020"}}},
{"geometry": {"type": "Point", "coordinates": [-80.1457912645, 26.010485991]}, "type": "Feature", "properties": {"collection_times": [{"days": "Mon-Fri", "time": "3:00pm"}, {"days": "Sat", "time": "1:00pm"}, {"days": "Sun", "time": "Closed"}], "id": "3302000008", "name": "USPS COLLECTION BOX - BLUE BOX", "address": {"city": "HOLLYWOOD", "state": "FL", "street": "1940 HARRISON ST", "postcode": "33020"}}},
{"geometry": {"type": "Point", "coordinates": [-80.1461745585, 26.0189333744]}, "type": "Feature", "properties": {"collection_times": [{"days": "Mon-Fri", "time": "3:00pm"}, {"days": "Sat-Sun", "time": "Closed"}], "id": "3302000010", "name": "USPS COLLECTION BOX - BLUE BOX", "address": {"city": "HOLLYWOOD", "state": "FL", "street": "1951 JOHNSON ST", "postcode": "33020"}}},
{"geometry": {"type": "Point", "coordinates": [-80.1452679153, 26.012399252]}, "type": "Feature", "properties": {"collection_times": [{"days": "Mon-Fri", "time": "3:00pm"}, {"days": "Sat", "time": "1:00pm"}, {"days": "Sun", "time": "Closed"}], "id": "3302000013", "name": "USPS COLLECTION BOX - BLUE BOX", "address": {"city": "HOLLYWOOD", "state": "FL", "street": "1910 TYLER ST", "postcode": "33020"}}},
{"geometry": {"type": "Point", "coordinates": [-80.1353289549, 26.0190762065]}, "type": "Feature", "properties": {"collection_times": [{"days": "Mon-Fri", "time": "3:00pm"}, {"days": "Sat-Sun", "time": "Closed"}], "id": "3302000015", "name": "USPS COLLECTION BOX - BLUE BOX", "address": {"city": "HOLLYWOOD", "state": "FL", "street": "1400 JOHNSON ST", "postcode": "33020"}}},
{"geometry": {"type": "Point", "coordinates": [-80.1412591301, 26.0105953907]}, "type": "Feature", "properties": {"collection_times": [{"days": "Mon-Fri", "time": "3:00pm"}, {"days": "Sat", "time": "1:00pm"}, {"days": "Sun", "time": "Closed"}], "id": "3302000021", "name": "USPS COLLECTION BOX - BLUE BOX", "address": {"city": "HOLLYWOOD", "state": "FL", "street": "1720 HARRISON ST", "postcode": "33020"}}},
{"geometry": {"type": "Point", "coordinates": [-80.151398616, 26.0113791087]}, "type": "Feature", "properties": {"collection_times": [{"days": "Mon-Fri", "time": "3:00pm"}, {"days": "Sat", "time": "1:00pm"}, {"days": "Sun", "time": "Closed"}], "id": "3302000032", "name": "USPS COLLECTION BOX - BLUE BOX", "address": {"city": "HOLLYWOOD", "state": "FL", "street": "2131 HOLLYWOOD BLVD", "postcode": "33020"}}},
{"geometry": {"type": "Point", "coordinates": [-80.1619213694, 26.0111369945]}, "type": "Feature", "properties": {"collection_times": [{"days": "Mon-Fri", "time": "3:00pm"}, {"days": "Sat-Sun", "time": "Closed"}], "id": "3302000037", "name": "USPS COLLECTION BOX - BLUE BOX", "address": {"city": "HOLLYWOOD", "state": "FL", "street": "2719 HOLLYWOOD BLVD", "postcode": "33020"}}},
{"geometry": {"type": "Point", "coordinates": [-80.1574899268, 26.0111044184]}, "type": "Feature", "properties": {"collection_times": [{"days": "Mon-Fri", "time": "3:00pm"}, {"days": "Sat", "time": "1:00pm"}, {"days": "Sun", "time": "Closed"}], "id": "3302000041", "name": "USPS COLLECTION BOX - BLUE BOX", "address": {"city": "HOLLYWOOD", "state": "FL", "street": "2510 HOLLYWOOD BLVD", "postcode": "33020"}}},
{"geometry": {"type": "Point", "coordinates": [-80.1560233901, 26.0112560837]}, "type": "Feature", "properties": {"collection_times": [{"days": "Mon-Fri", "time": "3:00pm"}, {"days": "Sat", "time": "1:00pm"}, {"days": "Sun", "time": "Closed"}], "id": "3302000042", "name": "USPS COLLECTION BOX - BLUE BOX", "address": {"city": "HOLLYWOOD", "state": "FL", "street": "2455 HOLLYWOOD BLVD", "postcode": "33020"}}},
{"geometry": {"type": "Point", "coordinates": [-80.1537188579, 26.0112124674]}, "type": "Feature", "properties": {"collection_times": [{"days": "Mon-Fri", "time": "3:00pm"}, {"days": "Sat", "time": "1:00pm"}, {"days": "Sun", "time": "Closed"}], "id": "3302000044", "name": "USPS COLLECTION BOX - BLUE BOX", "address": {"city": "HOLLYWOOD", "state": "FL", "street": "2340 HOLLYWOOD BLVD", "postcode": "33020"}}},
{"geometry": {"type": "Point", "coordinates": [-80.1522364027, 26.0112521507]}, "type": "Feature", "properties": {"collection_times": [{"days": "Mon-Fri", "time": "3:00pm"}, {"days": "Sat", "time": "1:00pm"}, {"days": "Sun", "time": "Closed"}], "id": "3302000045", "name": "USPS COLLECTION BOX - BLUE BOX", "address": {"city": "HOLLYWOOD", "state": "FL", "street": "2206 HOLLYWOOD BLVD", "postcode": "33020"}}},
{"geometry": {"type": "Point", "coordinates": [-80.1584107605, 26.0315461]}, "type": "Feature", "properties": {"collection_times": [{"days": "Mon-Fri", "time": "3:00pm"}, {"days": "Sat", "time": "1:00pm"}, {"days": "Sun", "time": "Closed"}], "id": "3302000048", "name": "USPS COLLECTION BOX - BLUE BOX", "address": {"city": "HOLLYWOOD", "state": "FL", "street": "2547 THOMAS ST", "postcode": "33020"}}},
{"geometry": {"type": "Point", "coordinates": [-80.1660100145, 26.0419158357]}, "type": "Feature", "properties": {"collection_times": [{"days": "Mon-Fri", "time": "3:00pm"}, {"days": "Sat", "time": "1:00pm"}, {"days": "Sun", "time": "Closed"}], "id": "3302000051", "name": "USPS COLLECTION BOX - BLUE BOX", "address": {"city": "HOLLYWOOD", "state": "FL", "street": "3700 N 29TH AVE", "postcode": "33020"}}},
{"geometry": {"type": "Point", "coordinates": [-80.1658470496, 26.035762158]}, "type": "Feature", "properties": {"collection_times": [{"days": "Mon-Fri", "time": "3:00pm"}, {"days": "Sat", "time": "1:00pm"}, {"days": "Sun", "time": "Closed"}], "id": "3302000054", "name": "USPS COLLECTION BOX - BLUE BOX", "address": {"city": "HOLLYWOOD", "state": "FL", "street": "2806 N 29TH AVE", "postcode": "33020"}}},
{"geometry": {"type": "Point", "coordinates": [-80.1431896099, 26.0134682535]}, "type": "Feature", "properties": {"collection_times": [{"days": "Mon-Sat", "time": "5:30pm"}, {"days": "Sun", "time": "Closed"}], "id": "3302000059", "name": "USPS COLLECTION BOX - PO LOBBY", "address": {"city": "HOLLYWOOD", "state": "FL", "street": "1801 POLK ST", "postcode": "33020"}}},
{"geometry": {"type": "Point", "coordinates": [-80.1431896099, 26.0134682535]}, "type": "Feature", "properties": {"collection_times": [{"days": "Mon-Sat", "time": "5:30pm"}, {"days": "Sun", "time": "Closed"}], "id": "3302000060", "name": "USPS COLLECTION BOX - BLUE BOX", "address": {"city": "HOLLYWOOD", "state": "FL", "street": "1801 POLK ST", "postcode": "33020"}}},
{"geometry": {"type": "Point", "coordinates": [-80.173974641, 26.0108717991]}, "type": "Feature", "properties": {"collection_times": [{"days": "Mon-Sat", "time": "1:00pm"}, {"days": "Sun", "time": "Closed"}], "id": "3302100007", "name": "USPS COLLECTION BOX - BLUE BOX", "address": {"city": "HOLLYWOOD", "state": "FL", "street": "3251 HOLLYWOOD BLVD", "postcode": "33021"}}},
{"geometry": {"type": "Point", "coordinates": [-80.1777713219, 26.0105573424]}, "type": "Feature", "properties": {"collection_times": [{"days": "Mon-Fri", "time": "5:00pm"}, {"days": "Sat", "time": "1:00pm"}, {"days": "Sun", "time": "Closed"}], "id": "3302100009", "name": "USPS COLLECTION BOX - BLUE BOX", "address": {"city": "HOLLYWOOD", "state": "FL", "street": "3440 HOLLYWOOD BLVD", "postcode": "33021"}}},
{"geometry": {"type": "Point", "coordinates": [-80.1777713219, 26.0105573424]}, "type": "Feature", "properties": {"collection_times": [{"days": "Mon-Fri", "time": "5:00pm"}, {"days": "Sat", "time": "1:00pm"}, {"days": "Sun", "time": "Closed"}], "id": "3302100011", "name": "USPS COLLECTION BOX - BLUE BOX", "address": {"city": "HOLLYWOOD", "state": "FL", "street": "3440 HOLLYWOOD BLVD", "postcode": "33021"}}},
{"geometry": {"type": "Point", "coordinates": [-80.1790820666, 26.0105378199]}, "type": "Feature", "properties": {"collection_times": [{"days": "Mon-Sat", "time": "1:00pm"}, {"days": "Sun", "time": "Closed"}], "id": "3302100013", "name": "USPS COLLECTION BOX - BLUE BOX", "address": {"city": "HOLLYWOOD", "state": "FL", "street": "3550 HOLLYWOOD BLVD", "postcode": "33021"}}},
{"geometry": {"type": "Point", "coordinates": [-80.1820018015, 26.0104788621]}, "type": "Feature", "properties": {"collection_times": [{"days": "Mon-Fri", "time": "5:00pm"}, {"days": "Sat", "time": "1:00pm"}, {"days": "Sun", "time": "Closed"}], "id": "3302100014", "name": "USPS COLLECTION BOX - BLUE BOX", "address": {"city": "HOLLYWOOD", "state": "FL", "street": "4000 HOLLYWOOD BLVD", "postcode": "33021"}}},
{"geometry": {"type": "Point", "coordinates": [-80.1820018015, 26.0104788621]}, "type": "Feature", "properties": {"collection_times": [{"days": "Mon-Fri", "time": "5:00pm"}, {"days": "Sat", "time": "1:00pm"}, {"days": "Sun", "time": "Closed"}], "id": "3302100015", "name": "USPS COLLECTION BOX - BLUE BOX", "address": {"city": "HOLLYWOOD", "state": "FL", "street": "4000 HOLLYWOOD BLVD", "postcode": "33021"}}},
{"geometry": {"type": "Point", "coordinates": [-80.1820018015, 26.0104788621]}, "type": "Feature", "properties": {"collection_times": [{"days": "Mon-Fri", "time": "5:00pm"}, {"days": "Sat", "time": "1:00pm"}, {"days": "Sun", "time": "Closed"}], "id": "3302100016", "name": "USPS COLLECTION BOX - BLUE BOX", "address": {"city": "HOLLYWOOD", "state": "FL", "street": "4000 HOLLYWOOD BLVD", "postcode": "33021"}}},
{"geometry": {"type": "Point", "coordinates": [-80.1820018015, 26.0104788621]}, "type": "Feature", "properties": {"collection_times": [{"days": "Mon-Fri", "time": "5:00pm"}, {"days": "Sat", "time": "1:00pm"}, {"days": "Sun", "time": "Closed"}], "id": "3302100017", "name": "USPS COLLECTION BOX - BLUE BOX", "address": {"city": "HOLLYWOOD", "state": "FL", "street": "4000 HOLLYWOOD BLVD", "postcode": "33021"}}},
{"geometry": {"type": "Point", "coordinates": [-80.1878332034, 26.010535318]}, "type": "Feature", "properties": {"collection_times": [{"days": "Mon-Fri", "time": "5:00pm"}, {"days": "Sat", "time": "1:00pm"}, {"days": "Sun", "time": "Closed"}], "id": "3302100021", "name": "USPS COLLECTION BOX - BLUE BOX", "address": {"city": "HOLLYWOOD", "state": "FL", "street": "4429 HOLLYWOOD BLVD", "postcode": "33021"}}},
{"geometry": {"type": "Point", "coordinates": [-80.1895760245, 26.0161818945]}, "type": "Feature", "properties": {"collection_times": [{"days": "Mon-Fri", "time": "1:00pm"}, {"days": "Sat-Sun", "time": "Closed"}], "id": "3302100023", "name": "USPS COLLECTION BOX - BLUE BOX", "address": {"city": "HOLLYWOOD", "state": "FL", "street": "701 N 46TH AVE", "postcode": "33021"}}},
{"geometry": {"type": "Point", "coordinates": [-80.2008084985, 26.044512066]}, "type": "Feature", "properties": {"collection_times": [{"days": "Mon-Sat", "time": "1:00pm"}, {"days": "Sun", "time": "Closed"}], "id": "3302100024", "name": "USPS COLLECTION BOX - BLUE BOX", "address": {"city": "HOLLYWOOD", "state": "FL", "street": "3910 N 56TH AVE", "postcode": "33021"}}},
{"geometry": {"type": "Point", "coordinates": [-80.1906418457, 26.0452039654]}, "type": "Feature", "properties": {"collection_times": [{"days": "Mon-Sat", "time": "1:00pm"}, {"days": "Sun", "time": "Closed"}], "id": "3302100025", "name": "USPS COLLECTION BOX - BLUE BOX", "address": {"city": "HOLLYWOOD", "state": "FL", "street": "3900 N 46TH AVE", "postcode": "33021"}}},
{"geometry": {"type": "Point", "coordinates": [-80.1886690266, 26.0328424188]}, "type": "Feature", "properties": {"collection_times": [{"days": "Mon-Fri", "time": "5:15pm"}, {"days": "Sat", "time": "1:00pm"}, {"days": "Sun", "time": "Closed"}], "id": "3302100028", "name": "USPS COLLECTION BOX - BLUE BOX", "address": {"city": "HOLLYWOOD", "state": "FL", "street": "4441 SHERIDAN ST", "postcode": "33021"}}},
{"geometry": {"type": "Point", "coordinates": [-80.1886690266, 26.0328424188]}, "type": "Feature", "properties": {"collection_times": [{"days": "Mon-Fri", "time": "5:15pm"}, {"days": "Sat", "time": "1:00pm"}, {"days": "Sun", "time": "Closed"}], "id": "3302100029", "name": "USPS COLLECTION BOX - BLUE BOX", "address": {"city": "HOLLYWOOD", "state": "FL", "street": "4441 SHERIDAN ST", "postcode": "33021"}}},
{"geometry": {"type": "Point", "coordinates": [-80.1886690266, 26.0328424188]}, "type": "Feature", "properties": {"collection_times": [{"days": "Mon-Fri", "time": "5:15pm"}, {"days": "Sat", "time": "1:00pm"}, {"days": "Sun", "time": "Closed"}], "id": "3302100032", "name": "USPS COLLECTION BOX - BLUE BOX", "address": {"city": "HOLLYWOOD", "state": "FL", "street": "4441 SHERIDAN ST", "postcode": "33021"}}},
{"geometry": {"type": "Point", "coordinates": [-80.1838901855, 26.0454927941]}, "type": "Feature", "properties": {"collection_times": [{"days": "Mon-Sat", "time": "1:00pm"}, {"days": "Sun", "time": "Closed"}], "id": "3302100033", "name": "USPS COLLECTION BOX - BLUE BOX", "address": {"city": "HOLLYWOOD", "state": "FL", "street": "3901 N 40TH AVE", "postcode": "33021"}}},
{"geometry": {"type": "Point", "coordinates": [-80.1787392365, 26.0330786604]}, "type": "Feature", "properties": {"collection_times": [{"days": "Mon-Sat", "time": "1:00pm"}, {"days": "Sun", "time": "Closed"}], "id": "3302100034", "name": "USPS COLLECTION BOX - BLUE BOX", "address": {"city": "HOLLYWOOD", "state": "FL", "street": "3475 SHERIDAN ST", "postcode": "33021"}}},
{"geometry": {"type": "Point", "coordinates": [-80.1765094634, 26.0136126159]}, "type": "Feature", "properties": {"collection_times": [{"days": "Mon-Sat", "time": "1:00pm"}, {"days": "Sun", "time": "Closed"}], "id": "3302100039", "name": "USPS COLLECTION BOX - BLUE BOX", "address": {"city": "HOLLYWOOD", "state": "FL", "street": "510 N 33RD CT", "postcode": "33021"}}},
{"geometry": {"type": "Point", "coordinates": [-81.6886459372, 28.566047978]}, "type": "Feature", "properties": {"collection_times": [{"days": "Mon-Sat", "time": "1:00pm"}, {"days": "Sun", "time": "Closed"}], "id": "3302100041", "name": "USPS COLLECTION BOX - BLUE BOX", "address": {"city": "HOLLYWOOD", "state": "FL", "street": "921 N 35TH AVE", "postcode": "33021"}}},
{"geometry": {"type": "Point", "coordinates": [-80.1788159049, 26.0183021761]}, "type": "Feature", "properties": {"collection_times": [{"days": "Mon-Sat", "time": "1:00pm"}, {"days": "Sun", "time": "Closed"}], "id": "3302100043", "name": "USPS COLLECTION BOX - BLUE BOX", "address": {"city": "HOLLYWOOD", "state": "FL", "street": "3501 JOHNSON ST", "postcode": "33021"}}},
{"geometry": {"type": "Point", "coordinates": [-80.2032376189, 26.0178139053]}, "type": "Feature", "properties": {"collection_times": [{"days": "Mon-Fri", "time": "5:00pm"}, {"days": "Sat", "time": "1:00pm"}, {"days": "Sun", "time": "Closed"}], "id": "3302100044", "name": "USPS COLLECTION BOX - BLUE BOX", "address": {"city": "HOLLYWOOD", "state": "FL", "street": "5771 JOHNSON ST", "postcode": "33021"}}},
{"geometry": {"type": "Point", "coordinates": [-80.1881465811, 26.0217506321]}, "type": "Feature", "properties": {"collection_times": [{"days": "Mon-Fri", "time": "5:00pm"}, {"days": "Sat", "time": "1:00pm"}, {"days": "Sun", "time": "Closed"}], "id": "3302100045", "name": "USPS COLLECTION BOX - EXPRESS", "address": {"city": "HOLLYWOOD", "state": "FL", "street": "5771 JOHNSON ST", "postcode": "33021"}}},
{"geometry": {"type": "Point", "coordinates": [-80.2032376189, 26.0178139053]}, "type": "Feature", "properties": {"collection_times": [{"days": "Mon-Fri", "time": "5:00pm"}, {"days": "Sat", "time": "1:00pm"}, {"days": "Sun", "time": "Closed"}], "id": "3302100047", "name": "USPS COLLECTION BOX - BLUE BOX", "address": {"city": "HOLLYWOOD", "state": "FL", "street": "5771 JOHNSON ST", "postcode": "33021"}}},
{"geometry": {"type": "Point", "coordinates": [-80.1765094634, 26.0136126159]}, "type": "Feature", "properties": {"collection_times": [{"days": "Mon-Sat", "time": "1:00pm"}, {"days": "Sun", "time": "Closed"}], "id": "3302100048", "name": "USPS COLLECTION BOX - BLUE BOX", "address": {"city": "HOLLYWOOD", "state": "FL", "street": "510 N 33RD CT", "postcode": "33021"}}},
{"geometry": {"type": "Point", "coordinates": [-80.2032376189, 26.0178139053]}, "type": "Feature", "properties": {"collection_times": [{"days": "Mon-Fri", "time": "5:00pm"}, {"days": "Sat", "time": "1:00pm"}, {"days": "Sun", "time": "Closed"}], "id": "3302100050", "name": "USPS COLLECTION BOX - PO LOBBY", "address": {"city": "HOLLYWOOD", "state": "FL", "street": "5771 JOHNSON ST", "postcode": "33021"}}},
{"geometry": {"type": "Point", "coordinates": [-80.1878332034, 26.010535318]}, "type": "Feature", "properties": {"collection_times": [{"days": "Mon-Fri", "time": "5:00pm"}, {"days": "Sat", "time": "1:00pm"}, {"days": "Sun", "time": "Closed"}], "id": "3302100051", "name": "USPS COLLECTION BOX - PO LOBBY", "address": {"city": "HOLLYWOOD", "state": "FL", "street": "4429 HOLLYWOOD BLVD", "postcode": "33021"}}},
{"geometry": {"type": "Point", "coordinates": [-80.1878332034, 26.010535318]}, "type": "Feature", "properties": {"collection_times": [{"days": "Mon-Fri", "time": "5:00pm"}, {"days": "Sat", "time": "2:00pm"}, {"days": "Sun", "time": "Closed"}], "id": "3302100054", "name": "USPS COLLECTION BOX - APC", "address": {"city": "HOLLYWOOD", "state": "FL", "street": "4429 HOLLYWOOD BLVD", "postcode": "33021"}}},
{"geometry": {"type": "Point", "coordinates": [-80.1878332034, 26.010535318]}, "type": "Feature", "properties": {"collection_times": [{"days": "Mon-Fri", "time": "5:00pm"}, {"days": "Sat", "time": "1:00pm"}, {"days": "Sun", "time": "Closed"}], "id": "3302100057", "name": "USPS COLLECTION BOX - BLUE BOX", "address": {"city": "HOLLYWOOD", "state": "FL", "street": "4429 HOLLYWOOD BLVD", "postcode": "33021"}}},
{"geometry": {"type": "Point", "coordinates": [-80.2064457986, 25.9784053023]}, "type": "Feature", "properties": {"collection_times": [{"days": "Mon-Sat", "time": "1:00pm"}, {"days": "Sun", "time": "Closed"}], "id": "3302300000", "name": "USPS COLLECTION BOX - BLUE BOX", "address": {"city": "HOLLYWOOD HILLS", "state": "FL", "street": "3600 S ST RD 7", "postcode": "33023"}}},
{"geometry": {"type": "Point", "coordinates": [-80.2254300224, 25.9725927428]}, "type": "Feature", "properties": {"collection_times": [{"days": "Mon-Sat", "time": "1:00pm"}, {"days": "Sun", "time": "Closed"}], "id": "3302300001", "name": "USPS COLLECTION BOX - BLUE BOX", "address": {"city": "HOLLYWOOD HILLS", "state": "FL", "street": "4076 SW 69TH AVE", "postcode": "33023"}}},
{"geometry": {"type": "Point", "coordinates": [-80.1828559996, 25.9750019657]}, "type": "Feature", "properties": {"collection_times": [{"days": "Mon-Sat", "time": "1:00pm"}, {"days": "Sun", "time": "Closed"}], "id": "3302300002", "name": "USPS COLLECTION BOX - BLUE BOX", "address": {"city": "HOLLYWOOD HILLS", "state": "FL", "street": "3900 SW 40TH AVE", "postcode": "33023"}}},
{"geometry": {"type": "Point", "coordinates": [-80.2095983724, 25.9846805986]}, "type": "Feature", "properties": {"collection_times": [{"days": "Mon-Sat", "time": "9:45am"}, {"days": "Sun", "time": "Closed"}], "id": "3302300005", "name": "USPS COLLECTION BOX - BLUE BOX", "address": {"city": "HOLLYWOOD HILLS", "state": "FL", "street": "6151 MIRAMAR PKWY", "postcode": "33023"}}},
{"geometry": {"type": "Point", "coordinates": [-80.2148531714, 25.9846170472]}, "type": "Feature", "properties": {"collection_times": [{"days": "Mon-Sat", "time": "1:00pm"}, {"days": "Sun", "time": "Closed"}], "id": "3302300008", "name": "USPS COLLECTION BOX - BLUE BOX", "address": {"city": "HOLLYWOOD HILLS", "state": "FL", "street": "6401 MIRAMAR PKWY", "postcode": "33023"}}},
{"geometry": {"type": "Point", "coordinates": [-80.2461215528, 25.9867783363]}, "type": "Feature", "properties": {"collection_times": [{"days": "Mon-Sat", "time": "1:00pm"}, {"days": "Sun", "time": "Closed"}], "id": "3302300009", "name": "USPS COLLECTION BOX - BLUE BOX", "address": {"city": "HOLLYWOOD HILLS", "state": "FL", "street": "2600 TARPON DR", "postcode": "33023"}}},
{"geometry": {"type": "Point", "coordinates": [-80.2315871108, 26.0048080473]}, "type": "Feature", "properties": {"collection_times": [{"days": "Mon-Sat", "time": "9:30am"}, {"days": "Sun", "time": "Closed"}], "id": "3302300021", "name": "USPS COLLECTION BOX - BLUE BOX", "address": {"city": "HOLLYWOOD HILLS", "state": "FL", "street": "600 SW 72ND AVE", "postcode": "33023"}}},
{"geometry": {"type": "Point", "coordinates": [-80.2215901551, 26.0065418213]}, "type": "Feature", "properties": {"collection_times": [{"days": "Mon-Sat", "time": "1:00pm"}, {"days": "Sun", "time": "Closed"}], "id": "3302300022", "name": "USPS COLLECTION BOX - BLUE BOX", "address": {"city": "HOLLYWOOD HILLS", "state": "FL", "street": "6711 SW 5TH ST", "postcode": "33023"}}},
{"geometry": {"type": "Point", "coordinates": [-80.2078711018, 26.0025872048]}, "type": "Feature", "properties": {"collection_times": [{"days": "Mon-Sat", "time": "1:00pm"}, {"days": "Sun", "time": "Closed"}], "id": "3302300025", "name": "USPS COLLECTION BOX - BLUE BOX", "address": {"city": "HOLLYWOOD HILLS", "state": "FL", "street": "6024 WASHINGTON ST", "postcode": "33023"}}},
{"geometry": {"type": "Point", "coordinates": [-80.2072830828, 26.0026179036]}, "type": "Feature", "properties": {"collection_times": [{"days": "Mon-Sat", "time": "1:00pm"}, {"days": "Sun", "time": "Closed"}], "id": "3302300027", "name": "USPS COLLECTION BOX - BLUE BOX", "address": {"city": "HOLLYWOOD HILLS", "state": "FL", "street": "901 S STATE ROAD 7", "postcode": "33023"}}},
{"geometry": {"type": "Point", "coordinates": [-80.2016998716, 26.0060790271]}, "type": "Feature", "properties": {"collection_times": [{"days": "Mon-Sat", "time": "1:00pm"}, {"days": "Sun", "time": "Closed"}], "id": "3302300028", "name": "USPS COLLECTION BOX - BLUE BOX", "address": {"city": "HOLLYWOOD HILLS", "state": "FL", "street": "510 S 57TH TER", "postcode": "33023"}}},
{"geometry": {"type": "Point", "coordinates": [-80.2069216476, 25.9938677987]}, "type": "Feature", "properties": {"collection_times": [{"days": "Mon-Fri", "time": "5:00pm"}, {"days": "Sat", "time": "1:00pm"}, {"days": "Sun", "time": "Closed"}], "id": "3302300030", "name": "USPS COLLECTION BOX - BLUE BOX", "address": {"city": "HOLLYWOOD HILLS", "state": "FL", "street": "1965 S STATE ROAD 7", "postcode": "33023"}}},
{"geometry": {"type": "Point", "coordinates": [-80.2069216476, 25.9938677987]}, "type": "Feature", "properties": {"collection_times": [{"days": "Mon-Fri", "time": "5:00pm"}, {"days": "Sat", "time": "1:00pm"}, {"days": "Sun", "time": "Closed"}], "id": "3302300031", "name": "USPS COLLECTION BOX - BLUE BOX", "address": {"city": "HOLLYWOOD HILLS", "state": "FL", "street": "1965 S STATE ROAD 7", "postcode": "33023"}}},
{"geometry": {"type": "Point", "coordinates": [-80.2266178845, 25.9818403212]}, "type": "Feature", "properties": {"collection_times": [{"days": "Mon-Sat", "time": "1:00pm"}, {"days": "Sun", "time": "Closed"}], "id": "3302300035", "name": "USPS COLLECTION BOX - BLUE BOX", "address": {"city": "HOLLYWOOD HILLS", "state": "FL", "street": "6890 MIRAMAR PKWY", "postcode": "33023"}}},
{"geometry": {"type": "Point", "coordinates": [-80.2460695432, 25.9740532184]}, "type": "Feature", "properties": {"collection_times": [{"days": "Mon-Fri", "time": "2:45pm"}, {"days": "Sat-Sun", "time": "Closed"}], "id": "3302300040", "name": "USPS COLLECTION BOX - BLUE BOX", "address": {"city": "HOLLYWOOD HILLS", "state": "FL", "street": "7990 RIVIERA BLVD", "postcode": "33023"}}},
{"geometry": {"type": "Point", "coordinates": [-80.2670917164, 26.0229625056]}, "type": "Feature", "properties": {"collection_times": [{"days": "Mon-Sat", "time": "10:00am"}, {"days": "Sun", "time": "Closed"}], "id": "3302400000", "name": "USPS COLLECTION BOX - BLUE BOX", "address": {"city": "PEMBROKE PINES", "state": "FL", "street": "9101 TAFT ST", "postcode": "33024"}}},
{"geometry": {"type": "Point", "coordinates": [-80.2658106896, 26.0085000577]}, "type": "Feature", "properties": {"collection_times": [{"days": "Mon-Sat", "time": "9:00am"}, {"days": "Sun", "time": "Closed"}], "id": "3302400001", "name": "USPS COLLECTION BOX - BLUE BOX", "address": {"city": "PEMBROKE PINES", "state": "FL", "street": "9050 PINES BLVD", "postcode": "33024"}}},
{"geometry": {"type": "Point", "coordinates": [-80.2493657182, 26.0177850887]}, "type": "Feature", "properties": {"collection_times": [{"days": "Mon-Fri", "time": "1:30pm"}, {"days": "Sat", "time": "1:00pm"}, {"days": "Sun", "time": "Closed"}], "id": "3302400003", "name": "USPS COLLECTION BOX - BLUE BOX", "address": {"city": "PEMBROKE PINES", "state": "FL", "street": "8080 NW 11 ST", "postcode": "33024"}}},
{"geometry": {"type": "Point", "coordinates": [-80.2452310475, 26.0093690507]}, "type": "Feature", "properties": {"collection_times": [{"days": "Mon-Fri", "time": "1:30pm"}, {"days": "Sat", "time": "1:00pm"}, {"days": "Sun", "time": "Closed"}], "id": "3302400004", "name": "USPS COLLECTION BOX - BLUE BOX", "address": {"city": "PEMBROKE PINES", "state": "FL", "street": "7863 HOLLYWOOD BLVD", "postcode": "33024"}}},
{"geometry": {"type": "Point", "coordinates": [-80.2337285441, 26.0093555824]}, "type": "Feature", "properties": {"collection_times": [{"days": "Mon-Sat", "time": "9:00am"}, {"days": "Sun", "time": "Closed"}], "id": "3302400005", "name": "USPS COLLECTION BOX - BLUE BOX", "address": {"city": "PEMBROKE PINES", "state": "FL", "street": "7300 HOLLYWOOD BLVD", "postcode": "33024"}}},
{"geometry": {"type": "Point", "coordinates": [-80.219459822, 26.0246703115]}, "type": "Feature", "properties": {"collection_times": [{"days": "Mon-Fri", "time": "1:30pm"}, {"days": "Sat", "time": "1:00pm"}, {"days": "Sun", "time": "Closed"}], "id": "3302400007", "name": "USPS COLLECTION BOX - BLUE BOX", "address": {"city": "PEMBROKE PINES", "state": "FL", "street": "6565 TAFT ST", "postcode": "33024"}}},
{"geometry": {"type": "Point", "coordinates": [-80.219459822, 26.0246703115]}, "type": "Feature", "properties": {"collection_times": [{"days": "Mon-Fri", "time": "1:30pm"}, {"days": "Sat", "time": "1:00pm"}, {"days": "Sun", "time": "Closed"}], "id": "3302400008", "name": "USPS COLLECTION BOX - BLUE BOX", "address": {"city": "PEMBROKE PINES", "state": "FL", "street": "6565 TAFT ST", "postcode": "33024"}}},
{"geometry": {"type": "Point", "coordinates": [-80.2149630531, 26.0462957023]}, "type": "Feature", "properties": {"collection_times": [{"days": "Mon-Fri", "time": "1:30pm"}, {"days": "Sat", "time": "1:00pm"}, {"days": "Sun", "time": "Closed"}], "id": "3302400009", "name": "USPS COLLECTION BOX - BLUE BOX", "address": {"city": "PEMBROKE PINES", "state": "FL", "street": "6300 STIRLING RD", "postcode": "33024"}}},
{"geometry": {"type": "Point", "coordinates": [-80.249031245, 26.0297658975]}, "type": "Feature", "properties": {"collection_times": [{"days": "Mon-Sat", "time": "5:00pm"}, {"days": "Sun", "time": "Closed"}], "id": "3302400011", "name": "USPS COLLECTION BOX - BLUE BOX", "address": {"city": "PEMBROKE PINES", "state": "FL", "street": "2350 N UNIVERSITY DR", "postcode": "33024"}}},
{"geometry": {"type": "Point", "coordinates": [-80.249031245, 26.0297658975]}, "type": "Feature", "properties": {"collection_times": [{"days": "Mon-Sat", "time": "5:00pm"}, {"days": "Sun", "time": "Closed"}], "id": "3302400014", "name": "USPS COLLECTION BOX - BLUE BOX", "address": {"city": "PEMBROKE PINES", "state": "FL", "street": "2350 N UNIVERSITY DR", "postcode": "33024"}}},
{"geometry": {"type": "Point", "coordinates": [-80.249031245, 26.0297658975]}, "type": "Feature", "properties": {"collection_times": [{"days": "Mon-Sat", "time": "5:00pm"}, {"days": "Sun", "time": "Closed"}], "id": "3302400015", "name": "USPS COLLECTION BOX - BLUE BOX", "address": {"city": "PEMBROKE PINES", "state": "FL", "street": "2350 N UNIVERSITY DR", "postcode": "33024"}}},
{"geometry": {"type": "Point", "coordinates": [-80.2488301977, 26.0242739413]}, "type": "Feature", "properties": {"collection_times": [{"days": "Mon-Sat", "time": "10:00am"}, {"days": "Sun", "time": "Closed"}], "id": "3302400016", "name": "USPS COLLECTION BOX - BLUE BOX", "address": {"city": "PEMBROKE PINES", "state": "FL", "street": "1732 N UNIVERSITY DR", "postcode": "33024"}}},
{"geometry": {"type": "Point", "coordinates": [-80.2483181588, 26.0109221831]}, "type": "Feature", "properties": {"collection_times": [{"days": "Mon-Sat", "time": "9:00am"}, {"days": "Sun", "time": "Closed"}], "id": "3302400017", "name": "USPS COLLECTION BOX - BLUE BOX", "address": {"city": "PEMBROKE PINES", "state": "FL", "street": "154 N UNIVERSITY DR", "postcode": "33024"}}},
{"geometry": {"type": "Point", "coordinates": [-80.2788038871, 26.0084004558]}, "type": "Feature", "properties": {"collection_times": [{"days": "Mon-Fri", "time": "1:30pm"}, {"days": "Sat", "time": "1:00pm"}, {"days": "Sun", "time": "Closed"}], "id": "3302400018", "name": "USPS COLLECTION BOX - BLUE BOX", "address": {"city": "PEMBROKE PINES", "state": "FL", "street": "10041 PINES BLVD", "postcode": "33024"}}},
{"geometry": {"type": "Point", "coordinates": [-80.2791628004, 26.0444623101]}, "type": "Feature", "properties": {"collection_times": [{"days": "Mon-Fri", "time": "1:30pm"}, {"days": "Sat", "time": "1:00pm"}, {"days": "Sun", "time": "Closed"}], "id": "3302400019", "name": "USPS COLLECTION BOX - BLUE BOX", "address": {"city": "PEMBROKE PINES", "state": "FL", "street": "10000 STIRLING RD", "postcode": "33024"}}},
{"geometry": {"type": "Point", "coordinates": [-80.2306812415, 26.0440285143]}, "type": "Feature", "properties": {"collection_times": [{"days": "Mon-Fri", "time": "1:30pm"}, {"days": "Sat", "time": "1:00pm"}, {"days": "Sun", "time": "Closed"}], "id": "3302400020", "name": "USPS COLLECTION BOX - BLUE BOX", "address": {"city": "PEMBROKE PINES", "state": "FL", "street": "100 CARRIAGE HILLS DR", "postcode": "33024"}}},
{"geometry": {"type": "Point", "coordinates": [-80.2430891757, 26.0246617858]}, "type": "Feature", "properties": {"collection_times": [{"days": "Mon-Sat", "time": "5:00pm"}, {"days": "Sun", "time": "Closed"}], "id": "3302400024", "name": "USPS COLLECTION BOX - EXPRESS", "address": {"city": "PEMBROKE PINES", "state": "FL", "street": "2350 N UNIVERSITY DR", "postcode": "33024"}}},
{"geometry": {"type": "Point", "coordinates": [-80.2788038871, 26.0084004558]}, "type": "Feature", "properties": {"collection_times": [{"days": "Mon-Fri", "time": "1:30pm"}, {"days": "Sat", "time": "1:00pm"}, {"days": "Sun", "time": "Closed"}], "id": "3302400025", "name": "USPS COLLECTION BOX - BLUE BOX", "address": {"city": "PEMBROKE PINES", "state": "FL", "street": "10041 PINES BLVD", "postcode": "33024"}}},
{"geometry": {"type": "Point", "coordinates": [-80.2449365312, 26.0270799968]}, "type": "Feature", "properties": {"collection_times": [{"days": "Mon-Sat", "time": "5:00pm"}, {"days": "Sun", "time": "Closed"}], "id": "3302400028", "name": "USPS COLLECTION BOX - PO LOBBY", "address": {"city": "PEMBROKE PINES", "state": "FL", "street": "2350 N UNIVERSITY DR", "postcode": "33024"}}},
{"geometry": {"type": "Point", "coordinates": [-80.2474760609, 26.0090170316]}, "type": "Feature", "properties": {"collection_times": [{"days": "Mon-Fri", "time": "5:00pm"}, {"days": "Sat", "time": "3:00pm"}, {"days": "Sun", "time": "Closed"}], "id": "3302400029", "name": "USPS COLLECTION BOX - PO LOBBY", "address": {"city": "PEMBROKE PINES", "state": "FL", "street": "7972 PINES BLVD", "postcode": "33024"}}},
{"geometry": {"type": "Point", "coordinates": [-80.249031245, 26.0297658975]}, "type": "Feature", "properties": {"collection_times": [{"days": "Mon-Sat", "time": "5:00pm"}, {"days": "Sun", "time": "Closed"}], "id": "3302400030", "name": "USPS COLLECTION BOX - APC", "address": {"city": "PEMBROKE PINES", "state": "FL", "street": "2350 N UNIVERSITY DR", "postcode": "33024"}}},
{"geometry": {"type": "Point", "coordinates": [-80.2474760609, 26.0090170316]}, "type": "Feature", "properties": {"collection_times": [{"days": "Mon-Fri", "time": "5:00pm"}, {"days": "Sat", "time": "3:00pm"}, {"days": "Sun", "time": "Closed"}], "id": "3302400031", "name": "USPS COLLECTION BOX - APC", "address": {"city": "PEMBROKE PINES", "state": "FL", "street": "7972 PINES BLVD", "postcode": "33024"}}},
{"geometry": {"type": "Point", "coordinates": [-80.247307945, 25.9806890453]}, "type": "Feature", "properties": {"collection_times": [{"days": "Mon-Sat", "time": "2:00pm"}, {"days": "Sun", "time": "Closed"}], "id": "3302500000", "name": "USPS COLLECTION BOX - BLUE BOX", "address": {"city": "MIRAMAR", "state": "FL", "street": "3200 S UNIVERSITY DR", "postcode": "33025"}}},
{"geometry": {"type": "Point", "coordinates": [-80.2687817143, 25.9965106584]}, "type": "Feature", "properties": {"collection_times": [{"days": "Mon-Sat", "time": "2:00pm"}, {"days": "Sun", "time": "Closed"}], "id": "3302500001", "name": "USPS COLLECTION BOX - BLUE BOX", "address": {"city": "MIRAMAR", "state": "FL", "street": "9420 S HOLLYBROOK LAKE DR", "postcode": "33025"}}},
{"geometry": {"type": "Point", "coordinates": [-80.2631012004, 25.980935951]}, "type": "Feature", "properties": {"collection_times": [{"days": "Mon-Sat", "time": "2:00pm"}, {"days": "Sun", "time": "Closed"}], "id": "3302500004", "name": "USPS COLLECTION BOX - BLUE BOX", "address": {"city": "MIRAMAR", "state": "FL", "street": "8910 MIRAMAR PKWY", "postcode": "33025"}}},
{"geometry": {"type": "Point", "coordinates": [-80.2655473939, 26.0037309641]}, "type": "Feature", "properties": {"collection_times": [{"days": "Mon-Sat", "time": "2:00pm"}, {"days": "Sun", "time": "Closed"}], "id": "3302500006", "name": "USPS COLLECTION BOX - BLUE BOX", "address": {"city": "MIRAMAR", "state": "FL", "street": "611 S HOLLYBROOK DR", "postcode": "33025"}}},
{"geometry": {"type": "Point", "coordinates": [-80.2814336566, 25.9874471989]}, "type": "Feature", "properties": {"collection_times": [{"days": "Mon-Fri", "time": "5:00pm"}, {"days": "Sat", "time": "2:00pm"}, {"days": "Sun", "time": "Closed"}], "id": "3302500008", "name": "USPS COLLECTION BOX - BLUE BOX", "address": {"city": "MIRAMAR", "state": "FL", "street": "3991 BUSINESS DR", "postcode": "33025"}}},
{"geometry": {"type": "Point", "coordinates": [-80.30984173, 25.993317582]}, "type": "Feature", "properties": {"collection_times": [{"days": "Mon-Fri", "time": "5:00pm"}, {"days": "Sat", "time": "2:00pm"}, {"days": "Sun", "time": "Closed"}], "id": "3302500012", "name": "USPS COLLECTION BOX - BLUE BOX", "address": {"city": "MIRAMAR", "state": "FL", "street": "12289 PEMBROKE RD", "postcode": "33025"}}},
{"geometry": {"type": "Point", "coordinates": [-80.2814336566, 25.9874471989]}, "type": "Feature", "properties": {"collection_times": [{"days": "Mon-Sat", "time": "2:00pm"}, {"days": "Sun", "time": "Closed"}], "id": "3302500016", "name": "USPS COLLECTION BOX - BLUE BOX", "address": {"city": "MIRAMAR", "state": "FL", "street": "8800 SW 20 ST", "postcode": "33025"}}},
{"geometry": {"type": "Point", "coordinates": [-80.3003868593, 25.9874808719]}, "type": "Feature", "properties": {"collection_times": [{"days": "Mon-Fri", "time": "5:00pm"}, {"days": "Sat", "time": "2:00pm"}, {"days": "Sun", "time": "Closed"}], "id": "3302500017", "name": "USPS COLLECTION BOX - BLUE BOX", "address": {"city": "MIRAMAR", "state": "FL", "street": "2300 CIVIC CENTER PL", "postcode": "33025"}}},
{"geometry": {"type": "Point", "coordinates": [-80.2819203142, 26.0223810844]}, "type": "Feature", "properties": {"collection_times": [{"days": "Mon-Sat", "time": "2:00pm"}, {"days": "Sun", "time": "Closed"}], "id": "3302600001", "name": "USPS COLLECTION BOX - BLUE BOX", "address": {"city": "PEMBROKE PINES", "state": "FL", "street": "10150 TAFT ST", "postcode": "33026"}}},
{"geometry": {"type": "Point", "coordinates": [-80.2993571781, 26.0221059347]}, "type": "Feature", "properties": {"collection_times": [{"days": "Mon-Sat", "time": "2:00pm"}, {"days": "Sun", "time": "Closed"}], "id": "3302600003", "name": "USPS COLLECTION BOX - BLUE BOX", "address": {"city": "PEMBROKE PINES", "state": "FL", "street": "1655 N HIATUS RD", "postcode": "33026"}}},
{"geometry": {"type": "Point", "coordinates": [-80.2963973643, 26.0259305818]}, "type": "Feature", "properties": {"collection_times": [{"days": "Mon-Sat", "time": "2:00pm"}, {"days": "Sun", "time": "Closed"}], "id": "3302600005", "name": "USPS COLLECTION BOX - BLUE BOX", "address": {"city": "PEMBROKE PINES", "state": "FL", "street": "2601 STONEBRIDGE PKWY", "postcode": "33026"}}},
{"geometry": {"type": "Point", "coordinates": [-80.3032551273, 26.0431145294]}, "type": "Feature", "properties": {"collection_times": [{"days": "Mon-Sat", "time": "2:00pm"}, {"days": "Sun", "time": "Closed"}], "id": "3302600006", "name": "USPS COLLECTION BOX - BLUE BOX", "address": {"city": "PEMBROKE PINES", "state": "FL", "street": "11700 STONEBRIDGE PKWY", "postcode": "33026"}}},
{"geometry": {"type": "Point", "coordinates": [-80.3110022112, 26.0224287344]}, "type": "Feature", "properties": {"collection_times": [{"days": "Mon-Sat", "time": "2:00pm"}, {"days": "Sun", "time": "Closed"}], "id": "3302600011", "name": "USPS COLLECTION BOX - BLUE BOX", "address": {"city": "PEMBROKE PINES", "state": "FL", "street": "1701 NW 123RD AVE", "postcode": "33026"}}},
{"geometry": {"type": "Point", "coordinates": [-80.2819203142, 26.0223810844]}, "type": "Feature", "properties": {"collection_times": [{"days": "Mon-Sat", "time": "2:00pm"}, {"days": "Sun", "time": "Closed"}], "id": "3302600012", "name": "USPS COLLECTION BOX - BLUE BOX", "address": {"city": "PEMBROKE PINES", "state": "FL", "street": "10150 TAFT ST", "postcode": "33026"}}},
{"geometry": {"type": "Point", "coordinates": [-80.3119125305, 26.013397225]}, "type": "Feature", "properties": {"collection_times": [{"days": "Mon-Sat", "time": "2:00pm"}, {"days": "Sun", "time": "Closed"}], "id": "3302600013", "name": "USPS COLLECTION BOX - BLUE BOX", "address": {"city": "PEMBROKE PINES", "state": "FL", "street": "601 N FLAMINGO RD", "postcode": "33026"}}},
{"geometry": {"type": "Point", "coordinates": [-80.2798666028, 26.0083618513]}, "type": "Feature", "properties": {"collection_times": [{"days": "Mon-Fri", "time": "2:00pm"}, {"days": "Sat-Sun", "time": "Closed"}], "id": "3302600014", "name": "USPS COLLECTION BOX - BLUE BOX", "address": {"city": "PEMBROKE PINES", "state": "FL", "street": "10100 PINES BLVD", "postcode": "33026"}}},
{"geometry": {"type": "Point", "coordinates": [-80.3155308586, 26.0075849442]}, "type": "Feature", "properties": {"collection_times": [{"days": "Mon-Sat", "time": "5:00pm"}, {"days": "Sun", "time": "Closed"}], "id": "3302600015", "name": "USPS COLLECTION BOX - BLUE BOX", "address": {"city": "PEMBROKE PINES", "state": "FL", "street": "12590 PINES BLVD", "postcode": "33026"}}},
{"geometry": {"type": "Point", "coordinates": [-80.3155308586, 26.0075849442]}, "type": "Feature", "properties": {"collection_times": [{"days": "Mon-Sat", "time": "5:00pm"}, {"days": "Sun", "time": "Closed"}], "id": "3302600017", "name": "USPS COLLECTION BOX - PO LOBBY", "address": {"city": "PEMBROKE PINES", "state": "FL", "street": "12590 PINES BLVD", "postcode": "33026"}}},
{"geometry": {"type": "Point", "coordinates": [-80.2803377071, 26.0217011424]}, "type": "Feature", "properties": {"collection_times": [{"days": "Mon-Sat", "time": "2:00pm"}, {"days": "Sun", "time": "Closed"}], "id": "3302600023", "name": "USPS COLLECTION BOX - BLUE BOX", "address": {"city": "PEMBROKE PINES", "state": "FL", "street": "1601 N PALM AVE", "postcode": "33026"}}},
{"geometry": {"type": "Point", "coordinates": [-80.2957767123, 26.0235016693]}, "type": "Feature", "properties": {"collection_times": [{"days": "Mon-Sat", "time": "5:00pm"}, {"days": "Sun", "time": "Closed"}], "id": "3302600024", "name": "USPS COLLECTION BOX - EXPRESS", "address": {"city": "PEMBROKE PINES", "state": "FL", "street": "12590 PINES BLVD", "postcode": "33026"}}},
{"geometry": {"type": "Point", "coordinates": [-80.3119853644, 26.0043203307]}, "type": "Feature", "properties": {"collection_times": [{"days": "Mon-Sat", "time": "2:30pm"}, {"days": "Sun", "time": "Closed"}], "id": "3302700000", "name": "USPS COLLECTION BOX - BLUE BOX", "address": {"city": "PEMBROKE PINES", "state": "FL", "street": "320 S FLAMINGO RD", "postcode": "33027"}}},
{"geometry": {"type": "Point", "coordinates": [-80.3281566199, 25.9994343775]}, "type": "Feature", "properties": {"collection_times": [{"days": "Mon-Sat", "time": "2:30pm"}, {"days": "Sun", "time": "Closed"}], "id": "3302700001", "name": "USPS COLLECTION BOX - BLUE BOX", "address": {"city": "PEMBROKE PINES", "state": "FL", "street": "1000 SW 136 AVE", "postcode": "33027"}}},
{"geometry": {"type": "Point", "coordinates": [-80.3120153075, 26.0053830882]}, "type": "Feature", "properties": {"collection_times": [{"days": "Mon-Sat", "time": "2:30pm"}, {"days": "Sun", "time": "Closed"}], "id": "3302700002", "name": "USPS COLLECTION BOX - BLUE BOX", "address": {"city": "PEMBROKE PINES", "state": "FL", "street": "170 S FLAMINGO RD", "postcode": "33027"}}},
{"geometry": {"type": "Point", "coordinates": [-80.3464383566, 25.9806385058]}, "type": "Feature", "properties": {"collection_times": [{"days": "Mon-Fri", "time": "5:00pm"}, {"days": "Sat", "time": "4:00pm"}, {"days": "Sun", "time": "Closed"}], "id": "3302700008", "name": "USPS COLLECTION BOX - BLUE BOX", "address": {"city": "PEMBROKE PINES", "state": "FL", "street": "14900 SW 30TH ST", "postcode": "33027"}}},
{"geometry": {"type": "Point", "coordinates": [-80.3464383566, 25.9806385058]}, "type": "Feature", "properties": {"collection_times": [{"days": "Mon-Fri", "time": "5:00pm"}, {"days": "Sat", "time": "4:00pm"}, {"days": "Sun", "time": "Closed"}], "id": "3302700010", "name": "USPS COLLECTION BOX - BLUE BOX", "address": {"city": "PEMBROKE PINES", "state": "FL", "street": "14900 SW 30TH ST", "postcode": "33027"}}},
{"geometry": {"type": "Point", "coordinates": [-80.3464383566, 25.9806385058]}, "type": "Feature", "properties": {"collection_times": [{"days": "Mon-Fri", "time": "5:00pm"}, {"days": "Sat", "time": "4:00pm"}, {"days": "Sun", "time": "Closed"}], "id": "3302700011", "name": "USPS COLLECTION BOX - PO LOBBY", "address": {"city": "PEMBROKE PINES", "state": "FL", "street": "14900 SW 30TH ST", "postcode": "33027"}}},
{"geometry": {"type": "Point", "coordinates": [-80.4311600072, 26.0078983016]}, "type": "Feature", "properties": {"collection_times": [{"days": "Mon-Fri", "time": "5:00pm"}, {"days": "Sat", "time": "4:00pm"}, {"days": "Sun", "time": "Closed"}], "id": "3302900002", "name": "USPS COLLECTION BOX - BLUE BOX", "address": {"city": "PEMBROKE PINES", "state": "FL", "street": "21001 PINES BLVD", "postcode": "33029"}}},
{"geometry": {"type": "Point", "coordinates": [-80.4271454124, 26.00791839]}, "type": "Feature", "properties": {"collection_times": [{"days": "Mon-Fri", "time": "5:00pm"}, {"days": "Sat", "time": "4:00pm"}, {"days": "Sun", "time": "Closed"}], "id": "3302900004", "name": "USPS COLLECTION BOX - PO LOBBY", "address": {"city": "PEMBROKE PINES", "state": "FL", "street": "21001 PINES BLVD", "postcode": "33029"}}},
{"geometry": {"type": "Point", "coordinates": [-80.4752287959, 25.4756177892]}, "type": "Feature", "properties": {"collection_times": [{"days": "Mon-Fri", "time": "1:00pm"}, {"days": "Sat", "time": "3:00pm"}, {"days": "Sun", "time": "Closed"}], "id": "3303000001", "name": "USPS COLLECTION BOX - BLUE BOX", "address": {"city": "HOMESTEAD", "state": "FL", "street": "600 ENGLISH AVE", "postcode": "33030"}}},
{"geometry": {"type": "Point", "coordinates": [-80.4752287959, 25.4756177892]}, "type": "Feature", "properties": {"collection_times": [{"days": "Mon-Fri", "time": "1:00pm"}, {"days": "Sat", "time": "3:00pm"}, {"days": "Sun", "time": "Closed"}], "id": "3303000002", "name": "USPS COLLECTION BOX - BLUE BOX", "address": {"city": "HOMESTEAD", "state": "FL", "street": "600 ENGLISH AVE", "postcode": "33030"}}},
{"geometry": {"type": "Point", "coordinates": [-80.4763549728, 25.4768173096]}, "type": "Feature", "properties": {"collection_times": [{"days": "Mon-Sat", "time": "5:00pm"}, {"days": "Sun", "time": "Closed"}], "id": "3303000003", "name": "USPS COLLECTION BOX - BLUE BOX", "address": {"city": "HOMESTEAD", "state": "FL", "street": "739 WASHINGTON AVE", "postcode": "33030"}}},
{"geometry": {"type": "Point", "coordinates": [-80.4763549728, 25.4768173096]}, "type": "Feature", "properties": {"collection_times": [{"days": "Mon-Sat", "time": "5:00pm"}, {"days": "Sun", "time": "Closed"}], "id": "3303000004", "name": "USPS COLLECTION BOX - BLUE BOX", "address": {"city": "HOMESTEAD", "state": "FL", "street": "739 WASHINGTON AVE", "postcode": "33030"}}},
{"geometry": {"type": "Point", "coordinates": [-80.4687268441, 25.4760494536]}, "type": "Feature", "properties": {"collection_times": [{"days": "Mon-Sat", "time": "1:00pm"}, {"days": "Sun", "time": "Closed"}], "id": "3303000006", "name": "USPS COLLECTION BOX - BLUE BOX", "address": {"city": "HOMESTEAD", "state": "FL", "street": "715 NE 1ST RD", "postcode": "33030"}}},
{"geometry": {"type": "Point", "coordinates": [-80.497347404, 25.4771024646]}, "type": "Feature", "properties": {"collection_times": [{"days": "Mon-Fri", "time": "1:00pm"}, {"days": "Sat", "time": "3:00pm"}, {"days": "Sun", "time": "Closed"}], "id": "3303000007", "name": "USPS COLLECTION BOX - BLUE BOX", "address": {"city": "HOMESTEAD", "state": "FL", "street": "1750 NE 8TH ST", "postcode": "33030"}}},
{"geometry": {"type": "Point", "coordinates": [-80.4645923154, 25.478665804]}, "type": "Feature", "properties": {"collection_times": [{"days": "Mon-Fri", "time": "1:00pm"}, {"days": "Sat", "time": "3:00pm"}, {"days": "Sun", "time": "Closed"}], "id": "3303000008", "name": "USPS COLLECTION BOX - BLUE BOX", "address": {"city": "HOMESTEAD", "state": "FL", "street": "850 N HOMESTEAD BLVD", "postcode": "33030"}}},
{"geometry": {"type": "Point", "coordinates": [-80.478340559, 25.488983635]}, "type": "Feature", "properties": {"collection_times": [{"days": "Mon-Sat", "time": "1:00pm"}, {"days": "Sun", "time": "Closed"}], "id": "3303000012", "name": "USPS COLLECTION BOX - BLUE BOX", "address": {"city": "HOMESTEAD", "state": "FL", "street": "28 NW 20TH ST", "postcode": "33030"}}},
{"geometry": {"type": "Point", "coordinates": [-80.4772920009, 25.473523637]}, "type": "Feature", "properties": {"collection_times": [{"days": "Mon-Fri", "time": "1:00pm"}, {"days": "Sat", "time": "3:00pm"}, {"days": "Sun", "time": "Closed"}], "id": "3303000021", "name": "USPS COLLECTION BOX - BLUE BOX", "address": {"city": "HOMESTEAD", "state": "FL", "street": "401 N KROME AVE", "postcode": "33030"}}},
{"geometry": {"type": "Point", "coordinates": [-80.4861878884, 25.4780731289]}, "type": "Feature", "properties": {"collection_times": [{"days": "Mon-Sat", "time": "5:00pm"}, {"days": "Sun", "time": "Closed"}], "id": "3303000029", "name": "USPS COLLECTION BOX - EXPRESS", "address": {"city": "HOMESTEAD", "state": "FL", "street": "739 WASHINGTON AVE", "postcode": "33030"}}},
{"geometry": {"type": "Point", "coordinates": [-80.4644208955, 25.4783954145]}, "type": "Feature", "properties": {"collection_times": [{"days": "Mon-Fri", "time": "1:00pm"}, {"days": "Sat", "time": "3:00pm"}, {"days": "Sun", "time": "Closed"}], "id": "3303000032", "name": "USPS COLLECTION BOX - BLUE BOX", "address": {"city": "HOMESTEAD", "state": "FL", "street": "891 N HOMESTEAD BLVD", "postcode": "33030"}}},
{"geometry": {"type": "Point", "coordinates": [-80.4763549728, 25.4768173096]}, "type": "Feature", "properties": {"collection_times": [{"days": "Mon-Sat", "time": "5:00pm"}, {"days": "Sun", "time": "Closed"}], "id": "3303000033", "name": "USPS COLLECTION BOX - PO LOBBY", "address": {"city": "HOMESTEAD", "state": "FL", "street": "739 WASHINGTON AVE", "postcode": "33030"}}},
{"geometry": {"type": "Point", "coordinates": [-80.4763549728, 25.4768173096]}, "type": "Feature", "properties": {"collection_times": [{"days": "Mon-Sat", "time": "5:00pm"}, {"days": "Sun", "time": "Closed"}], "id": "3303000034", "name": "USPS COLLECTION BOX - APC", "address": {"city": "HOMESTEAD", "state": "FL", "street": "739 WASHINGTON AVE", "postcode": "33030"}}},
{"geometry": {"type": "Point", "coordinates": [-80.4110934926, 25.5346391608]}, "type": "Feature", "properties": {"collection_times": [{"days": "Mon-Fri", "time": "5:00pm"}, {"days": "Sat", "time": "1:00pm"}, {"days": "Sun", "time": "Closed"}], "id": "3303200001", "name": "USPS COLLECTION BOX - BLUE BOX", "address": {"city": "HOMESTEAD", "state": "FL", "street": "13500 SW 250TH ST", "postcode": "33032"}}},
{"geometry": {"type": "Point", "coordinates": [-80.4110934926, 25.5346391608]}, "type": "Feature", "properties": {"collection_times": [{"days": "Mon-Fri", "time": "5:00pm"}, {"days": "Sat", "time": "1:00pm"}, {"days": "Sun", "time": "Closed"}], "id": "3303200002", "name": "USPS COLLECTION BOX - BLUE BOX", "address": {"city": "HOMESTEAD", "state": "FL", "street": "13500 SW 250TH ST", "postcode": "33032"}}},
{"geometry": {"type": "Point", "coordinates": [-80.403767479, 25.5274237014]}, "type": "Feature", "properties": {"collection_times": [{"days": "Mon-Fri", "time": "5:00pm"}, {"days": "Sat", "time": "1:00pm"}, {"days": "Sun", "time": "Closed"}], "id": "3303200003", "name": "USPS COLLECTION BOX - EXPRESS", "address": {"city": "HOMESTEAD", "state": "FL", "street": "13500 SW 250TH ST", "postcode": "33032"}}},
{"geometry": {"type": "Point", "coordinates": [-80.4333279331, 25.5109559864]}, "type": "Feature", "properties": {"collection_times": [{"days": "Mon-Sat", "time": "1:00pm"}, {"days": "Sun", "time": "Closed"}], "id": "3303200004", "name": "USPS COLLECTION BOX - BLUE BOX", "address": {"city": "HOMESTEAD", "state": "FL", "street": "14850 NARANJA LAKES BLVD", "postcode": "33032"}}},
{"geometry": {"type": "Point", "coordinates": [-80.4110934926, 25.5346391608]}, "type": "Feature", "properties": {"collection_times": [{"days": "Mon-Fri", "time": "5:30pm"}, {"days": "Sat", "time": "5:00pm"}, {"days": "Sun", "time": "Closed"}], "id": "3303200007", "name": "USPS COLLECTION BOX - PO LOBBY", "address": {"city": "HOMESTEAD", "state": "FL", "street": "13500 SW 250TH ST", "postcode": "33032"}}},
{"geometry": {"type": "Point", "coordinates": [-80.4449367657, 25.4988700306]}, "type": "Feature", "properties": {"collection_times": [{"days": "Mon-Fri", "time": "1:00pm"}, {"days": "Sat", "time": "3:00pm"}, {"days": "Sun", "time": "Closed"}], "id": "3303300004", "name": "USPS COLLECTION BOX - BLUE BOX", "address": {"city": "HOMESTEAD", "state": "FL", "street": "28801 SW 157TH AVE", "postcode": "33033"}}},
{"geometry": {"type": "Point", "coordinates": [-80.4612267372, 25.4602725048]}, "type": "Feature", "properties": {"collection_times": [{"days": "Mon-Fri", "time": "1:00pm"}, {"days": "Sat", "time": "3:00pm"}, {"days": "Sun", "time": "Closed"}], "id": "3303400003", "name": "USPS COLLECTION BOX - BLUE BOX", "address": {"city": "FLORIDA CITY", "state": "FL", "street": "1120 N FRANKLIN AVE", "postcode": "33034"}}},
{"geometry": {"type": "Point", "coordinates": [-80.4926884473, 25.4478582814]}, "type": "Feature", "properties": {"collection_times": [{"days": "Mon-Sat", "time": "5:00pm"}, {"days": "Sun", "time": "Closed"}], "id": "3303400009", "name": "USPS COLLECTION BOX - BLUE BOX", "address": {"city": "FLORIDA CITY", "state": "FL", "street": "1000 W PALM DR", "postcode": "33034"}}},
{"geometry": {"type": "Point", "coordinates": [-80.4926884473, 25.4478582814]}, "type": "Feature", "properties": {"collection_times": [{"days": "Mon-Sat", "time": "5:00pm"}, {"days": "Sun", "time": "Closed"}], "id": "3303400010", "name": "USPS COLLECTION BOX - BLUE BOX", "address": {"city": "FLORIDA CITY", "state": "FL", "street": "1000 W PALM DR", "postcode": "33034"}}},
{"geometry": {"type": "Point", "coordinates": [-80.4913063049, 25.4461938236]}, "type": "Feature", "properties": {"collection_times": [{"days": "Mon-Sat", "time": "5:00pm"}, {"days": "Sun", "time": "Closed"}], "id": "3303400011", "name": "USPS COLLECTION BOX - EXPRESS", "address": {"city": "FLORIDA CITY", "state": "FL", "street": "1000 W PALM DR", "postcode": "33034"}}},
{"geometry": {"type": "Point", "coordinates": [-80.4926884473, 25.4478582814]}, "type": "Feature", "properties": {"collection_times": [{"days": "Mon-Sat", "time": "5:00pm"}, {"days": "Sun", "time": "Closed"}], "id": "3303400012", "name": "USPS COLLECTION BOX - PO LOBBY", "address": {"city": "FLORIDA CITY", "state": "FL", "street": "1000 W PALM DR", "postcode": "33034"}}},
{"geometry": {"type": "Point", "coordinates": [-80.6230018633, 24.9286876887]}, "type": "Feature", "properties": {"collection_times": [{"days": "Mon-Fri", "time": "3:45pm"}, {"days": "Sat", "time": "1:00pm"}, {"days": "Sun", "time": "Closed"}], "id": "3303600003", "name": "USPS COLLECTION BOX - BLUE BOX", "address": {"city": "ISLAMORADA", "state": "FL", "street": "82801 OVERSEAS HWY", "postcode": "33036"}}},
{"geometry": {"type": "Point", "coordinates": [-80.6230018633, 24.9286876887]}, "type": "Feature", "properties": {"collection_times": [{"days": "Mon-Fri", "time": "3:45pm"}, {"days": "Sat", "time": "1:00pm"}, {"days": "Sun", "time": "Closed"}], "id": "3303600005", "name": "USPS COLLECTION BOX - BLUE BOX", "address": {"city": "ISLAMORADA", "state": "FL", "street": "82801 OVERSEAS HWY", "postcode": "33036"}}},
{"geometry": {"type": "Point", "coordinates": [-80.6230018633, 24.9286876887]}, "type": "Feature", "properties": {"collection_times": [{"days": "Mon-Fri", "time": "3:45pm"}, {"days": "Sat", "time": "1:00pm"}, {"days": "Sun", "time": "Closed"}], "id": "3303600006", "name": "USPS COLLECTION BOX - PO LOBBY", "address": {"city": "ISLAMORADA", "state": "FL", "street": "82801 OVERSEAS HWY", "postcode": "33036"}}},
{"geometry": {"type": "Point", "coordinates": [-80.4357789718, 25.0990749]}, "type": "Feature", "properties": {"collection_times": [{"days": "Mon-Fri", "time": "4:30pm"}, {"days": "Sat", "time": "1:00pm"}, {"days": "Sun", "time": "Closed"}], "id": "3303700006", "name": "USPS COLLECTION BOX - BLUE BOX", "address": {"city": "KEY LARGO", "state": "FL", "street": "100100 OVERSEAS HWY", "postcode": "33037"}}},
{"geometry": {"type": "Point", "coordinates": [-80.4357789718, 25.0990749]}, "type": "Feature", "properties": {"collection_times": [{"days": "Mon-Fri", "time": "4:30pm"}, {"days": "Sat", "time": "1:00pm"}, {"days": "Sun", "time": "Closed"}], "id": "3303700007", "name": "USPS COLLECTION BOX - BLUE BOX", "address": {"city": "KEY LARGO", "state": "FL", "street": "100100 OVERSEAS HWY", "postcode": "33037"}}},
{"geometry": {"type": "Point", "coordinates": [-80.4357789718, 25.0990749]}, "type": "Feature", "properties": {"collection_times": [{"days": "Mon-Fri", "time": "4:30pm"}, {"days": "Sat", "time": "1:00pm"}, {"days": "Sun", "time": "Closed"}], "id": "3303700011", "name": "USPS COLLECTION BOX - PO LOBBY", "address": {"city": "KEY LARGO", "state": "FL", "street": "100100 OVERSEAS HWY", "postcode": "33037"}}},
{"geometry": {"type": "Point", "coordinates": [-80.283760156, 25.3120022904]}, "type": "Feature", "properties": {"collection_times": [{"days": "Mon-Sat", "time": "10:30am"}, {"days": "Sun", "time": "Closed"}], "id": "3303700012", "name": "USPS COLLECTION BOX - BLUE BOX", "address": {"city": "KEY LARGO", "state": "FL", "street": "31 OCEAN REEF DR", "postcode": "33037"}}},
{"geometry": {"type": "Point", "coordinates": [-80.3889060973, 25.48699699]}, "type": "Feature", "properties": {"collection_times": [{"days": "Mon-Fri", "time": "1:00pm"}, {"days": "Sat-Sun", "time": "Closed"}], "id": "3303900000", "name": "USPS COLLECTION BOX - BLUE BOX", "address": {"city": "HOMESTEAD", "state": "FL", "street": "920 BOUGAINVILLE BLVD RM 129", "postcode": "33039"}}},
{"geometry": {"type": "Point", "coordinates": [-81.8043257796, 24.5557252388]}, "type": "Feature", "properties": {"collection_times": [{"days": "Mon-Fri", "time": "5:00pm"}, {"days": "Sat", "time": "1:00pm"}, {"days": "Sun", "time": "Closed"}], "id": "3304000001", "name": "USPS COLLECTION BOX - BLUE BOX", "address": {"city": "KEY WEST", "state": "FL", "street": "400 WHITEHEAD ST", "postcode": "33040"}}},
{"geometry": {"type": "Point", "coordinates": [-81.8043257796, 24.5557252388]}, "type": "Feature", "properties": {"collection_times": [{"days": "Mon-Fri", "time": "5:00pm"}, {"days": "Sat", "time": "1:00pm"}, {"days": "Sun", "time": "Closed"}], "id": "3304000002", "name": "USPS COLLECTION BOX - BLUE BOX", "address": {"city": "KEY WEST", "state": "FL", "street": "400 WHITEHEAD ST", "postcode": "33040"}}},
{"geometry": {"type": "Point", "coordinates": [-81.7721878562, 24.5616028438]}, "type": "Feature", "properties": {"collection_times": [{"days": "Mon-Fri", "time": "5:00pm"}, {"days": "Sat", "time": "1:00pm"}, {"days": "Sun", "time": "Closed"}], "id": "3304000003", "name": "USPS COLLECTION BOX - EXPRESS", "address": {"city": "KEY WEST", "state": "FL", "street": "400 WHITEHEAD ST", "postcode": "33040"}}},
{"geometry": {"type": "Point", "coordinates": [-81.7973309432, 24.5595047927]}, "type": "Feature", "properties": {"collection_times": [{"days": "Mon-Sat", "time": "10:20am"}, {"days": "Sun", "time": "Closed"}], "id": "3304000004", "name": "USPS COLLECTION BOX - BLUE BOX", "address": {"city": "KEY WEST", "state": "FL", "street": "922 FLEMING ST", "postcode": "33040"}}},
{"geometry": {"type": "Point", "coordinates": [-81.7704211233, 24.5836070279]}, "type": "Feature", "properties": {"collection_times": [{"days": "Mon-Fri", "time": "11:20am"}, {"days": "Sat", "time": "11:30am"}, {"days": "Sun", "time": "Closed"}], "id": "3304000012", "name": "USPS COLLECTION BOX - BLUE BOX", "address": {"city": "KEY WEST", "state": "FL", "street": "815 SIGSBEE RD", "postcode": "33040"}}},
{"geometry": {"type": "Point", "coordinates": [-81.7669022089, 24.5692688957]}, "type": "Feature", "properties": {"collection_times": [{"days": "Mon-Fri", "time": "11:20am"}, {"days": "Sat", "time": "11:30am"}, {"days": "Sun", "time": "Closed"}], "id": "3304000015", "name": "USPS COLLECTION BOX - BLUE BOX", "address": {"city": "KEY WEST", "state": "FL", "street": "3200 N ROOSEVELT BLVD", "postcode": "33040"}}},
{"geometry": {"type": "Point", "coordinates": [-81.7669022089, 24.5692688957]}, "type": "Feature", "properties": {"collection_times": [{"days": "Mon-Fri", "time": "11:20am"}, {"days": "Sat", "time": "11:30am"}, {"days": "Sun", "time": "Closed"}], "id": "3304000016", "name": "USPS COLLECTION BOX - BLUE BOX", "address": {"city": "KEY WEST", "state": "FL", "street": "3200 N ROOSEVELT BLVD", "postcode": "33040"}}},
{"geometry": {"type": "Point", "coordinates": [-81.763462828, 24.5619239438]}, "type": "Feature", "properties": {"collection_times": [{"days": "Mon-Fri", "time": "11:05am"}, {"days": "Sat", "time": "11:15am"}, {"days": "Sun", "time": "Closed"}], "id": "3304000017", "name": "USPS COLLECTION BOX - BLUE BOX", "address": {"city": "KEY WEST", "state": "FL", "street": "3216 FLAGLER AVE", "postcode": "33040"}}},
{"geometry": {"type": "Point", "coordinates": [-81.763462828, 24.5619239438]}, "type": "Feature", "properties": {"collection_times": [{"days": "Mon-Fri", "time": "11:05am"}, {"days": "Sat", "time": "11:15am"}, {"days": "Sun", "time": "Closed"}], "id": "3304000018", "name": "USPS COLLECTION BOX - BLUE BOX", "address": {"city": "KEY WEST", "state": "FL", "street": "3216 FLAGLER AVE", "postcode": "33040"}}},
{"geometry": {"type": "Point", "coordinates": [-81.7615511664, 24.5643726688]}, "type": "Feature", "properties": {"collection_times": [{"days": "Mon-Fri", "time": "11:05am"}, {"days": "Sat", "time": "11:15am"}, {"days": "Sun", "time": "Closed"}], "id": "3304000019", "name": "USPS COLLECTION BOX - BLUE BOX", "address": {"city": "KEY WEST", "state": "FL", "street": "3333 DUCK AVE", "postcode": "33040"}}},
{"geometry": {"type": "Point", "coordinates": [-81.736077328, 24.5725232561]}, "type": "Feature", "properties": {"collection_times": [{"days": "Mon-Fri", "time": "11:30am"}, {"days": "Sat", "time": "11:45am"}, {"days": "Sun", "time": "Closed"}], "id": "3304000022", "name": "USPS COLLECTION BOX - BLUE BOX", "address": {"city": "KEY WEST", "state": "FL", "street": "5690 MALONEY AVE", "postcode": "33040"}}},
{"geometry": {"type": "Point", "coordinates": [-81.6808585872, 24.5781861736]}, "type": "Feature", "properties": {"collection_times": [{"days": "Mon-Fri", "time": "11:30am"}, {"days": "Sat", "time": "11:45am"}, {"days": "Sun", "time": "Closed"}], "id": "3304000024", "name": "USPS COLLECTION BOX - BLUE BOX", "address": {"city": "KEY WEST", "state": "FL", "street": "5991 KEY HAVEN RD", "postcode": "33040"}}},
{"geometry": {"type": "Point", "coordinates": [-81.7430153823, 24.5819053037]}, "type": "Feature", "properties": {"collection_times": [{"days": "Mon-Fri", "time": "11:30am"}, {"days": "Sat", "time": "11:45am"}, {"days": "Sun", "time": "Closed"}], "id": "3304000026", "name": "USPS COLLECTION BOX - BLUE BOX", "address": {"city": "KEY WEST", "state": "FL", "street": "5900 COLLEGE RD", "postcode": "33040"}}},
{"geometry": {"type": "Point", "coordinates": [-81.7566424278, 24.5522133163]}, "type": "Feature", "properties": {"collection_times": [{"days": "Mon-Fri", "time": "10:50am"}, {"days": "Sat", "time": "11:00am"}, {"days": "Sun", "time": "Closed"}], "id": "3304000030", "name": "USPS COLLECTION BOX - BLUE BOX", "address": {"city": "KEY WEST", "state": "FL", "street": "3495 S ROOSEVELT BLVD", "postcode": "33040"}}},
{"geometry": {"type": "Point", "coordinates": [-81.8030611964, 24.5589464361]}, "type": "Feature", "properties": {"collection_times": [{"days": "Mon-Sat", "time": "10:20am"}, {"days": "Sun", "time": "Closed"}], "id": "3304000035", "name": "USPS COLLECTION BOX - BLUE BOX", "address": {"city": "KEY WEST", "state": "FL", "street": "601 CAROLINE ST", "postcode": "33040"}}},
{"geometry": {"type": "Point", "coordinates": [-81.8060939673, 24.560138484]}, "type": "Feature", "properties": {"collection_times": [{"days": "Mon-Sat", "time": "10:20am"}, {"days": "Sun", "time": "Closed"}], "id": "3304000037", "name": "USPS COLLECTION BOX - BLUE BOX", "address": {"city": "KEY WEST", "state": "FL", "street": "100 DUVAL ST", "postcode": "33040"}}},
{"geometry": {"type": "Point", "coordinates": [-81.8030611964, 24.5589464361]}, "type": "Feature", "properties": {"collection_times": [{"days": "Mon-Sat", "time": "10:20am"}, {"days": "Sun", "time": "Closed"}], "id": "3304000038", "name": "USPS COLLECTION BOX - BLUE BOX", "address": {"city": "KEY WEST", "state": "FL", "street": "601 CAROLINE ST", "postcode": "33040"}}},
{"geometry": {"type": "Point", "coordinates": [-81.8009431885, 24.5513133461]}, "type": "Feature", "properties": {"collection_times": [{"days": "Mon-Sat", "time": "10:35am"}, {"days": "Sun", "time": "Closed"}], "id": "3304000043", "name": "USPS COLLECTION BOX - BLUE BOX", "address": {"city": "KEY WEST", "state": "FL", "street": "901 WHITEHEAD ST", "postcode": "33040"}}},
{"geometry": {"type": "Point", "coordinates": [-81.8024921932, 24.5545884152]}, "type": "Feature", "properties": {"collection_times": [{"days": "Mon-Sat", "time": "10:35am"}, {"days": "Sun", "time": "Closed"}], "id": "3304000045", "name": "USPS COLLECTION BOX - BLUE BOX", "address": {"city": "KEY WEST", "state": "FL", "street": "424 SOUTHARD ST", "postcode": "33040"}}},
{"geometry": {"type": "Point", "coordinates": [-81.786145363, 24.5590099622]}, "type": "Feature", "properties": {"collection_times": [{"days": "Mon-Fri", "time": "10:50am"}, {"days": "Sat", "time": "11:00am"}, {"days": "Sun", "time": "Closed"}], "id": "3304000048", "name": "USPS COLLECTION BOX - BLUE BOX", "address": {"city": "KEY WEST", "state": "FL", "street": "1720 N ROOSEVELT BLVD", "postcode": "33040"}}},
{"geometry": {"type": "Point", "coordinates": [-81.7685910365, 24.564554062]}, "type": "Feature", "properties": {"collection_times": [{"days": "Mon-Fri", "time": "11:05am"}, {"days": "Sat", "time": "11:15am"}, {"days": "Sun", "time": "Closed"}], "id": "3304000049", "name": "USPS COLLECTION BOX - BLUE BOX", "address": {"city": "KEY WEST", "state": "FL", "street": "1111 12TH ST", "postcode": "33040"}}},
{"geometry": {"type": "Point", "coordinates": [-81.7685910365, 24.564554062]}, "type": "Feature", "properties": {"collection_times": [{"days": "Mon-Fri", "time": "11:05am"}, {"days": "Sat", "time": "11:15am"}, {"days": "Sun", "time": "Closed"}], "id": "3304000050", "name": "USPS COLLECTION BOX - BLUE BOX", "address": {"city": "KEY WEST", "state": "FL", "street": "1111 12TH ST", "postcode": "33040"}}},
{"geometry": {"type": "Point", "coordinates": [-81.7873663784, 24.5511468237]}, "type": "Feature", "properties": {"collection_times": [{"days": "Mon-Fri", "time": "10:50am"}, {"days": "Sat", "time": "10:55am"}, {"days": "Sun", "time": "Closed"}], "id": "3304000054", "name": "USPS COLLECTION BOX - BLUE BOX", "address": {"city": "KEY WEST", "state": "FL", "street": "1425 WHITE ST", "postcode": "33040"}}},
{"geometry": {"type": "Point", "coordinates": [-81.8027913714, 24.5561258519]}, "type": "Feature", "properties": {"collection_times": [{"days": "Mon-Sat", "time": "10:20am"}, {"days": "Sun", "time": "Closed"}], "id": "3304000058", "name": "USPS COLLECTION BOX - BLUE BOX", "address": {"city": "KEY WEST", "state": "FL", "street": "505 FLEMING ST", "postcode": "33040"}}},
{"geometry": {"type": "Point", "coordinates": [-81.7965764242, 24.550028049]}, "type": "Feature", "properties": {"collection_times": [{"days": "Mon-Sat", "time": "10:35am"}, {"days": "Sun", "time": "Closed"}], "id": "3304000061", "name": "USPS COLLECTION BOX - BLUE BOX", "address": {"city": "KEY WEST", "state": "FL", "street": "1200 SIMONTON ST", "postcode": "33040"}}},
{"geometry": {"type": "Point", "coordinates": [-81.7985946517, 24.5503328804]}, "type": "Feature", "properties": {"collection_times": [{"days": "Mon-Fri", "time": "10:35am"}, {"days": "Sat", "time": "10:55am"}, {"days": "Sun", "time": "Closed"}], "id": "3304000065", "name": "USPS COLLECTION BOX - BLUE BOX", "address": {"city": "KEY WEST", "state": "FL", "street": "1075 DUVAL ST", "postcode": "33040"}}},
{"geometry": {"type": "Point", "coordinates": [-81.773422209, 24.5652237904]}, "type": "Feature", "properties": {"collection_times": [{"days": "Mon-Fri", "time": "11:45am"}, {"days": "Sat", "time": "12:00pm"}, {"days": "Sun", "time": "Closed"}], "id": "3304000069", "name": "USPS COLLECTION BOX - BLUE BOX", "address": {"city": "KEY WEST", "state": "FL", "street": "2700 N ROOSEVELT BLVD", "postcode": "33040"}}},
{"geometry": {"type": "Point", "coordinates": [-81.773422209, 24.5652237904]}, "type": "Feature", "properties": {"collection_times": [{"days": "Mon-Fri", "time": "11:45am"}, {"days": "Sat", "time": "12:00pm"}, {"days": "Sun", "time": "Closed"}], "id": "3304000070", "name": "USPS COLLECTION BOX - BLUE BOX", "address": {"city": "KEY WEST", "state": "FL", "street": "2700 N ROOSEVELT BLVD", "postcode": "33040"}}},
{"geometry": {"type": "Point", "coordinates": [-81.6808585872, 24.5781861736]}, "type": "Feature", "properties": {"collection_times": [{"days": "Mon-Fri", "time": "9:30am"}, {"days": "Sat-Sun", "time": "Closed"}], "id": "3304000072", "name": "USPS COLLECTION BOX - BLUE BOX", "address": {"city": "KEY WEST", "state": "FL", "street": "U.S. NAVAL AIR STA", "postcode": "33040"}}},
{"geometry": {"type": "Point", "coordinates": [-81.8043257796, 24.5557252388]}, "type": "Feature", "properties": {"collection_times": [{"days": "Mon-Fri", "time": "5:00pm"}, {"days": "Sat", "time": "1:00pm"}, {"days": "Sun", "time": "Closed"}], "id": "3304000073", "name": "USPS COLLECTION BOX - BLUE BOX", "address": {"city": "KEY WEST", "state": "FL", "street": "400 WHITEHEAD ST", "postcode": "33040"}}},
{"geometry": {"type": "Point", "coordinates": [-81.7918095327, 24.5558326776]}, "type": "Feature", "properties": {"collection_times": [{"days": "Mon-Fri", "time": "10:50am"}, {"days": "Sat", "time": "11:00am"}, {"days": "Sun", "time": "Closed"}], "id": "3304000075", "name": "USPS COLLECTION BOX - BLUE BOX", "address": {"city": "KEY WEST", "state": "FL", "street": "1115 TRUMAN AVE", "postcode": "33040"}}},
{"geometry": {"type": "Point", "coordinates": [-81.7727773309, 24.5656442509]}, "type": "Feature", "properties": {"collection_times": [{"days": "Mon-Fri", "time": "4:15pm"}, {"days": "Sat", "time": "12:00pm"}, {"days": "Sun", "time": "Closed"}], "id": "3304000076", "name": "USPS COLLECTION BOX - BLUE BOX", "address": {"city": "KEY WEST", "state": "FL", "street": "2764 N ROOSEVELT BLVD", "postcode": "33040"}}},
{"geometry": {"type": "Point", "coordinates": [-81.7727773309, 24.5656442509]}, "type": "Feature", "properties": {"collection_times": [{"days": "Mon-Fri", "time": "4:15pm"}, {"days": "Sat", "time": "12:00pm"}, {"days": "Sun", "time": "Closed"}], "id": "3304000077", "name": "USPS COLLECTION BOX - BLUE BOX", "address": {"city": "KEY WEST", "state": "FL", "street": "2764 N ROOSEVELT BLVD", "postcode": "33040"}}},
{"geometry": {"type": "Point", "coordinates": [-81.8043257796, 24.5557252388]}, "type": "Feature", "properties": {"collection_times": [{"days": "Mon-Fri", "time": "5:00pm"}, {"days": "Sat", "time": "4:30pm"}, {"days": "Sun", "time": "Closed"}], "id": "3304000078", "name": "USPS COLLECTION BOX - PO LOBBY", "address": {"city": "KEY WEST", "state": "FL", "street": "400 WHITEHEAD ST", "postcode": "33040"}}},
{"geometry": {"type": "Point", "coordinates": [-81.8043257796, 24.5557252388]}, "type": "Feature", "properties": {"collection_times": [{"days": "Mon-Fri", "time": "5:00pm"}, {"days": "Sat", "time": "1:00pm"}, {"days": "Sun", "time": "Closed"}], "id": "3304000081", "name": "USPS COLLECTION BOX - APC", "address": {"city": "KEY WEST", "state": "FL", "street": "400 WHITEHEAD ST", "postcode": "33040"}}},
{"geometry": {"type": "Point", "coordinates": [-81.4462254569, 24.6613719549]}, "type": "Feature", "properties": {"collection_times": [{"days": "Mon-Sat", "time": "2:00pm"}, {"days": "Sun", "time": "Closed"}], "id": "3304200000", "name": "USPS COLLECTION BOX - BLUE BOX", "address": {"city": "SUMMERLAND KEY", "state": "FL", "street": "24700 OVERSEAS HWY", "postcode": "33042"}}},
{"geometry": {"type": "Point", "coordinates": [-81.4462254569, 24.6613719549]}, "type": "Feature", "properties": {"collection_times": [{"days": "Mon-Sat", "time": "2:00pm"}, {"days": "Sun", "time": "Closed"}], "id": "3304200001", "name": "USPS COLLECTION BOX - PO LOBBY", "address": {"city": "SUMMERLAND KEY", "state": "FL", "street": "24700 OVERSEAS HWY", "postcode": "33042"}}},
{"geometry": {"type": "Point", "coordinates": [-81.3638013247, 24.6697518364]}, "type": "Feature", "properties": {"collection_times": [{"days": "Mon-Sat", "time": "2:00pm"}, {"days": "Sun", "time": "Closed"}], "id": "3304300000", "name": "USPS COLLECTION BOX - BLUE BOX", "address": {"city": "BIG PINE KEY", "state": "FL", "street": "29959 OVERSEAS HWY", "postcode": "33043"}}},
{"geometry": {"type": "Point", "coordinates": [-81.3638013247, 24.6697518364]}, "type": "Feature", "properties": {"collection_times": [{"days": "Mon-Sat", "time": "2:00pm"}, {"days": "Sun", "time": "Closed"}], "id": "3304300001", "name": "USPS COLLECTION BOX - BLUE BOX", "address": {"city": "BIG PINE KEY", "state": "FL", "street": "29959 OVERSEAS HWY", "postcode": "33043"}}},
{"geometry": {"type": "Point", "coordinates": [-81.3638013247, 24.6697518364]}, "type": "Feature", "properties": {"collection_times": [{"days": "Mon-Sat", "time": "2:00pm"}, {"days": "Sun", "time": "Closed"}], "id": "3304300002", "name": "USPS COLLECTION BOX - PO LOBBY", "address": {"city": "BIG PINE KEY", "state": "FL", "street": "29959 OVERSEAS HWY", "postcode": "33043"}}},
{"geometry": {"type": "Point", "coordinates": [-81.0735480616, 24.716974151]}, "type": "Feature", "properties": {"collection_times": [{"days": "Mon-Sat", "time": "10:30am"}, {"days": "Sun", "time": "Closed"}], "id": "3305000001", "name": "USPS COLLECTION BOX - BLUE BOX", "address": {"city": "MARATHON", "state": "FL", "street": "5800 OVERSEAS HWY", "postcode": "33050"}}},
{"geometry": {"type": "Point", "coordinates": [-81.0783793515, 24.715483847]}, "type": "Feature", "properties": {"collection_times": [{"days": "Mon-Sat", "time": "5:00pm"}, {"days": "Sun", "time": "Closed"}], "id": "3305000004", "name": "USPS COLLECTION BOX - BLUE BOX", "address": {"city": "MARATHON", "state": "FL", "street": "5171 OVERSEAS HWY", "postcode": "33050"}}},
{"geometry": {"type": "Point", "coordinates": [-81.0783793515, 24.715483847]}, "type": "Feature", "properties": {"collection_times": [{"days": "Mon-Sat", "time": "5:00pm"}, {"days": "Sun", "time": "Closed"}], "id": "3305000007", "name": "USPS COLLECTION BOX - BLUE BOX", "address": {"city": "MARATHON", "state": "FL", "street": "5171 OVERSEAS HWY", "postcode": "33050"}}},
{"geometry": {"type": "Point", "coordinates": [-81.0783793515, 24.715483847]}, "type": "Feature", "properties": {"collection_times": [{"days": "Mon-Sat", "time": "4:00pm"}, {"days": "Sun", "time": "Closed"}], "id": "3305000016", "name": "USPS COLLECTION BOX - PO LOBBY", "address": {"city": "MARATHON", "state": "FL", "street": "5171 OVERSEAS HWY", "postcode": "33050"}}},
{"geometry": {"type": "Point", "coordinates": [-81.0707048272, 24.7174947443]}, "type": "Feature", "properties": {"collection_times": [{"days": "Mon-Sat", "time": "9:00am"}, {"days": "Sun", "time": "Closed"}], "id": "3305000020", "name": "USPS COLLECTION BOX - BLUE BOX", "address": {"city": "MARATHON", "state": "FL", "street": "6099 OVERSEAS HWY", "postcode": "33050"}}},
{"geometry": {"type": "Point", "coordinates": [-81.0179035427, 24.7213304728]}, "type": "Feature", "properties": {"collection_times": [{"days": "Mon-Fri", "time": "4:00pm"}, {"days": "Sat-Sun", "time": "Closed"}], "id": "3305100002", "name": "USPS COLLECTION BOX - PO LOBBY", "address": {"city": "MARATHON", "state": "FL", "street": "600 W OCEAN DR", "postcode": "33051"}}},
{"geometry": {"type": "Point", "coordinates": [-81.0336895277, 24.729611926]}, "type": "Feature", "properties": {"collection_times": [{"days": "Mon-Fri", "time": "12:00pm"}, {"days": "Sat", "time": "11:00am"}, {"days": "Sun", "time": "Closed"}], "id": "3305200001", "name": "USPS COLLECTION BOX - BLUE BOX", "address": {"city": "MARATHON", "state": "FL", "street": "11400 OVERSEAS HWY", "postcode": "33052"}}},
{"geometry": {"type": "Point", "coordinates": [-81.0336895277, 24.729611926]}, "type": "Feature", "properties": {"collection_times": [{"days": "Mon-Fri", "time": "12:00pm"}, {"days": "Sat-Sun", "time": "Closed"}], "id": "3305200003", "name": "USPS COLLECTION BOX - PO LOBBY", "address": {"city": "MARATHON", "state": "FL", "street": "11400 OVERSEAS HWY", "postcode": "33052"}}},
{"geometry": {"type": "Point", "coordinates": [-80.2530868466, 25.9013659036]}, "type": "Feature", "properties": {"collection_times": [{"days": "Mon-Sat", "time": "1:00pm"}, {"days": "Sun", "time": "Closed"}], "id": "3305400000", "name": "USPS COLLECTION BOX - BLUE BOX", "address": {"city": "OPA LOCKA", "state": "FL", "street": "5500 NW 142ND ST", "postcode": "33054"}}},
{"geometry": {"type": "Point", "coordinates": [-80.2530868466, 25.9013659036]}, "type": "Feature", "properties": {"collection_times": [{"days": "Mon-Fri", "time": "5:00pm"}, {"days": "Sat", "time": "1:00pm"}, {"days": "Sun", "time": "Closed"}], "id": "3305400001", "name": "USPS COLLECTION BOX - BLUE BOX", "address": {"city": "OPA LOCKA", "state": "FL", "street": "550 FISHERMAN ST", "postcode": "33054"}}},
{"geometry": {"type": "Point", "coordinates": [-80.2490157632, 25.9088413192]}, "type": "Feature", "properties": {"collection_times": [{"days": "Mon-Fri", "time": "5:00pm"}, {"days": "Sat", "time": "1:00pm"}, {"days": "Sun", "time": "Closed"}], "id": "3305400002", "name": "USPS COLLECTION BOX - EXPRESS", "address": {"city": "OPA LOCKA", "state": "FL", "street": "550 FISHERMAN ST", "postcode": "33054"}}},
{"geometry": {"type": "Point", "coordinates": [-80.2656711641, 25.9252474792]}, "type": "Feature", "properties": {"collection_times": [{"days": "Mon-Sat", "time": "11:15am"}, {"days": "Sun", "time": "Closed"}], "id": "3305400006", "name": "USPS COLLECTION BOX - BLUE BOX", "address": {"city": "OPA LOCKA", "state": "FL", "street": "3950 NW 167TH ST", "postcode": "33054"}}},
{"geometry": {"type": "Point", "coordinates": [-80.2445198578, 25.9197656474]}, "type": "Feature", "properties": {"collection_times": [{"days": "Mon-Sat", "time": "11:00am"}, {"days": "Sun", "time": "Closed"}], "id": "3305400013", "name": "USPS COLLECTION BOX - BLUE BOX", "address": {"city": "OPA LOCKA", "state": "FL", "street": "15950 NW 27TH AVE", "postcode": "33054"}}},
{"geometry": {"type": "Point", "coordinates": [-80.2514496314, 25.902191609]}, "type": "Feature", "properties": {"collection_times": [{"days": "Mon-Sat", "time": "1:00pm"}, {"days": "Sun", "time": "Closed"}], "id": "3305400016", "name": "USPS COLLECTION BOX - BLUE BOX", "address": {"city": "OPA LOCKA", "state": "FL", "street": "780 FISHERMAN ST", "postcode": "33054"}}},
{"geometry": {"type": "Point", "coordinates": [-80.2530868466, 25.9013659036]}, "type": "Feature", "properties": {"collection_times": [{"days": "Mon-Fri", "time": "5:00pm"}, {"days": "Sat", "time": "1:15pm"}, {"days": "Sun", "time": "Closed"}], "id": "3305400025", "name": "USPS COLLECTION BOX - PO LOBBY", "address": {"city": "OPA LOCKA", "state": "FL", "street": "550 FISHERMAN ST", "postcode": "33054"}}},
{"geometry": {"type": "Point", "coordinates": [-80.2943697486, 25.9520805374]}, "type": "Feature", "properties": {"collection_times": [{"days": "Mon-Sat", "time": "1:00pm"}, {"days": "Sun", "time": "Closed"}], "id": "3305500000", "name": "USPS COLLECTION BOX - BLUE BOX", "address": {"city": "CAROL CITY", "state": "FL", "street": "19501 NW 57 AVE", "postcode": "33055"}}},
{"geometry": {"type": "Point", "coordinates": [-80.2781699716, 25.9546553489]}, "type": "Feature", "properties": {"collection_times": [{"days": "Mon-Sat", "time": "1:00pm"}, {"days": "Sun", "time": "Closed"}], "id": "3305500001", "name": "USPS COLLECTION BOX - BLUE BOX", "address": {"city": "CAROL CITY", "state": "FL", "street": "19951 NW 47 AVE", "postcode": "33055"}}},
{"geometry": {"type": "Point", "coordinates": [-80.2769043786, 25.9309558859]}, "type": "Feature", "properties": {"collection_times": [{"days": "Mon-Sat", "time": "1:00pm"}, {"days": "Sun", "time": "Closed"}], "id": "3305500002", "name": "USPS COLLECTION BOX - BLUE BOX", "address": {"city": "CAROL CITY", "state": "FL", "street": "4690 NW 173 DR", "postcode": "33055"}}},
{"geometry": {"type": "Point", "coordinates": [-80.2767650874, 25.9396053217]}, "type": "Feature", "properties": {"collection_times": [{"days": "Mon-Sat", "time": "1:00pm"}, {"days": "Sun", "time": "Closed"}], "id": "3305500003", "name": "USPS COLLECTION BOX - BLUE BOX", "address": {"city": "CAROL CITY", "state": "FL", "street": "4666 NW 183RD ST", "postcode": "33055"}}},
{"geometry": {"type": "Point", "coordinates": [-80.2690236698, 25.9401042609]}, "type": "Feature", "properties": {"collection_times": [{"days": "Mon-Sat", "time": "1:00pm"}, {"days": "Sun", "time": "Closed"}], "id": "3305500004", "name": "USPS COLLECTION BOX - BLUE BOX", "address": {"city": "CAROL CITY", "state": "FL", "street": "4195 NW 183 ST", "postcode": "33055"}}},
{"geometry": {"type": "Point", "coordinates": [-80.2616111144, 25.9438736552]}, "type": "Feature", "properties": {"collection_times": [{"days": "Mon-Sat", "time": "5:00pm"}, {"days": "Sun", "time": "Closed"}], "id": "3305500006", "name": "USPS COLLECTION BOX - PO LOBBY", "address": {"city": "CAROL CITY", "state": "FL", "street": "18690 NW 37TH AVE", "postcode": "33055"}}},
{"geometry": {"type": "Point", "coordinates": [-80.2541381308, 25.9643378049]}, "type": "Feature", "properties": {"collection_times": [{"days": "Mon-Fri", "time": "1:00pm"}, {"days": "Sat-Sun", "time": "Closed"}], "id": "3305600000", "name": "USPS COLLECTION BOX - BLUE BOX", "address": {"city": "CAROL CITY", "state": "FL", "street": "3185 NW 207TH ST", "postcode": "33056"}}},
{"geometry": {"type": "Point", "coordinates": [-80.2460203752, 25.9407652252]}, "type": "Feature", "properties": {"collection_times": [{"days": "Mon-Fri", "time": "1:00pm"}, {"days": "Sat-Sun", "time": "Closed"}], "id": "3305600003", "name": "USPS COLLECTION BOX - BLUE BOX", "address": {"city": "CAROL CITY", "state": "FL", "street": "2740 NW 183RD ST", "postcode": "33056"}}},
{"geometry": {"type": "Point", "coordinates": [-80.2447114397, 25.9315331923]}, "type": "Feature", "properties": {"collection_times": [{"days": "Mon-Sat", "time": "1:00pm"}, {"days": "Sun", "time": "Closed"}], "id": "3305600004", "name": "USPS COLLECTION BOX - BLUE BOX", "address": {"city": "CAROL CITY", "state": "FL", "street": "17221 NW 27TH AVE", "postcode": "33056"}}},
{"geometry": {"type": "Point", "coordinates": [-80.2483162173, 25.9480419588]}, "type": "Feature", "properties": {"collection_times": [{"days": "Mon-Fri", "time": "5:00pm"}, {"days": "Sat", "time": "1:00pm"}, {"days": "Sun", "time": "Closed"}], "id": "3305600010", "name": "USPS COLLECTION BOX - BLUE BOX", "address": {"city": "CAROL CITY", "state": "FL", "street": "18690 NW 37TH AVE", "postcode": "33056"}}},
{"geometry": {"type": "Point", "coordinates": [-80.1221468373, 26.2110645934]}, "type": "Feature", "properties": {"collection_times": [{"days": "Mon-Fri", "time": "5:00pm"}, {"days": "Sat", "time": "3:00pm"}, {"days": "Sun", "time": "Closed"}], "id": "3306000000", "name": "USPS COLLECTION BOX - BLUE BOX", "address": {"city": "POMPANO BEACH", "state": "FL", "street": "72 E MCNAB RD", "postcode": "33060"}}},
{"geometry": {"type": "Point", "coordinates": [-80.1318449901, 26.2216136309]}, "type": "Feature", "properties": {"collection_times": [{"days": "Mon-Fri", "time": "12:30pm"}, {"days": "Sat", "time": "3:00pm"}, {"days": "Sun", "time": "Closed"}], "id": "3306000002", "name": "USPS COLLECTION BOX - BLUE BOX", "address": {"city": "POMPANO BEACH", "state": "FL", "street": "630 SW 6TH CT", "postcode": "33060"}}},
{"geometry": {"type": "Point", "coordinates": [-80.1232895064, 26.2247887952]}, "type": "Feature", "properties": {"collection_times": [{"days": "Mon-Fri", "time": "12:30pm"}, {"days": "Sat", "time": "3:00pm"}, {"days": "Sun", "time": "Closed"}], "id": "3306000004", "name": "USPS COLLECTION BOX - BLUE BOX", "address": {"city": "POMPANO BEACH", "state": "FL", "street": "445 S CYPRESS RD", "postcode": "33060"}}},
{"geometry": {"type": "Point", "coordinates": [-80.1176887643, 26.2317261311]}, "type": "Feature", "properties": {"collection_times": [{"days": "Mon-Fri", "time": "5:00pm"}, {"days": "Sat", "time": "3:00pm"}, {"days": "Sun", "time": "Closed"}], "id": "3306000006", "name": "USPS COLLECTION BOX - BLUE BOX", "address": {"city": "POMPANO BEACH", "state": "FL", "street": "623 E ATLANTIC BLVD", "postcode": "33060"}}},
{"geometry": {"type": "Point", "coordinates": [-80.1092139327, 26.2315858192]}, "type": "Feature", "properties": {"collection_times": [{"days": "Mon-Fri", "time": "12:30pm"}, {"days": "Sat", "time": "3:00pm"}, {"days": "Sun", "time": "Closed"}], "id": "3306000010", "name": "USPS COLLECTION BOX - BLUE BOX", "address": {"city": "POMPANO BEACH", "state": "FL", "street": "1436 E ATLANTIC BLVD", "postcode": "33060"}}},
{"geometry": {"type": "Point", "coordinates": [-80.1243629325, 26.2109845996]}, "type": "Feature", "properties": {"collection_times": [{"days": "Mon-Fri", "time": "12:30pm"}, {"days": "Sat", "time": "3:00pm"}, {"days": "Sun", "time": "Closed"}], "id": "3306000012", "name": "USPS COLLECTION BOX - BLUE BOX", "address": {"city": "POMPANO BEACH", "state": "FL", "street": "116 W MCNAB RD", "postcode": "33060"}}},
{"geometry": {"type": "Point", "coordinates": [-80.1234591846, 26.2270341974]}, "type": "Feature", "properties": {"collection_times": [{"days": "Mon-Fri", "time": "12:30pm"}, {"days": "Sat-Sun", "time": "Closed"}], "id": "3306000013", "name": "USPS COLLECTION BOX - BLUE BOX", "address": {"city": "POMPANO BEACH", "state": "FL", "street": "12 NE 3RD ST", "postcode": "33060"}}},
{"geometry": {"type": "Point", "coordinates": [-80.1243805729, 26.2311585379]}, "type": "Feature", "properties": {"collection_times": [{"days": "Mon-Fri", "time": "5:00pm"}, {"days": "Sat", "time": "3:00pm"}, {"days": "Sun", "time": "Closed"}], "id": "3306000014", "name": "USPS COLLECTION BOX - BLUE BOX", "address": {"city": "POMPANO BEACH", "state": "FL", "street": "101 SW 1ST AVE", "postcode": "33060"}}},
{"geometry": {"type": "Point", "coordinates": [-80.1044573906, 26.2371875602]}, "type": "Feature", "properties": {"collection_times": [{"days": "Mon-Fri", "time": "5:00pm"}, {"days": "Sat", "time": "4:30pm"}, {"days": "Sun", "time": "Closed"}], "id": "3306000017", "name": "USPS COLLECTION BOX - BLUE BOX", "address": {"city": "POMPANO BEACH", "state": "FL", "street": "1950 NE 6TH ST", "postcode": "33060"}}},
{"geometry": {"type": "Point", "coordinates": [-80.1044573906, 26.2371875602]}, "type": "Feature", "properties": {"collection_times": [{"days": "Mon-Fri", "time": "5:00pm"}, {"days": "Sat", "time": "4:30pm"}, {"days": "Sun", "time": "Closed"}], "id": "3306000018", "name": "USPS COLLECTION BOX - BLUE BOX", "address": {"city": "POMPANO BEACH", "state": "FL", "street": "1950 NE 6TH ST", "postcode": "33060"}}},
{"geometry": {"type": "Point", "coordinates": [-80.124166448, 26.2178780263]}, "type": "Feature", "properties": {"collection_times": [{"days": "Mon-Fri", "time": "12:30pm"}, {"days": "Sat", "time": "3:00pm"}, {"days": "Sun", "time": "Closed"}], "id": "3306000020", "name": "USPS COLLECTION BOX - BLUE BOX", "address": {"city": "POMPANO BEACH", "state": "FL", "street": "951 LYONS PARK DR", "postcode": "33060"}}},
{"geometry": {"type": "Point", "coordinates": [-80.1044573906, 26.2371875602]}, "type": "Feature", "properties": {"collection_times": [{"days": "Mon-Fri", "time": "6:00pm"}, {"days": "Sat", "time": "5:30pm"}, {"days": "Sun", "time": "Closed"}], "id": "3306000022", "name": "USPS COLLECTION BOX - PO LOBBY", "address": {"city": "POMPANO BEACH", "state": "FL", "street": "1950 NE 6TH ST", "postcode": "33060"}}},
{"geometry": {"type": "Point", "coordinates": [-80.1044573906, 26.2371875602]}, "type": "Feature", "properties": {"collection_times": [{"days": "Mon-Fri", "time": "5:00pm"}, {"days": "Sat", "time": "4:30pm"}, {"days": "Sun", "time": "Closed"}], "id": "3306000023", "name": "USPS COLLECTION BOX - APC", "address": {"city": "POMPANO BEACH", "state": "FL", "street": "1950 NE 6TH ST", "postcode": "33060"}}},
{"geometry": {"type": "Point", "coordinates": [-80.090978066, 26.2316797843]}, "type": "Feature", "properties": {"collection_times": [{"days": "Mon-Fri", "time": "12:30pm"}, {"days": "Sat", "time": "3:00pm"}, {"days": "Sun", "time": "Closed"}], "id": "3306200001", "name": "USPS COLLECTION BOX - BLUE BOX", "address": {"city": "POMPANO BEACH", "state": "FL", "street": "15 S OCEAN BLVD", "postcode": "33062"}}},
{"geometry": {"type": "Point", "coordinates": [-80.0935471214, 26.2411907899]}, "type": "Feature", "properties": {"collection_times": [{"days": "Mon-Fri", "time": "12:30pm"}, {"days": "Sat", "time": "3:00pm"}, {"days": "Sun", "time": "Closed"}], "id": "3306200014", "name": "USPS COLLECTION BOX - BLUE BOX", "address": {"city": "POMPANO BEACH", "state": "FL", "street": "2400 E ATLANTIC BLVD", "postcode": "33062"}}},
{"geometry": {"type": "Point", "coordinates": [-80.1011268745, 26.2481485585]}, "type": "Feature", "properties": {"collection_times": [{"days": "Mon-Fri", "time": "12:30pm"}, {"days": "Sat-Sun", "time": "Closed"}], "id": "3306200023", "name": "USPS COLLECTION BOX - BLUE BOX", "address": {"city": "POMPANO BEACH", "state": "FL", "street": "1304 N FEDERAL HWY", "postcode": "33062"}}},
{"geometry": {"type": "Point", "coordinates": [-80.0794231164, 26.2912365056]}, "type": "Feature", "properties": {"collection_times": [{"days": "Mon-Fri", "time": "3:00pm"}, {"days": "Sat-Sun", "time": "Closed"}], "id": "3306200024", "name": "USPS COLLECTION BOX - BLUE BOX", "address": {"city": "POMPANO BEACH", "state": "FL", "street": "1210 HILLSBORO MILE", "postcode": "33062"}}},
{"geometry": {"type": "Point", "coordinates": [-80.1020192676, 26.2418315886]}, "type": "Feature", "properties": {"collection_times": [{"days": "Mon-Fri", "time": "12:30pm"}, {"days": "Sat", "time": "3:00pm"}, {"days": "Sun", "time": "Closed"}], "id": "3306200025", "name": "USPS COLLECTION BOX - BLUE BOX", "address": {"city": "POMPANO BEACH", "state": "FL", "street": "950 N FEDERAL HWY", "postcode": "33062"}}},
{"geometry": {"type": "Point", "coordinates": [-80.1062169371, 26.2147312141]}, "type": "Feature", "properties": {"collection_times": [{"days": "Mon-Fri", "time": "12:30pm"}, {"days": "Sat", "time": "3:00pm"}, {"days": "Sun", "time": "Closed"}], "id": "3306200026", "name": "USPS COLLECTION BOX - BLUE BOX", "address": {"city": "POMPANO BEACH", "state": "FL", "street": "1255 S FEDERAL HWY", "postcode": "33062"}}},
{"geometry": {"type": "Point", "coordinates": [-80.106957269, 26.2104819808]}, "type": "Feature", "properties": {"collection_times": [{"days": "Mon-Fri", "time": "12:30pm"}, {"days": "Sat", "time": "3:00pm"}, {"days": "Sun", "time": "Closed"}], "id": "3306200027", "name": "USPS COLLECTION BOX - BLUE BOX", "address": {"city": "POMPANO BEACH", "state": "FL", "street": "1620 S FEDERAL HWY", "postcode": "33062"}}},
{"geometry": {"type": "Point", "coordinates": [-80.1005568276, 26.2318990046]}, "type": "Feature", "properties": {"collection_times": [{"days": "Mon-Fri", "time": "5:00pm"}, {"days": "Sat", "time": "3:00pm"}, {"days": "Sun", "time": "Closed"}], "id": "3306200029", "name": "USPS COLLECTION BOX - BLUE BOX", "address": {"city": "POMPANO BEACH", "state": "FL", "street": "2335 E ATLANTIC BLVD", "postcode": "33062"}}},
{"geometry": {"type": "Point", "coordinates": [-80.0930326839, 26.2319630665]}, "type": "Feature", "properties": {"collection_times": [{"days": "Mon-Fri", "time": "12:30pm"}, {"days": "Sat", "time": "3:00pm"}, {"days": "Sun", "time": "Closed"}], "id": "3306200030", "name": "USPS COLLECTION BOX - BLUE BOX", "address": {"city": "POMPANO BEACH", "state": "FL", "street": "3169 E ATLANTIC BLVD", "postcode": "33062"}}},
{"geometry": {"type": "Point", "coordinates": [-80.190083101, 26.2445503187]}, "type": "Feature", "properties": {"collection_times": [{"days": "Mon-Fri", "time": "5:00pm"}, {"days": "Sat", "time": "3:00pm"}, {"days": "Sun", "time": "Closed"}], "id": "3306300001", "name": "USPS COLLECTION BOX - BLUE BOX", "address": {"city": "COCONUT CREEK", "state": "FL", "street": "4706 COCONUT CREEK PKWY", "postcode": "33063"}}},
{"geometry": {"type": "Point", "coordinates": [-80.2117044448, 26.2583751093]}, "type": "Feature", "properties": {"collection_times": [{"days": "Mon-Fri", "time": "2:00pm"}, {"days": "Sat", "time": "3:00pm"}, {"days": "Sun", "time": "Closed"}], "id": "3306300005", "name": "USPS COLLECTION BOX - BLUE BOX", "address": {"city": "COCONUT CREEK", "state": "FL", "street": "6500 WINFIELD BLVD", "postcode": "33063"}}},
{"geometry": {"type": "Point", "coordinates": [-80.1962743174, 26.2350321998]}, "type": "Feature", "properties": {"collection_times": [{"days": "Mon-Sat", "time": "11:00am"}, {"days": "Sun", "time": "Closed"}], "id": "3306300006", "name": "USPS COLLECTION BOX - BLUE BOX", "address": {"city": "COCONUT CREEK", "state": "FL", "street": "403 LAKESIDE DR", "postcode": "33063"}}},
{"geometry": {"type": "Point", "coordinates": [-80.2225669009, 26.2352672053]}, "type": "Feature", "properties": {"collection_times": [{"days": "Mon-Fri", "time": "2:00pm"}, {"days": "Sat", "time": "3:00pm"}, {"days": "Sun", "time": "Closed"}], "id": "3306300007", "name": "USPS COLLECTION BOX - BLUE BOX", "address": {"city": "COCONUT CREEK", "state": "FL", "street": "7246 W ATLANTIC BLVD", "postcode": "33063"}}},
{"geometry": {"type": "Point", "coordinates": [-80.225059394, 26.2411699585]}, "type": "Feature", "properties": {"collection_times": [{"days": "Mon-Fri", "time": "2:00pm"}, {"days": "Sat", "time": "3:00pm"}, {"days": "Sun", "time": "Closed"}], "id": "3306300009", "name": "USPS COLLECTION BOX - BLUE BOX", "address": {"city": "COCONUT CREEK", "state": "FL", "street": "7664 MARGATE BLVD", "postcode": "33063"}}},
{"geometry": {"type": "Point", "coordinates": [-80.2288803273, 26.2369171786]}, "type": "Feature", "properties": {"collection_times": [{"days": "Mon-Fri", "time": "2:00pm"}, {"days": "Sat", "time": "3:00pm"}, {"days": "Sun", "time": "Closed"}], "id": "3306300018", "name": "USPS COLLECTION BOX - BLUE BOX", "address": {"city": "COCONUT CREEK", "state": "FL", "street": "7700 NW 5TH CT", "postcode": "33063"}}},
{"geometry": {"type": "Point", "coordinates": [-80.2046958428, 26.2423455744]}, "type": "Feature", "properties": {"collection_times": [{"days": "Mon-Fri", "time": "5:00pm"}, {"days": "Sat", "time": "3:00pm"}, {"days": "Sun", "time": "Closed"}], "id": "3306300022", "name": "USPS COLLECTION BOX - BLUE BOX", "address": {"city": "COCONUT CREEK", "state": "FL", "street": "5790 MARGATE BLVD", "postcode": "33063"}}},
{"geometry": {"type": "Point", "coordinates": [-80.2162201886, 26.2352218683]}, "type": "Feature", "properties": {"collection_times": [{"days": "Mon-Sat", "time": "11:00am"}, {"days": "Sun", "time": "Closed"}], "id": "3306300025", "name": "USPS COLLECTION BOX - BLUE BOX", "address": {"city": "COCONUT CREEK", "state": "FL", "street": "6828 W ATLANTIC BLVD", "postcode": "33063"}}},
{"geometry": {"type": "Point", "coordinates": [-80.1865195658, 26.2461866649]}, "type": "Feature", "properties": {"collection_times": [{"days": "Mon-Fri", "time": "5:00pm"}, {"days": "Sat", "time": "3:00pm"}, {"days": "Sun", "time": "Closed"}], "id": "3306300026", "name": "USPS COLLECTION BOX - BLUE BOX", "address": {"city": "COCONUT CREEK", "state": "FL", "street": "1379 LYONS RD", "postcode": "33063"}}},
{"geometry": {"type": "Point", "coordinates": [-80.190083101, 26.2445503187]}, "type": "Feature", "properties": {"collection_times": [{"days": "Mon-Fri", "time": "5:00pm"}, {"days": "Sat", "time": "3:00pm"}, {"days": "Sun", "time": "Closed"}], "id": "3306300027", "name": "USPS COLLECTION BOX - BLUE BOX", "address": {"city": "COCONUT CREEK", "state": "FL", "street": "4706 COCONUT CREEK PKWY", "postcode": "33063"}}},
{"geometry": {"type": "Point", "coordinates": [-80.188617391, 26.2595778992]}, "type": "Feature", "properties": {"collection_times": [{"days": "Mon-Fri", "time": "5:00pm"}, {"days": "Sat", "time": "3:00pm"}, {"days": "Sun", "time": "Closed"}], "id": "3306300029", "name": "USPS COLLECTION BOX - BLUE BOX", "address": {"city": "COCONUT CREEK", "state": "FL", "street": "4800 W COPANS RD", "postcode": "33063"}}},
{"geometry": {"type": "Point", "coordinates": [-80.190083101, 26.2445503187]}, "type": "Feature", "properties": {"collection_times": [{"days": "Mon-Fri", "time": "5:00pm"}, {"days": "Sat", "time": "4:00pm"}, {"days": "Sun", "time": "Closed"}], "id": "3306300030", "name": "USPS COLLECTION BOX - PO LOBBY", "address": {"city": "COCONUT CREEK", "state": "FL", "street": "4706 COCONUT CREEK PKWY", "postcode": "33063"}}},
{"geometry": {"type": "Point", "coordinates": [-80.2046958428, 26.2423455744]}, "type": "Feature", "properties": {"collection_times": [{"days": "Mon-Fri", "time": "5:00pm"}, {"days": "Sat", "time": "3:00pm"}, {"days": "Sun", "time": "Closed"}], "id": "3306300031", "name": "USPS COLLECTION BOX - BLUE BOX", "address": {"city": "COCONUT CREEK", "state": "FL", "street": "5790 MARGATE BLVD", "postcode": "33063"}}},
{"geometry": {"type": "Point", "coordinates": [-80.2017820817, 26.2608152739]}, "type": "Feature", "properties": {"collection_times": [{"days": "Mon-Fri", "time": "2:00pm"}, {"days": "Sat", "time": "3:00pm"}, {"days": "Sun", "time": "Closed"}], "id": "3306300033", "name": "USPS COLLECTION BOX - BLUE BOX", "address": {"city": "COCONUT CREEK", "state": "FL", "street": "2801 N STATE ROAD 7", "postcode": "33063"}}},
{"geometry": {"type": "Point", "coordinates": [-80.190083101, 26.2445503187]}, "type": "Feature", "properties": {"collection_times": [{"days": "Mon-Sat", "time": "4:00pm"}, {"days": "Sun", "time": "Closed"}], "id": "3306300034", "name": "USPS COLLECTION BOX - APC", "address": {"city": "COCONUT CREEK", "state": "FL", "street": "4706 COCONUT CREEK PKWY", "postcode": "33063"}}},
{"geometry": {"type": "Point", "coordinates": [-80.0985368721, 26.2665102233]}, "type": "Feature", "properties": {"collection_times": [{"days": "Mon-Fri", "time": "1:00pm"}, {"days": "Sat", "time": "3:00pm"}, {"days": "Sun", "time": "Closed"}], "id": "3306400002", "name": "USPS COLLECTION BOX - BLUE BOX", "address": {"city": "POMPANO BEACH", "state": "FL", "street": "2850 N FEDERAL HWY", "postcode": "33064"}}},
{"geometry": {"type": "Point", "coordinates": [-80.0971816401, 26.2762592883]}, "type": "Feature", "properties": {"collection_times": [{"days": "Mon-Fri", "time": "1:00pm"}, {"days": "Sat", "time": "3:00pm"}, {"days": "Sun", "time": "Closed"}], "id": "3306400005", "name": "USPS COLLECTION BOX - BLUE BOX", "address": {"city": "POMPANO BEACH", "state": "FL", "street": "3650 N FEDERAL HWY", "postcode": "33064"}}},
{"geometry": {"type": "Point", "coordinates": [-80.0956308454, 26.2892878853]}, "type": "Feature", "properties": {"collection_times": [{"days": "Mon-Fri", "time": "1:00pm"}, {"days": "Sat", "time": "3:00pm"}, {"days": "Sun", "time": "Closed"}], "id": "3306400007", "name": "USPS COLLECTION BOX - BLUE BOX", "address": {"city": "POMPANO BEACH", "state": "FL", "street": "4701 N FEDERAL HWY", "postcode": "33064"}}},
{"geometry": {"type": "Point", "coordinates": [-80.0970233113, 26.2793980737]}, "type": "Feature", "properties": {"collection_times": [{"days": "Mon-Fri", "time": "1:00pm"}, {"days": "Sat", "time": "3:00pm"}, {"days": "Sun", "time": "Closed"}], "id": "3306400010", "name": "USPS COLLECTION BOX - BLUE BOX", "address": {"city": "POMPANO BEACH", "state": "FL", "street": "3907 N FEDERAL HWY", "postcode": "33064"}}},
{"geometry": {"type": "Point", "coordinates": [-80.0824119534, 26.2913688508]}, "type": "Feature", "properties": {"collection_times": [{"days": "Mon-Fri", "time": "1:00pm"}, {"days": "Sat", "time": "3:00pm"}, {"days": "Sun", "time": "Closed"}], "id": "3306400012", "name": "USPS COLLECTION BOX - BLUE BOX", "address": {"city": "POMPANO BEACH", "state": "FL", "street": "3000 NE 48 CT", "postcode": "33064"}}},
{"geometry": {"type": "Point", "coordinates": [-80.0941531938, 26.2918007644]}, "type": "Feature", "properties": {"collection_times": [{"days": "Mon-Fri", "time": "1:00pm"}, {"days": "Sat", "time": "3:00pm"}, {"days": "Sun", "time": "Closed"}], "id": "3306400013", "name": "USPS COLLECTION BOX - BLUE BOX", "address": {"city": "POMPANO BEACH", "state": "FL", "street": "2131 NE 49 ST", "postcode": "33064"}}},
{"geometry": {"type": "Point", "coordinates": [-80.0950803522, 26.2755185812]}, "type": "Feature", "properties": {"collection_times": [{"days": "Mon-Fri", "time": "5:00pm"}, {"days": "Sat", "time": "3:00pm"}, {"days": "Sun", "time": "Closed"}], "id": "3306400026", "name": "USPS COLLECTION BOX - BLUE BOX", "address": {"city": "POMPANO BEACH", "state": "FL", "street": "2091 NE 36TH ST", "postcode": "33064"}}},
{"geometry": {"type": "Point", "coordinates": [-80.0950810393, 26.2755185614]}, "type": "Feature", "properties": {"collection_times": [{"days": "Mon-Fri", "time": "5:00pm"}, {"days": "Sat", "time": "3:00pm"}, {"days": "Sun", "time": "Closed"}], "id": "3306400028", "name": "USPS COLLECTION BOX - BLUE BOX", "address": {"city": "POMPANO BEACH", "state": "FL", "street": "2091 NE 36TH ST", "postcode": "33064"}}},
{"geometry": {"type": "Point", "coordinates": [-80.095577956, 26.2755513678]}, "type": "Feature", "properties": {"collection_times": [{"days": "Mon-Fri", "time": "5:00pm"}, {"days": "Sat", "time": "3:00pm"}, {"days": "Sun", "time": "Closed"}], "id": "3306400029", "name": "USPS COLLECTION BOX - BLUE BOX", "address": {"city": "POMPANO BEACH", "state": "FL", "street": "2091 NE 36 ST", "postcode": "33064"}}},
{"geometry": {"type": "Point", "coordinates": [-80.120759265, 26.2749475949]}, "type": "Feature", "properties": {"collection_times": [{"days": "Mon-Fri", "time": "5:00pm"}, {"days": "Sat-Sun", "time": "Closed"}], "id": "3306400051", "name": "USPS COLLECTION BOX - BLUE BOX", "address": {"city": "POMPANO BEACH", "state": "FL", "street": "150 E SAMPLE RD", "postcode": "33064"}}},
{"geometry": {"type": "Point", "coordinates": [-80.1273414268, 26.2823651379]}, "type": "Feature", "properties": {"collection_times": [{"days": "Mon-Fri", "time": "1:00pm"}, {"days": "Sat", "time": "3:00pm"}, {"days": "Sun", "time": "Closed"}], "id": "3306400053", "name": "USPS COLLECTION BOX - BLUE BOX", "address": {"city": "POMPANO BEACH", "state": "FL", "street": "4191 NW 3RD AVE", "postcode": "33064"}}},
{"geometry": {"type": "Point", "coordinates": [-80.1441321574, 26.2664497966]}, "type": "Feature", "properties": {"collection_times": [{"days": "Mon-Fri", "time": "1:00pm"}, {"days": "Sat", "time": "3:00pm"}, {"days": "Sun", "time": "Closed"}], "id": "3306400056", "name": "USPS COLLECTION BOX - BLUE BOX", "address": {"city": "POMPANO BEACH", "state": "FL", "street": "3800 PARK CENTRAL BLVD N", "postcode": "33064"}}},
{"geometry": {"type": "Point", "coordinates": [-80.1498526013, 26.274656055]}, "type": "Feature", "properties": {"collection_times": [{"days": "Mon-Fri", "time": "1:00pm"}, {"days": "Sat", "time": "3:00pm"}, {"days": "Sun", "time": "Closed"}], "id": "3306400057", "name": "USPS COLLECTION BOX - BLUE BOX", "address": {"city": "POMPANO BEACH", "state": "FL", "street": "2001 W SAMPLE RD", "postcode": "33064"}}},
{"geometry": {"type": "Point", "coordinates": [-80.0998164254, 26.2672945801]}, "type": "Feature", "properties": {"collection_times": [{"days": "Mon-Fri", "time": "1:00pm"}, {"days": "Sat", "time": "3:00pm"}, {"days": "Sun", "time": "Closed"}], "id": "3306400058", "name": "USPS COLLECTION BOX - BLUE BOX", "address": {"city": "POMPANO BEACH", "state": "FL", "street": "1704 NE 29 ST", "postcode": "33064"}}},
{"geometry": {"type": "Point", "coordinates": [-80.1407158744, 26.2605065398]}, "type": "Feature", "properties": {"collection_times": [{"days": "Mon-Fri", "time": "1:00pm"}, {"days": "Sat", "time": "3:00pm"}, {"days": "Sun", "time": "Closed"}], "id": "3306400059", "name": "USPS COLLECTION BOX - BLUE BOX", "address": {"city": "POMPANO BEACH", "state": "FL", "street": "1301 W COPANS RD", "postcode": "33064"}}},
{"geometry": {"type": "Point", "coordinates": [-80.1413665834, 26.2639702733]}, "type": "Feature", "properties": {"collection_times": [{"days": "Mon-Fri", "time": "1:00pm"}, {"days": "Sat-Sun", "time": "Closed"}], "id": "3306400063", "name": "USPS COLLECTION BOX - BLUE BOX", "address": {"city": "POMPANO BEACH", "state": "FL", "street": "1100 PARK CENTRAL BLVD S", "postcode": "33064"}}},
{"geometry": {"type": "Point", "coordinates": [-80.0912621984, 26.2755954185]}, "type": "Feature", "properties": {"collection_times": [{"days": "Mon-Fri", "time": "1:00pm"}, {"days": "Sat", "time": "3:00pm"}, {"days": "Sun", "time": "Closed"}], "id": "3306400064", "name": "USPS COLLECTION BOX - BLUE BOX", "address": {"city": "POMPANO BEACH", "state": "FL", "street": "2301 W SAMPLE RD", "postcode": "33064"}}},
{"geometry": {"type": "Point", "coordinates": [-80.0992389227, 26.2615486261]}, "type": "Feature", "properties": {"collection_times": [{"days": "Mon-Fri", "time": "1:00pm"}, {"days": "Sat", "time": "3:00pm"}, {"days": "Sun", "time": "Closed"}], "id": "3306400069", "name": "USPS COLLECTION BOX - BLUE BOX", "address": {"city": "POMPANO BEACH", "state": "FL", "street": "2436 N FEDERAL HWY", "postcode": "33064"}}},
{"geometry": {"type": "Point", "coordinates": [-80.0947977534, 26.27208275]}, "type": "Feature", "properties": {"collection_times": [{"days": "Mon-Fri", "time": "1:00pm"}, {"days": "Sat-Sun", "time": "Closed"}], "id": "3306400071", "name": "USPS COLLECTION BOX - BLUE BOX", "address": {"city": "POMPANO BEACH", "state": "FL", "street": "2100 NW 33 ST", "postcode": "33064"}}},
{"geometry": {"type": "Point", "coordinates": [-80.151943053, 26.2572569494]}, "type": "Feature", "properties": {"collection_times": [{"days": "Mon-Fri", "time": "1:00pm"}, {"days": "Sat", "time": "3:00pm"}, {"days": "Sun", "time": "Closed"}], "id": "3306400073", "name": "USPS COLLECTION BOX - BLUE BOX", "address": {"city": "POMPANO BEACH", "state": "FL", "street": "2175 N POWERLINE RD", "postcode": "33064"}}},
{"geometry": {"type": "Point", "coordinates": [-80.1137017855, 26.2750649197]}, "type": "Feature", "properties": {"collection_times": [{"days": "Mon-Fri", "time": "1:00pm"}, {"days": "Sat", "time": "3:00pm"}, {"days": "Sun", "time": "Closed"}], "id": "3306400076", "name": "USPS COLLECTION BOX - BLUE BOX", "address": {"city": "POMPANO BEACH", "state": "FL", "street": "750 E SAMPLE RD", "postcode": "33064"}}},
{"geometry": {"type": "Point", "coordinates": [-80.095577956, 26.2755513678]}, "type": "Feature", "properties": {"collection_times": [{"days": "Mon-Fri", "time": "5:15pm"}, {"days": "Sat", "time": "2:00pm"}, {"days": "Sun", "time": "Closed"}], "id": "3306400078", "name": "USPS COLLECTION BOX - PO LOBBY", "address": {"city": "POMPANO BEACH", "state": "FL", "street": "2091 NE 36 ST", "postcode": "33064"}}},
{"geometry": {"type": "Point", "coordinates": [-80.2577504528, 26.2726069423]}, "type": "Feature", "properties": {"collection_times": [{"days": "Mon-Fri", "time": "1:30pm"}, {"days": "Sat", "time": "3:00pm"}, {"days": "Sun", "time": "Closed"}], "id": "3306500000", "name": "USPS COLLECTION BOX - BLUE BOX", "address": {"city": "MARGATE", "state": "FL", "street": "9835 W SAMPLE RD", "postcode": "33065"}}},
{"geometry": {"type": "Point", "coordinates": [-80.2345417248, 26.2568928326]}, "type": "Feature", "properties": {"collection_times": [{"days": "Mon-Fri", "time": "1:30pm"}, {"days": "Sat", "time": "3:00pm"}, {"days": "Sun", "time": "Closed"}], "id": "3306500002", "name": "USPS COLLECTION BOX - BLUE BOX", "address": {"city": "MARGATE", "state": "FL", "street": "8120 ROYAL PALM BLVD", "postcode": "33065"}}},
{"geometry": {"type": "Point", "coordinates": [-80.2422614028, 26.2796057047]}, "type": "Feature", "properties": {"collection_times": [{"days": "Mon-Fri", "time": "1:30pm"}, {"days": "Sat", "time": "3:00pm"}, {"days": "Sun", "time": "Closed"}], "id": "3306500003", "name": "USPS COLLECTION BOX - BLUE BOX", "address": {"city": "MARGATE", "state": "FL", "street": "4000 NW 88 AVE", "postcode": "33065"}}},
{"geometry": {"type": "Point", "coordinates": [-80.234009581, 26.2720668773]}, "type": "Feature", "properties": {"collection_times": [{"days": "Mon-Fri", "time": "1:30pm"}, {"days": "Sat", "time": "3:00pm"}, {"days": "Sun", "time": "Closed"}], "id": "3306500004", "name": "USPS COLLECTION BOX - BLUE BOX", "address": {"city": "MARGATE", "state": "FL", "street": "8090 W SAMPLE RD", "postcode": "33065"}}},
{"geometry": {"type": "Point", "coordinates": [-80.2823737672, 26.2822447135]}, "type": "Feature", "properties": {"collection_times": [{"days": "Mon-Fri", "time": "1:30pm"}, {"days": "Sat", "time": "3:00pm"}, {"days": "Sun", "time": "Closed"}], "id": "3306500005", "name": "USPS COLLECTION BOX - BLUE BOX", "address": {"city": "MARGATE", "state": "FL", "street": "4101 CORAL RIDGE DR", "postcode": "33065"}}},
{"geometry": {"type": "Point", "coordinates": [-80.2501436983, 26.2608572108]}, "type": "Feature", "properties": {"collection_times": [{"days": "Mon-Fri", "time": "1:30pm"}, {"days": "Sat", "time": "3:00pm"}, {"days": "Sun", "time": "Closed"}], "id": "3306500012", "name": "USPS COLLECTION BOX - BLUE BOX", "address": {"city": "MARGATE", "state": "FL", "street": "2444 N UNIVERSITY DR", "postcode": "33065"}}},
{"geometry": {"type": "Point", "coordinates": [-80.2781755491, 26.2725993953]}, "type": "Feature", "properties": {"collection_times": [{"days": "Mon-Fri", "time": "1:30pm"}, {"days": "Sat", "time": "3:00pm"}, {"days": "Sun", "time": "Closed"}], "id": "3306500013", "name": "USPS COLLECTION BOX - BLUE BOX", "address": {"city": "MARGATE", "state": "FL", "street": "11400 W SAMPLE RD", "postcode": "33065"}}},
{"geometry": {"type": "Point", "coordinates": [-80.2638128224, 26.2593241054]}, "type": "Feature", "properties": {"collection_times": [{"days": "Mon-Fri", "time": "1:30pm"}, {"days": "Sat", "time": "3:00pm"}, {"days": "Sun", "time": "Closed"}], "id": "3306500014", "name": "USPS COLLECTION BOX - BLUE BOX", "address": {"city": "MARGATE", "state": "FL", "street": "10337 ROYAL PALM BLVD", "postcode": "33065"}}},
{"geometry": {"type": "Point", "coordinates": [-80.2613772169, 26.2726514014]}, "type": "Feature", "properties": {"collection_times": [{"days": "Mon-Fri", "time": "1:30pm"}, {"days": "Sat", "time": "3:00pm"}, {"days": "Sun", "time": "Closed"}], "id": "3306500015", "name": "USPS COLLECTION BOX - BLUE BOX", "address": {"city": "MARGATE", "state": "FL", "street": "10181 W SAMPLE RD", "postcode": "33065"}}},
{"geometry": {"type": "Point", "coordinates": [-80.2517989352, 26.2710725977]}, "type": "Feature", "properties": {"collection_times": [{"days": "Mon-Fri", "time": "5:00pm"}, {"days": "Sat", "time": "4:00pm"}, {"days": "Sun", "time": "Closed"}], "id": "3306500016", "name": "USPS COLLECTION BOX - BLUE BOX", "address": {"city": "MARGATE", "state": "FL", "street": "3255 NW 94TH AVE", "postcode": "33065"}}},
{"geometry": {"type": "Point", "coordinates": [-80.2517989352, 26.2710725977]}, "type": "Feature", "properties": {"collection_times": [{"days": "Mon-Fri", "time": "5:00pm"}, {"days": "Sat", "time": "4:00pm"}, {"days": "Sun", "time": "Closed"}], "id": "3306500017", "name": "USPS COLLECTION BOX - BLUE BOX", "address": {"city": "MARGATE", "state": "FL", "street": "3255 NW 94TH AVE", "postcode": "33065"}}},
{"geometry": {"type": "Point", "coordinates": [-80.2517989352, 26.2710725977]}, "type": "Feature", "properties": {"collection_times": [{"days": "Mon-Fri", "time": "5:00pm"}, {"days": "Sat", "time": "4:00pm"}, {"days": "Sun", "time": "Closed"}], "id": "3306500018", "name": "USPS COLLECTION BOX - BLUE BOX", "address": {"city": "MARGATE", "state": "FL", "street": "3255 NW 94TH AVE", "postcode": "33065"}}},
{"geometry": {"type": "Point", "coordinates": [-80.2586539213, 26.2723715249]}, "type": "Feature", "properties": {"collection_times": [{"days": "Mon-Fri", "time": "1:30pm"}, {"days": "Sat", "time": "3:00pm"}, {"days": "Sun", "time": "Closed"}], "id": "3306500023", "name": "USPS COLLECTION BOX - BLUE BOX", "address": {"city": "MARGATE", "state": "FL", "street": "9900 W SAMPLE RD", "postcode": "33065"}}},
{"geometry": {"type": "Point", "coordinates": [-80.2517989352, 26.2710725977]}, "type": "Feature", "properties": {"collection_times": [{"days": "Mon-Fri", "time": "5:00pm"}, {"days": "Sat", "time": "4:00pm"}, {"days": "Sun", "time": "Closed"}], "id": "3306500024", "name": "USPS COLLECTION BOX - PO LOBBY", "address": {"city": "MARGATE", "state": "FL", "street": "3255 NW 94TH AVE", "postcode": "33065"}}},
{"geometry": {"type": "Point", "coordinates": [-80.2565891077, 26.2725921446]}, "type": "Feature", "properties": {"collection_times": [{"days": "Mon-Fri", "time": "5:00pm"}, {"days": "Sat", "time": "4:00pm"}, {"days": "Sun", "time": "Closed"}], "id": "3306500025", "name": "USPS COLLECTION BOX - APC", "address": {"city": "MARGATE", "state": "FL", "street": "3255 NW 94TH AVE", "postcode": "33065"}}},
{"geometry": {"type": "Point", "coordinates": [-80.1775629059, 26.2535119251]}, "type": "Feature", "properties": {"collection_times": [{"days": "Mon-Fri", "time": "2:00pm"}, {"days": "Sat", "time": "3:00pm"}, {"days": "Sun", "time": "Closed"}], "id": "3306600002", "name": "USPS COLLECTION BOX - BLUE BOX", "address": {"city": "POMPANO BEACH", "state": "FL", "street": "WYNMOR (WYNMOOR MAIN GATE)", "postcode": "33066"}}},
{"geometry": {"type": "Point", "coordinates": [-80.18122276, 26.242222234]}, "type": "Feature", "properties": {"collection_times": [{"days": "Mon-Fri", "time": "2:00pm"}, {"days": "Sat", "time": "3:00pm"}, {"days": "Sun", "time": "Closed"}], "id": "3306600008", "name": "USPS COLLECTION BOX - BLUE BOX", "address": {"city": "POMPANO BEACH", "state": "FL", "street": "900 NW 43RD AVE", "postcode": "33066"}}},
{"geometry": {"type": "Point", "coordinates": [-80.2469719474, 26.2868106186]}, "type": "Feature", "properties": {"collection_times": [{"days": "Mon-Sat", "time": "1:30pm"}, {"days": "Sun", "time": "Closed"}], "id": "3306700000", "name": "USPS COLLECTION BOX - BLUE BOX", "address": {"city": "CORAL SPRINGS", "state": "FL", "street": "9150 WILES RD", "postcode": "33067"}}},
{"geometry": {"type": "Point", "coordinates": [-80.2074496471, 26.2740259913]}, "type": "Feature", "properties": {"collection_times": [{"days": "Mon-Sat", "time": "1:30pm"}, {"days": "Sun", "time": "Closed"}], "id": "3306700001", "name": "USPS COLLECTION BOX - BLUE BOX", "address": {"city": "CORAL SPRINGS", "state": "FL", "street": "6295 W SAMPLE RD", "postcode": "33067"}}},
{"geometry": {"type": "Point", "coordinates": [-80.2223355347, 26.3106614384]}, "type": "Feature", "properties": {"collection_times": [{"days": "Mon-Sat", "time": "1:30pm"}, {"days": "Sun", "time": "Closed"}], "id": "3306700002", "name": "USPS COLLECTION BOX - BLUE BOX", "address": {"city": "CORAL SPRINGS", "state": "FL", "street": "6500 PARKSIDE DR", "postcode": "33067"}}},
{"geometry": {"type": "Point", "coordinates": [-80.2504632506, 26.2875119536]}, "type": "Feature", "properties": {"collection_times": [{"days": "Mon-Sat", "time": "1:30pm"}, {"days": "Sun", "time": "Closed"}], "id": "3306700003", "name": "USPS COLLECTION BOX - BLUE BOX", "address": {"city": "CORAL SPRINGS", "state": "FL", "street": "4626 N UNIVERSITY DR", "postcode": "33067"}}},
{"geometry": {"type": "Point", "coordinates": [-80.2074496471, 26.2740259913]}, "type": "Feature", "properties": {"collection_times": [{"days": "Mon-Fri", "time": "5:00pm"}, {"days": "Sat", "time": "12:00pm"}, {"days": "Sun", "time": "Closed"}], "id": "3306700004", "name": "USPS COLLECTION BOX - PO LOBBY", "address": {"city": "CORAL SPRINGS", "state": "FL", "street": "6295 W SAMPLE RD", "postcode": "33067"}}},
{"geometry": {"type": "Point", "coordinates": [-80.2074496471, 26.2740259913]}, "type": "Feature", "properties": {"collection_times": [{"days": "Mon-Fri", "time": "5:00pm"}, {"days": "Sat", "time": "12:00pm"}, {"days": "Sun", "time": "Closed"}], "id": "3306700005", "name": "USPS COLLECTION BOX - APC", "address": {"city": "CORAL SPRINGS", "state": "FL", "street": "6295 SAMPLE RD # 19", "postcode": "33067"}}},
{"geometry": {"type": "Point", "coordinates": [-80.2362182148, 26.2057253814]}, "type": "Feature", "properties": {"collection_times": [{"days": "Mon-Fri", "time": "2:00pm"}, {"days": "Sat", "time": "3:00pm"}, {"days": "Sun", "time": "Closed"}], "id": "3306800003", "name": "USPS COLLECTION BOX - BLUE BOX", "address": {"city": "MARGATE", "state": "FL", "street": "1800 SW 81ST AVE", "postcode": "33068"}}},
{"geometry": {"type": "Point", "coordinates": [-80.2139808577, 26.2099752681]}, "type": "Feature", "properties": {"collection_times": [{"days": "Mon-Fri", "time": "2:00pm"}, {"days": "Sat", "time": "3:00pm"}, {"days": "Sun", "time": "Closed"}], "id": "3306800006", "name": "USPS COLLECTION BOX - BLUE BOX", "address": {"city": "MARGATE", "state": "FL", "street": "6601 BLVD OF CHAMPIONS", "postcode": "33068"}}},
{"geometry": {"type": "Point", "coordinates": [-80.2058109147, 26.2155327258]}, "type": "Feature", "properties": {"collection_times": [{"days": "Mon-Fri", "time": "2:00pm"}, {"days": "Sat", "time": "3:00pm"}, {"days": "Sun", "time": "Closed"}], "id": "3306800008", "name": "USPS COLLECTION BOX - BLUE BOX", "address": {"city": "MARGATE", "state": "FL", "street": "6100 KIMBERLY BLVD", "postcode": "33068"}}},
{"geometry": {"type": "Point", "coordinates": [-80.2211274269, 26.2280330723]}, "type": "Feature", "properties": {"collection_times": [{"days": "Mon-Fri", "time": "2:00pm"}, {"days": "Sat", "time": "3:00pm"}, {"days": "Sun", "time": "Closed"}], "id": "3306800011", "name": "USPS COLLECTION BOX - BLUE BOX", "address": {"city": "MARGATE", "state": "FL", "street": "7114 SOUTHGATE BLVD", "postcode": "33068"}}},
{"geometry": {"type": "Point", "coordinates": [-80.204626797, 26.2255617204]}, "type": "Feature", "properties": {"collection_times": [{"days": "Mon-Fri", "time": "2:00pm"}, {"days": "Sat-Sun", "time": "Closed"}], "id": "3306800013", "name": "USPS COLLECTION BOX - BLUE BOX", "address": {"city": "MARGATE", "state": "FL", "street": "441 S ST RD 7", "postcode": "33068"}}},
{"geometry": {"type": "Point", "coordinates": [-80.2040720484, 26.215658781]}, "type": "Feature", "properties": {"collection_times": [{"days": "Mon-Fri", "time": "2:00pm"}, {"days": "Sat-Sun", "time": "Closed"}], "id": "3306800018", "name": "USPS COLLECTION BOX - BLUE BOX", "address": {"city": "MARGATE", "state": "FL", "street": "1100 S ST RD 7", "postcode": "33068"}}},
{"geometry": {"type": "Point", "coordinates": [-80.2042443275, 26.2103326983]}, "type": "Feature", "properties": {"collection_times": [{"days": "Mon-Fri", "time": "5:00pm"}, {"days": "Sat", "time": "3:00pm"}, {"days": "Sun", "time": "Closed"}], "id": "3306800021", "name": "USPS COLLECTION BOX - BLUE BOX", "address": {"city": "MARGATE", "state": "FL", "street": "1401 S ST RD 7", "postcode": "33068"}}},
{"geometry": {"type": "Point", "coordinates": [-80.1695307936, 26.2101714471]}, "type": "Feature", "properties": {"collection_times": [{"days": "Mon-Fri", "time": "1:30pm"}, {"days": "Sat", "time": "3:00pm"}, {"days": "Sun", "time": "Closed"}], "id": "3306900002", "name": "USPS COLLECTION BOX - BLUE BOX", "address": {"city": "POMPANO BEACH", "state": "FL", "street": "3285 W MC NAB RD", "postcode": "33069"}}},
{"geometry": {"type": "Point", "coordinates": [-80.1568629123, 26.2300446622]}, "type": "Feature", "properties": {"collection_times": [{"days": "Mon-Fri", "time": "1:30pm"}, {"days": "Sat", "time": "3:00pm"}, {"days": "Sun", "time": "Closed"}], "id": "3306900004", "name": "USPS COLLECTION BOX - BLUE BOX", "address": {"city": "POMPANO BEACH", "state": "FL", "street": "135 S POMPANO PKWY", "postcode": "33069"}}},
{"geometry": {"type": "Point", "coordinates": [-80.1581152006, 26.235655499]}, "type": "Feature", "properties": {"collection_times": [{"days": "Mon-Fri", "time": "1:30pm"}, {"days": "Sat", "time": "3:00pm"}, {"days": "Sun", "time": "Closed"}], "id": "3306900009", "name": "USPS COLLECTION BOX - BLUE BOX", "address": {"city": "POMPANO BEACH", "state": "FL", "street": "150 S ANDREWS AVE", "postcode": "33069"}}},
{"geometry": {"type": "Point", "coordinates": [-80.1562934537, 26.2142689995]}, "type": "Feature", "properties": {"collection_times": [{"days": "Mon-Fri", "time": "5:00pm"}, {"days": "Sat", "time": "3:00pm"}, {"days": "Sun", "time": "Closed"}], "id": "3306900012", "name": "USPS COLLECTION BOX - BLUE BOX", "address": {"city": "POMPANO BEACH", "state": "FL", "street": "1291 S POWERLINE RD", "postcode": "33069"}}},
{"geometry": {"type": "Point", "coordinates": [-80.1545383302, 26.2313925197]}, "type": "Feature", "properties": {"collection_times": [{"days": "Mon-Fri", "time": "5:00pm"}, {"days": "Sat", "time": "4:00pm"}, {"days": "Sun", "time": "Closed"}], "id": "3306900021", "name": "USPS COLLECTION BOX - BLUE BOX", "address": {"city": "POMPANO BEACH", "state": "FL", "street": "2351 W ATLANTIC BLVD", "postcode": "33069"}}},
{"geometry": {"type": "Point", "coordinates": [-80.1545383302, 26.2313925197]}, "type": "Feature", "properties": {"collection_times": [{"days": "Mon-Fri", "time": "5:00pm"}, {"days": "Sat", "time": "4:00pm"}, {"days": "Sun", "time": "Closed"}], "id": "3306900022", "name": "USPS COLLECTION BOX - BLUE BOX", "address": {"city": "POMPANO BEACH", "state": "FL", "street": "2351 W ATLANTIC BLVD", "postcode": "33069"}}},
{"geometry": {"type": "Point", "coordinates": [-80.1545383302, 26.2313925197]}, "type": "Feature", "properties": {"collection_times": [{"days": "Mon-Fri", "time": "5:00pm"}, {"days": "Sat", "time": "4:00pm"}, {"days": "Sun", "time": "Closed"}], "id": "3306900023", "name": "USPS COLLECTION BOX - APC", "address": {"city": "POMPANO BEACH", "state": "FL", "street": "2351 W ATLANTIC BLVD", "postcode": "33069"}}},
{"geometry": {"type": "Point", "coordinates": [-80.1545383302, 26.2313925197]}, "type": "Feature", "properties": {"collection_times": [{"days": "Mon-Fri", "time": "5:45pm"}, {"days": "Sat", "time": "5:00pm"}, {"days": "Sun", "time": "Closed"}], "id": "3306900025", "name": "USPS COLLECTION BOX - PO LOBBY", "address": {"city": "POMPANO BEACH", "state": "FL", "street": "2351 W ATLANTIC BLVD", "postcode": "33069"}}},
{"geometry": {"type": "Point", "coordinates": [-80.1620678581, 26.2274431925]}, "type": "Feature", "properties": {"collection_times": [{"days": "Mon-Fri", "time": "1:30pm"}, {"days": "Sat", "time": "3:00pm"}, {"days": "Sun", "time": "Closed"}], "id": "3306900027", "name": "USPS COLLECTION BOX - BLUE BOX", "address": {"city": "POMPANO BEACH", "state": "FL", "street": "1280 SW 36TH AVE", "postcode": "33069"}}},
{"geometry": {"type": "Point", "coordinates": [-80.5258720343, 25.0025716712]}, "type": "Feature", "properties": {"collection_times": [{"days": "Mon-Fri", "time": "3:45pm"}, {"days": "Sat", "time": "12:00pm"}, {"days": "Sun", "time": "Closed"}], "id": "3307000003", "name": "USPS COLLECTION BOX - BLUE BOX", "address": {"city": "TAVERNIER", "state": "FL", "street": "91220 OVERSEAS HWY", "postcode": "33070"}}},
{"geometry": {"type": "Point", "coordinates": [-80.5258720343, 25.0025716712]}, "type": "Feature", "properties": {"collection_times": [{"days": "Mon-Fri", "time": "3:45pm"}, {"days": "Sat", "time": "12:00pm"}, {"days": "Sun", "time": "Closed"}], "id": "3307000005", "name": "USPS COLLECTION BOX - BLUE BOX", "address": {"city": "TAVERNIER", "state": "FL", "street": "91220 OVERSEAS HWY", "postcode": "33070"}}},
{"geometry": {"type": "Point", "coordinates": [-80.5500423216, 24.9794326038]}, "type": "Feature", "properties": {"collection_times": [{"days": "Mon-Sat", "time": "11:00am"}, {"days": "Sun", "time": "Closed"}], "id": "3307000009", "name": "USPS COLLECTION BOX - BLUE BOX", "address": {"city": "TAVERNIER", "state": "FL", "street": "88820 OVERSEAS HWY", "postcode": "33070"}}},
{"geometry": {"type": "Point", "coordinates": [-80.5258720343, 25.0025716712]}, "type": "Feature", "properties": {"collection_times": [{"days": "Mon-Fri", "time": "3:45pm"}, {"days": "Sat", "time": "12:00pm"}, {"days": "Sun", "time": "Closed"}], "id": "3307000012", "name": "USPS COLLECTION BOX - PO LOBBY", "address": {"city": "TAVERNIER", "state": "FL", "street": "91220 OVERSEAS HWY", "postcode": "33070"}}},
{"geometry": {"type": "Point", "coordinates": [-80.255440572, 26.2406053035]}, "type": "Feature", "properties": {"collection_times": [{"days": "Mon-Fri", "time": "2:00pm"}, {"days": "Sat", "time": "3:00pm"}, {"days": "Sun", "time": "Closed"}], "id": "3307100001", "name": "USPS COLLECTION BOX - BLUE BOX", "address": {"city": "CORAL SPRINGS", "state": "FL", "street": "9601 W ATLANTIC BLVD", "postcode": "33071"}}},
{"geometry": {"type": "Point", "coordinates": [-80.2796516028, 26.2483455122]}, "type": "Feature", "properties": {"collection_times": [{"days": "Mon-Fri", "time": "2:00pm"}, {"days": "Sat", "time": "3:00pm"}, {"days": "Sun", "time": "Closed"}], "id": "3307100004", "name": "USPS COLLECTION BOX - BLUE BOX", "address": {"city": "CORAL SPRINGS", "state": "FL", "street": "1384 CORAL RIDGE DR", "postcode": "33071"}}},
{"geometry": {"type": "Point", "coordinates": [-80.2537175913, 26.2339147728]}, "type": "Feature", "properties": {"collection_times": [{"days": "Mon-Fri", "time": "2:00pm"}, {"days": "Sat", "time": "3:00pm"}, {"days": "Sun", "time": "Closed"}], "id": "3307100005", "name": "USPS COLLECTION BOX - BLUE BOX", "address": {"city": "CORAL SPRINGS", "state": "FL", "street": "210 N UNIVERSITY DR", "postcode": "33071"}}},
{"geometry": {"type": "Point", "coordinates": [-80.2520458346, 26.2545127641]}, "type": "Feature", "properties": {"collection_times": [{"days": "Mon-Fri", "time": "2:00pm"}, {"days": "Sat", "time": "3:00pm"}, {"days": "Sun", "time": "Closed"}], "id": "3307100007", "name": "USPS COLLECTION BOX - BLUE BOX", "address": {"city": "CORAL SPRINGS", "state": "FL", "street": "1881 N UNIVERSITY DR", "postcode": "33071"}}},
{"geometry": {"type": "Point", "coordinates": [-80.2531471944, 26.25305786]}, "type": "Feature", "properties": {"collection_times": [{"days": "Mon-Fri", "time": "2:00pm"}, {"days": "Sat", "time": "3:00pm"}, {"days": "Sun", "time": "Closed"}], "id": "3307100009", "name": "USPS COLLECTION BOX - BLUE BOX", "address": {"city": "CORAL SPRINGS", "state": "FL", "street": "1750 N UNIVERSITY DR", "postcode": "33071"}}},
{"geometry": {"type": "Point", "coordinates": [-80.2530795853, 26.2492417682]}, "type": "Feature", "properties": {"collection_times": [{"days": "Mon-Fri", "time": "2:00pm"}, {"days": "Sat", "time": "3:00pm"}, {"days": "Sun", "time": "Closed"}], "id": "3307100013", "name": "USPS COLLECTION BOX - BLUE BOX", "address": {"city": "CORAL SPRINGS", "state": "FL", "street": "1515 N UNIVERSITY DR", "postcode": "33071"}}},
{"geometry": {"type": "Point", "coordinates": [-80.244018017, 26.2370377294]}, "type": "Feature", "properties": {"collection_times": [{"days": "Mon-Fri", "time": "5:00pm"}, {"days": "Sat", "time": "3:00pm"}, {"days": "Sun", "time": "Closed"}], "id": "3307100014", "name": "USPS COLLECTION BOX - BLUE BOX", "address": {"city": "CORAL SPRINGS", "state": "FL", "street": "8801 W ATLANTIC BLVD", "postcode": "33071"}}},
{"geometry": {"type": "Point", "coordinates": [-80.244018017, 26.2370377294]}, "type": "Feature", "properties": {"collection_times": [{"days": "Mon-Fri", "time": "5:00pm"}, {"days": "Sat", "time": "4:00pm"}, {"days": "Sun", "time": "Closed"}], "id": "3307100015", "name": "USPS COLLECTION BOX - PO LOBBY", "address": {"city": "CORAL SPRINGS", "state": "FL", "street": "8801 W ATLANTIC BLVD", "postcode": "33071"}}},
{"geometry": {"type": "Point", "coordinates": [-80.244018017, 26.2370377294]}, "type": "Feature", "properties": {"collection_times": [{"days": "Mon-Fri", "time": "5:00pm"}, {"days": "Sat", "time": "4:00pm"}, {"days": "Sun", "time": "Closed"}], "id": "3307100016", "name": "USPS COLLECTION BOX - APC", "address": {"city": "CORAL SPRINGS", "state": "FL", "street": "8801 W ATLANTIC BLVD", "postcode": "33071"}}},
{"geometry": {"type": "Point", "coordinates": [-80.1814647078, 26.3176802129]}, "type": "Feature", "properties": {"collection_times": [{"days": "Mon-Fri", "time": "5:00pm"}, {"days": "Sat", "time": "2:30pm"}, {"days": "Sun", "time": "Closed"}], "id": "3307300013", "name": "USPS COLLECTION BOX - APC", "address": {"city": "CORAL SPRINGS", "state": "FL", "street": "4233 W HILLSBORO BLVD", "postcode": "33073"}}},
{"geometry": {"type": "Point", "coordinates": [-80.1814647078, 26.3176802129]}, "type": "Feature", "properties": {"collection_times": [{"days": "Mon-Sat", "time": "5:00pm"}, {"days": "Sun", "time": "Closed"}], "id": "3307300014", "name": "USPS COLLECTION BOX - BLUE BOX", "address": {"city": "CORAL SPRINGS", "state": "FL", "street": "4233 W HILLSBORO BLVD", "postcode": "33073"}}},
{"geometry": {"type": "Point", "coordinates": [-80.1814647078, 26.3176802129]}, "type": "Feature", "properties": {"collection_times": [{"days": "Mon-Sat", "time": "5:00pm"}, {"days": "Sun", "time": "Closed"}], "id": "3307300015", "name": "USPS COLLECTION BOX - BLUE BOX", "address": {"city": "CORAL SPRINGS", "state": "FL", "street": "4233 W HILLSBORO BLVD", "postcode": "33073"}}},
{"geometry": {"type": "Point", "coordinates": [-80.1847357518, 26.3032418134]}, "type": "Feature", "properties": {"collection_times": [{"days": "Mon-Sat", "time": "5:00pm"}, {"days": "Sun", "time": "Closed"}], "id": "3307300016", "name": "USPS COLLECTION BOX - EXPRESS", "address": {"city": "CORAL SPRINGS", "state": "FL", "street": "4233 W HILLSBORO BLVD", "postcode": "33073"}}},
{"geometry": {"type": "Point", "coordinates": [-80.1983169937, 26.2739718748]}, "type": "Feature", "properties": {"collection_times": [{"days": "Mon-Sat", "time": "1:30pm"}, {"days": "Sun", "time": "Closed"}], "id": "3307300017", "name": "USPS COLLECTION BOX - BLUE BOX", "address": {"city": "CORAL SPRINGS", "state": "FL", "street": "5528 W SAMPLE RD", "postcode": "33073"}}},
{"geometry": {"type": "Point", "coordinates": [-80.18419789, 26.273695926]}, "type": "Feature", "properties": {"collection_times": [{"days": "Mon-Sat", "time": "1:30pm"}, {"days": "Sun", "time": "Closed"}], "id": "3307300018", "name": "USPS COLLECTION BOX - BLUE BOX", "address": {"city": "CORAL SPRINGS", "state": "FL", "street": "4400 W SAMPLE RD", "postcode": "33073"}}},
{"geometry": {"type": "Point", "coordinates": [-80.1632236046, 26.27415301]}, "type": "Feature", "properties": {"collection_times": [{"days": "Mon-Sat", "time": "1:30pm"}, {"days": "Sun", "time": "Closed"}], "id": "3307300019", "name": "USPS COLLECTION BOX - BLUE BOX", "address": {"city": "CORAL SPRINGS", "state": "FL", "street": "2900 W SAMPLE RD", "postcode": "33073"}}},
{"geometry": {"type": "Point", "coordinates": [-80.152140947, 26.2799762384]}, "type": "Feature", "properties": {"collection_times": [{"days": "Mon-Sat", "time": "1:30pm"}, {"days": "Sun", "time": "Closed"}], "id": "3307300020", "name": "USPS COLLECTION BOX - BLUE BOX", "address": {"city": "CORAL SPRINGS", "state": "FL", "street": "4100 N POWERLINE RD", "postcode": "33073"}}},
{"geometry": {"type": "Point", "coordinates": [-80.1865314274, 26.310132086]}, "type": "Feature", "properties": {"collection_times": [{"days": "Mon-Sat", "time": "1:30pm"}, {"days": "Sun", "time": "Closed"}], "id": "3307300022", "name": "USPS COLLECTION BOX - BLUE BOX", "address": {"city": "CORAL SPRINGS", "state": "FL", "street": "6601 LYONS RD", "postcode": "33073"}}},
{"geometry": {"type": "Point", "coordinates": [-80.1887080031, 26.2959732475]}, "type": "Feature", "properties": {"collection_times": [{"days": "Mon-Sat", "time": "1:30pm"}, {"days": "Sun", "time": "Closed"}], "id": "3307300023", "name": "USPS COLLECTION BOX - BLUE BOX", "address": {"city": "CORAL SPRINGS", "state": "FL", "street": "4900 WINSTON PARK BLVD", "postcode": "33073"}}},
{"geometry": {"type": "Point", "coordinates": [-80.1814647078, 26.3176802129]}, "type": "Feature", "properties": {"collection_times": [{"days": "Mon-Sat", "time": "5:00pm"}, {"days": "Sun", "time": "Closed"}], "id": "3307300024", "name": "USPS COLLECTION BOX - PO LOBBY", "address": {"city": "CORAL SPRINGS", "state": "FL", "street": "4233 W HILLSBORO BLVD", "postcode": "33073"}}},
{"geometry": {"type": "Point", "coordinates": [-80.1391292505, 26.2612282085]}, "type": "Feature", "properties": {"collection_times": [{"days": "Mon-Fri", "time": "4:00pm"}, {"days": "Sat", "time": "2:00pm"}, {"days": "Sun", "time": "Closed"}], "id": "3307400001", "name": "USPS COLLECTION BOX - APC", "address": {"city": "LIGHTHOUSE PT", "state": "FL", "street": "2091 NE 36 ST", "postcode": "33074"}}},
{"geometry": {"type": "Point", "coordinates": [-80.2521606012, 26.2978758471]}, "type": "Feature", "properties": {"collection_times": [{"days": "Mon-Sat", "time": "1:30pm"}, {"days": "Sun", "time": "Closed"}], "id": "3307600000", "name": "USPS COLLECTION BOX - BLUE BOX", "address": {"city": "MARGATE", "state": "FL", "street": "9549 WESTVIEW DR", "postcode": "33076"}}},
{"geometry": {"type": "Point", "coordinates": [-80.3118662677, 26.0117006344]}, "type": "Feature", "properties": {"collection_times": [{"days": "Mon-Fri", "time": "6:00pm"}, {"days": "Sat", "time": "1:00pm"}, {"days": "Sun", "time": "Closed"}], "id": "3308200000", "name": "USPS COLLECTION BOX - EXPRESS", "address": {"city": "PEMBROKE PINES", "state": "FL", "street": "16000 PINES BLVD", "postcode": "33082"}}},
{"geometry": {"type": "Point", "coordinates": [-80.3618484055, 26.0075179284]}, "type": "Feature", "properties": {"collection_times": [{"days": "Mon-Fri", "time": "6:00pm"}, {"days": "Sat", "time": "1:00pm"}, {"days": "Sun", "time": "Closed"}], "id": "3308200001", "name": "USPS COLLECTION BOX - BLUE BOX", "address": {"city": "PEMBROKE PINES", "state": "FL", "street": "16000 PINES BLVD", "postcode": "33082"}}},
{"geometry": {"type": "Point", "coordinates": [-80.3618484055, 26.0075179284]}, "type": "Feature", "properties": {"collection_times": [{"days": "Mon-Fri", "time": "6:00pm"}, {"days": "Sat", "time": "1:00pm"}, {"days": "Sun", "time": "Closed"}], "id": "3308200003", "name": "USPS COLLECTION BOX - BLUE BOX", "address": {"city": "PEMBROKE PINES", "state": "FL", "street": "16000 PINES BLVD", "postcode": "33082"}}},
{"geometry": {"type": "Point", "coordinates": [-80.3618484055, 26.0075179284]}, "type": "Feature", "properties": {"collection_times": [{"days": "Mon-Fri", "time": "6:00pm"}, {"days": "Sat", "time": "1:00pm"}, {"days": "Sun", "time": "Closed"}], "id": "3308200005", "name": "USPS COLLECTION BOX - PO LOBBY", "address": {"city": "PEMBROKE PINES", "state": "FL", "street": "16000 PINES BLVD", "postcode": "33082"}}},
{"geometry": {"type": "Point", "coordinates": [-80.3618484055, 26.0075179284]}, "type": "Feature", "properties": {"collection_times": [{"days": "Mon-Fri", "time": "6:00pm"}, {"days": "Sat", "time": "1:00pm"}, {"days": "Sun", "time": "Closed"}], "id": "3308200006", "name": "USPS COLLECTION BOX - APC", "address": {"city": "PEMBROKE PINES", "state": "FL", "street": "16000 PINES BLVD", "postcode": "33082"}}}
]}
