{"type": "FeatureCollection", "features": [
{"geometry": {"type": "Point", "coordinates": [-80.1435669775, 26.1193909268]}, "type": "Feature", "properties": {"collection_times": [{"days": "Mon-Fri", "time": "3:20pm"}, {"days": "Sat", "time": "1:00pm"}, {"days": "Sun", "time": "Closed"}], "id": "3330100002", "name": "USPS COLLECTION BOX - BLUE BOX", "address": {"city": "FT LAUDERDALE", "state": "FL", "street": "34 W LAS OLAS BLVD", "postcode": "33301"}}},
{"geometry": {"type": "Point", "coordinates": [-80.1369509186, 26.1142282515]}, "type": "Feature", "properties": {"collection_times": [{"days": "Mon-Fri", "time": "4:10pm"}, {"days": "Sat", "time": "1:00pm"}, {"days": "Sun", "time": "Closed"}], "id": "3330100005", "name": "USPS COLLECTION BOX - BLUE BOX", "address": {"city": "FT LAUDERDALE", "state": "FL", "street": "614 S FEDERAL HWY", "postcode": "33301"}}},
{"geometry": {"type": "Point", "coordinates": [-80.1326768786, 26.1191688275]}, "type": "Feature", "properties": {"collection_times": [{"days": "Mon-Fri", "time": "5:15pm"}, {"days": "Sat", "time": "1:00pm"}, {"days": "Sun", "time": "Closed"}], "id": "3330100006", "name": "USPS COLLECTION BOX - BLUE BOX", "address": {"city": "FT LAUDERDALE", "state": "FL", "street": "1038 E LAS OLAS BLVD", "postcode": "33301"}}},
{"geometry": {"type": "Point", "coordinates": [-80.1462952464, 26.1198837282]}, "type": "Feature", "properties": {"collection_times": [{"days": "Mon-Fri", "time": "5:25pm"}, {"days": "Sat", "time": "1:00pm"}, {"days": "Sun", "time": "Closed"}], "id": "3330100010", "name": "USPS COLLECTION BOX - BLUE BOX", "address": {"city": "FT LAUDERDALE", "state": "FL", "street": "290 NE 3RD AVE", "postcode": "33301"}}},
{"geometry": {"type": "Point", "coordinates": [-80.1320732475, 26.1226325611]}, "type": "Feature", "properties": {"collection_times": [{"days": "Mon-Fri", "time": "3:45pm"}, {"days": "Sat", "time": "1:00pm"}, {"days": "Sun", "time": "Closed"}], "id": "3330100014", "name": "USPS COLLECTION BOX - BLUE BOX", "address": {"city": "FT LAUDERDALE", "state": "FL", "street": "1121 E BROWARD BLVD", "postcode": "33301"}}},
{"geometry": {"type": "Point", "coordinates": [-80.136098269, 26.1193188624]}, "type": "Feature", "properties": {"collection_times": [{"days": "Mon-Fri", "time": "3:25pm"}, {"days": "Sat", "time": "1:00pm"}, {"days": "Sun", "time": "Closed"}], "id": "3330100017", "name": "USPS COLLECTION BOX - BLUE BOX", "address": {"city": "FT LAUDERDALE", "state": "FL", "street": "901 E LAS OLAS BLVD", "postcode": "33301"}}},
{"geometry": {"type": "Point", "coordinates": [-80.1125831202, 26.1186074435]}, "type": "Feature", "properties": {"collection_times": [{"days": "Mon-Fri", "time": "3:35pm"}, {"days": "Sat", "time": "1:00pm"}, {"days": "Sun", "time": "Closed"}], "id": "3330100018", "name": "USPS COLLECTION BOX - BLUE BOX", "address": {"city": "FT LAUDERDALE", "state": "FL", "street": "350 SE 25TH AVE", "postcode": "33301"}}},
{"geometry": {"type": "Point", "coordinates": [-80.1403821403, 26.1191997381]}, "type": "Feature", "properties": {"collection_times": [{"days": "Mon-Fri", "time": "5:00pm"}, {"days": "Sat", "time": "1:00pm"}, {"days": "Sun", "time": "Closed"}], "id": "3330100024", "name": "USPS COLLECTION BOX - BLUE BOX", "address": {"city": "FT LAUDERDALE", "state": "FL", "street": "301 E LAS OLAS BLVD", "postcode": "33301"}}},
{"geometry": {"type": "Point", "coordinates": [-80.1353061836, 26.1224421826]}, "type": "Feature", "properties": {"collection_times": [{"days": "Mon-Fri", "time": "3:50pm"}, {"days": "Sat", "time": "1:00pm"}, {"days": "Sun", "time": "Closed"}], "id": "3330100027", "name": "USPS COLLECTION BOX - BLUE BOX", "address": {"city": "FT LAUDERDALE", "state": "FL", "street": "790 E BROWARD BLVD", "postcode": "33301"}}},
{"geometry": {"type": "Point", "coordinates": [-80.1331257765, 26.121212153]}, "type": "Feature", "properties": {"collection_times": [{"days": "Mon-Fri", "time": "5:20pm"}, {"days": "Sat", "time": "1:00pm"}, {"days": "Sun", "time": "Closed"}], "id": "3330100029", "name": "USPS COLLECTION BOX - EXPRESS", "address": {"city": "FT LAUDERDALE", "state": "FL", "street": "800 E BROWARD BLVD", "postcode": "33301"}}},
{"geometry": {"type": "Point", "coordinates": [-80.1352789375, 26.1224421826]}, "type": "Feature", "properties": {"collection_times": [{"days": "Mon-Fri", "time": "5:20pm"}, {"days": "Sat", "time": "1:00pm"}, {"days": "Sun", "time": "Closed"}], "id": "3330100030", "name": "USPS COLLECTION BOX - BLUE BOX", "address": {"city": "FT LAUDERDALE", "state": "FL", "street": "800 E BROWARD BLVD", "postcode": "33301"}}},
{"geometry": {"type": "Point", "coordinates": [-80.1331257765, 26.121212153]}, "type": "Feature", "properties": {"collection_times": [{"days": "Mon-Fri", "time": "5:00pm"}, {"days": "Sat", "time": "1:00pm"}, {"days": "Sun", "time": "Closed"}], "id": "3330100032", "name": "USPS COLLECTION BOX - EXPRESS", "address": {"city": "FT LAUDERDALE", "state": "FL", "street": "1404 E LAS OLAS BLVD", "postcode": "33301"}}},
{"geometry": {"type": "Point", "coordinates": [-80.1292144223, 26.1192989841]}, "type": "Feature", "properties": {"collection_times": [{"days": "Mon-Fri", "time": "5:00pm"}, {"days": "Sat", "time": "1:00pm"}, {"days": "Sun", "time": "Closed"}], "id": "3330100033", "name": "USPS COLLECTION BOX - BLUE BOX", "address": {"city": "FT LAUDERDALE", "state": "FL", "street": "1404 E LAS OLAS BLVD", "postcode": "33301"}}},
{"geometry": {"type": "Point", "coordinates": [-80.1292144223, 26.1192989841]}, "type": "Feature", "properties": {"collection_times": [{"days": "Mon-Fri", "time": "5:00pm"}, {"days": "Sat", "time": "1:00pm"}, {"days": "Sun", "time": "Closed"}], "id": "3330100034", "name": "USPS COLLECTION BOX - BLUE BOX", "address": {"city": "FT LAUDERDALE", "state": "FL", "street": "1404 E LAS OLAS BLVD", "postcode": "33301"}}},
{"geometry": {"type": "Point", "coordinates": [-80.140301871, 26.1142606568]}, "type": "Feature", "properties": {"collection_times": [{"days": "Mon-Fri", "time": "5:10pm"}, {"days": "Sat", "time": "1:00pm"}, {"days": "Sun", "time": "Closed"}], "id": "3330100039", "name": "USPS COLLECTION BOX - BLUE BOX", "address": {"city": "FT LAUDERDALE", "state": "FL", "street": "633 SE 3RD AVE", "postcode": "33301"}}},
{"geometry": {"type": "Point", "coordinates": [-80.1412357942, 26.1147524385]}, "type": "Feature", "properties": {"collection_times": [{"days": "Mon-Fri", "time": "5:05pm"}, {"days": "Sat", "time": "1:00pm"}, {"days": "Sun", "time": "Closed"}], "id": "3330100046", "name": "USPS COLLECTION BOX - BLUE BOX", "address": {"city": "FT LAUDERDALE", "state": "FL", "street": "200 SE 6TH ST", "postcode": "33301"}}},
{"geometry": {"type": "Point", "coordinates": [-80.1433410801, 26.1157986963]}, "type": "Feature", "properties": {"collection_times": [{"days": "Mon-Fri", "time": "4:05pm"}, {"days": "Sat", "time": "1:00pm"}, {"days": "Sun", "time": "Closed"}], "id": "3330100075", "name": "USPS COLLECTION BOX - BLUE BOX", "address": {"city": "FT LAUDERDALE", "state": "FL", "street": "529 S ANDREWS AVE", "postcode": "33301"}}},
{"geometry": {"type": "Point", "coordinates": [-80.1363199325, 26.1262716687]}, "type": "Feature", "properties": {"collection_times": [{"days": "Mon-Fri", "time": "5:45pm"}, {"days": "Sat", "time": "4:30pm"}, {"days": "Sun", "time": "Closed"}], "id": "3330100084", "name": "USPS COLLECTION BOX - PO LOBBY", "address": {"city": "FT LAUDERDALE", "state": "FL", "street": "400 NW 7 AVE", "postcode": "33301"}}},
{"geometry": {"type": "Point", "coordinates": [-80.1292143302, 26.1226993689]}, "type": "Feature", "properties": {"collection_times": [{"days": "Mon-Fri", "time": "3:40pm"}, {"days": "Sat", "time": "1:00pm"}, {"days": "Sun", "time": "Closed"}], "id": "3330100087", "name": "USPS COLLECTION BOX - BLUE BOX", "address": {"city": "FT LAUDERDALE", "state": "FL", "street": "1401 E BROWARD BLVD", "postcode": "33301"}}},
{"geometry": {"type": "Point", "coordinates": [-80.15058, 26.12594]}, "type": "Feature", "properties": {"collection_times": [{"days": "Mon-Fri", "time": "5:30pm"}, {"days": "Sat", "time": "3:00pm"}, {"days": "Sun", "time": "Closed"}], "id": "3330100093", "name": "USPS COLLECTION BOX - BLUE BOX", "address": {"city": "FT LAUDERDALE", "state": "FL", "street": "400 NW 7 AVE", "postcode": "33301"}}},
{"geometry": {"type": "Point", "coordinates": [-80.1367460056, 26.1423047148]}, "type": "Feature", "properties": {"collection_times": [{"days": "Mon-Fri", "time": "3:40pm"}, {"days": "Sat", "time": "1:00pm"}, {"days": "Sun", "time": "Closed"}], "id": "3330400001", "name": "USPS COLLECTION BOX - BLUE BOX", "address": {"city": "OAKLAND PARK", "state": "FL", "street": "700 NE 13TH ST", "postcode": "33304"}}},
{"geometry": {"type": "Point", "coordinates": [-80.1259677723, 26.1427576481]}, "type": "Feature", "properties": {"collection_times": [{"days": "Mon-Fri", "time": "3:35pm"}, {"days": "Sat-Sun", "time": "Closed"}], "id": "3330400005", "name": "USPS COLLECTION BOX - BLUE BOX", "address": {"city": "OAKLAND PARK", "state": "FL", "street": "1701 NE 13TH ST", "postcode": "33304"}}},
{"geometry": {"type": "Point", "coordinates": [-80.1269391441, 26.1374316823]}, "type": "Feature", "properties": {"collection_times": [{"days": "Mon-Fri", "time": "2:00pm"}, {"days": "Sat", "time": "1:00pm"}, {"days": "Sun", "time": "Closed"}], "id": "3330400006", "name": "USPS COLLECTION BOX - BLUE BOX", "address": {"city": "OAKLAND PARK", "state": "FL", "street": "1625 E SUNRISE BLVD", "postcode": "33304"}}},
{"geometry": {"type": "Point", "coordinates": [-80.1287007208, 26.1371478068]}, "type": "Feature", "properties": {"collection_times": [{"days": "Mon-Fri", "time": "2:35pm"}, {"days": "Sat", "time": "1:00pm"}, {"days": "Sun", "time": "Closed"}], "id": "3330400008", "name": "USPS COLLECTION BOX - BLUE BOX", "address": {"city": "OAKLAND PARK", "state": "FL", "street": "1498 E SUNRISE BLVD", "postcode": "33304"}}},
{"geometry": {"type": "Point", "coordinates": [-80.1342614745, 26.1372296158]}, "type": "Feature", "properties": {"collection_times": [{"days": "Mon-Fri", "time": "2:05pm"}, {"days": "Sat", "time": "1:00pm"}, {"days": "Sun", "time": "Closed"}], "id": "3330400010", "name": "USPS COLLECTION BOX - BLUE BOX", "address": {"city": "OAKLAND PARK", "state": "FL", "street": "907 N FEDERAL HWY", "postcode": "33304"}}},
{"geometry": {"type": "Point", "coordinates": [-80.1341140093, 26.1369786933]}, "type": "Feature", "properties": {"collection_times": [{"days": "Mon-Fri", "time": "2:25pm"}, {"days": "Sat", "time": "1:00pm"}, {"days": "Sun", "time": "Closed"}], "id": "3330400011", "name": "USPS COLLECTION BOX - BLUE BOX", "address": {"city": "OAKLAND PARK", "state": "FL", "street": "930 N FEDERAL HWY", "postcode": "33304"}}},
{"geometry": {"type": "Point", "coordinates": [-80.1364828498, 26.1299990522]}, "type": "Feature", "properties": {"collection_times": [{"days": "Mon-Fri", "time": "2:15pm"}, {"days": "Sat", "time": "1:00pm"}, {"days": "Sun", "time": "Closed"}], "id": "3330400012", "name": "USPS COLLECTION BOX - BLUE BOX", "address": {"city": "OAKLAND PARK", "state": "FL", "street": "701 NE 6TH ST", "postcode": "33304"}}},
{"geometry": {"type": "Point", "coordinates": [-80.1203018865, 26.1320183267]}, "type": "Feature", "properties": {"collection_times": [{"days": "Mon-Fri", "time": "2:45pm"}, {"days": "Sat", "time": "1:00pm"}, {"days": "Sun", "time": "Closed"}], "id": "3330400019", "name": "USPS COLLECTION BOX - BLUE BOX", "address": {"city": "OAKLAND PARK", "state": "FL", "street": "1950 NE 7 ST", "postcode": "33304"}}},
{"geometry": {"type": "Point", "coordinates": [-80.1152757418, 26.1377518645]}, "type": "Feature", "properties": {"collection_times": [{"days": "Mon-Fri", "time": "2:50pm"}, {"days": "Sat-Sun", "time": "Closed"}], "id": "3330400023", "name": "USPS COLLECTION BOX - BLUE BOX", "address": {"city": "OAKLAND PARK", "state": "FL", "street": "2400 E SUNRISE BLVD", "postcode": "33304"}}},
{"geometry": {"type": "Point", "coordinates": [-80.1110951129, 26.1349710023]}, "type": "Feature", "properties": {"collection_times": [{"days": "Mon-Fri", "time": "5:15pm"}, {"days": "Sat", "time": "1:00pm"}, {"days": "Sun", "time": "Closed"}], "id": "3330400024", "name": "USPS COLLECTION BOX - BLUE BOX", "address": {"city": "OAKLAND PARK", "state": "FL", "street": "901 NE 26 AVE", "postcode": "33304"}}},
{"geometry": {"type": "Point", "coordinates": [-80.1068485225, 26.1334922364]}, "type": "Feature", "properties": {"collection_times": [{"days": "Mon-Fri", "time": "2:55pm"}, {"days": "Sat-Sun", "time": "Closed"}], "id": "3330400028", "name": "USPS COLLECTION BOX - BLUE BOX", "address": {"city": "OAKLAND PARK", "state": "FL", "street": "2900 VISTAMAR ST", "postcode": "33304"}}},
{"geometry": {"type": "Point", "coordinates": [-80.1059700164, 26.1311833731]}, "type": "Feature", "properties": {"collection_times": [{"days": "Mon-Fri", "time": "3:00pm"}, {"days": "Sat", "time": "1:00pm"}, {"days": "Sun", "time": "Closed"}], "id": "3330400029", "name": "USPS COLLECTION BOX - BLUE BOX", "address": {"city": "OAKLAND PARK", "state": "FL", "street": "601 N BIRCH RD", "postcode": "33304"}}},
{"geometry": {"type": "Point", "coordinates": [-80.11188044, 26.1381085693]}, "type": "Feature", "properties": {"collection_times": [{"days": "Mon-Fri", "time": "3:10pm"}, {"days": "Sat", "time": "1:00pm"}, {"days": "Sun", "time": "Closed"}], "id": "3330400032", "name": "USPS COLLECTION BOX - BLUE BOX", "address": {"city": "OAKLAND PARK", "state": "FL", "street": "2549 E SUNRISE BLVD", "postcode": "33304"}}},
{"geometry": {"type": "Point", "coordinates": [-80.1112394015, 26.1408674714]}, "type": "Feature", "properties": {"collection_times": [{"days": "Mon-Fri", "time": "3:15pm"}, {"days": "Sat", "time": "1:00pm"}, {"days": "Sun", "time": "Closed"}], "id": "3330400034", "name": "USPS COLLECTION BOX - BLUE BOX", "address": {"city": "OAKLAND PARK", "state": "FL", "street": "2701 YACHT CLUB BLVD", "postcode": "33304"}}},
{"geometry": {"type": "Point", "coordinates": [-80.1139834893, 26.1380597904]}, "type": "Feature", "properties": {"collection_times": [{"days": "Mon-Fri", "time": "5:20pm"}, {"days": "Sat", "time": "1:00pm"}, {"days": "Sun", "time": "Closed"}], "id": "3330400035", "name": "USPS COLLECTION BOX - BLUE BOX", "address": {"city": "OAKLAND PARK", "state": "FL", "street": "2455 E SUNRISE BLVD", "postcode": "33304"}}},
{"geometry": {"type": "Point", "coordinates": [-80.1147748681, 26.1392688279]}, "type": "Feature", "properties": {"collection_times": [{"days": "Mon-Fri", "time": "5:25pm"}, {"days": "Sat", "time": "1:00pm"}, {"days": "Sun", "time": "Closed"}], "id": "3330400037", "name": "USPS COLLECTION BOX - BLUE BOX", "address": {"city": "OAKLAND PARK", "state": "FL", "street": "1040 BAYVIEW DR", "postcode": "33304"}}},
{"geometry": {"type": "Point", "coordinates": [-80.1407466965, 26.1304614622]}, "type": "Feature", "properties": {"collection_times": [{"days": "Mon-Fri", "time": "2:10pm"}, {"days": "Sat-Sun", "time": "Closed"}], "id": "3330400042", "name": "USPS COLLECTION BOX - BLUE BOX", "address": {"city": "OAKLAND PARK", "state": "FL", "street": "634 NE 3RD AVE", "postcode": "33304"}}},
{"geometry": {"type": "Point", "coordinates": [-80.1139834893, 26.1380597904]}, "type": "Feature", "properties": {"collection_times": [{"days": "Mon-Fri", "time": "5:20pm"}, {"days": "Sat", "time": "1:00pm"}, {"days": "Sun", "time": "Closed"}], "id": "3330400044", "name": "USPS COLLECTION BOX - BLUE BOX", "address": {"city": "OAKLAND PARK", "state": "FL", "street": "2455 E SUNRISE BLVD", "postcode": "33304"}}},
{"geometry": {"type": "Point", "coordinates": [-80.1294473381, 26.1595050001]}, "type": "Feature", "properties": {"collection_times": [{"days": "Mon-Fri", "time": "4:00pm"}, {"days": "Sat", "time": "1:00pm"}, {"days": "Sun", "time": "Closed"}], "id": "3330500000", "name": "USPS COLLECTION BOX - BLUE BOX", "address": {"city": "WILTON MANORS", "state": "FL", "street": "1408 NE 26TH ST", "postcode": "33305"}}},
{"geometry": {"type": "Point", "coordinates": [-80.1401731627, 26.1592538373]}, "type": "Feature", "properties": {"collection_times": [{"days": "Mon-Fri", "time": "5:00pm"}, {"days": "Sat", "time": "1:00pm"}, {"days": "Sun", "time": "Closed"}], "id": "3330500001", "name": "USPS COLLECTION BOX - BLUE BOX", "address": {"city": "WILTON MANORS", "state": "FL", "street": "500 NE 26TH ST", "postcode": "33305"}}},
{"geometry": {"type": "Point", "coordinates": [-80.1404863173, 26.1531635178]}, "type": "Feature", "properties": {"collection_times": [{"days": "Mon-Fri", "time": "3:50pm"}, {"days": "Sat", "time": "1:00pm"}, {"days": "Sun", "time": "Closed"}], "id": "3330500002", "name": "USPS COLLECTION BOX - BLUE BOX", "address": {"city": "WILTON MANORS", "state": "FL", "street": "2020 WILTON DR", "postcode": "33305"}}},
{"geometry": {"type": "Point", "coordinates": [-80.1221593892, 26.1597643025]}, "type": "Feature", "properties": {"collection_times": [{"days": "Mon-Fri", "time": "5:05pm"}, {"days": "Sat", "time": "1:00pm"}, {"days": "Sun", "time": "Closed"}], "id": "3330500003", "name": "USPS COLLECTION BOX - BLUE BOX", "address": {"city": "WILTON MANORS", "state": "FL", "street": "1881 NE 26TH ST", "postcode": "33305"}}},
{"geometry": {"type": "Point", "coordinates": [-80.1343113266, 26.1476547789]}, "type": "Feature", "properties": {"collection_times": [{"days": "Mon-Fri", "time": "3:45pm"}, {"days": "Sat", "time": "1:00pm"}, {"days": "Sun", "time": "Closed"}], "id": "3330500004", "name": "USPS COLLECTION BOX - BLUE BOX", "address": {"city": "WILTON MANORS", "state": "FL", "street": "1601 N DIXIE HWY", "postcode": "33305"}}},
{"geometry": {"type": "Point", "coordinates": [-80.1346395699, 26.1534233041]}, "type": "Feature", "properties": {"collection_times": [{"days": "Mon-Fri", "time": "5:35pm"}, {"days": "Sat", "time": "1:00pm"}, {"days": "Sun", "time": "Closed"}], "id": "3330500006", "name": "USPS COLLECTION BOX - BLUE BOX", "address": {"city": "WILTON MANORS", "state": "FL", "street": "1628 N FEDERAL HWY", "postcode": "33305"}}},
{"geometry": {"type": "Point", "coordinates": [-80.1172563954, 26.1575251747]}, "type": "Feature", "properties": {"collection_times": [{"days": "Mon-Fri", "time": "3:20pm"}, {"days": "Sat", "time": "1:00pm"}, {"days": "Sun", "time": "Closed"}], "id": "3330500007", "name": "USPS COLLECTION BOX - BLUE BOX", "address": {"city": "WILTON MANORS", "state": "FL", "street": "2420 N FEDERAL HWY", "postcode": "33305"}}},
{"geometry": {"type": "Point", "coordinates": [-80.1139036155, 26.1516596221]}, "type": "Feature", "properties": {"collection_times": [{"days": "Mon-Fri", "time": "5:10pm"}, {"days": "Sat", "time": "1:00pm"}, {"days": "Sun", "time": "Closed"}], "id": "3330500008", "name": "USPS COLLECTION BOX - BLUE BOX", "address": {"city": "WILTON MANORS", "state": "FL", "street": "1881 MIDDLE RIVER DR", "postcode": "33305"}}},
{"geometry": {"type": "Point", "coordinates": [-80.1281077541, 26.1496961378]}, "type": "Feature", "properties": {"collection_times": [{"days": "Mon-Fri", "time": "3:45pm"}, {"days": "Sat", "time": "1:00pm"}, {"days": "Sun", "time": "Closed"}], "id": "3330500009", "name": "USPS COLLECTION BOX - BLUE BOX", "address": {"city": "WILTON MANORS", "state": "FL", "street": "1601 NE 17TH ST", "postcode": "33305"}}},
{"geometry": {"type": "Point", "coordinates": [-80.126343905, 26.1603308993]}, "type": "Feature", "properties": {"collection_times": [{"days": "Mon-Fri", "time": "4:10pm"}, {"days": "Sat", "time": "1:00pm"}, {"days": "Sun", "time": "Closed"}], "id": "3330500011", "name": "USPS COLLECTION BOX - BLUE BOX", "address": {"city": "WILTON MANORS", "state": "FL", "street": "2608 NE 16 AVE", "postcode": "33305"}}},
{"geometry": {"type": "Point", "coordinates": [-80.1168012499, 26.1601530744]}, "type": "Feature", "properties": {"collection_times": [{"days": "Mon-Fri", "time": "2:30pm"}, {"days": "Sat", "time": "1:00pm"}, {"days": "Sun", "time": "Closed"}], "id": "3330600000", "name": "USPS COLLECTION BOX - BLUE BOX", "address": {"city": "FT LAUDERDALE", "state": "FL", "street": "2621 N FEDERAL HWY", "postcode": "33306"}}},
{"geometry": {"type": "Point", "coordinates": [-80.1132524208, 26.1671655763]}, "type": "Feature", "properties": {"collection_times": [{"days": "Mon-Fri", "time": "2:15pm"}, {"days": "Sat", "time": "1:00pm"}, {"days": "Sun", "time": "Closed"}], "id": "3330600002", "name": "USPS COLLECTION BOX - BLUE BOX", "address": {"city": "FT LAUDERDALE", "state": "FL", "street": "2644 E OAKLAND PARK BLVD", "postcode": "33306"}}},
{"geometry": {"type": "Point", "coordinates": [-80.1087352775, 26.1675153466]}, "type": "Feature", "properties": {"collection_times": [{"days": "Mon-Fri", "time": "2:20pm"}, {"days": "Sat", "time": "1:00pm"}, {"days": "Sun", "time": "Closed"}], "id": "3330600009", "name": "USPS COLLECTION BOX - BLUE BOX", "address": {"city": "FT LAUDERDALE", "state": "FL", "street": "2801 E OAKLAND PARK BLVD", "postcode": "33306"}}},
{"geometry": {"type": "Point", "coordinates": [-80.1143066252, 26.1673723896]}, "type": "Feature", "properties": {"collection_times": [{"days": "Mon-Fri", "time": "2:25pm"}, {"days": "Sat", "time": "1:00pm"}, {"days": "Sun", "time": "Closed"}], "id": "3330600011", "name": "USPS COLLECTION BOX - BLUE BOX", "address": {"city": "FT LAUDERDALE", "state": "FL", "street": "2601 E OAKLAND PARK BLVD", "postcode": "33306"}}},
{"geometry": {"type": "Point", "coordinates": [-80.1171005518, 26.1672480945]}, "type": "Feature", "properties": {"collection_times": [{"days": "Mon-Fri", "time": "2:10pm"}, {"days": "Sat", "time": "1:00pm"}, {"days": "Sun", "time": "Closed"}], "id": "3330600023", "name": "USPS COLLECTION BOX - BLUE BOX", "address": {"city": "FT LAUDERDALE", "state": "FL", "street": "3101 N FEDERAL HWY", "postcode": "33306"}}},
{"geometry": {"type": "Point", "coordinates": [-80.1185091133, 26.1697143628]}, "type": "Feature", "properties": {"collection_times": [{"days": "Mon-Fri", "time": "5:20pm"}, {"days": "Sat", "time": "1:00pm"}, {"days": "Sun", "time": "Closed"}], "id": "3330600024", "name": "USPS COLLECTION BOX - BLUE BOX", "address": {"city": "FT LAUDERDALE", "state": "FL", "street": "3296 N FEDERAL HWY", "postcode": "33306"}}},
{"geometry": {"type": "Point", "coordinates": [-80.1185091133, 26.1697143628]}, "type": "Feature", "properties": {"collection_times": [{"days": "Mon-Fri", "time": "5:20pm"}, {"days": "Sat", "time": "1:00pm"}, {"days": "Sun", "time": "Closed"}], "id": "3330600025", "name": "USPS COLLECTION BOX - BLUE BOX", "address": {"city": "FT LAUDERDALE", "state": "FL", "street": "3296 N FEDERAL HWY", "postcode": "33306"}}},
{"geometry": {"type": "Point", "coordinates": [-80.1185091133, 26.1697143628]}, "type": "Feature", "properties": {"collection_times": [{"days": "Mon-Fri", "time": "5:20pm"}, {"days": "Sat", "time": "1:00pm"}, {"days": "Sun", "time": "Closed"}], "id": "3330600026", "name": "USPS COLLECTION BOX - BLUE BOX", "address": {"city": "FT LAUDERDALE", "state": "FL", "street": "3296 N FEDERAL HWY", "postcode": "33306"}}},
{"geometry": {"type": "Point", "coordinates": [-80.1093054223, 26.2020386157]}, "type": "Feature", "properties": {"collection_times": [{"days": "Mon-Fri", "time": "5:10pm"}, {"days": "Sat", "time": "1:00pm"}, {"days": "Sun", "time": "Closed"}], "id": "3330800000", "name": "USPS COLLECTION BOX - BLUE BOX", "address": {"city": "FORT LAUDERDALE", "state": "FL", "street": "5975 N FEDERAL HWY", "postcode": "33308"}}},
{"geometry": {"type": "Point", "coordinates": [-80.1156445753, 26.196696803]}, "type": "Feature", "properties": {"collection_times": [{"days": "Mon-Fri", "time": "3:45pm"}, {"days": "Sat", "time": "1:00pm"}, {"days": "Sun", "time": "Closed"}], "id": "3330800001", "name": "USPS COLLECTION BOX - BLUE BOX", "address": {"city": "FORT LAUDERDALE", "state": "FL", "street": "2161 NE 56TH ST", "postcode": "33308"}}},
{"geometry": {"type": "Point", "coordinates": [-80.1139559165, 26.191737483]}, "type": "Feature", "properties": {"collection_times": [{"days": "Mon-Fri", "time": "3:50pm"}, {"days": "Sat", "time": "1:00pm"}, {"days": "Sun", "time": "Closed"}], "id": "3330800002", "name": "USPS COLLECTION BOX - BLUE BOX", "address": {"city": "FORT LAUDERDALE", "state": "FL", "street": "5353 N FEDERAL HWY", "postcode": "33308"}}},
{"geometry": {"type": "Point", "coordinates": [-80.1141727337, 26.19061152]}, "type": "Feature", "properties": {"collection_times": [{"days": "Mon-Fri", "time": "5:00pm"}, {"days": "Sat", "time": "1:00pm"}, {"days": "Sun", "time": "Closed"}], "id": "3330800006", "name": "USPS COLLECTION BOX - BLUE BOX", "address": {"city": "FORT LAUDERDALE", "state": "FL", "street": "5100 N FEDERAL HWY", "postcode": "33308"}}},
{"geometry": {"type": "Point", "coordinates": [-80.1083057028, 26.2049208517]}, "type": "Feature", "properties": {"collection_times": [{"days": "Mon-Fri", "time": "3:40pm"}, {"days": "Sat", "time": "1:00pm"}, {"days": "Sun", "time": "Closed"}], "id": "3330800008", "name": "USPS COLLECTION BOX - BLUE BOX", "address": {"city": "FORT LAUDERDALE", "state": "FL", "street": "6256 N FEDERAL HWY", "postcode": "33308"}}},
{"geometry": {"type": "Point", "coordinates": [-80.1074961296, 26.2082643126]}, "type": "Feature", "properties": {"collection_times": [{"days": "Mon-Fri", "time": "5:05pm"}, {"days": "Sat", "time": "1:00pm"}, {"days": "Sun", "time": "Closed"}], "id": "3330800009", "name": "USPS COLLECTION BOX - BLUE BOX", "address": {"city": "FORT LAUDERDALE", "state": "FL", "street": "6550 N FEDERAL HWY", "postcode": "33308"}}},
{"geometry": {"type": "Point", "coordinates": [-80.1080918078, 26.2069878751]}, "type": "Feature", "properties": {"collection_times": [{"days": "Mon-Fri", "time": "5:05pm"}, {"days": "Sat", "time": "1:00pm"}, {"days": "Sun", "time": "Closed"}], "id": "3330800013", "name": "USPS COLLECTION BOX - BLUE BOX", "address": {"city": "FORT LAUDERDALE", "state": "FL", "street": "6405 N FEDERAL HWY", "postcode": "33308"}}},
{"geometry": {"type": "Point", "coordinates": [-80.108713918, 26.2044166755]}, "type": "Feature", "properties": {"collection_times": [{"days": "Mon-Fri", "time": "3:40pm"}, {"days": "Sat", "time": "1:00pm"}, {"days": "Sun", "time": "Closed"}], "id": "3330800015", "name": "USPS COLLECTION BOX - BLUE BOX", "address": {"city": "FORT LAUDERDALE", "state": "FL", "street": "6215 N FEDERAL HWY", "postcode": "33308"}}},
{"geometry": {"type": "Point", "coordinates": [-80.1079963063, 26.1898937872]}, "type": "Feature", "properties": {"collection_times": [{"days": "Mon-Fri", "time": "5:25pm"}, {"days": "Sat", "time": "1:00pm"}, {"days": "Sun", "time": "Closed"}], "id": "3330800018", "name": "USPS COLLECTION BOX - BLUE BOX", "address": {"city": "FORT LAUDERDALE", "state": "FL", "street": "2929 E COMMERCIAL BLVD", "postcode": "33308"}}},
{"geometry": {"type": "Point", "coordinates": [-80.1114711438, 26.1897939536]}, "type": "Feature", "properties": {"collection_times": [{"days": "Mon-Fri", "time": "5:30pm"}, {"days": "Sat-Sun", "time": "Closed"}], "id": "3330800019", "name": "USPS COLLECTION BOX - BLUE BOX", "address": {"city": "FORT LAUDERDALE", "state": "FL", "street": "2501 E COMMERCIAL BLVD", "postcode": "33308"}}},
{"geometry": {"type": "Point", "coordinates": [-80.1205691398, 26.1742900341]}, "type": "Feature", "properties": {"collection_times": [{"days": "Mon-Fri", "time": "4:10pm"}, {"days": "Sat-Sun", "time": "Closed"}], "id": "3330800021", "name": "USPS COLLECTION BOX - BLUE BOX", "address": {"city": "FORT LAUDERDALE", "state": "FL", "street": "2000 NE 38 ST", "postcode": "33308"}}},
{"geometry": {"type": "Point", "coordinates": [-80.119740306, 26.1811542629]}, "type": "Feature", "properties": {"collection_times": [{"days": "Mon-Fri", "time": "4:05pm"}, {"days": "Sat", "time": "1:00pm"}, {"days": "Sun", "time": "Closed"}], "id": "3330800022", "name": "USPS COLLECTION BOX - BLUE BOX", "address": {"city": "FORT LAUDERDALE", "state": "FL", "street": "4331 N FEDERAL HWY", "postcode": "33308"}}},
{"geometry": {"type": "Point", "coordinates": [-80.1179496745, 26.1845494557]}, "type": "Feature", "properties": {"collection_times": [{"days": "Mon-Fri", "time": "3:00pm"}, {"days": "Sat", "time": "1:00pm"}, {"days": "Sun", "time": "Closed"}], "id": "3330800023", "name": "USPS COLLECTION BOX - BLUE BOX", "address": {"city": "FORT LAUDERDALE", "state": "FL", "street": "4606 N FEDERAL HWY", "postcode": "33308"}}},
{"geometry": {"type": "Point", "coordinates": [-80.1162142248, 26.1884285726]}, "type": "Feature", "properties": {"collection_times": [{"days": "Mon-Fri", "time": "3:55pm"}, {"days": "Sat", "time": "1:00pm"}, {"days": "Sun", "time": "Closed"}], "id": "3330800024", "name": "USPS COLLECTION BOX - BLUE BOX", "address": {"city": "FORT LAUDERDALE", "state": "FL", "street": "2070 NE 49TH ST", "postcode": "33308"}}},
{"geometry": {"type": "Point", "coordinates": [-80.1161953512, 26.1862788395]}, "type": "Feature", "properties": {"collection_times": [{"days": "Mon-Fri", "time": "3:55pm"}, {"days": "Sat", "time": "1:00pm"}, {"days": "Sun", "time": "Closed"}], "id": "3330800026", "name": "USPS COLLECTION BOX - BLUE BOX", "address": {"city": "FORT LAUDERDALE", "state": "FL", "street": "2075 NE 48TH ST", "postcode": "33308"}}},
{"geometry": {"type": "Point", "coordinates": [-80.1177098865, 26.1854092116]}, "type": "Feature", "properties": {"collection_times": [{"days": "Mon-Fri", "time": "5:35pm"}, {"days": "Sat", "time": "1:00pm"}, {"days": "Sun", "time": "Closed"}], "id": "3330800028", "name": "USPS COLLECTION BOX - BLUE BOX", "address": {"city": "FORT LAUDERDALE", "state": "FL", "street": "4725 N FEDERAL HWY", "postcode": "33308"}}},
{"geometry": {"type": "Point", "coordinates": [-80.1178628838, 26.185174476]}, "type": "Feature", "properties": {"collection_times": [{"days": "Mon-Fri", "time": "4:00pm"}, {"days": "Sat", "time": "1:00pm"}, {"days": "Sun", "time": "Closed"}], "id": "3330800029", "name": "USPS COLLECTION BOX - BLUE BOX", "address": {"city": "FORT LAUDERDALE", "state": "FL", "street": "4701 N FEDERAL HWY", "postcode": "33308"}}},
{"geometry": {"type": "Point", "coordinates": [-80.1128104525, 26.1895235145]}, "type": "Feature", "properties": {"collection_times": [{"days": "Mon-Fri", "time": "3:05pm"}, {"days": "Sat", "time": "1:00pm"}, {"days": "Sun", "time": "Closed"}], "id": "3330800034", "name": "USPS COLLECTION BOX - BLUE BOX", "address": {"city": "FORT LAUDERDALE", "state": "FL", "street": "2428 E COMMERCIAL BLVD", "postcode": "33308"}}},
{"geometry": {"type": "Point", "coordinates": [-80.1078600442, 26.1896545339]}, "type": "Feature", "properties": {"collection_times": [{"days": "Mon-Fri", "time": "3:05pm"}, {"days": "Sat", "time": "1:00pm"}, {"days": "Sun", "time": "Closed"}], "id": "3330800035", "name": "USPS COLLECTION BOX - BLUE BOX", "address": {"city": "FORT LAUDERDALE", "state": "FL", "street": "2950 E COMMERCIAL BLVD", "postcode": "33308"}}},
{"geometry": {"type": "Point", "coordinates": [-80.0988223604, 26.1898041196]}, "type": "Feature", "properties": {"collection_times": [{"days": "Mon-Fri", "time": "3:10pm"}, {"days": "Sat", "time": "1:00pm"}, {"days": "Sun", "time": "Closed"}], "id": "3330800036", "name": "USPS COLLECTION BOX - BLUE BOX", "address": {"city": "FORT LAUDERDALE", "state": "FL", "street": "224 COMMERCIAL BLVD", "postcode": "33308"}}},
{"geometry": {"type": "Point", "coordinates": [-80.0971438554, 26.1858903318]}, "type": "Feature", "properties": {"collection_times": [{"days": "Mon-Fri", "time": "3:15pm"}, {"days": "Sat", "time": "1:00pm"}, {"days": "Sun", "time": "Closed"}], "id": "3330800037", "name": "USPS COLLECTION BOX - BLUE BOX", "address": {"city": "FORT LAUDERDALE", "state": "FL", "street": "4201 N OCEAN DR", "postcode": "33308"}}},
{"geometry": {"type": "Point", "coordinates": [-80.1016982434, 26.169900412]}, "type": "Feature", "properties": {"collection_times": [{"days": "Mon-Fri", "time": "5:45pm"}, {"days": "Sat", "time": "1:00pm"}, {"days": "Sun", "time": "Closed"}], "id": "3330800038", "name": "USPS COLLECTION BOX - BLUE BOX", "address": {"city": "FORT LAUDERDALE", "state": "FL", "street": "3324 NE 34 ST", "postcode": "33308"}}},
{"geometry": {"type": "Point", "coordinates": [-80.1005225334, 26.1675774389]}, "type": "Feature", "properties": {"collection_times": [{"days": "Mon-Fri", "time": "3:15pm"}, {"days": "Sat", "time": "1:00pm"}, {"days": "Sun", "time": "Closed"}], "id": "3330800040", "name": "USPS COLLECTION BOX - BLUE BOX", "address": {"city": "FORT LAUDERDALE", "state": "FL", "street": "3101 N OCEAN BLVD", "postcode": "33308"}}},
{"geometry": {"type": "Point", "coordinates": [-80.0963952054, 26.1839201247]}, "type": "Feature", "properties": {"collection_times": [{"days": "Mon-Fri", "time": "3:15pm"}, {"days": "Sat-Sun", "time": "Closed"}], "id": "3330800049", "name": "USPS COLLECTION BOX - BLUE BOX", "address": {"city": "FORT LAUDERDALE", "state": "FL", "street": "100 PALM AVE", "postcode": "33308"}}},
{"geometry": {"type": "Point", "coordinates": [-80.0959191182, 26.1896079462]}, "type": "Feature", "properties": {"collection_times": [{"days": "Mon-Fri", "time": "3:20pm"}, {"days": "Sat", "time": "1:00pm"}, {"days": "Sun", "time": "Closed"}], "id": "3330800050", "name": "USPS COLLECTION BOX - BLUE BOX", "address": {"city": "FORT LAUDERDALE", "state": "FL", "street": "104 COMMERCIAL BLVD", "postcode": "33308"}}},
{"geometry": {"type": "Point", "coordinates": [-80.0958619234, 26.1980078277]}, "type": "Feature", "properties": {"collection_times": [{"days": "Mon-Fri", "time": "5:20pm"}, {"days": "Sat", "time": "1:00pm"}, {"days": "Sun", "time": "Closed"}], "id": "3330800051", "name": "USPS COLLECTION BOX - BLUE BOX", "address": {"city": "FORT LAUDERDALE", "state": "FL", "street": "4735 N OCEAN DR", "postcode": "33308"}}},
{"geometry": {"type": "Point", "coordinates": [-80.0964413382, 26.1924755811]}, "type": "Feature", "properties": {"collection_times": [{"days": "Mon-Fri", "time": "3:25pm"}, {"days": "Sat", "time": "1:00pm"}, {"days": "Sun", "time": "Closed"}], "id": "3330800052", "name": "USPS COLLECTION BOX - BLUE BOX", "address": {"city": "FORT LAUDERDALE", "state": "FL", "street": "4501 N OCEAN DR", "postcode": "33308"}}},
{"geometry": {"type": "Point", "coordinates": [-80.0987650743, 26.1900378318]}, "type": "Feature", "properties": {"collection_times": [{"days": "Mon-Fri", "time": "3:35pm"}, {"days": "Sat", "time": "1:00pm"}, {"days": "Sun", "time": "Closed"}], "id": "3330800053", "name": "USPS COLLECTION BOX - BLUE BOX", "address": {"city": "FORT LAUDERDALE", "state": "FL", "street": "227 E COMMERCIAL BLVD", "postcode": "33308"}}},
{"geometry": {"type": "Point", "coordinates": [-80.1070317645, 26.1899166919]}, "type": "Feature", "properties": {"collection_times": [{"days": "Mon-Fri", "time": "5:25pm"}, {"days": "Sat", "time": "1:00pm"}, {"days": "Sun", "time": "Closed"}], "id": "3330800055", "name": "USPS COLLECTION BOX - BLUE BOX", "address": {"city": "FORT LAUDERDALE", "state": "FL", "street": "3099 E COMMERCIAL BLVD", "postcode": "33308"}}},
{"geometry": {"type": "Point", "coordinates": [-80.1074009819, 26.1896626079]}, "type": "Feature", "properties": {"collection_times": [{"days": "Mon-Fri", "time": "5:15pm"}, {"days": "Sat", "time": "1:00pm"}, {"days": "Sun", "time": "Closed"}], "id": "3330800061", "name": "USPS COLLECTION BOX - BLUE BOX", "address": {"city": "FORT LAUDERDALE", "state": "FL", "street": "3032 E COMMERCIAL BLVD", "postcode": "33308"}}},
{"geometry": {"type": "Point", "coordinates": [-80.1192655776, 26.173140647]}, "type": "Feature", "properties": {"collection_times": [{"days": "Mon-Fri", "time": "3:00pm"}, {"days": "Sat-Sun", "time": "Closed"}], "id": "3330800062", "name": "USPS COLLECTION BOX - BLUE BOX", "address": {"city": "FORT LAUDERDALE", "state": "FL", "street": "3696 N FEDERAL HWY", "postcode": "33308"}}},
{"geometry": {"type": "Point", "coordinates": [-80.0960132744, 26.2016855078]}, "type": "Feature", "properties": {"collection_times": [{"days": "Mon-Fri", "time": "3:30pm"}, {"days": "Sat", "time": "1:00pm"}, {"days": "Sun", "time": "Closed"}], "id": "3330800063", "name": "USPS COLLECTION BOX - BLUE BOX", "address": {"city": "FORT LAUDERDALE", "state": "FL", "street": "3 GATEHOUSE RD", "postcode": "33308"}}},
{"geometry": {"type": "Point", "coordinates": [-80.131083293, 26.1691203592]}, "type": "Feature", "properties": {"collection_times": [{"days": "Mon-Fri", "time": "5:55pm"}, {"days": "Sat", "time": "5:00pm"}, {"days": "Sun", "time": "Closed"}], "id": "3330800064", "name": "USPS COLLECTION BOX - BLUE BOX", "address": {"city": "FORT LAUDERDALE", "state": "FL", "street": "3350 NE 12 AVE", "postcode": "33308"}}},
{"geometry": {"type": "Point", "coordinates": [-80.1566089175, 26.0827062622]}, "type": "Feature", "properties": {"collection_times": [{"days": "Mon-Fri", "time": "5:55pm"}, {"days": "Sat", "time": "5:00pm"}, {"days": "Sun", "time": "Closed"}], "id": "3330800065", "name": "USPS COLLECTION BOX - BLUE BOX", "address": {"city": "FORT LAUDERDALE", "state": "FL", "street": "3350 NE 12 AVE", "postcode": "33308"}}},
{"geometry": {"type": "Point", "coordinates": [-80.1075467291, 26.1888812687]}, "type": "Feature", "properties": {"collection_times": [{"days": "Mon-Fri", "time": "5:55pm"}, {"days": "Sat", "time": "5:00pm"}, {"days": "Sun", "time": "Closed"}], "id": "3330800068", "name": "USPS COLLECTION BOX - EXPRESS", "address": {"city": "FORT LAUDERDALE", "state": "FL", "street": "3350 NE 12 AVE", "postcode": "33308"}}},
{"geometry": {"type": "Point", "coordinates": [-80.1139559165, 26.191737483]}, "type": "Feature", "properties": {"collection_times": [{"days": "Mon-Fri", "time": "3:50pm"}, {"days": "Sat", "time": "1:00pm"}, {"days": "Sun", "time": "Closed"}], "id": "3330800070", "name": "USPS COLLECTION BOX - BLUE BOX", "address": {"city": "FORT LAUDERDALE", "state": "FL", "street": "5353 N FEDERAL HWY", "postcode": "33308"}}},
{"geometry": {"type": "Point", "coordinates": [-80.1566089175, 26.0827062622]}, "type": "Feature", "properties": {"collection_times": [{"days": "Mon-Sat", "time": "5:00pm"}, {"days": "Sun", "time": "Closed"}], "id": "3330800074", "name": "USPS COLLECTION BOX - APC", "address": {"city": "FORT LAUDERDALE", "state": "FL", "street": "3350 NE 12 AVE", "postcode": "33308"}}},
{"geometry": {"type": "Point", "coordinates": [-80.1566089175, 26.0827062622]}, "type": "Feature", "properties": {"collection_times": [{"days": "Mon-Sat", "time": "5:00pm"}, {"days": "Sun", "time": "Closed"}], "id": "3330800076", "name": "USPS COLLECTION BOX - PO LOBBY", "address": {"city": "FORT LAUDERDALE", "state": "FL", "street": "3350 NE 12 AVE", "postcode": "33308"}}},
{"geometry": {"type": "Point", "coordinates": [-80.1646266252, 26.1865965963]}, "type": "Feature", "properties": {"collection_times": [{"days": "Mon-Fri", "time": "5:25pm"}, {"days": "Sat", "time": "1:00pm"}, {"days": "Sun", "time": "Closed"}], "id": "3330900001", "name": "USPS COLLECTION BOX - BLUE BOX", "address": {"city": "OAKLAND PARK", "state": "FL", "street": "4901 NW 17TH WAY", "postcode": "33309"}}},
{"geometry": {"type": "Point", "coordinates": [-80.1772206037, 26.1918325389]}, "type": "Feature", "properties": {"collection_times": [{"days": "Mon-Fri", "time": "2:50pm"}, {"days": "Sat", "time": "1:00pm"}, {"days": "Sun", "time": "Closed"}], "id": "3330900009", "name": "USPS COLLECTION BOX - BLUE BOX", "address": {"city": "OAKLAND PARK", "state": "FL", "street": "2611 NW 53RD ST", "postcode": "33309"}}},
{"geometry": {"type": "Point", "coordinates": [-80.1464862305, 26.1697517802]}, "type": "Feature", "properties": {"collection_times": [{"days": "Mon-Fri", "time": "3:10pm"}, {"days": "Sat", "time": "1:00pm"}, {"days": "Sun", "time": "Closed"}], "id": "3330900010", "name": "USPS COLLECTION BOX - BLUE BOX", "address": {"city": "OAKLAND PARK", "state": "FL", "street": "3400 N ANDREWS AVE", "postcode": "33309"}}},
{"geometry": {"type": "Point", "coordinates": [-80.1464862305, 26.1697517802]}, "type": "Feature", "properties": {"collection_times": [{"days": "Mon-Fri", "time": "3:10pm"}, {"days": "Sat", "time": "1:00pm"}, {"days": "Sun", "time": "Closed"}], "id": "3330900011", "name": "USPS COLLECTION BOX - BLUE BOX", "address": {"city": "OAKLAND PARK", "state": "FL", "street": "3400 N ANDREWS AVE", "postcode": "33309"}}},
{"geometry": {"type": "Point", "coordinates": [-80.1464862305, 26.1697517802]}, "type": "Feature", "properties": {"collection_times": [{"days": "Mon-Fri", "time": "3:10pm"}, {"days": "Sat", "time": "1:00pm"}, {"days": "Sun", "time": "Closed"}], "id": "3330900012", "name": "USPS COLLECTION BOX - BLUE BOX", "address": {"city": "OAKLAND PARK", "state": "FL", "street": "3400 N ANDREWS AVE", "postcode": "33309"}}},
{"geometry": {"type": "Point", "coordinates": [-80.1711973886, 26.1882984245]}, "type": "Feature", "properties": {"collection_times": [{"days": "Mon-Fri", "time": "2:55pm"}, {"days": "Sat", "time": "1:00pm"}, {"days": "Sun", "time": "Closed"}], "id": "3330900013", "name": "USPS COLLECTION BOX - BLUE BOX", "address": {"city": "OAKLAND PARK", "state": "FL", "street": "2101 W COMMERCIAL BLVD", "postcode": "33309"}}},
{"geometry": {"type": "Point", "coordinates": [-80.1711973886, 26.1882984245]}, "type": "Feature", "properties": {"collection_times": [{"days": "Mon-Fri", "time": "3:00pm"}, {"days": "Sat", "time": "1:00pm"}, {"days": "Sun", "time": "Closed"}], "id": "3330900014", "name": "USPS COLLECTION BOX - BLUE BOX", "address": {"city": "OAKLAND PARK", "state": "FL", "street": "2101 W COMMERCIAL BLVD", "postcode": "33309"}}},
{"geometry": {"type": "Point", "coordinates": [-80.1739427457, 26.1878958108]}, "type": "Feature", "properties": {"collection_times": [{"days": "Mon-Fri", "time": "2:25pm"}, {"days": "Sat", "time": "1:00pm"}, {"days": "Sun", "time": "Closed"}], "id": "3330900017", "name": "USPS COLLECTION BOX - BLUE BOX", "address": {"city": "OAKLAND PARK", "state": "FL", "street": "3120 W COMMERICAL BLVD", "postcode": "33309"}}},
{"geometry": {"type": "Point", "coordinates": [-80.1739427457, 26.1878958108]}, "type": "Feature", "properties": {"collection_times": [{"days": "Mon-Fri", "time": "2:45pm"}, {"days": "Sat", "time": "1:00pm"}, {"days": "Sun", "time": "Closed"}], "id": "3330900019", "name": "USPS COLLECTION BOX - BLUE BOX", "address": {"city": "OAKLAND PARK", "state": "FL", "street": "2800 W COMMERICAL BLVD", "postcode": "33309"}}},
{"geometry": {"type": "Point", "coordinates": [-80.1739427457, 26.1878958108]}, "type": "Feature", "properties": {"collection_times": [{"days": "Mon-Fri", "time": "5:30pm"}, {"days": "Sat-Sun", "time": "Closed"}], "id": "3330900020", "name": "USPS COLLECTION BOX - BLUE BOX", "address": {"city": "OAKLAND PARK", "state": "FL", "street": "3201 W COMMERICAL BLVD", "postcode": "33309"}}},
{"geometry": {"type": "Point", "coordinates": [-80.1739427457, 26.1878958108]}, "type": "Feature", "properties": {"collection_times": [{"days": "Mon-Fri", "time": "5:30pm"}, {"days": "Sat-Sun", "time": "Closed"}], "id": "3330900021", "name": "USPS COLLECTION BOX - BLUE BOX", "address": {"city": "OAKLAND PARK", "state": "FL", "street": "3201 W COMMERICAL BLVD", "postcode": "33309"}}},
{"geometry": {"type": "Point", "coordinates": [-80.1739427457, 26.1878958108]}, "type": "Feature", "properties": {"collection_times": [{"days": "Mon-Fri", "time": "5:30pm"}, {"days": "Sat-Sun", "time": "Closed"}], "id": "3330900022", "name": "USPS COLLECTION BOX - BLUE BOX", "address": {"city": "OAKLAND PARK", "state": "FL", "street": "3201 W COMMERICAL BLVD", "postcode": "33309"}}},
{"geometry": {"type": "Point", "coordinates": [-80.1739427457, 26.1878958108]}, "type": "Feature", "properties": {"collection_times": [{"days": "Mon-Fri", "time": "2:25pm"}, {"days": "Sat", "time": "1:00pm"}, {"days": "Sun", "time": "Closed"}], "id": "3330900023", "name": "USPS COLLECTION BOX - BLUE BOX", "address": {"city": "OAKLAND PARK", "state": "FL", "street": "3323 W COMMERICAL BLVD", "postcode": "33309"}}},
{"geometry": {"type": "Point", "coordinates": [-80.1912163692, 26.1887273946]}, "type": "Feature", "properties": {"collection_times": [{"days": "Mon-Fri", "time": "2:30pm"}, {"days": "Sat-Sun", "time": "Closed"}], "id": "3330900027", "name": "USPS COLLECTION BOX - BLUE BOX", "address": {"city": "OAKLAND PARK", "state": "FL", "street": "5200 NW 33RD AVE", "postcode": "33309"}}},
{"geometry": {"type": "Point", "coordinates": [-80.1913633306, 26.1890689667]}, "type": "Feature", "properties": {"collection_times": [{"days": "Mon-Fri", "time": "2:30pm"}, {"days": "Sat", "time": "1:00pm"}, {"days": "Sun", "time": "Closed"}], "id": "3330900030", "name": "USPS COLLECTION BOX - BLUE BOX", "address": {"city": "OAKLAND PARK", "state": "FL", "street": "5233 NW 33RD AVE", "postcode": "33309"}}},
{"geometry": {"type": "Point", "coordinates": [-80.1913633306, 26.1890689667]}, "type": "Feature", "properties": {"collection_times": [{"days": "Mon-Fri", "time": "2:30pm"}, {"days": "Sat", "time": "1:00pm"}, {"days": "Sun", "time": "Closed"}], "id": "3330900031", "name": "USPS COLLECTION BOX - BLUE BOX", "address": {"city": "OAKLAND PARK", "state": "FL", "street": "5233 NW 33RD AVE", "postcode": "33309"}}},
{"geometry": {"type": "Point", "coordinates": [-80.1919135678, 26.1900627315]}, "type": "Feature", "properties": {"collection_times": [{"days": "Mon-Fri", "time": "2:35pm"}, {"days": "Sat", "time": "1:00pm"}, {"days": "Sun", "time": "Closed"}], "id": "3330900033", "name": "USPS COLLECTION BOX - BLUE BOX", "address": {"city": "OAKLAND PARK", "state": "FL", "street": "5310 NW 33RD AVE", "postcode": "33309"}}},
{"geometry": {"type": "Point", "coordinates": [-80.2032438321, 26.1762904072]}, "type": "Feature", "properties": {"collection_times": [{"days": "Mon-Fri", "time": "2:15pm"}, {"days": "Sat", "time": "1:00pm"}, {"days": "Sun", "time": "Closed"}], "id": "3330900036", "name": "USPS COLLECTION BOX - BLUE BOX", "address": {"city": "OAKLAND PARK", "state": "FL", "street": "3991 NW 41 ST", "postcode": "33309"}}},
{"geometry": {"type": "Point", "coordinates": [-80.1947937666, 26.1951592379]}, "type": "Feature", "properties": {"collection_times": [{"days": "Mon-Fri", "time": "2:40pm"}, {"days": "Sat-Sun", "time": "Closed"}], "id": "3330900037", "name": "USPS COLLECTION BOX - BLUE BOX", "address": {"city": "OAKLAND PARK", "state": "FL", "street": "3453 PROSPECT RD", "postcode": "33309"}}},
{"geometry": {"type": "Point", "coordinates": [-80.1874767249, 26.1832856347]}, "type": "Feature", "properties": {"collection_times": [{"days": "Mon-Fri", "time": "2:20pm"}, {"days": "Sat", "time": "1:00pm"}, {"days": "Sun", "time": "Closed"}], "id": "3330900040", "name": "USPS COLLECTION BOX - BLUE BOX", "address": {"city": "OAKLAND PARK", "state": "FL", "street": "4501 NW 31ST AVE", "postcode": "33309"}}},
{"geometry": {"type": "Point", "coordinates": [-80.1711887274, 26.1770640481]}, "type": "Feature", "properties": {"collection_times": [{"days": "Mon-Fri", "time": "2:10pm"}, {"days": "Sat-Sun", "time": "Closed"}], "id": "3330900041", "name": "USPS COLLECTION BOX - BLUE BOX", "address": {"city": "OAKLAND PARK", "state": "FL", "street": "114 LAKE EMERALD DR", "postcode": "33309"}}},
{"geometry": {"type": "Point", "coordinates": [-80.1790125843, 26.1683173764]}, "type": "Feature", "properties": {"collection_times": [{"days": "Mon-Fri", "time": "2:05pm"}, {"days": "Sat", "time": "1:00pm"}, {"days": "Sun", "time": "Closed"}], "id": "3330900042", "name": "USPS COLLECTION BOX - BLUE BOX", "address": {"city": "OAKLAND PARK", "state": "FL", "street": "2701 S OAKLAND FOREST DR", "postcode": "33309"}}},
{"geometry": {"type": "Point", "coordinates": [-80.1831448041, 26.1659122103]}, "type": "Feature", "properties": {"collection_times": [{"days": "Mon-Fri", "time": "2:00pm"}, {"days": "Sat", "time": "1:00pm"}, {"days": "Sun", "time": "Closed"}], "id": "3330900043", "name": "USPS COLLECTION BOX - BLUE BOX", "address": {"city": "OAKLAND PARK", "state": "FL", "street": "3127 OAKLAND SHORES DR", "postcode": "33309"}}},
{"geometry": {"type": "Point", "coordinates": [-80.1626500997, 26.1736760626]}, "type": "Feature", "properties": {"collection_times": [{"days": "Mon-Fri", "time": "3:05pm"}, {"days": "Sat", "time": "1:00pm"}, {"days": "Sun", "time": "Closed"}], "id": "3330900044", "name": "USPS COLLECTION BOX - BLUE BOX", "address": {"city": "OAKLAND PARK", "state": "FL", "street": "1500 NW 38 ST", "postcode": "33309"}}},
{"geometry": {"type": "Point", "coordinates": [-80.1460965762, 26.2032913571]}, "type": "Feature", "properties": {"collection_times": [{"days": "Mon-Fri", "time": "5:25pm"}, {"days": "Sat", "time": "1:00pm"}, {"days": "Sun", "time": "Closed"}], "id": "3330900049", "name": "USPS COLLECTION BOX - BLUE BOX", "address": {"city": "OAKLAND PARK", "state": "FL", "street": "100 W CYPRESS CREEK RD", "postcode": "33309"}}},
{"geometry": {"type": "Point", "coordinates": [-80.1460965762, 26.2032913571]}, "type": "Feature", "properties": {"collection_times": [{"days": "Mon-Fri", "time": "5:25pm"}, {"days": "Sat", "time": "1:00pm"}, {"days": "Sun", "time": "Closed"}], "id": "3330900050", "name": "USPS COLLECTION BOX - BLUE BOX", "address": {"city": "OAKLAND PARK", "state": "FL", "street": "100 W CYPRESS CREEK RD", "postcode": "33309"}}},
{"geometry": {"type": "Point", "coordinates": [-80.1499311573, 26.2031726808]}, "type": "Feature", "properties": {"collection_times": [{"days": "Mon-Fri", "time": "5:10pm"}, {"days": "Sat", "time": "1:00pm"}, {"days": "Sun", "time": "Closed"}], "id": "3330900051", "name": "USPS COLLECTION BOX - BLUE BOX", "address": {"city": "OAKLAND PARK", "state": "FL", "street": "500 W CYPRESS CREEK RD", "postcode": "33309"}}},
{"geometry": {"type": "Point", "coordinates": [-80.1499311573, 26.2031726808]}, "type": "Feature", "properties": {"collection_times": [{"days": "Mon-Fri", "time": "5:10pm"}, {"days": "Sat", "time": "1:00pm"}, {"days": "Sun", "time": "Closed"}], "id": "3330900052", "name": "USPS COLLECTION BOX - BLUE BOX", "address": {"city": "OAKLAND PARK", "state": "FL", "street": "500 W CYPRESS CREEK RD", "postcode": "33309"}}},
{"geometry": {"type": "Point", "coordinates": [-80.1466608115, 26.2097983544]}, "type": "Feature", "properties": {"collection_times": [{"days": "Mon-Fri", "time": "3:50pm"}, {"days": "Sat", "time": "1:00pm"}, {"days": "Sun", "time": "Closed"}], "id": "3330900055", "name": "USPS COLLECTION BOX - BLUE BOX", "address": {"city": "OAKLAND PARK", "state": "FL", "street": "150 NW 68TH ST", "postcode": "33309"}}},
{"geometry": {"type": "Point", "coordinates": [-80.1525463125, 26.2058949663]}, "type": "Feature", "properties": {"collection_times": [{"days": "Mon-Fri", "time": "3:55pm"}, {"days": "Sat", "time": "1:00pm"}, {"days": "Sun", "time": "Closed"}], "id": "3330900058", "name": "USPS COLLECTION BOX - BLUE BOX", "address": {"city": "OAKLAND PARK", "state": "FL", "street": "6301 NW 6TH WAY", "postcode": "33309"}}},
{"geometry": {"type": "Point", "coordinates": [-80.1525463125, 26.2058949663]}, "type": "Feature", "properties": {"collection_times": [{"days": "Mon-Fri", "time": "3:55pm"}, {"days": "Sat", "time": "1:00pm"}, {"days": "Sun", "time": "Closed"}], "id": "3330900059", "name": "USPS COLLECTION BOX - BLUE BOX", "address": {"city": "OAKLAND PARK", "state": "FL", "street": "6301 NW 6TH WAY", "postcode": "33309"}}},
{"geometry": {"type": "Point", "coordinates": [-80.1525463125, 26.2058949663]}, "type": "Feature", "properties": {"collection_times": [{"days": "Mon-Fri", "time": "3:55pm"}, {"days": "Sat", "time": "1:00pm"}, {"days": "Sun", "time": "Closed"}], "id": "3330900060", "name": "USPS COLLECTION BOX - BLUE BOX", "address": {"city": "OAKLAND PARK", "state": "FL", "street": "6301 NW 6TH WAY", "postcode": "33309"}}},
{"geometry": {"type": "Point", "coordinates": [-80.1555609015, 26.2030763139]}, "type": "Feature", "properties": {"collection_times": [{"days": "Mon-Fri", "time": "3:40pm"}, {"days": "Sat", "time": "1:00pm"}, {"days": "Sun", "time": "Closed"}], "id": "3330900064", "name": "USPS COLLECTION BOX - BLUE BOX", "address": {"city": "OAKLAND PARK", "state": "FL", "street": "888 NW 62ND ST", "postcode": "33309"}}},
{"geometry": {"type": "Point", "coordinates": [-80.1560384791, 26.2070738024]}, "type": "Feature", "properties": {"collection_times": [{"days": "Mon-Fri", "time": "4:00pm"}, {"days": "Sat", "time": "1:00pm"}, {"days": "Sun", "time": "Closed"}], "id": "3330900067", "name": "USPS COLLECTION BOX - BLUE BOX", "address": {"city": "OAKLAND PARK", "state": "FL", "street": "6499 POWERLINE RD", "postcode": "33309"}}},
{"geometry": {"type": "Point", "coordinates": [-80.1578827723, 26.2032850146]}, "type": "Feature", "properties": {"collection_times": [{"days": "Mon-Fri", "time": "4:00pm"}, {"days": "Sat", "time": "1:00pm"}, {"days": "Sun", "time": "Closed"}], "id": "3330900068", "name": "USPS COLLECTION BOX - BLUE BOX", "address": {"city": "OAKLAND PARK", "state": "FL", "street": "1001 NW 62ND ST", "postcode": "33309"}}},
{"geometry": {"type": "Point", "coordinates": [-80.1637997071, 26.2028615721]}, "type": "Feature", "properties": {"collection_times": [{"days": "Mon-Fri", "time": "5:00pm"}, {"days": "Sat", "time": "1:00pm"}, {"days": "Sun", "time": "Closed"}], "id": "3330900071", "name": "USPS COLLECTION BOX - BLUE BOX", "address": {"city": "OAKLAND PARK", "state": "FL", "street": "1500 NW 62ND ST", "postcode": "33309"}}},
{"geometry": {"type": "Point", "coordinates": [-80.1700361966, 26.2029294113]}, "type": "Feature", "properties": {"collection_times": [{"days": "Mon-Fri", "time": "5:00pm"}, {"days": "Sat", "time": "1:00pm"}, {"days": "Sun", "time": "Closed"}], "id": "3330900075", "name": "USPS COLLECTION BOX - BLUE BOX", "address": {"city": "OAKLAND PARK", "state": "FL", "street": "1901 NW 62ND ST", "postcode": "33309"}}},
{"geometry": {"type": "Point", "coordinates": [-80.170757196, 26.20291403]}, "type": "Feature", "properties": {"collection_times": [{"days": "Mon-Fri", "time": "4:05pm"}, {"days": "Sat", "time": "1:00pm"}, {"days": "Sun", "time": "Closed"}], "id": "3330900076", "name": "USPS COLLECTION BOX - BLUE BOX", "address": {"city": "OAKLAND PARK", "state": "FL", "street": "2001 NW 62ND ST", "postcode": "33309"}}},
{"geometry": {"type": "Point", "coordinates": [-80.1823731129, 26.2046098332]}, "type": "Feature", "properties": {"collection_times": [{"days": "Mon-Fri", "time": "4:15pm"}, {"days": "Sat", "time": "1:00pm"}, {"days": "Sun", "time": "Closed"}], "id": "3330900080", "name": "USPS COLLECTION BOX - BLUE BOX", "address": {"city": "OAKLAND PARK", "state": "FL", "street": "2755 NW 63RD CT", "postcode": "33309"}}},
{"geometry": {"type": "Point", "coordinates": [-80.1409169744, 26.2107475391]}, "type": "Feature", "properties": {"collection_times": [{"days": "Mon-Fri", "time": "5:05pm"}, {"days": "Sat", "time": "1:00pm"}, {"days": "Sun", "time": "Closed"}], "id": "3330900083", "name": "USPS COLLECTION BOX - BLUE BOX", "address": {"city": "OAKLAND PARK", "state": "FL", "street": "1170 W MCNAB RD", "postcode": "33309"}}},
{"geometry": {"type": "Point", "coordinates": [-80.1551386194, 26.1920765504]}, "type": "Feature", "properties": {"collection_times": [{"days": "Mon-Fri", "time": "3:30pm"}, {"days": "Sat", "time": "1:00pm"}, {"days": "Sun", "time": "Closed"}], "id": "3330900087", "name": "USPS COLLECTION BOX - BLUE BOX", "address": {"city": "OAKLAND PARK", "state": "FL", "street": "5300 POWERLINE RD", "postcode": "33309"}}},
{"geometry": {"type": "Point", "coordinates": [-80.1739427457, 26.1878958108]}, "type": "Feature", "properties": {"collection_times": [{"days": "Mon-Fri", "time": "3:45pm"}, {"days": "Sat", "time": "1:00pm"}, {"days": "Sun", "time": "Closed"}], "id": "3330900090", "name": "USPS COLLECTION BOX - BLUE BOX", "address": {"city": "OAKLAND PARK", "state": "FL", "street": "6300 NE 1 AVE.", "postcode": "33309"}}},
{"geometry": {"type": "Point", "coordinates": [-80.1739427457, 26.1878958108]}, "type": "Feature", "properties": {"collection_times": [{"days": "Mon-Fri", "time": "3:45pm"}, {"days": "Sat", "time": "1:00pm"}, {"days": "Sun", "time": "Closed"}], "id": "3330900091", "name": "USPS COLLECTION BOX - BLUE BOX", "address": {"city": "OAKLAND PARK", "state": "FL", "street": "6300 NE 1 AVE.", "postcode": "33309"}}},
{"geometry": {"type": "Point", "coordinates": [-80.1460965762, 26.2032913571]}, "type": "Feature", "properties": {"collection_times": [{"days": "Mon-Fri", "time": "5:25pm"}, {"days": "Sat", "time": "1:00pm"}, {"days": "Sun", "time": "Closed"}], "id": "3330900099", "name": "USPS COLLECTION BOX - BLUE BOX", "address": {"city": "OAKLAND PARK", "state": "FL", "street": "100 W CYPRESS CREEK RD", "postcode": "33309"}}},
{"geometry": {"type": "Point", "coordinates": [-80.1460965762, 26.2032913571]}, "type": "Feature", "properties": {"collection_times": [{"days": "Mon-Fri", "time": "5:25pm"}, {"days": "Sat", "time": "1:00pm"}, {"days": "Sun", "time": "Closed"}], "id": "3330900100", "name": "USPS COLLECTION BOX - BLUE BOX", "address": {"city": "OAKLAND PARK", "state": "FL", "street": "100 W CYPRESS CREEK RD", "postcode": "33309"}}},
{"geometry": {"type": "Point", "coordinates": [-80.1463275965, 26.2032794488]}, "type": "Feature", "properties": {"collection_times": [{"days": "Mon-Fri", "time": "5:20pm"}, {"days": "Sat", "time": "1:00pm"}, {"days": "Sun", "time": "Closed"}], "id": "3330900106", "name": "USPS COLLECTION BOX - BLUE BOX", "address": {"city": "OAKLAND PARK", "state": "FL", "street": "200 W CYPRESS CREEK RD", "postcode": "33309"}}},
{"geometry": {"type": "Point", "coordinates": [-80.1463275965, 26.2032794488]}, "type": "Feature", "properties": {"collection_times": [{"days": "Mon-Fri", "time": "5:20pm"}, {"days": "Sat", "time": "1:00pm"}, {"days": "Sun", "time": "Closed"}], "id": "3330900109", "name": "USPS COLLECTION BOX - BLUE BOX", "address": {"city": "OAKLAND PARK", "state": "FL", "street": "200 W CYPRESS CREEK RD", "postcode": "33309"}}},
{"geometry": {"type": "Point", "coordinates": [-80.169328036, 26.1653266409]}, "type": "Feature", "properties": {"collection_times": [{"days": "Mon-Sat", "time": "6:00pm"}, {"days": "Sun", "time": "Closed"}], "id": "3331000000", "name": "USPS COLLECTION BOX - BLUE BOX", "address": {"city": "FT LAUDERDALE", "state": "FL", "street": "1900 W OAKLAND PARK BLVD", "postcode": "33310"}}},
{"geometry": {"type": "Point", "coordinates": [-80.169328036, 26.1653266409]}, "type": "Feature", "properties": {"collection_times": [{"days": "Mon-Sat", "time": "6:00pm"}, {"days": "Sun", "time": "Closed"}], "id": "3331000001", "name": "USPS COLLECTION BOX - BLUE BOX", "address": {"city": "FT LAUDERDALE", "state": "FL", "street": "1900 W OAKLAND PARK BLVD", "postcode": "33310"}}},
{"geometry": {"type": "Point", "coordinates": [-80.169328036, 26.1653266409]}, "type": "Feature", "properties": {"collection_times": [{"days": "Mon-Sat", "time": "6:00pm"}, {"days": "Sun", "time": "Closed"}], "id": "3331000002", "name": "USPS COLLECTION BOX - PO LOBBY", "address": {"city": "FT LAUDERDALE", "state": "FL", "street": "1900 W OAKLAND PARK BLVD", "postcode": "33310"}}},
{"geometry": {"type": "Point", "coordinates": [-80.169328036, 26.1653266409]}, "type": "Feature", "properties": {"collection_times": [{"days": "Mon-Fri", "time": "6:00pm"}, {"days": "Sat", "time": "2:00pm"}, {"days": "Sun", "time": "Closed"}], "id": "3331000004", "name": "USPS COLLECTION BOX - APC", "address": {"city": "FT LAUDERDALE", "state": "FL", "street": "1900 W OAKLAND PARK BLVD", "postcode": "33310"}}},
{"geometry": {"type": "Point", "coordinates": [-80.168337701, 26.1655312091]}, "type": "Feature", "properties": {"collection_times": [{"days": "Mon-Sat", "time": "6:00pm"}, {"days": "Sun", "time": "Closed"}], "id": "3331000006", "name": "USPS COLLECTION BOX - EXPRESS", "address": {"city": "FT LAUDERDALE", "state": "FL", "street": "1900 W OAKLAND PARK BLVD", "postcode": "33310"}}},
{"geometry": {"type": "Point", "coordinates": [-80.168337701, 26.1655312091]}, "type": "Feature", "properties": {"collection_times": [{"days": "Mon-Sat", "time": "6:00pm"}, {"days": "Sun", "time": "Closed"}], "id": "3331000007", "name": "USPS COLLECTION BOX - APC", "address": {"city": "FT LAUDERDALE", "state": "FL", "street": "1900 W OAKLAND PARK BLVD", "postcode": "33310"}}},
{"geometry": {"type": "Point", "coordinates": [-80.1475362772, 26.1663598769]}, "type": "Feature", "properties": {"collection_times": [{"days": "Mon-Fri", "time": "5:00pm"}, {"days": "Sat", "time": "1:00pm"}, {"days": "Sun", "time": "Closed"}], "id": "3331100002", "name": "USPS COLLECTION BOX - BLUE BOX", "address": {"city": "FORT LAUDERDALE", "state": "FL", "street": "80 W OAKLAND PARK BLVD", "postcode": "33311"}}},
{"geometry": {"type": "Point", "coordinates": [-80.1463821994, 26.1547949942]}, "type": "Feature", "properties": {"collection_times": [{"days": "Mon-Fri", "time": "5:05pm"}, {"days": "Sat", "time": "1:00pm"}, {"days": "Sun", "time": "Closed"}], "id": "3331100004", "name": "USPS COLLECTION BOX - BLUE BOX", "address": {"city": "FORT LAUDERDALE", "state": "FL", "street": "2101 N ANDREWS AVE", "postcode": "33311"}}},
{"geometry": {"type": "Point", "coordinates": [-80.1687287515, 26.1444840025]}, "type": "Feature", "properties": {"collection_times": [{"days": "Mon-Fri", "time": "5:05pm"}, {"days": "Sat", "time": "1:00pm"}, {"days": "Sun", "time": "Closed"}], "id": "3331100006", "name": "USPS COLLECTION BOX - EXPRESS", "address": {"city": "FORT LAUDERDALE", "state": "FL", "street": "2101 N ANDREWS AVE", "postcode": "33311"}}},
{"geometry": {"type": "Point", "coordinates": [-80.1461456602, 26.1491211555]}, "type": "Feature", "properties": {"collection_times": [{"days": "Mon-Fri", "time": "5:10pm"}, {"days": "Sat", "time": "1:00pm"}, {"days": "Sun", "time": "Closed"}], "id": "3331100007", "name": "USPS COLLECTION BOX - BLUE BOX", "address": {"city": "FORT LAUDERDALE", "state": "FL", "street": "1701 N ANDREWS AVENUE EXT", "postcode": "33311"}}},
{"geometry": {"type": "Point", "coordinates": [-80.1545655541, 26.1524657633]}, "type": "Feature", "properties": {"collection_times": [{"days": "Mon-Fri", "time": "5:15pm"}, {"days": "Sat", "time": "1:00pm"}, {"days": "Sun", "time": "Closed"}], "id": "3331100010", "name": "USPS COLLECTION BOX - BLUE BOX", "address": {"city": "FORT LAUDERDALE", "state": "FL", "street": "1941 NW 9TH AVE", "postcode": "33311"}}},
{"geometry": {"type": "Point", "coordinates": [-80.1624130431, 26.1466039051]}, "type": "Feature", "properties": {"collection_times": [{"days": "Mon-Fri", "time": "3:15pm"}, {"days": "Sat", "time": "1:00pm"}, {"days": "Sun", "time": "Closed"}], "id": "3331100011", "name": "USPS COLLECTION BOX - BLUE BOX", "address": {"city": "FORT LAUDERDALE", "state": "FL", "street": "1541 NW 15TH AVE", "postcode": "33311"}}},
{"geometry": {"type": "Point", "coordinates": [-80.15403549, 26.1366755567]}, "type": "Feature", "properties": {"collection_times": [{"days": "Mon-Fri", "time": "3:20pm"}, {"days": "Sat", "time": "1:00pm"}, {"days": "Sun", "time": "Closed"}], "id": "3331100012", "name": "USPS COLLECTION BOX - BLUE BOX", "address": {"city": "FORT LAUDERDALE", "state": "FL", "street": "915 W SUNRISE BLVD", "postcode": "33311"}}},
{"geometry": {"type": "Point", "coordinates": [-80.1651210572, 26.1291667513]}, "type": "Feature", "properties": {"collection_times": [{"days": "Mon-Fri", "time": "3:35pm"}, {"days": "Sat", "time": "1:00pm"}, {"days": "Sun", "time": "Closed"}], "id": "3331100015", "name": "USPS COLLECTION BOX - BLUE BOX", "address": {"city": "FORT LAUDERDALE", "state": "FL", "street": "1700 NW 6TH ST", "postcode": "33311"}}},
{"geometry": {"type": "Point", "coordinates": [-80.1926616958, 26.1362758085]}, "type": "Feature", "properties": {"collection_times": [{"days": "Mon-Fri", "time": "3:45pm"}, {"days": "Sat", "time": "1:00pm"}, {"days": "Sun", "time": "Closed"}], "id": "3331100018", "name": "USPS COLLECTION BOX - BLUE BOX", "address": {"city": "FORT LAUDERDALE", "state": "FL", "street": "3401 W SUNRISE BLVD", "postcode": "33311"}}},
{"geometry": {"type": "Point", "coordinates": [-80.1975307986, 26.1506670353]}, "type": "Feature", "properties": {"collection_times": [{"days": "Mon-Fri", "time": "3:55pm"}, {"days": "Sat", "time": "1:00pm"}, {"days": "Sun", "time": "Closed"}], "id": "3331100020", "name": "USPS COLLECTION BOX - BLUE BOX", "address": {"city": "FORT LAUDERDALE", "state": "FL", "street": "3653 NW 19TH ST", "postcode": "33311"}}},
{"geometry": {"type": "Point", "coordinates": [-80.2023233916, 26.1556839725]}, "type": "Feature", "properties": {"collection_times": [{"days": "Mon-Fri", "time": "4:00pm"}, {"days": "Sat", "time": "1:00pm"}, {"days": "Sun", "time": "Closed"}], "id": "3331100021", "name": "USPS COLLECTION BOX - BLUE BOX", "address": {"city": "FORT LAUDERDALE", "state": "FL", "street": "3951 NW 24 ST", "postcode": "33311"}}},
{"geometry": {"type": "Point", "coordinates": [-80.1790216158, 26.1652995006]}, "type": "Feature", "properties": {"collection_times": [{"days": "Mon-Fri", "time": "5:40pm"}, {"days": "Sat", "time": "1:00pm"}, {"days": "Sun", "time": "Closed"}], "id": "3331100025", "name": "USPS COLLECTION BOX - BLUE BOX", "address": {"city": "FORT LAUDERDALE", "state": "FL", "street": "2700 W OAKLAND PARK BLVD", "postcode": "33311"}}},
{"geometry": {"type": "Point", "coordinates": [-80.1755968345, 26.1653557135]}, "type": "Feature", "properties": {"collection_times": [{"days": "Mon-Fri", "time": "5:45pm"}, {"days": "Sat", "time": "1:00pm"}, {"days": "Sun", "time": "Closed"}], "id": "3331100028", "name": "USPS COLLECTION BOX - BLUE BOX", "address": {"city": "FORT LAUDERDALE", "state": "FL", "street": "2360 W OAKLAND PARK BLVD", "postcode": "33311"}}},
{"geometry": {"type": "Point", "coordinates": [-80.1984428651, 26.1461401745]}, "type": "Feature", "properties": {"collection_times": [{"days": "Mon-Fri", "time": "3:50pm"}, {"days": "Sat-Sun", "time": "Closed"}], "id": "3331100031", "name": "USPS COLLECTION BOX - BLUE BOX", "address": {"city": "FORT LAUDERDALE", "state": "FL", "street": "3700 NW 16 ST", "postcode": "33311"}}},
{"geometry": {"type": "Point", "coordinates": [-80.191519282, 26.1267150582]}, "type": "Feature", "properties": {"collection_times": [{"days": "Mon-Fri", "time": "3:40pm"}, {"days": "Sat-Sun", "time": "Closed"}], "id": "3331100032", "name": "USPS COLLECTION BOX - BLUE BOX", "address": {"city": "FORT LAUDERDALE", "state": "FL", "street": "3401 NW 5TH ST", "postcode": "33311"}}},
{"geometry": {"type": "Point", "coordinates": [-80.1616385496, 26.1242435823]}, "type": "Feature", "properties": {"collection_times": [{"days": "Mon-Fri", "time": "3:30pm"}, {"days": "Sat-Sun", "time": "Closed"}], "id": "3331100033", "name": "USPS COLLECTION BOX - BLUE BOX", "address": {"city": "FORT LAUDERDALE", "state": "FL", "street": "300 NW 15TH AVE", "postcode": "33311"}}},
{"geometry": {"type": "Point", "coordinates": [-80.153699164, 26.1295182953]}, "type": "Feature", "properties": {"collection_times": [{"days": "Mon-Fri", "time": "3:25pm"}, {"days": "Sat", "time": "1:00pm"}, {"days": "Sun", "time": "Closed"}], "id": "3331100035", "name": "USPS COLLECTION BOX - BLUE BOX", "address": {"city": "FORT LAUDERDALE", "state": "FL", "street": "909 NW 6TH ST", "postcode": "33311"}}},
{"geometry": {"type": "Point", "coordinates": [-80.1767986043, 26.1217138892]}, "type": "Feature", "properties": {"collection_times": [{"days": "Mon-Fri", "time": "4:35pm"}, {"days": "Sat-Sun", "time": "Closed"}], "id": "3331200000", "name": "USPS COLLECTION BOX - BLUE BOX", "address": {"city": "FT LAUDERDALE", "state": "FL", "street": "2601 W BROWARD BLVD", "postcode": "33312"}}},
{"geometry": {"type": "Point", "coordinates": [-80.2006099632, 26.1211257795]}, "type": "Feature", "properties": {"collection_times": [{"days": "Mon-Fri", "time": "5:20pm"}, {"days": "Sat", "time": "1:00pm"}, {"days": "Sun", "time": "Closed"}], "id": "3331200005", "name": "USPS COLLECTION BOX - BLUE BOX", "address": {"city": "FT LAUDERDALE", "state": "FL", "street": "3901 W BROWARD BLVD", "postcode": "33312"}}},
{"geometry": {"type": "Point", "coordinates": [-80.1944806779, 26.1210035418]}, "type": "Feature", "properties": {"collection_times": [{"days": "Mon-Fri", "time": "4:35pm"}, {"days": "Sat", "time": "1:00pm"}, {"days": "Sun", "time": "Closed"}], "id": "3331200010", "name": "USPS COLLECTION BOX - BLUE BOX", "address": {"city": "FT LAUDERDALE", "state": "FL", "street": "3520 W BROWARD BLVD", "postcode": "33312"}}},
{"geometry": {"type": "Point", "coordinates": [-80.1590086481, 26.1218362995]}, "type": "Feature", "properties": {"collection_times": [{"days": "Mon-Fri", "time": "5:00pm"}, {"days": "Sat", "time": "1:00pm"}, {"days": "Sun", "time": "Closed"}], "id": "3331200014", "name": "USPS COLLECTION BOX - BLUE BOX", "address": {"city": "FT LAUDERDALE", "state": "FL", "street": "1300 W BROWARD BLVD", "postcode": "33312"}}},
{"geometry": {"type": "Point", "coordinates": [-80.1635613535, 26.1034226342]}, "type": "Feature", "properties": {"collection_times": [{"days": "Mon-Fri", "time": "4:25pm"}, {"days": "Sat", "time": "1:00pm"}, {"days": "Sun", "time": "Closed"}], "id": "3331200016", "name": "USPS COLLECTION BOX - BLUE BOX", "address": {"city": "FT LAUDERDALE", "state": "FL", "street": "1700 SW 14TH CT", "postcode": "33312"}}},
{"geometry": {"type": "Point", "coordinates": [-80.1767204122, 26.106573945]}, "type": "Feature", "properties": {"collection_times": [{"days": "Mon-Fri", "time": "4:30pm"}, {"days": "Sat", "time": "1:00pm"}, {"days": "Sun", "time": "Closed"}], "id": "3331200017", "name": "USPS COLLECTION BOX - BLUE BOX", "address": {"city": "FT LAUDERDALE", "state": "FL", "street": "2629 DAVIE BLVD", "postcode": "33312"}}},
{"geometry": {"type": "Point", "coordinates": [-80.1791420594, 26.1063816673]}, "type": "Feature", "properties": {"collection_times": [{"days": "Mon-Fri", "time": "4:30pm"}, {"days": "Sat", "time": "1:00pm"}, {"days": "Sun", "time": "Closed"}], "id": "3331200019", "name": "USPS COLLECTION BOX - BLUE BOX", "address": {"city": "FT LAUDERDALE", "state": "FL", "street": "2787 DAVIE BLVD", "postcode": "33312"}}},
{"geometry": {"type": "Point", "coordinates": [-80.1879115354, 26.105127447]}, "type": "Feature", "properties": {"collection_times": [{"days": "Mon-Fri", "time": "4:15pm"}, {"days": "Sat", "time": "1:00pm"}, {"days": "Sun", "time": "Closed"}], "id": "3331200022", "name": "USPS COLLECTION BOX - BLUE BOX", "address": {"city": "FT LAUDERDALE", "state": "FL", "street": "3200 DAVIE BLVD", "postcode": "33312"}}},
{"geometry": {"type": "Point", "coordinates": [-80.1891640033, 26.0919392968]}, "type": "Feature", "properties": {"collection_times": [{"days": "Mon-Fri", "time": "4:10pm"}, {"days": "Sat", "time": "1:00pm"}, {"days": "Sun", "time": "Closed"}], "id": "3331200023", "name": "USPS COLLECTION BOX - BLUE BOX", "address": {"city": "FT LAUDERDALE", "state": "FL", "street": "3277 RIVERLAND RD", "postcode": "33312"}}},
{"geometry": {"type": "Point", "coordinates": [-80.1852035366, 26.1056133947]}, "type": "Feature", "properties": {"collection_times": [{"days": "Mon-Fri", "time": "4:15pm"}, {"days": "Sat", "time": "1:00pm"}, {"days": "Sun", "time": "Closed"}], "id": "3331200024", "name": "USPS COLLECTION BOX - BLUE BOX", "address": {"city": "FT LAUDERDALE", "state": "FL", "street": "3030 DAVIE BLVD", "postcode": "33312"}}},
{"geometry": {"type": "Point", "coordinates": [-80.1793988419, 26.1061576164]}, "type": "Feature", "properties": {"collection_times": [{"days": "Mon-Fri", "time": "4:20pm"}, {"days": "Sat", "time": "1:00pm"}, {"days": "Sun", "time": "Closed"}], "id": "3331200025", "name": "USPS COLLECTION BOX - BLUE BOX", "address": {"city": "FT LAUDERDALE", "state": "FL", "street": "2790 DAVIE BLVD", "postcode": "33312"}}},
{"geometry": {"type": "Point", "coordinates": [-80.1687842783, 26.0711838513]}, "type": "Feature", "properties": {"collection_times": [{"days": "Mon-Fri", "time": "5:10pm"}, {"days": "Sat", "time": "1:00pm"}, {"days": "Sun", "time": "Closed"}], "id": "3331200027", "name": "USPS COLLECTION BOX - BLUE BOX", "address": {"city": "FT LAUDERDALE", "state": "FL", "street": "4101 ANGLERS AVE", "postcode": "33312"}}},
{"geometry": {"type": "Point", "coordinates": [-80.1684612418, 26.0579088819]}, "type": "Feature", "properties": {"collection_times": [{"days": "Mon-Fri", "time": "5:12pm"}, {"days": "Sat", "time": "1:00pm"}, {"days": "Sun", "time": "Closed"}], "id": "3331200028", "name": "USPS COLLECTION BOX - BLUE BOX", "address": {"city": "FT LAUDERDALE", "state": "FL", "street": "5201 ANGLERS AVE", "postcode": "33312"}}},
{"geometry": {"type": "Point", "coordinates": [-80.1757179318, 26.0865122235]}, "type": "Feature", "properties": {"collection_times": [{"days": "Mon-Fri", "time": "4:05pm"}, {"days": "Sat", "time": "1:00pm"}, {"days": "Sun", "time": "Closed"}], "id": "3331200030", "name": "USPS COLLECTION BOX - BLUE BOX", "address": {"city": "FT LAUDERDALE", "state": "FL", "street": "2460 W STATE ROAD 84", "postcode": "33312"}}},
{"geometry": {"type": "Point", "coordinates": [-80.1879096518, 26.0624857878]}, "type": "Feature", "properties": {"collection_times": [{"days": "Mon-Fri", "time": "3:55pm"}, {"days": "Sat", "time": "1:00pm"}, {"days": "Sun", "time": "Closed"}], "id": "3331200031", "name": "USPS COLLECTION BOX - BLUE BOX", "address": {"city": "FT LAUDERDALE", "state": "FL", "street": "3325 GRIFFIN RD", "postcode": "33312"}}},
{"geometry": {"type": "Point", "coordinates": [-80.1763467622, 26.0477492499]}, "type": "Feature", "properties": {"collection_times": [{"days": "Mon-Fri", "time": "5:15pm"}, {"days": "Sat", "time": "1:00pm"}, {"days": "Sun", "time": "Closed"}], "id": "3331200032", "name": "USPS COLLECTION BOX - BLUE BOX", "address": {"city": "FT LAUDERDALE", "state": "FL", "street": "2699 STIRLING RD", "postcode": "33312"}}},
{"geometry": {"type": "Point", "coordinates": [-80.179665172, 26.0476416532]}, "type": "Feature", "properties": {"collection_times": [{"days": "Mon-Fri", "time": "3:45pm"}, {"days": "Sat", "time": "1:00pm"}, {"days": "Sun", "time": "Closed"}], "id": "3331200035", "name": "USPS COLLECTION BOX - BLUE BOX", "address": {"city": "FT LAUDERDALE", "state": "FL", "street": "2855 STIRLING RD", "postcode": "33312"}}},
{"geometry": {"type": "Point", "coordinates": [-80.1808021154, 26.0476040319]}, "type": "Feature", "properties": {"collection_times": [{"days": "Mon-Fri", "time": "3:50pm"}, {"days": "Sat", "time": "1:00pm"}, {"days": "Sun", "time": "Closed"}], "id": "3331200036", "name": "USPS COLLECTION BOX - BLUE BOX", "address": {"city": "FT LAUDERDALE", "state": "FL", "street": "2901 STIRLING RD", "postcode": "33312"}}},
{"geometry": {"type": "Point", "coordinates": [-80.2006099632, 26.1211257795]}, "type": "Feature", "properties": {"collection_times": [{"days": "Mon-Fri", "time": "6:00pm"}, {"days": "Sat", "time": "5:30pm"}, {"days": "Sun", "time": "Closed"}], "id": "3331200038", "name": "USPS COLLECTION BOX - PO LOBBY", "address": {"city": "FT LAUDERDALE", "state": "FL", "street": "3901 W BROWARD BLVD", "postcode": "33312"}}},
{"geometry": {"type": "Point", "coordinates": [-80.2071140908, 26.1460391151]}, "type": "Feature", "properties": {"collection_times": [{"days": "Mon-Fri", "time": "5:25pm"}, {"days": "Sat", "time": "1:00pm"}, {"days": "Sun", "time": "Closed"}], "id": "3331300001", "name": "USPS COLLECTION BOX - BLUE BOX", "address": {"city": "SUNRISE", "state": "FL", "street": "4299 NW 16 ST", "postcode": "33313"}}},
{"geometry": {"type": "Point", "coordinates": [-80.2468905528, 26.1470210501]}, "type": "Feature", "properties": {"collection_times": [{"days": "Mon-Fri", "time": "4:10pm"}, {"days": "Sat", "time": "1:00pm"}, {"days": "Sun", "time": "Closed"}], "id": "3331300006", "name": "USPS COLLECTION BOX - BLUE BOX", "address": {"city": "SUNRISE", "state": "FL", "street": "7200 NW 17 ST.", "postcode": "33313"}}},
{"geometry": {"type": "Point", "coordinates": [-80.2309676956, 26.146940211]}, "type": "Feature", "properties": {"collection_times": [{"days": "Mon-Fri", "time": "4:15pm"}, {"days": "Sat", "time": "1:00pm"}, {"days": "Sun", "time": "Closed"}], "id": "3331300010", "name": "USPS COLLECTION BOX - BLUE BOX", "address": {"city": "SUNRISE", "state": "FL", "street": "1720 NW 60TH AVE", "postcode": "33313"}}},
{"geometry": {"type": "Point", "coordinates": [-80.2391621753, 26.1549483253]}, "type": "Feature", "properties": {"collection_times": [{"days": "Mon-Fri", "time": "4:15pm"}, {"days": "Sat", "time": "1:00pm"}, {"days": "Sun", "time": "Closed"}], "id": "3331300011", "name": "USPS COLLECTION BOX - BLUE BOX", "address": {"city": "SUNRISE", "state": "FL", "street": "6800 SUNSET STRIP", "postcode": "33313"}}},
{"geometry": {"type": "Point", "coordinates": [-80.2337580956, 26.1646057235]}, "type": "Feature", "properties": {"collection_times": [{"days": "Mon-Fri", "time": "4:20pm"}, {"days": "Sat", "time": "1:00pm"}, {"days": "Sun", "time": "Closed"}], "id": "3331300014", "name": "USPS COLLECTION BOX - BLUE BOX", "address": {"city": "SUNRISE", "state": "FL", "street": "6210 W OAKLAND PARK BLVD", "postcode": "33313"}}},
{"geometry": {"type": "Point", "coordinates": [-80.2253997682, 26.1646110304]}, "type": "Feature", "properties": {"collection_times": [{"days": "Mon-Fri", "time": "5:05pm"}, {"days": "Sat", "time": "1:00pm"}, {"days": "Sun", "time": "Closed"}], "id": "3331300018", "name": "USPS COLLECTION BOX - BLUE BOX", "address": {"city": "SUNRISE", "state": "FL", "street": "5546 W OAKLAND PARK BLVD.", "postcode": "33313"}}},
{"geometry": {"type": "Point", "coordinates": [-80.2169311174, 26.1646077795]}, "type": "Feature", "properties": {"collection_times": [{"days": "Mon-Fri", "time": "5:10pm"}, {"days": "Sat", "time": "1:00pm"}, {"days": "Sun", "time": "Closed"}], "id": "3331300025", "name": "USPS COLLECTION BOX - BLUE BOX", "address": {"city": "SUNRISE", "state": "FL", "street": "5000 W OAKLAND PARK BLVD.", "postcode": "33313"}}},
{"geometry": {"type": "Point", "coordinates": [-80.2138616312, 26.1646715825]}, "type": "Feature", "properties": {"collection_times": [{"days": "Mon-Fri", "time": "5:10pm"}, {"days": "Sat", "time": "1:00pm"}, {"days": "Sun", "time": "Closed"}], "id": "3331300026", "name": "USPS COLLECTION BOX - BLUE BOX", "address": {"city": "SUNRISE", "state": "FL", "street": "4850 W OAKLAND PARK BLVD.", "postcode": "33313"}}},
{"geometry": {"type": "Point", "coordinates": [-80.2030969461, 26.1565927219]}, "type": "Feature", "properties": {"collection_times": [{"days": "Mon-Fri", "time": "5:20pm"}, {"days": "Sat", "time": "1:00pm"}, {"days": "Sun", "time": "Closed"}], "id": "3331300029", "name": "USPS COLLECTION BOX - BLUE BOX", "address": {"city": "SUNRISE", "state": "FL", "street": "2331 N STATE RD 7", "postcode": "33313"}}},
{"geometry": {"type": "Point", "coordinates": [-80.2033103466, 26.1587633925]}, "type": "Feature", "properties": {"collection_times": [{"days": "Mon-Fri", "time": "5:15pm"}, {"days": "Sat", "time": "1:00pm"}, {"days": "Sun", "time": "Closed"}], "id": "3331300030", "name": "USPS COLLECTION BOX - BLUE BOX", "address": {"city": "SUNRISE", "state": "FL", "street": "4120 NW 26TH ST", "postcode": "33313"}}},
{"geometry": {"type": "Point", "coordinates": [-80.237410729, 26.1474116362]}, "type": "Feature", "properties": {"collection_times": [{"days": "Mon-Fri", "time": "4:10pm"}, {"days": "Sat", "time": "1:00pm"}, {"days": "Sun", "time": "Closed"}], "id": "3331300041", "name": "USPS COLLECTION BOX - BLUE BOX", "address": {"city": "SUNRISE", "state": "FL", "street": "1801 NW 66TH AVE", "postcode": "33313"}}},
{"geometry": {"type": "Point", "coordinates": [-80.2028111189, 26.1421339758]}, "type": "Feature", "properties": {"collection_times": [{"days": "Mon-Fri", "time": "5:30pm"}, {"days": "Sat", "time": "1:00pm"}, {"days": "Sun", "time": "Closed"}], "id": "3331300043", "name": "USPS COLLECTION BOX - BLUE BOX", "address": {"city": "SUNRISE", "state": "FL", "street": "1297 N STATE RD 7", "postcode": "33313"}}},
{"geometry": {"type": "Point", "coordinates": [-80.2263103552, 26.1649014493]}, "type": "Feature", "properties": {"collection_times": [{"days": "Mon-Fri", "time": "5:00pm"}, {"days": "Sat-Sun", "time": "Closed"}], "id": "3331300044", "name": "USPS COLLECTION BOX - BLUE BOX", "address": {"city": "SUNRISE", "state": "FL", "street": "5581 W OAKLAND PARK BLVD", "postcode": "33313"}}},
{"geometry": {"type": "Point", "coordinates": [-80.2315277705, 26.0699163755]}, "type": "Feature", "properties": {"collection_times": [{"days": "Mon-Fri", "time": "5:00pm"}, {"days": "Sat", "time": "1:00pm"}, {"days": "Sun", "time": "Closed"}], "id": "3331400001", "name": "USPS COLLECTION BOX - BLUE BOX", "address": {"city": "DAVIE", "state": "FL", "street": "6351 SW 41ST CT", "postcode": "33314"}}},
{"geometry": {"type": "Point", "coordinates": [-80.208128231, 26.066576517]}, "type": "Feature", "properties": {"collection_times": [{"days": "Mon-Fri", "time": "5:00pm"}, {"days": "Sat", "time": "1:00pm"}, {"days": "Sun", "time": "Closed"}], "id": "3331400002", "name": "USPS COLLECTION BOX - BLUE BOX", "address": {"city": "DAVIE", "state": "FL", "street": "4491 S STATE ROAD 7", "postcode": "33314"}}},
{"geometry": {"type": "Point", "coordinates": [-80.2115638538, 26.0591243945]}, "type": "Feature", "properties": {"collection_times": [{"days": "Mon-Fri", "time": "5:00pm"}, {"days": "Sat", "time": "1:00pm"}, {"days": "Sun", "time": "Closed"}], "id": "3331400005", "name": "USPS COLLECTION BOX - BLUE BOX", "address": {"city": "DAVIE", "state": "FL", "street": "5001 SW 51ST ST", "postcode": "33314"}}},
{"geometry": {"type": "Point", "coordinates": [-80.2005226874, 26.0583959155]}, "type": "Feature", "properties": {"collection_times": [{"days": "Mon-Fri", "time": "5:00pm"}, {"days": "Sat", "time": "1:00pm"}, {"days": "Sun", "time": "Closed"}], "id": "3331400006", "name": "USPS COLLECTION BOX - BLUE BOX", "address": {"city": "DAVIE", "state": "FL", "street": "5120 SW 40TH AVE", "postcode": "33314"}}},
{"geometry": {"type": "Point", "coordinates": [-80.2102720858, 26.0735986882]}, "type": "Feature", "properties": {"collection_times": [{"days": "Mon-Fri", "time": "5:00pm"}, {"days": "Sat", "time": "1:00pm"}, {"days": "Sun", "time": "Closed"}], "id": "3331400012", "name": "USPS COLLECTION BOX - BLUE BOX", "address": {"city": "DAVIE", "state": "FL", "street": "3901 SW 47TH AVE", "postcode": "33314"}}},
{"geometry": {"type": "Point", "coordinates": [-80.2102720858, 26.0735986882]}, "type": "Feature", "properties": {"collection_times": [{"days": "Mon-Fri", "time": "5:00pm"}, {"days": "Sat", "time": "1:00pm"}, {"days": "Sun", "time": "Closed"}], "id": "3331400014", "name": "USPS COLLECTION BOX - BLUE BOX", "address": {"city": "DAVIE", "state": "FL", "street": "3901 SW 47TH AVE", "postcode": "33314"}}},
{"geometry": {"type": "Point", "coordinates": [-80.1550909604, 26.0703921323]}, "type": "Feature", "properties": {"collection_times": [{"days": "Mon-Fri", "time": "4:20pm"}, {"days": "Sat", "time": "1:00pm"}, {"days": "Sun", "time": "Closed"}], "id": "3331500000", "name": "USPS COLLECTION BOX - BLUE BOX", "address": {"city": "FT LAUDERDALE", "state": "FL", "street": "1100 LEE WAGNER BLVD.", "postcode": "33315"}}},
{"geometry": {"type": "Point", "coordinates": [-80.1489663892, 26.0815864145]}, "type": "Feature", "properties": {"collection_times": [{"days": "Mon-Fri", "time": "4:15pm"}, {"days": "Sat", "time": "1:00pm"}, {"days": "Sun", "time": "Closed"}], "id": "3331500007", "name": "USPS COLLECTION BOX - BLUE BOX", "address": {"city": "FT LAUDERDALE", "state": "FL", "street": "600 SW 34TH ST", "postcode": "33315"}}},
{"geometry": {"type": "Point", "coordinates": [-80.1425114494, 26.0859184533]}, "type": "Feature", "properties": {"collection_times": [{"days": "Mon-Fri", "time": "4:05pm"}, {"days": "Sat", "time": "1:00pm"}, {"days": "Sun", "time": "Closed"}], "id": "3331500008", "name": "USPS COLLECTION BOX - BLUE BOX", "address": {"city": "FT LAUDERDALE", "state": "FL", "street": "3131 SW 2ND AVE", "postcode": "33315"}}},
{"geometry": {"type": "Point", "coordinates": [-80.1488333356, 26.0923388179]}, "type": "Feature", "properties": {"collection_times": [{"days": "Mon-Fri", "time": "4:00pm"}, {"days": "Sat", "time": "1:00pm"}, {"days": "Sun", "time": "Closed"}], "id": "3331500012", "name": "USPS COLLECTION BOX - BLUE BOX", "address": {"city": "FT LAUDERDALE", "state": "FL", "street": "2421 SW 6TH AVE", "postcode": "33315"}}},
{"geometry": {"type": "Point", "coordinates": [-80.160764006, 26.0881615717]}, "type": "Feature", "properties": {"collection_times": [{"days": "Mon-Fri", "time": "3:55pm"}, {"days": "Sat", "time": "1:00pm"}, {"days": "Sun", "time": "Closed"}], "id": "3331500014", "name": "USPS COLLECTION BOX - BLUE BOX", "address": {"city": "FT LAUDERDALE", "state": "FL", "street": "2900 SW 15TH AVE", "postcode": "33315"}}},
{"geometry": {"type": "Point", "coordinates": [-80.1542255125, 26.0924523282]}, "type": "Feature", "properties": {"collection_times": [{"days": "Mon-Fri", "time": "5:41pm"}, {"days": "Sat", "time": "1:00pm"}, {"days": "Sun", "time": "Closed"}], "id": "3331500016", "name": "USPS COLLECTION BOX - BLUE BOX", "address": {"city": "FT LAUDERDALE", "state": "FL", "street": "1001 W STATE ROAD 84", "postcode": "33315"}}},
{"geometry": {"type": "Point", "coordinates": [-80.1529637247, 26.097136416]}, "type": "Feature", "properties": {"collection_times": [{"days": "Mon-Fri", "time": "3:50pm"}, {"days": "Sat", "time": "1:00pm"}, {"days": "Sun", "time": "Closed"}], "id": "3331500018", "name": "USPS COLLECTION BOX - BLUE BOX", "address": {"city": "FT LAUDERDALE", "state": "FL", "street": "1900 SW 9TH AVE", "postcode": "33315"}}},
{"geometry": {"type": "Point", "coordinates": [-80.1533161605, 26.1128433078]}, "type": "Feature", "properties": {"collection_times": [{"days": "Mon-Fri", "time": "3:40pm"}, {"days": "Sat", "time": "1:00pm"}, {"days": "Sun", "time": "Closed"}], "id": "3331500019", "name": "USPS COLLECTION BOX - BLUE BOX", "address": {"city": "FT LAUDERDALE", "state": "FL", "street": "901 SW 7TH ST", "postcode": "33315"}}},
{"geometry": {"type": "Point", "coordinates": [-80.1523301008, 26.1036142435]}, "type": "Feature", "properties": {"collection_times": [{"days": "Mon-Fri", "time": "3:45pm"}, {"days": "Sat", "time": "1:00pm"}, {"days": "Sun", "time": "Closed"}], "id": "3331500021", "name": "USPS COLLECTION BOX - BLUE BOX", "address": {"city": "FT LAUDERDALE", "state": "FL", "street": "840 SW 14TH CT", "postcode": "33315"}}},
{"geometry": {"type": "Point", "coordinates": [-80.1368064072, 26.0890529333]}, "type": "Feature", "properties": {"collection_times": [{"days": "Mon-Fri", "time": "5:30pm"}, {"days": "Sat", "time": "2:00pm"}, {"days": "Sun", "time": "Closed"}], "id": "3331600000", "name": "USPS COLLECTION BOX - BLUE BOX", "address": {"city": "FT LAUDERDALE", "state": "FL", "street": "2801 S FEDERAL HWY", "postcode": "33316"}}},
{"geometry": {"type": "Point", "coordinates": [-80.1368064072, 26.0890529333]}, "type": "Feature", "properties": {"collection_times": [{"days": "Mon-Fri", "time": "5:30pm"}, {"days": "Sat", "time": "2:00pm"}, {"days": "Sun", "time": "Closed"}], "id": "3331600001", "name": "USPS COLLECTION BOX - BLUE BOX", "address": {"city": "FT LAUDERDALE", "state": "FL", "street": "2801 S FEDERAL HWY", "postcode": "33316"}}},
{"geometry": {"type": "Point", "coordinates": [-80.1368064072, 26.0890529333]}, "type": "Feature", "properties": {"collection_times": [{"days": "Mon-Fri", "time": "5:30pm"}, {"days": "Sat", "time": "2:00pm"}, {"days": "Sun", "time": "Closed"}], "id": "3331600002", "name": "USPS COLLECTION BOX - BLUE BOX", "address": {"city": "FT LAUDERDALE", "state": "FL", "street": "2801 S FEDERAL HWY", "postcode": "33316"}}},
{"geometry": {"type": "Point", "coordinates": [-80.1279291499, 26.1031803802]}, "type": "Feature", "properties": {"collection_times": [{"days": "Mon-Fri", "time": "5:30pm"}, {"days": "Sat", "time": "2:00pm"}, {"days": "Sun", "time": "Closed"}], "id": "3331600004", "name": "USPS COLLECTION BOX - EXPRESS", "address": {"city": "FT LAUDERDALE", "state": "FL", "street": "2801 S FEDERAL HWY", "postcode": "33316"}}},
{"geometry": {"type": "Point", "coordinates": [-80.1055907405, 26.1133173613]}, "type": "Feature", "properties": {"collection_times": [{"days": "Mon-Fri", "time": "2:50pm"}, {"days": "Sat", "time": "1:00pm"}, {"days": "Sun", "time": "Closed"}], "id": "3331600005", "name": "USPS COLLECTION BOX - BLUE BOX", "address": {"city": "FT LAUDERDALE", "state": "FL", "street": "801 SEABREEZE BLVD", "postcode": "33316"}}},
{"geometry": {"type": "Point", "coordinates": [-80.1398352714, 26.1008134683]}, "type": "Feature", "properties": {"collection_times": [{"days": "Mon-Fri", "time": "3:30pm"}, {"days": "Sat", "time": "1:00pm"}, {"days": "Sun", "time": "Closed"}], "id": "3331600008", "name": "USPS COLLECTION BOX - BLUE BOX", "address": {"city": "FT LAUDERDALE", "state": "FL", "street": "298 SE 17 ST", "postcode": "33316"}}},
{"geometry": {"type": "Point", "coordinates": [-80.1430945231, 26.1062164411]}, "type": "Feature", "properties": {"collection_times": [{"days": "Mon-Fri", "time": "5:34pm"}, {"days": "Sat", "time": "1:00pm"}, {"days": "Sun", "time": "Closed"}], "id": "3331600009", "name": "USPS COLLECTION BOX - BLUE BOX", "address": {"city": "FT LAUDERDALE", "state": "FL", "street": "1299 S ANDREWS AVE", "postcode": "33316"}}},
{"geometry": {"type": "Point", "coordinates": [-80.1430945231, 26.1062164411]}, "type": "Feature", "properties": {"collection_times": [{"days": "Mon-Fri", "time": "5:34pm"}, {"days": "Sat", "time": "1:00pm"}, {"days": "Sun", "time": "Closed"}], "id": "3331600010", "name": "USPS COLLECTION BOX - BLUE BOX", "address": {"city": "FT LAUDERDALE", "state": "FL", "street": "1299 S ANDREWS AVE", "postcode": "33316"}}},
{"geometry": {"type": "Point", "coordinates": [-80.1298989993, 26.1002668373]}, "type": "Feature", "properties": {"collection_times": [{"days": "Mon-Fri", "time": "2:40pm"}, {"days": "Sat", "time": "1:00pm"}, {"days": "Sun", "time": "Closed"}], "id": "3331600015", "name": "USPS COLLECTION BOX - BLUE BOX", "address": {"city": "FT LAUDERDALE", "state": "FL", "street": "1300 SE 17TH ST", "postcode": "33316"}}},
{"geometry": {"type": "Point", "coordinates": [-80.1317007277, 26.1114329406]}, "type": "Feature", "properties": {"collection_times": [{"days": "Mon-Fri", "time": "3:20pm"}, {"days": "Sat", "time": "1:00pm"}, {"days": "Sun", "time": "Closed"}], "id": "3331600018", "name": "USPS COLLECTION BOX - BLUE BOX", "address": {"city": "FT LAUDERDALE", "state": "FL", "street": "1100 SE 9TH ST", "postcode": "33316"}}},
{"geometry": {"type": "Point", "coordinates": [-80.1342350267, 26.1004476469]}, "type": "Feature", "properties": {"collection_times": [{"days": "Mon-Fri", "time": "3:20pm"}, {"days": "Sat", "time": "1:00pm"}, {"days": "Sun", "time": "Closed"}], "id": "3331600019", "name": "USPS COLLECTION BOX - BLUE BOX", "address": {"city": "FT LAUDERDALE", "state": "FL", "street": "901 SE 17TH ST", "postcode": "33316"}}},
{"geometry": {"type": "Point", "coordinates": [-80.1276768982, 26.1005698137]}, "type": "Feature", "properties": {"collection_times": [{"days": "Mon-Fri", "time": "3:10pm"}, {"days": "Sat", "time": "1:00pm"}, {"days": "Sun", "time": "Closed"}], "id": "3331600020", "name": "USPS COLLECTION BOX - BLUE BOX", "address": {"city": "FT LAUDERDALE", "state": "FL", "street": "1483 SE 17TH ST", "postcode": "33316"}}},
{"geometry": {"type": "Point", "coordinates": [-80.1267206335, 26.1003399545]}, "type": "Feature", "properties": {"collection_times": [{"days": "Mon-Fri", "time": "2:45pm"}, {"days": "Sat", "time": "1:00pm"}, {"days": "Sun", "time": "Closed"}], "id": "3331600031", "name": "USPS COLLECTION BOX - BLUE BOX", "address": {"city": "FT LAUDERDALE", "state": "FL", "street": "1600 SE 17TH ST", "postcode": "33316"}}},
{"geometry": {"type": "Point", "coordinates": [-80.1379014037, 26.1001246793]}, "type": "Feature", "properties": {"collection_times": [{"days": "Mon-Fri", "time": "3:35pm"}, {"days": "Sat", "time": "1:00pm"}, {"days": "Sun", "time": "Closed"}], "id": "3331600034", "name": "USPS COLLECTION BOX - BLUE BOX", "address": {"city": "FT LAUDERDALE", "state": "FL", "street": "500 SE 17TH ST", "postcode": "33316"}}},
{"geometry": {"type": "Point", "coordinates": [-80.1416723245, 26.0992427672]}, "type": "Feature", "properties": {"collection_times": [{"days": "Mon-Fri", "time": "3:40pm"}, {"days": "Sat", "time": "1:00pm"}, {"days": "Sun", "time": "Closed"}], "id": "3331600035", "name": "USPS COLLECTION BOX - BLUE BOX", "address": {"city": "FT LAUDERDALE", "state": "FL", "street": "1800 S ANDREWS AVE.", "postcode": "33316"}}},
{"geometry": {"type": "Point", "coordinates": [-80.130805083, 26.1017238945]}, "type": "Feature", "properties": {"collection_times": [{"days": "Mon-Fri", "time": "3:15pm"}, {"days": "Sat", "time": "1:00pm"}, {"days": "Sun", "time": "Closed"}], "id": "3331600042", "name": "USPS COLLECTION BOX - BLUE BOX", "address": {"city": "FT LAUDERDALE", "state": "FL", "street": "1625 CORDOVA RD", "postcode": "33316"}}},
{"geometry": {"type": "Point", "coordinates": [-80.1368064072, 26.0890529333]}, "type": "Feature", "properties": {"collection_times": [{"days": "Mon-Fri", "time": "6:30pm"}, {"days": "Sat", "time": "5:00pm"}, {"days": "Sun", "time": "Closed"}], "id": "3331600044", "name": "USPS COLLECTION BOX - PO LOBBY", "address": {"city": "FT LAUDERDALE", "state": "FL", "street": "2801 S FEDERAL HWY", "postcode": "33316"}}},
{"geometry": {"type": "Point", "coordinates": [-80.1368064072, 26.0890529333]}, "type": "Feature", "properties": {"collection_times": [{"days": "Mon-Fri", "time": "3:00pm"}, {"days": "Sat", "time": "2:00pm"}, {"days": "Sun", "time": "Closed"}], "id": "3331600045", "name": "USPS COLLECTION BOX - APC", "address": {"city": "FT LAUDERDALE", "state": "FL", "street": "2801 S FEDERAL HWY", "postcode": "33316"}}},
{"geometry": {"type": "Point", "coordinates": [-80.2382042886, 26.1221520197]}, "type": "Feature", "properties": {"collection_times": [{"days": "Mon-Fri", "time": "5:00pm"}, {"days": "Sat", "time": "1:00pm"}, {"days": "Sun", "time": "Closed"}], "id": "3331700002", "name": "USPS COLLECTION BOX - BLUE BOX", "address": {"city": "PLANTATION", "state": "FL", "street": "6901 W BROWARD BLVD", "postcode": "33317"}}},
{"geometry": {"type": "Point", "coordinates": [-80.2414347105, 26.1209686443]}, "type": "Feature", "properties": {"collection_times": [{"days": "Mon-Fri", "time": "3:25pm"}, {"days": "Sat", "time": "1:00pm"}, {"days": "Sun", "time": "Closed"}], "id": "3331700004", "name": "USPS COLLECTION BOX - BLUE BOX", "address": {"city": "PLANTATION", "state": "FL", "street": "7001 W BROWARD BLVD", "postcode": "33317"}}},
{"geometry": {"type": "Point", "coordinates": [-80.2300839302, 26.1321414315]}, "type": "Feature", "properties": {"collection_times": [{"days": "Mon-Fri", "time": "3:00pm"}, {"days": "Sat", "time": "1:00pm"}, {"days": "Sun", "time": "Closed"}], "id": "3331700005", "name": "USPS COLLECTION BOX - BLUE BOX", "address": {"city": "PLANTATION", "state": "FL", "street": "6101 PLANTATION RD", "postcode": "33317"}}},
{"geometry": {"type": "Point", "coordinates": [-80.2198734605, 26.1210178417]}, "type": "Feature", "properties": {"collection_times": [{"days": "Mon-Fri", "time": "3:20pm"}, {"days": "Sat", "time": "1:00pm"}, {"days": "Sun", "time": "Closed"}], "id": "3331700006", "name": "USPS COLLECTION BOX - BLUE BOX", "address": {"city": "PLANTATION", "state": "FL", "street": "5225 W BROWARD BLVD", "postcode": "33317"}}},
{"geometry": {"type": "Point", "coordinates": [-80.2277335303, 26.1052009898]}, "type": "Feature", "properties": {"collection_times": [{"days": "Mon-Fri", "time": "3:40pm"}, {"days": "Sat", "time": "1:00pm"}, {"days": "Sun", "time": "Closed"}], "id": "3331700007", "name": "USPS COLLECTION BOX - BLUE BOX", "address": {"city": "PLANTATION", "state": "FL", "street": "1250 SW 59TH TER", "postcode": "33317"}}},
{"geometry": {"type": "Point", "coordinates": [-80.2042314993, 26.126469732]}, "type": "Feature", "properties": {"collection_times": [{"days": "Mon-Fri", "time": "3:10pm"}, {"days": "Sat", "time": "1:00pm"}, {"days": "Sun", "time": "Closed"}], "id": "3331700010", "name": "USPS COLLECTION BOX - BLUE BOX", "address": {"city": "PLANTATION", "state": "FL", "street": "401 NW 42ND AVE", "postcode": "33317"}}},
{"geometry": {"type": "Point", "coordinates": [-80.2021547025, 26.1227592938]}, "type": "Feature", "properties": {"collection_times": [{"days": "Mon-Fri", "time": "3:05pm"}, {"days": "Sat", "time": "1:00pm"}, {"days": "Sun", "time": "Closed"}], "id": "3331700014", "name": "USPS COLLECTION BOX - BLUE BOX", "address": {"city": "PLANTATION", "state": "FL", "street": "199 N STATE ROAD 7", "postcode": "33317"}}},
{"geometry": {"type": "Point", "coordinates": [-80.2405925282, 26.1283053138]}, "type": "Feature", "properties": {"collection_times": [{"days": "Mon-Fri", "time": "2:55pm"}, {"days": "Sat", "time": "1:00pm"}, {"days": "Sun", "time": "Closed"}], "id": "3331700015", "name": "USPS COLLECTION BOX - BLUE BOX", "address": {"city": "PLANTATION", "state": "FL", "street": "499 NW 70TH AVE", "postcode": "33317"}}},
{"geometry": {"type": "Point", "coordinates": [-80.2502698824, 26.1282052584]}, "type": "Feature", "properties": {"collection_times": [{"days": "Mon-Fri", "time": "5:05pm"}, {"days": "Sat", "time": "3:00pm"}, {"days": "Sun", "time": "Closed"}], "id": "3331700018", "name": "USPS COLLECTION BOX - BLUE BOX", "address": {"city": "PLANTATION", "state": "FL", "street": "7580 NW 5TH ST", "postcode": "33317"}}},
{"geometry": {"type": "Point", "coordinates": [-80.2502698824, 26.1282052584]}, "type": "Feature", "properties": {"collection_times": [{"days": "Mon-Fri", "time": "5:05pm"}, {"days": "Sat", "time": "3:00pm"}, {"days": "Sun", "time": "Closed"}], "id": "3331700019", "name": "USPS COLLECTION BOX - BLUE BOX", "address": {"city": "PLANTATION", "state": "FL", "street": "7580 NW 5TH ST", "postcode": "33317"}}},
{"geometry": {"type": "Point", "coordinates": [-80.2502698824, 26.1282052584]}, "type": "Feature", "properties": {"collection_times": [{"days": "Mon-Fri", "time": "5:05pm"}, {"days": "Sat", "time": "3:00pm"}, {"days": "Sun", "time": "Closed"}], "id": "3331700020", "name": "USPS COLLECTION BOX - BLUE BOX", "address": {"city": "PLANTATION", "state": "FL", "street": "7580 NW 5TH ST", "postcode": "33317"}}},
{"geometry": {"type": "Point", "coordinates": [-80.2502698824, 26.1282052584]}, "type": "Feature", "properties": {"collection_times": [{"days": "Mon-Fri", "time": "5:05pm"}, {"days": "Sat", "time": "3:00pm"}, {"days": "Sun", "time": "Closed"}], "id": "3331700021", "name": "USPS COLLECTION BOX - BLUE BOX", "address": {"city": "PLANTATION", "state": "FL", "street": "7580 NW 5TH ST", "postcode": "33317"}}},
{"geometry": {"type": "Point", "coordinates": [-80.2261088942, 26.1127611173]}, "type": "Feature", "properties": {"collection_times": [{"days": "Mon-Fri", "time": "5:05pm"}, {"days": "Sat", "time": "3:00pm"}, {"days": "Sun", "time": "Closed"}], "id": "3331700022", "name": "USPS COLLECTION BOX - EXPRESS", "address": {"city": "PLANTATION", "state": "FL", "street": "7580 NW 5TH ST", "postcode": "33317"}}},
{"geometry": {"type": "Point", "coordinates": [-80.2062926566, 26.1151619818]}, "type": "Feature", "properties": {"collection_times": [{"days": "Mon-Fri", "time": "3:15pm"}, {"days": "Sat", "time": "1:00pm"}, {"days": "Sun", "time": "Closed"}], "id": "3331700023", "name": "USPS COLLECTION BOX - BLUE BOX", "address": {"city": "PLANTATION", "state": "FL", "street": "500 E COUNTRY CLUB CIR", "postcode": "33317"}}},
{"geometry": {"type": "Point", "coordinates": [-80.2502698824, 26.1282052584]}, "type": "Feature", "properties": {"collection_times": [{"days": "Mon-Fri", "time": "6:30pm"}, {"days": "Sat", "time": "6:00pm"}, {"days": "Sun", "time": "Closed"}], "id": "3331700024", "name": "USPS COLLECTION BOX - PO LOBBY", "address": {"city": "PLANTATION", "state": "FL", "street": "7580 NW 5TH ST", "postcode": "33317"}}},
{"geometry": {"type": "Point", "coordinates": [-80.2502698824, 26.1282052584]}, "type": "Feature", "properties": {"collection_times": [{"days": "Mon-Fri", "time": "5:00pm"}, {"days": "Sat", "time": "3:00pm"}, {"days": "Sun", "time": "Closed"}], "id": "3331700025", "name": "USPS COLLECTION BOX - APC", "address": {"city": "PLANTATION", "state": "FL", "street": "7580 NW 5TH ST", "postcode": "33317"}}},
{"geometry": {"type": "Point", "coordinates": [-80.248128689, 26.1662744731]}, "type": "Feature", "properties": {"collection_times": [{"days": "Mon-Fri", "time": "5:00pm"}, {"days": "Sat", "time": "1:00pm"}, {"days": "Sun", "time": "Closed"}], "id": "3331900000", "name": "USPS COLLECTION BOX - BLUE BOX", "address": {"city": "TAMARAC", "state": "FL", "street": "7501 W OAKLAND PARK BLVD", "postcode": "33319"}}},
{"geometry": {"type": "Point", "coordinates": [-80.2364050072, 26.1709464276]}, "type": "Feature", "properties": {"collection_times": [{"days": "Mon-Fri", "time": "5:00pm"}, {"days": "Sat", "time": "1:00pm"}, {"days": "Sun", "time": "Closed"}], "id": "3331900005", "name": "USPS COLLECTION BOX - BLUE BOX", "address": {"city": "TAMARAC", "state": "FL", "street": "3800 INVERRARY BLVD", "postcode": "33319"}}},
{"geometry": {"type": "Point", "coordinates": [-80.239786426, 26.1792737001]}, "type": "Feature", "properties": {"collection_times": [{"days": "Mon-Fri", "time": "5:00pm"}, {"days": "Sat", "time": "1:00pm"}, {"days": "Sun", "time": "Closed"}], "id": "3331900007", "name": "USPS COLLECTION BOX - BLUE BOX", "address": {"city": "TAMARAC", "state": "FL", "street": "4400 INVERRARY BLVD", "postcode": "33319"}}},
{"geometry": {"type": "Point", "coordinates": [-80.2454003365, 26.193665532]}, "type": "Feature", "properties": {"collection_times": [{"days": "Mon-Fri", "time": "4:30pm"}, {"days": "Sat", "time": "1:00pm"}, {"days": "Sun", "time": "Closed"}], "id": "3331900010", "name": "USPS COLLECTION BOX - BLUE BOX", "address": {"city": "TAMARAC", "state": "FL", "street": "7100 W COMMERCIAL BLVD", "postcode": "33319"}}},
{"geometry": {"type": "Point", "coordinates": [-80.2340174122, 26.1950205991]}, "type": "Feature", "properties": {"collection_times": [{"days": "Mon-Fri", "time": "4:20pm"}, {"days": "Sat", "time": "1:00pm"}, {"days": "Sun", "time": "Closed"}], "id": "3331900012", "name": "USPS COLLECTION BOX - BLUE BOX", "address": {"city": "TAMARAC", "state": "FL", "street": "6299 NW 57TH ST", "postcode": "33319"}}},
{"geometry": {"type": "Point", "coordinates": [-80.2321785664, 26.1991501767]}, "type": "Feature", "properties": {"collection_times": [{"days": "Mon-Fri", "time": "4:25pm"}, {"days": "Sat", "time": "1:00pm"}, {"days": "Sun", "time": "Closed"}], "id": "3331900013", "name": "USPS COLLECTION BOX - BLUE BOX", "address": {"city": "TAMARAC", "state": "FL", "street": "6051 NW 61ST AVE", "postcode": "33319"}}},
{"geometry": {"type": "Point", "coordinates": [-80.2294726768, 26.1831043906]}, "type": "Feature", "properties": {"collection_times": [{"days": "Mon-Fri", "time": "4:15pm"}, {"days": "Sat", "time": "1:00pm"}, {"days": "Sun", "time": "Closed"}], "id": "3331900014", "name": "USPS COLLECTION BOX - BLUE BOX", "address": {"city": "TAMARAC", "state": "FL", "street": "4600 WOODLANDS BLVD", "postcode": "33319"}}},
{"geometry": {"type": "Point", "coordinates": [-80.2175630961, 26.1936971749]}, "type": "Feature", "properties": {"collection_times": [{"days": "Mon-Fri", "time": "5:00pm"}, {"days": "Sat", "time": "1:00pm"}, {"days": "Sun", "time": "Closed"}], "id": "3331900015", "name": "USPS COLLECTION BOX - BLUE BOX", "address": {"city": "TAMARAC", "state": "FL", "street": "5100 W COMMERCIAL BLVD", "postcode": "33319"}}},
{"geometry": {"type": "Point", "coordinates": [-80.2191575847, 26.1871505487]}, "type": "Feature", "properties": {"collection_times": [{"days": "Mon-Fri", "time": "4:35pm"}, {"days": "Sat-Sun", "time": "Closed"}], "id": "3331900016", "name": "USPS COLLECTION BOX - BLUE BOX", "address": {"city": "TAMARAC", "state": "FL", "street": "5108 NW 50 AVE", "postcode": "33319"}}},
{"geometry": {"type": "Point", "coordinates": [-80.207409854, 26.1844196437]}, "type": "Feature", "properties": {"collection_times": [{"days": "Mon-Fri", "time": "4:40pm"}, {"days": "Sat", "time": "1:00pm"}, {"days": "Sun", "time": "Closed"}], "id": "3331900019", "name": "USPS COLLECTION BOX - BLUE BOX", "address": {"city": "TAMARAC", "state": "FL", "street": "4301 MAINLAND DR", "postcode": "33319"}}},
{"geometry": {"type": "Point", "coordinates": [-80.2034652022, 26.1843219095]}, "type": "Feature", "properties": {"collection_times": [{"days": "Mon-Fri", "time": "5:00pm"}, {"days": "Sat", "time": "1:00pm"}, {"days": "Sun", "time": "Closed"}], "id": "3331900022", "name": "USPS COLLECTION BOX - BLUE BOX", "address": {"city": "TAMARAC", "state": "FL", "street": "4780 N STATE RD 7", "postcode": "33319"}}},
{"geometry": {"type": "Point", "coordinates": [-80.205263959, 26.1867562988]}, "type": "Feature", "properties": {"collection_times": [{"days": "Mon-Fri", "time": "5:00pm"}, {"days": "Sat", "time": "1:00pm"}, {"days": "Sun", "time": "Closed"}], "id": "3331900028", "name": "USPS COLLECTION BOX - BLUE BOX", "address": {"city": "TAMARAC", "state": "FL", "street": "4101 W COMMERCIAL BLVD", "postcode": "33319"}}},
{"geometry": {"type": "Point", "coordinates": [-80.2036073502, 26.1771768749]}, "type": "Feature", "properties": {"collection_times": [{"days": "Mon-Fri", "time": "5:00pm"}, {"days": "Sat", "time": "1:00pm"}, {"days": "Sun", "time": "Closed"}], "id": "3331900031", "name": "USPS COLLECTION BOX - BLUE BOX", "address": {"city": "TAMARAC", "state": "FL", "street": "4217 N STATE RD 7", "postcode": "33319"}}},
{"geometry": {"type": "Point", "coordinates": [-80.2029487451, 26.1648753009]}, "type": "Feature", "properties": {"collection_times": [{"days": "Mon-Fri", "time": "5:00pm"}, {"days": "Sat", "time": "1:00pm"}, {"days": "Sun", "time": "Closed"}], "id": "3331900038", "name": "USPS COLLECTION BOX - BLUE BOX", "address": {"city": "TAMARAC", "state": "FL", "street": "3100 N STATE RD 7", "postcode": "33319"}}},
{"geometry": {"type": "Point", "coordinates": [-80.2068681168, 26.170772919]}, "type": "Feature", "properties": {"collection_times": [{"days": "Mon-Fri", "time": "4:45pm"}, {"days": "Sat", "time": "1:00pm"}, {"days": "Sun", "time": "Closed"}], "id": "3331900040", "name": "USPS COLLECTION BOX - BLUE BOX", "address": {"city": "TAMARAC", "state": "FL", "street": "4300 NW 36 ST", "postcode": "33319"}}},
{"geometry": {"type": "Point", "coordinates": [-80.2398766424, 26.1948784516]}, "type": "Feature", "properties": {"collection_times": [{"days": "Mon-Fri", "time": "5:00pm"}, {"days": "Sat", "time": "1:00pm"}, {"days": "Sun", "time": "Closed"}], "id": "3331900044", "name": "USPS COLLECTION BOX - BLUE BOX", "address": {"city": "TAMARAC", "state": "FL", "street": "6636 NW 57 ST", "postcode": "33319"}}},
{"geometry": {"type": "Point", "coordinates": [-80.2340709546, 26.1646048081]}, "type": "Feature", "properties": {"collection_times": [{"days": "Mon-Fri", "time": "6:30pm"}, {"days": "Sat", "time": "5:00pm"}, {"days": "Sun", "time": "Closed"}], "id": "3331900045", "name": "USPS COLLECTION BOX - PO LOBBY", "address": {"city": "TAMARAC", "state": "FL", "street": "6240 W OAKLAND PARK BLVD", "postcode": "33319"}}},
{"geometry": {"type": "Point", "coordinates": [-80.2038501314, 26.1939609948]}, "type": "Feature", "properties": {"collection_times": [{"days": "Mon-Fri", "time": "3:30pm"}, {"days": "Sat-Sun", "time": "Closed"}], "id": "3331900048", "name": "USPS COLLECTION BOX - PO LOBBY", "address": {"city": "TAMARAC", "state": "FL", "street": "5451 N STATE ROAD 7", "postcode": "33319"}}},
{"geometry": {"type": "Point", "coordinates": [-80.2563157934, 26.208431652]}, "type": "Feature", "properties": {"collection_times": [{"days": "Mon-Fri", "time": "2:40pm"}, {"days": "Sat", "time": "1:00pm"}, {"days": "Sun", "time": "Closed"}], "id": "3332100002", "name": "USPS COLLECTION BOX - BLUE BOX", "address": {"city": "FT LAUDERDALE", "state": "FL", "street": "7901 W MCNAB RD", "postcode": "33321"}}},
{"geometry": {"type": "Point", "coordinates": [-80.2670825273, 26.2084130721]}, "type": "Feature", "properties": {"collection_times": [{"days": "Mon-Fri", "time": "2:50pm"}, {"days": "Sat", "time": "1:00pm"}, {"days": "Sun", "time": "Closed"}], "id": "3332100004", "name": "USPS COLLECTION BOX - BLUE BOX", "address": {"city": "FT LAUDERDALE", "state": "FL", "street": "8661 W MCNAB RD", "postcode": "33321"}}},
{"geometry": {"type": "Point", "coordinates": [-80.2698305096, 26.2270385495]}, "type": "Feature", "properties": {"collection_times": [{"days": "Mon-Fri", "time": "2:55pm"}, {"days": "Sat", "time": "1:00pm"}, {"days": "Sun", "time": "Closed"}], "id": "3332100005", "name": "USPS COLLECTION BOX - BLUE BOX", "address": {"city": "FT LAUDERDALE", "state": "FL", "street": "8233 NW 88 AVE", "postcode": "33321"}}},
{"geometry": {"type": "Point", "coordinates": [-80.2714128086, 26.2136491779]}, "type": "Feature", "properties": {"collection_times": [{"days": "Mon-Fri", "time": "3:00pm"}, {"days": "Sat", "time": "1:00pm"}, {"days": "Sun", "time": "Closed"}], "id": "3332100008", "name": "USPS COLLECTION BOX - BLUE BOX", "address": {"city": "FT LAUDERDALE", "state": "FL", "street": "7525 NW 88 AVE", "postcode": "33321"}}},
{"geometry": {"type": "Point", "coordinates": [-80.2725276824, 26.2081503297]}, "type": "Feature", "properties": {"collection_times": [{"days": "Mon-Fri", "time": "3:05pm"}, {"days": "Sat", "time": "1:00pm"}, {"days": "Sun", "time": "Closed"}], "id": "3332100009", "name": "USPS COLLECTION BOX - BLUE BOX", "address": {"city": "FT LAUDERDALE", "state": "FL", "street": "9080 W MCNAB RD", "postcode": "33321"}}},
{"geometry": {"type": "Point", "coordinates": [-80.262923445, 26.2041268912]}, "type": "Feature", "properties": {"collection_times": [{"days": "Mon-Fri", "time": "2:45pm"}, {"days": "Sat", "time": "1:00pm"}, {"days": "Sun", "time": "Closed"}], "id": "3332100010", "name": "USPS COLLECTION BOX - BLUE BOX", "address": {"city": "FT LAUDERDALE", "state": "FL", "street": "8300 SANDS POINT BLVD", "postcode": "33321"}}},
{"geometry": {"type": "Point", "coordinates": [-80.2862734647, 26.2126612236]}, "type": "Feature", "properties": {"collection_times": [{"days": "Mon-Fri", "time": "3:10pm"}, {"days": "Sat", "time": "1:00pm"}, {"days": "Sun", "time": "Closed"}], "id": "3332100013", "name": "USPS COLLECTION BOX - BLUE BOX", "address": {"city": "FT LAUDERDALE", "state": "FL", "street": "7130 N NOB HILL RD", "postcode": "33321"}}},
{"geometry": {"type": "Point", "coordinates": [-80.2879428543, 26.2165889763]}, "type": "Feature", "properties": {"collection_times": [{"days": "Mon-Fri", "time": "3:15pm"}, {"days": "Sat", "time": "1:00pm"}, {"days": "Sun", "time": "Closed"}], "id": "3332100014", "name": "USPS COLLECTION BOX - BLUE BOX", "address": {"city": "FT LAUDERDALE", "state": "FL", "street": "7600 N NOB HILL RD", "postcode": "33321"}}},
{"geometry": {"type": "Point", "coordinates": [-80.2526455061, 26.224954191]}, "type": "Feature", "properties": {"collection_times": [{"days": "Mon-Fri", "time": "2:25pm"}, {"days": "Sat", "time": "1:00pm"}, {"days": "Sun", "time": "Closed"}], "id": "3332100020", "name": "USPS COLLECTION BOX - BLUE BOX", "address": {"city": "FT LAUDERDALE", "state": "FL", "street": "8198 N UNIVERSITY DR", "postcode": "33321"}}},
{"geometry": {"type": "Point", "coordinates": [-80.2688594033, 26.2130742593]}, "type": "Feature", "properties": {"collection_times": [{"days": "Mon-Fri", "time": "2:20pm"}, {"days": "Sat", "time": "1:00pm"}, {"days": "Sun", "time": "Closed"}], "id": "3332100022", "name": "USPS COLLECTION BOX - BLUE BOX", "address": {"city": "FT LAUDERDALE", "state": "FL", "street": "7100 NW 70TH AVE", "postcode": "33321"}}},
{"geometry": {"type": "Point", "coordinates": [-80.2470298663, 26.2032489007]}, "type": "Feature", "properties": {"collection_times": [{"days": "Mon-Fri", "time": "2:15pm"}, {"days": "Sat", "time": "1:00pm"}, {"days": "Sun", "time": "Closed"}], "id": "3332100023", "name": "USPS COLLECTION BOX - BLUE BOX", "address": {"city": "FT LAUDERDALE", "state": "FL", "street": "6320 BROOKWOOD BLVD", "postcode": "33321"}}},
{"geometry": {"type": "Point", "coordinates": [-80.2527558948, 26.2174729704]}, "type": "Feature", "properties": {"collection_times": [{"days": "Mon-Fri", "time": "5:20pm"}, {"days": "Sat", "time": "1:00pm"}, {"days": "Sun", "time": "Closed"}], "id": "3332100025", "name": "USPS COLLECTION BOX - BLUE BOX", "address": {"city": "FT LAUDERDALE", "state": "FL", "street": "7707 N UNIVERSITY DR", "postcode": "33321"}}},
{"geometry": {"type": "Point", "coordinates": [-80.2674573944, 26.2123844613]}, "type": "Feature", "properties": {"collection_times": [{"days": "Mon-Sat", "time": "6:00pm"}, {"days": "Sun", "time": "Closed"}], "id": "3332100026", "name": "USPS COLLECTION BOX - PO LOBBY", "address": {"city": "FT LAUDERDALE", "state": "FL", "street": "7875 NW 57 ST", "postcode": "33321"}}},
{"geometry": {"type": "Point", "coordinates": [-80.2674573944, 26.2123844613]}, "type": "Feature", "properties": {"collection_times": [{"days": "Mon-Fri", "time": "5:15pm"}, {"days": "Sat", "time": "5:00pm"}, {"days": "Sun", "time": "Closed"}], "id": "3332100027", "name": "USPS COLLECTION BOX - BLUE BOX", "address": {"city": "FT LAUDERDALE", "state": "FL", "street": "7875 NW 57TH ST", "postcode": "33321"}}},
{"geometry": {"type": "Point", "coordinates": [-80.2557275147, 26.1576350788]}, "type": "Feature", "properties": {"collection_times": [{"days": "Mon-Fri", "time": "3:10pm"}, {"days": "Sat", "time": "1:00pm"}, {"days": "Sun", "time": "Closed"}], "id": "3332200008", "name": "USPS COLLECTION BOX - BLUE BOX", "address": {"city": "SUNRISE", "state": "FL", "street": "8151 NW 26 ST.", "postcode": "33322"}}},
{"geometry": {"type": "Point", "coordinates": [-80.2569952792, 26.1529619545]}, "type": "Feature", "properties": {"collection_times": [{"days": "Mon-Fri", "time": "2:55pm"}, {"days": "Sat", "time": "1:00pm"}, {"days": "Sun", "time": "Closed"}], "id": "3332200009", "name": "USPS COLLECTION BOX - BLUE BOX", "address": {"city": "SUNRISE", "state": "FL", "street": "2300 N UNIVERSITY DR", "postcode": "33322"}}},
{"geometry": {"type": "Point", "coordinates": [-80.2577566562, 26.1527696333]}, "type": "Feature", "properties": {"collection_times": [{"days": "Mon-Fri", "time": "3:25pm"}, {"days": "Sat", "time": "1:00pm"}, {"days": "Sun", "time": "Closed"}], "id": "3332200011", "name": "USPS COLLECTION BOX - BLUE BOX", "address": {"city": "SUNRISE", "state": "FL", "street": "8260 SUNSET STRIP", "postcode": "33322"}}},
{"geometry": {"type": "Point", "coordinates": [-80.2572176031, 26.1483733865]}, "type": "Feature", "properties": {"collection_times": [{"days": "Mon-Fri", "time": "5:20pm"}, {"days": "Sat", "time": "1:00pm"}, {"days": "Sun", "time": "Closed"}], "id": "3332200012", "name": "USPS COLLECTION BOX - BLUE BOX", "address": {"city": "SUNRISE", "state": "FL", "street": "1797 N UNIVERSITY DR.", "postcode": "33322"}}},
{"geometry": {"type": "Point", "coordinates": [-80.2569171214, 26.1490776123]}, "type": "Feature", "properties": {"collection_times": [{"days": "Mon-Fri", "time": "3:30pm"}, {"days": "Sat", "time": "1:00pm"}, {"days": "Sun", "time": "Closed"}], "id": "3332200013", "name": "USPS COLLECTION BOX - BLUE BOX", "address": {"city": "SUNRISE", "state": "FL", "street": "1836 N UNIVERSITY DR.", "postcode": "33322"}}},
{"geometry": {"type": "Point", "coordinates": [-80.2619777309, 26.1384032476]}, "type": "Feature", "properties": {"collection_times": [{"days": "Mon-Fri", "time": "2:50pm"}, {"days": "Sat", "time": "1:00pm"}, {"days": "Sun", "time": "Closed"}], "id": "3332200016", "name": "USPS COLLECTION BOX - BLUE BOX", "address": {"city": "SUNRISE", "state": "FL", "street": "1141 NW 85TH AVE", "postcode": "33322"}}},
{"geometry": {"type": "Point", "coordinates": [-80.268575075, 26.1459794036]}, "type": "Feature", "properties": {"collection_times": [{"days": "Mon-Fri", "time": "5:10pm"}, {"days": "Sat", "time": "1:00pm"}, {"days": "Sun", "time": "Closed"}], "id": "3332200017", "name": "USPS COLLECTION BOX - BLUE BOX", "address": {"city": "SUNRISE", "state": "FL", "street": "1776 N PINE ISLAND RD.", "postcode": "33322"}}},
{"geometry": {"type": "Point", "coordinates": [-80.268575075, 26.1459794036]}, "type": "Feature", "properties": {"collection_times": [{"days": "Mon-Fri", "time": "5:10pm"}, {"days": "Sat", "time": "1:00pm"}, {"days": "Sun", "time": "Closed"}], "id": "3332200018", "name": "USPS COLLECTION BOX - BLUE BOX", "address": {"city": "SUNRISE", "state": "FL", "street": "1776 N PINE ISLAND RD.", "postcode": "33322"}}},
{"geometry": {"type": "Point", "coordinates": [-80.2963836483, 26.1659955351]}, "type": "Feature", "properties": {"collection_times": [{"days": "Mon-Sat", "time": "5:00pm"}, {"days": "Sun", "time": "Closed"}], "id": "3332300001", "name": "USPS COLLECTION BOX - BLUE BOX", "address": {"city": "SUNRISE", "state": "FL", "street": "3225 N HIATUS RD", "postcode": "33323"}}},
{"geometry": {"type": "Point", "coordinates": [-80.3123659433, 26.1550727809]}, "type": "Feature", "properties": {"collection_times": [{"days": "Mon-Sat", "time": "5:00pm"}, {"days": "Sun", "time": "Closed"}], "id": "3332300004", "name": "USPS COLLECTION BOX - EXPRESS", "address": {"city": "SUNRISE", "state": "FL", "street": "3225 N HIATUS RD", "postcode": "33323"}}},
{"geometry": {"type": "Point", "coordinates": [-80.3160425215, 26.1456749431]}, "type": "Feature", "properties": {"collection_times": [{"days": "Mon-Fri", "time": "2:45pm"}, {"days": "Sat", "time": "1:00pm"}, {"days": "Sun", "time": "Closed"}], "id": "3332300006", "name": "USPS COLLECTION BOX - BLUE BOX", "address": {"city": "SUNRISE", "state": "FL", "street": "12500 W SUNRISE BLVD", "postcode": "33323"}}},
{"geometry": {"type": "Point", "coordinates": [-80.2963836483, 26.1659955351]}, "type": "Feature", "properties": {"collection_times": [{"days": "Mon-Sat", "time": "6:30pm"}, {"days": "Sun", "time": "Closed"}], "id": "3332300007", "name": "USPS COLLECTION BOX - PO LOBBY", "address": {"city": "SUNRISE", "state": "FL", "street": "3225 N HIATUS RD", "postcode": "33323"}}},
{"geometry": {"type": "Point", "coordinates": [-80.2963836483, 26.1659955351]}, "type": "Feature", "properties": {"collection_times": [{"days": "Mon-Sat", "time": "5:00pm"}, {"days": "Sun", "time": "Closed"}], "id": "3332300008", "name": "USPS COLLECTION BOX - APC", "address": {"city": "SUNRISE", "state": "FL", "street": "3225 N HIATUS RD", "postcode": "33323"}}},
{"geometry": {"type": "Point", "coordinates": [-80.3227520534, 26.1447089925]}, "type": "Feature", "properties": {"collection_times": [{"days": "Mon-Fri", "time": "2:40pm"}, {"days": "Sat-Sun", "time": "Closed"}], "id": "3332300010", "name": "USPS COLLECTION BOX - BLUE BOX", "address": {"city": "SUNRISE", "state": "FL", "street": "12801 W SUNRISE BLVD", "postcode": "33323"}}},
{"geometry": {"type": "Point", "coordinates": [-80.2635790282, 26.1018918108]}, "type": "Feature", "properties": {"collection_times": [{"days": "Mon-Fri", "time": "3:55pm"}, {"days": "Sat", "time": "1:00pm"}, {"days": "Sun", "time": "Closed"}], "id": "3332400000", "name": "USPS COLLECTION BOX - BLUE BOX", "address": {"city": "SUNRISE", "state": "FL", "street": "8600 W STATE RD 84", "postcode": "33324"}}},
{"geometry": {"type": "Point", "coordinates": [-80.2700605402, 26.0935892133]}, "type": "Feature", "properties": {"collection_times": [{"days": "Mon-Fri", "time": "3:45pm"}, {"days": "Sat", "time": "1:00pm"}, {"days": "Sun", "time": "Closed"}], "id": "3332400001", "name": "USPS COLLECTION BOX - BLUE BOX", "address": {"city": "SUNRISE", "state": "FL", "street": "1708 WHITEHALL DR.", "postcode": "33324"}}},
{"geometry": {"type": "Point", "coordinates": [-80.2711180862, 26.0996097267]}, "type": "Feature", "properties": {"collection_times": [{"days": "Mon-Fri", "time": "3:50pm"}, {"days": "Sat", "time": "1:00pm"}, {"days": "Sun", "time": "Closed"}], "id": "3332400003", "name": "USPS COLLECTION BOX - BLUE BOX", "address": {"city": "SUNRISE", "state": "FL", "street": "1502 WHITEHALL DR", "postcode": "33324"}}},
{"geometry": {"type": "Point", "coordinates": [-80.2519025443, 26.1195433848]}, "type": "Feature", "properties": {"collection_times": [{"days": "Mon-Fri", "time": "2:50pm"}, {"days": "Sat", "time": "1:00pm"}, {"days": "Sun", "time": "Closed"}], "id": "3332400006", "name": "USPS COLLECTION BOX - BLUE BOX", "address": {"city": "SUNRISE", "state": "FL", "street": "2 S UNIVERSITY DR", "postcode": "33324"}}},
{"geometry": {"type": "Point", "coordinates": [-80.251885775, 26.1053230717]}, "type": "Feature", "properties": {"collection_times": [{"days": "Mon-Fri", "time": "3:35pm"}, {"days": "Sat", "time": "1:00pm"}, {"days": "Sun", "time": "Closed"}], "id": "3332400007", "name": "USPS COLLECTION BOX - BLUE BOX", "address": {"city": "SUNRISE", "state": "FL", "street": "7700 PETERS RD", "postcode": "33324"}}},
{"geometry": {"type": "Point", "coordinates": [-80.2573922928, 26.1571465022]}, "type": "Feature", "properties": {"collection_times": [{"days": "Mon-Fri", "time": "4:00pm"}, {"days": "Sat", "time": "1:00pm"}, {"days": "Sun", "time": "Closed"}], "id": "3332400010", "name": "USPS COLLECTION BOX - BLUE BOX", "address": {"city": "SUNRISE", "state": "FL", "street": "2601 S UNIVERSITY DR.", "postcode": "33324"}}},
{"geometry": {"type": "Point", "coordinates": [-80.2584348887, 26.1206680808]}, "type": "Feature", "properties": {"collection_times": [{"days": "Mon-Fri", "time": "2:45pm"}, {"days": "Sat", "time": "1:00pm"}, {"days": "Sun", "time": "Closed"}], "id": "3332400014", "name": "USPS COLLECTION BOX - BLUE BOX", "address": {"city": "SUNRISE", "state": "FL", "street": "8200 W BROWARD BLVD", "postcode": "33324"}}},
{"geometry": {"type": "Point", "coordinates": [-80.2636790878, 26.1232361214]}, "type": "Feature", "properties": {"collection_times": [{"days": "Mon-Fri", "time": "5:25pm"}, {"days": "Sat", "time": "1:00pm"}, {"days": "Sun", "time": "Closed"}], "id": "3332400015", "name": "USPS COLLECTION BOX - BLUE BOX", "address": {"city": "SUNRISE", "state": "FL", "street": "300 S PINE ISLAND RD", "postcode": "33324"}}},
{"geometry": {"type": "Point", "coordinates": [-80.2628672376, 26.1171089811]}, "type": "Feature", "properties": {"collection_times": [{"days": "Mon-Fri", "time": "4:15pm"}, {"days": "Sat", "time": "1:00pm"}, {"days": "Sun", "time": "Closed"}], "id": "3332400016", "name": "USPS COLLECTION BOX - BLUE BOX", "address": {"city": "SUNRISE", "state": "FL", "street": "200 S PINE ISLAND RD", "postcode": "33324"}}},
{"geometry": {"type": "Point", "coordinates": [-80.2641082078, 26.1191745246]}, "type": "Feature", "properties": {"collection_times": [{"days": "Mon-Fri", "time": "4:15pm"}, {"days": "Sat", "time": "1:00pm"}, {"days": "Sun", "time": "Closed"}], "id": "3332400018", "name": "USPS COLLECTION BOX - BLUE BOX", "address": {"city": "SUNRISE", "state": "FL", "street": "100 S PINE ISLAND RD", "postcode": "33324"}}},
{"geometry": {"type": "Point", "coordinates": [-80.2798832405, 26.1209005151]}, "type": "Feature", "properties": {"collection_times": [{"days": "Mon-Fri", "time": "2:40pm"}, {"days": "Sat", "time": "1:00pm"}, {"days": "Sun", "time": "Closed"}], "id": "3332400020", "name": "USPS COLLECTION BOX - BLUE BOX", "address": {"city": "SUNRISE", "state": "FL", "street": "9779 W BROWARD BLVD", "postcode": "33324"}}},
{"geometry": {"type": "Point", "coordinates": [-80.2760053155, 26.1234204379]}, "type": "Feature", "properties": {"collection_times": [{"days": "Mon-Fri", "time": "2:35pm"}, {"days": "Sat", "time": "1:00pm"}, {"days": "Sun", "time": "Closed"}], "id": "3332400021", "name": "USPS COLLECTION BOX - BLUE BOX", "address": {"city": "SUNRISE", "state": "FL", "street": "9451 CHELSEA DR SOUTH", "postcode": "33324"}}},
{"geometry": {"type": "Point", "coordinates": [-80.2584303008, 26.1232446895]}, "type": "Feature", "properties": {"collection_times": [{"days": "Mon-Fri", "time": "5:15pm"}, {"days": "Sat", "time": "1:00pm"}, {"days": "Sun", "time": "Closed"}], "id": "3332400023", "name": "USPS COLLECTION BOX - BLUE BOX", "address": {"city": "SUNRISE", "state": "FL", "street": "201 NW 82ND AVE", "postcode": "33324"}}},
{"geometry": {"type": "Point", "coordinates": [-80.258313866, 26.1209417101]}, "type": "Feature", "properties": {"collection_times": [{"days": "Mon-Fri", "time": "2:30pm"}, {"days": "Sat", "time": "1:00pm"}, {"days": "Sun", "time": "Closed"}], "id": "3332400024", "name": "USPS COLLECTION BOX - BLUE BOX", "address": {"city": "SUNRISE", "state": "FL", "street": "8201 W BROWARD BLVD", "postcode": "33324"}}},
{"geometry": {"type": "Point", "coordinates": [-80.2526522864, 26.1208980377]}, "type": "Feature", "properties": {"collection_times": [{"days": "Mon-Fri", "time": "2:30pm"}, {"days": "Sat", "time": "1:00pm"}, {"days": "Sun", "time": "Closed"}], "id": "3332400025", "name": "USPS COLLECTION BOX - BLUE BOX", "address": {"city": "SUNRISE", "state": "FL", "street": "1 N UNIVERSITY DR", "postcode": "33324"}}},
{"geometry": {"type": "Point", "coordinates": [-80.2848323872, 26.1330419219]}, "type": "Feature", "properties": {"collection_times": [{"days": "Mon-Fri", "time": "5:30pm"}, {"days": "Sat", "time": "1:00pm"}, {"days": "Sun", "time": "Closed"}], "id": "3332400028", "name": "USPS COLLECTION BOX - BLUE BOX", "address": {"city": "SUNRISE", "state": "FL", "street": "10063 CLEARY BLVD", "postcode": "33324"}}},
{"geometry": {"type": "Point", "coordinates": [-80.333540682, 26.1255226186]}, "type": "Feature", "properties": {"collection_times": [{"days": "Mon-Fri", "time": "5:40pm"}, {"days": "Sat", "time": "1:00pm"}, {"days": "Sun", "time": "Closed"}], "id": "3332500012", "name": "USPS COLLECTION BOX - BLUE BOX", "address": {"city": "DAVIE", "state": "FL", "street": "13790 NW 4TH ST", "postcode": "33325"}}},
{"geometry": {"type": "Point", "coordinates": [-80.3316625995, 26.1178321237]}, "type": "Feature", "properties": {"collection_times": [{"days": "Mon-Fri", "time": "5:50pm"}, {"days": "Sat", "time": "1:00pm"}, {"days": "Sun", "time": "Closed"}], "id": "3332500013", "name": "USPS COLLECTION BOX - BLUE BOX", "address": {"city": "DAVIE", "state": "FL", "street": "13730 W STATE ROAD 84", "postcode": "33325"}}},
{"geometry": {"type": "Point", "coordinates": [-80.3024940165, 26.1112895459]}, "type": "Feature", "properties": {"collection_times": [{"days": "Mon-Fri", "time": "5:45pm"}, {"days": "Sat", "time": "1:00pm"}, {"days": "Sun", "time": "Closed"}], "id": "3332500016", "name": "USPS COLLECTION BOX - BLUE BOX", "address": {"city": "DAVIE", "state": "FL", "street": "11528 W STATE ROAD 84", "postcode": "33325"}}},
{"geometry": {"type": "Point", "coordinates": [-80.3736298168, 26.1111563707]}, "type": "Feature", "properties": {"collection_times": [{"days": "Mon-Fri", "time": "5:30pm"}, {"days": "Sat", "time": "3:00pm"}, {"days": "Sun", "time": "Closed"}], "id": "3332600027", "name": "USPS COLLECTION BOX - APC", "address": {"city": "WESTON", "state": "FL", "street": "1870 N CORP LAKES BLVD", "postcode": "33326"}}},
{"geometry": {"type": "Point", "coordinates": [-80.3665674206, 26.095231616]}, "type": "Feature", "properties": {"collection_times": [{"days": "Mon-Fri", "time": "5:00pm"}, {"days": "Sat", "time": "3:00pm"}, {"days": "Sun", "time": "Closed"}], "id": "3332600028", "name": "USPS COLLECTION BOX - BLUE BOX", "address": {"city": "WESTON", "state": "FL", "street": "1870 N CORPORATE LAKES BLVD", "postcode": "33326"}}},
{"geometry": {"type": "Point", "coordinates": [-80.3665674206, 26.095231616]}, "type": "Feature", "properties": {"collection_times": [{"days": "Mon-Fri", "time": "5:00pm"}, {"days": "Sat", "time": "3:00pm"}, {"days": "Sun", "time": "Closed"}], "id": "3332600029", "name": "USPS COLLECTION BOX - BLUE BOX", "address": {"city": "WESTON", "state": "FL", "street": "1870 N CORPORATE LAKES BLVD", "postcode": "33326"}}},
{"geometry": {"type": "Point", "coordinates": [-80.3736298168, 26.1111563707]}, "type": "Feature", "properties": {"collection_times": [{"days": "Mon-Fri", "time": "5:00pm"}, {"days": "Sat", "time": "3:00pm"}, {"days": "Sun", "time": "Closed"}], "id": "3332600030", "name": "USPS COLLECTION BOX - BLUE BOX", "address": {"city": "WESTON", "state": "FL", "street": "1870 N CORP LAKES BLVD", "postcode": "33326"}}},
{"geometry": {"type": "Point", "coordinates": [-80.3638108317, 26.1062338161]}, "type": "Feature", "properties": {"collection_times": [{"days": "Mon-Fri", "time": "4:45pm"}, {"days": "Sat", "time": "1:00pm"}, {"days": "Sun", "time": "Closed"}], "id": "3332600031", "name": "USPS COLLECTION BOX - BLUE BOX", "address": {"city": "WESTON", "state": "FL", "street": "1170 WESTON RD", "postcode": "33326"}}},
{"geometry": {"type": "Point", "coordinates": [-80.361423882, 26.1225859905]}, "type": "Feature", "properties": {"collection_times": [{"days": "Mon-Fri", "time": "5:00pm"}, {"days": "Sat", "time": "1:00pm"}, {"days": "Sun", "time": "Closed"}], "id": "3332600033", "name": "USPS COLLECTION BOX - BLUE BOX", "address": {"city": "WESTON", "state": "FL", "street": "55 WESTON RD", "postcode": "33326"}}},
{"geometry": {"type": "Point", "coordinates": [-80.361423882, 26.1225859905]}, "type": "Feature", "properties": {"collection_times": [{"days": "Mon-Fri", "time": "5:00pm"}, {"days": "Sat", "time": "1:00pm"}, {"days": "Sun", "time": "Closed"}], "id": "3332600034", "name": "USPS COLLECTION BOX - BLUE BOX", "address": {"city": "WESTON", "state": "FL", "street": "55 WESTON RD", "postcode": "33326"}}},
{"geometry": {"type": "Point", "coordinates": [-80.3818507592, 26.098349942]}, "type": "Feature", "properties": {"collection_times": [{"days": "Mon-Fri", "time": "4:45pm"}, {"days": "Sat", "time": "1:00pm"}, {"days": "Sun", "time": "Closed"}], "id": "3332600036", "name": "USPS COLLECTION BOX - BLUE BOX", "address": {"city": "WESTON", "state": "FL", "street": "1605 TOWN CENTER CIR", "postcode": "33326"}}},
{"geometry": {"type": "Point", "coordinates": [-80.4009092506, 26.1338259274]}, "type": "Feature", "properties": {"collection_times": [{"days": "Mon-Fri", "time": "4:50pm"}, {"days": "Sat", "time": "1:00pm"}, {"days": "Sun", "time": "Closed"}], "id": "3332600039", "name": "USPS COLLECTION BOX - BLUE BOX", "address": {"city": "WESTON", "state": "FL", "street": "70 INDIAN TRCE", "postcode": "33326"}}},
{"geometry": {"type": "Point", "coordinates": [-80.3507792699, 26.1071079512]}, "type": "Feature", "properties": {"collection_times": [{"days": "Mon-Fri", "time": "5:10pm"}, {"days": "Sat", "time": "1:00pm"}, {"days": "Sun", "time": "Closed"}], "id": "3332600040", "name": "USPS COLLECTION BOX - BLUE BOX", "address": {"city": "WESTON", "state": "FL", "street": "1011 SHOTGUN RD", "postcode": "33326"}}},
{"geometry": {"type": "Point", "coordinates": [-80.3665674206, 26.095231616]}, "type": "Feature", "properties": {"collection_times": [{"days": "Mon-Fri", "time": "5:30pm"}, {"days": "Sat", "time": "3:00pm"}, {"days": "Sun", "time": "Closed"}], "id": "3332600043", "name": "USPS COLLECTION BOX - APC", "address": {"city": "WESTON", "state": "FL", "street": "1870 N CORPORATE LAKES BLVD", "postcode": "33326"}}},
{"geometry": {"type": "Point", "coordinates": [-80.3665674206, 26.095231616]}, "type": "Feature", "properties": {"collection_times": [{"days": "Mon-Sat", "time": "6:30pm"}, {"days": "Sun", "time": "Closed"}], "id": "3332600044", "name": "USPS COLLECTION BOX - PO LOBBY", "address": {"city": "WESTON", "state": "FL", "street": "1870 N CORPORATE LAKES BLVD", "postcode": "33326"}}},
{"geometry": {"type": "Point", "coordinates": [-80.2523165307, 26.062005709]}, "type": "Feature", "properties": {"collection_times": [{"days": "Mon-Fri", "time": "5:25pm"}, {"days": "Sat", "time": "1:00pm"}, {"days": "Sun", "time": "Closed"}], "id": "3332800000", "name": "USPS COLLECTION BOX - BLUE BOX", "address": {"city": "COOPER CITY", "state": "FL", "street": "4801 S UNIVERSITY DR", "postcode": "33328"}}},
{"geometry": {"type": "Point", "coordinates": [-80.2790258389, 26.064027171]}, "type": "Feature", "properties": {"collection_times": [{"days": "Mon-Fri", "time": "5:20pm"}, {"days": "Sat", "time": "1:00pm"}, {"days": "Sun", "time": "Closed"}], "id": "3332800005", "name": "USPS COLLECTION BOX - BLUE BOX", "address": {"city": "COOPER CITY", "state": "FL", "street": "9820 GRIFFIN RD", "postcode": "33328"}}},
{"geometry": {"type": "Point", "coordinates": [-80.2844422927, 26.063931678]}, "type": "Feature", "properties": {"collection_times": [{"days": "Mon-Fri", "time": "5:15pm"}, {"days": "Sat", "time": "1:00pm"}, {"days": "Sun", "time": "Closed"}], "id": "3332800007", "name": "USPS COLLECTION BOX - BLUE BOX", "address": {"city": "COOPER CITY", "state": "FL", "street": "10400 GRIFFIN RD", "postcode": "33328"}}},
{"geometry": {"type": "Point", "coordinates": [-80.2523665037, 26.0734411428]}, "type": "Feature", "properties": {"collection_times": [{"days": "Mon-Fri", "time": "5:00pm"}, {"days": "Sat", "time": "2:00pm"}, {"days": "Sun", "time": "Closed"}], "id": "3332800010", "name": "USPS COLLECTION BOX - BLUE BOX", "address": {"city": "COOPER CITY", "state": "FL", "street": "3850 S UNIVERSITY DR", "postcode": "33328"}}},
{"geometry": {"type": "Point", "coordinates": [-80.2523665037, 26.0734411428]}, "type": "Feature", "properties": {"collection_times": [{"days": "Mon-Fri", "time": "5:00pm"}, {"days": "Sat", "time": "2:00pm"}, {"days": "Sun", "time": "Closed"}], "id": "3332800011", "name": "USPS COLLECTION BOX - BLUE BOX", "address": {"city": "COOPER CITY", "state": "FL", "street": "3850 S UNIVERSITY DR", "postcode": "33328"}}},
{"geometry": {"type": "Point", "coordinates": [-80.2523665037, 26.0734411428]}, "type": "Feature", "properties": {"collection_times": [{"days": "Mon-Fri", "time": "5:00pm"}, {"days": "Sat", "time": "2:00pm"}, {"days": "Sun", "time": "Closed"}], "id": "3332800012", "name": "USPS COLLECTION BOX - BLUE BOX", "address": {"city": "COOPER CITY", "state": "FL", "street": "3850 S UNIVERSITY DR", "postcode": "33328"}}},
{"geometry": {"type": "Point", "coordinates": [-80.2524171974, 26.0733154018]}, "type": "Feature", "properties": {"collection_times": [{"days": "Mon-Fri", "time": "5:00pm"}, {"days": "Sat", "time": "2:00pm"}, {"days": "Sun", "time": "Closed"}], "id": "3332800013", "name": "USPS COLLECTION BOX - BLUE BOX", "address": {"city": "COOPER CITY", "state": "FL", "street": "3850 S UNIVERSITY DR", "postcode": "33328"}}},
{"geometry": {"type": "Point", "coordinates": [-80.2523665037, 26.0734411428]}, "type": "Feature", "properties": {"collection_times": [{"days": "Mon-Fri", "time": "5:00pm"}, {"days": "Sat", "time": "2:00pm"}, {"days": "Sun", "time": "Closed"}], "id": "3332800014", "name": "USPS COLLECTION BOX - BLUE BOX", "address": {"city": "COOPER CITY", "state": "FL", "street": "3850 S UNIVERSITY DR", "postcode": "33328"}}},
{"geometry": {"type": "Point", "coordinates": [-80.2523665037, 26.0734411428]}, "type": "Feature", "properties": {"collection_times": [{"days": "Mon-Fri", "time": "5:00pm"}, {"days": "Sat", "time": "2:00pm"}, {"days": "Sun", "time": "Closed"}], "id": "3332800016", "name": "USPS COLLECTION BOX - PO LOBBY", "address": {"city": "COOPER CITY", "state": "FL", "street": "3850 S UNIVERSITY DR", "postcode": "33328"}}},
{"geometry": {"type": "Point", "coordinates": [-80.2523665037, 26.0734411428]}, "type": "Feature", "properties": {"collection_times": [{"days": "Mon-Fri", "time": "5:00pm"}, {"days": "Sat", "time": "2:00pm"}, {"days": "Sun", "time": "Closed"}], "id": "3332800017", "name": "USPS COLLECTION BOX - APC", "address": {"city": "COOPER CITY", "state": "FL", "street": "3850 S UNIVERSITY DR", "postcode": "33328"}}},
{"geometry": {"type": "Point", "coordinates": [-80.2523665037, 26.0734411428]}, "type": "Feature", "properties": {"collection_times": [{"days": "Mon-Fri", "time": "5:00pm"}, {"days": "Sat", "time": "2:00pm"}, {"days": "Sun", "time": "Closed"}], "id": "3332800020", "name": "USPS COLLECTION BOX - APC", "address": {"city": "COOPER CITY", "state": "FL", "street": "3850 S UNIVERSITY DR", "postcode": "33328"}}},
{"geometry": {"type": "Point", "coordinates": [-80.2513406949, 26.0785792509]}, "type": "Feature", "properties": {"collection_times": [{"days": "Mon-Fri", "time": "5:10pm"}, {"days": "Sat-Sun", "time": "Closed"}], "id": "3332800021", "name": "USPS COLLECTION BOX - BLUE BOX", "address": {"city": "COOPER CITY", "state": "FL", "street": "3416 S UNIVERSITY DR", "postcode": "33328"}}},
{"geometry": {"type": "Point", "coordinates": [-80.3129255699, 26.0475659496]}, "type": "Feature", "properties": {"collection_times": [{"days": "Mon-Fri", "time": "5:35pm"}, {"days": "Sat", "time": "1:00pm"}, {"days": "Sun", "time": "Closed"}], "id": "3333000001", "name": "USPS COLLECTION BOX - BLUE BOX", "address": {"city": "DAVIE", "state": "FL", "street": "5630 S FLAMINGO RD.", "postcode": "33330"}}},
{"geometry": {"type": "Point", "coordinates": [-80.3461890601, 26.0611973239]}, "type": "Feature", "properties": {"collection_times": [{"days": "Mon-Fri", "time": "5:20pm"}, {"days": "Sat", "time": "1:00pm"}, {"days": "Sun", "time": "Closed"}], "id": "3333000002", "name": "USPS COLLECTION BOX - BLUE BOX", "address": {"city": "DAVIE", "state": "FL", "street": "4901 VOLUNTEER RD.", "postcode": "33330"}}},
{"geometry": {"type": "Point", "coordinates": [-80.4095585487, 26.033999429]}, "type": "Feature", "properties": {"collection_times": [{"days": "Mon-Sat", "time": "5:45pm"}, {"days": "Sun", "time": "Closed"}], "id": "3333200000", "name": "USPS COLLECTION BOX - BLUE BOX", "address": {"city": "FT. LAUDERDALE", "state": "FL", "street": "6759 SW 196TH AVE", "postcode": "33332"}}},
{"geometry": {"type": "Point", "coordinates": [-80.4095585487, 26.033999429]}, "type": "Feature", "properties": {"collection_times": [{"days": "Mon-Sat", "time": "5:45pm"}, {"days": "Sun", "time": "Closed"}], "id": "3333200001", "name": "USPS COLLECTION BOX - BLUE BOX", "address": {"city": "FT. LAUDERDALE", "state": "FL", "street": "6759 SW 196TH AVE", "postcode": "33332"}}},
{"geometry": {"type": "Point", "coordinates": [-80.4067090478, 26.0582704033]}, "type": "Feature", "properties": {"collection_times": [{"days": "Mon-Sat", "time": "5:45pm"}, {"days": "Sun", "time": "Closed"}], "id": "3333200002", "name": "USPS COLLECTION BOX - EXPRESS", "address": {"city": "FT. LAUDERDALE", "state": "FL", "street": "6759 SW 196TH AVE", "postcode": "33332"}}},
{"geometry": {"type": "Point", "coordinates": [-80.4095585487, 26.033999429]}, "type": "Feature", "properties": {"collection_times": [{"days": "Mon-Sat", "time": "5:45pm"}, {"days": "Sun", "time": "Closed"}], "id": "3333200003", "name": "USPS COLLECTION BOX - PO LOBBY", "address": {"city": "FT. LAUDERDALE", "state": "FL", "street": "6759 SW 196TH AVE", "postcode": "33332"}}},
{"geometry": {"type": "Point", "coordinates": [-80.1311760607, 26.1723904893]}, "type": "Feature", "properties": {"collection_times": [{"days": "Mon-Fri", "time": "2:05pm"}, {"days": "Sat", "time": "1:00pm"}, {"days": "Sun", "time": "Closed"}], "id": "3333400005", "name": "USPS COLLECTION BOX - BLUE BOX", "address": {"city": "FT LAUDERDALE", "state": "FL", "street": "3600 NE 12TH AVE", "postcode": "33334"}}},
{"geometry": {"type": "Point", "coordinates": [-80.1378272001, 26.204756573]}, "type": "Feature", "properties": {"collection_times": [{"days": "Mon-Fri", "time": "5:05pm"}, {"days": "Sat", "time": "1:00pm"}, {"days": "Sun", "time": "Closed"}], "id": "3333400015", "name": "USPS COLLECTION BOX - BLUE BOX", "address": {"city": "FT LAUDERDALE", "state": "FL", "street": "600 CORPORATE DR", "postcode": "33334"}}},
{"geometry": {"type": "Point", "coordinates": [-80.1378272001, 26.204756573]}, "type": "Feature", "properties": {"collection_times": [{"days": "Mon-Fri", "time": "5:08pm"}, {"days": "Sat", "time": "1:00pm"}, {"days": "Sun", "time": "Closed"}], "id": "3333400016", "name": "USPS COLLECTION BOX - BLUE BOX", "address": {"city": "FT LAUDERDALE", "state": "FL", "street": "600 CORPORATE DR", "postcode": "33334"}}},
{"geometry": {"type": "Point", "coordinates": [-80.132431306, 26.194539371]}, "type": "Feature", "properties": {"collection_times": [{"days": "Mon-Fri", "time": "5:12pm"}, {"days": "Sat", "time": "1:00pm"}, {"days": "Sun", "time": "Closed"}], "id": "3333400025", "name": "USPS COLLECTION BOX - BLUE BOX", "address": {"city": "FT LAUDERDALE", "state": "FL", "street": "5599 N DIXIE HWY", "postcode": "33334"}}},
{"geometry": {"type": "Point", "coordinates": [-80.1269270213, 26.1891277782]}, "type": "Feature", "properties": {"collection_times": [{"days": "Mon-Fri", "time": "5:16pm"}, {"days": "Sat", "time": "1:00pm"}, {"days": "Sun", "time": "Closed"}], "id": "3333400030", "name": "USPS COLLECTION BOX - BLUE BOX", "address": {"city": "FT LAUDERDALE", "state": "FL", "street": "1439 E COMMERCIAL BLVD", "postcode": "33334"}}},
{"geometry": {"type": "Point", "coordinates": [-80.1383416214, 26.164549233]}, "type": "Feature", "properties": {"collection_times": [{"days": "Mon-Fri", "time": "2:35pm"}, {"days": "Sat-Sun", "time": "Closed"}], "id": "3333400032", "name": "USPS COLLECTION BOX - BLUE BOX", "address": {"city": "FT LAUDERDALE", "state": "FL", "street": "2905 NE 6TH AVE", "postcode": "33334"}}},
{"geometry": {"type": "Point", "coordinates": [-80.1462796907, 26.1811432437]}, "type": "Feature", "properties": {"collection_times": [{"days": "Mon-Fri", "time": "5:00pm"}, {"days": "Sat", "time": "1:00pm"}, {"days": "Sun", "time": "Closed"}], "id": "3333400036", "name": "USPS COLLECTION BOX - BLUE BOX", "address": {"city": "FT LAUDERDALE", "state": "FL", "street": "110 NE 44TH ST", "postcode": "33334"}}},
{"geometry": {"type": "Point", "coordinates": [-80.1462796907, 26.1811432437]}, "type": "Feature", "properties": {"collection_times": [{"days": "Mon-Fri", "time": "5:00pm"}, {"days": "Sat", "time": "1:00pm"}, {"days": "Sun", "time": "Closed"}], "id": "3333400037", "name": "USPS COLLECTION BOX - BLUE BOX", "address": {"city": "FT LAUDERDALE", "state": "FL", "street": "110 NE 44TH ST", "postcode": "33334"}}},
{"geometry": {"type": "Point", "coordinates": [-80.2562822122, 26.1709744501]}, "type": "Feature", "properties": {"collection_times": [{"days": "Mon-Fri", "time": "3:45pm"}, {"days": "Sat", "time": "1:00pm"}, {"days": "Sun", "time": "Closed"}], "id": "3335100007", "name": "USPS COLLECTION BOX - BLUE BOX", "address": {"city": "TAMARAC", "state": "FL", "street": "3801 N UNIVERSITY DR.", "postcode": "33351"}}},
{"geometry": {"type": "Point", "coordinates": [-80.2533113513, 26.1665333808]}, "type": "Feature", "properties": {"collection_times": [{"days": "Mon-Fri", "time": "4:05pm"}, {"days": "Sat", "time": "1:00pm"}, {"days": "Sun", "time": "Closed"}], "id": "3335100010", "name": "USPS COLLECTION BOX - BLUE BOX", "address": {"city": "TAMARAC", "state": "FL", "street": "7770 W OAKLAND PARK BLVD.", "postcode": "33351"}}},
{"geometry": {"type": "Point", "coordinates": [-80.2545746156, 26.1669079699]}, "type": "Feature", "properties": {"collection_times": [{"days": "Mon-Fri", "time": "4:00pm"}, {"days": "Sat", "time": "1:00pm"}, {"days": "Sun", "time": "Closed"}], "id": "3335100014", "name": "USPS COLLECTION BOX - BLUE BOX", "address": {"city": "TAMARAC", "state": "FL", "street": "7771 W OAKLAND PARK BLVD.", "postcode": "33351"}}},
{"geometry": {"type": "Point", "coordinates": [-80.2727481832, 26.1790311412]}, "type": "Feature", "properties": {"collection_times": [{"days": "Mon-Fri", "time": "3:35pm"}, {"days": "Sat", "time": "1:00pm"}, {"days": "Sun", "time": "Closed"}], "id": "3335100017", "name": "USPS COLLECTION BOX - BLUE BOX", "address": {"city": "TAMARAC", "state": "FL", "street": "7800 NW 44TH ST", "postcode": "33351"}}},
{"geometry": {"type": "Point", "coordinates": [-80.2516343212, 26.1814714475]}, "type": "Feature", "properties": {"collection_times": [{"days": "Mon-Fri", "time": "3:40pm"}, {"days": "Sat", "time": "1:00pm"}, {"days": "Sun", "time": "Closed"}], "id": "3335100018", "name": "USPS COLLECTION BOX - BLUE BOX", "address": {"city": "TAMARAC", "state": "FL", "street": "4528 N UNIVERSITY DR.", "postcode": "33351"}}},
{"geometry": {"type": "Point", "coordinates": [-80.2857165139, 26.1700850966]}, "type": "Feature", "properties": {"collection_times": [{"days": "Mon-Fri", "time": "3:30pm"}, {"days": "Sat", "time": "1:00pm"}, {"days": "Sun", "time": "Closed"}], "id": "3335100021", "name": "USPS COLLECTION BOX - BLUE BOX", "address": {"city": "TAMARAC", "state": "FL", "street": "10077 W OAKLAND PARK BLVD.", "postcode": "33351"}}},
{"geometry": {"type": "Point", "coordinates": [-80.2906984989, 26.1844697853]}, "type": "Feature", "properties": {"collection_times": [{"days": "Mon-Fri", "time": "3:25pm"}, {"days": "Sat", "time": "1:00pm"}, {"days": "Sun", "time": "Closed"}], "id": "3335100024", "name": "USPS COLLECTION BOX - BLUE BOX", "address": {"city": "TAMARAC", "state": "FL", "street": "4700 N HIATUS RD.", "postcode": "33351"}}},
{"geometry": {"type": "Point", "coordinates": [-80.2863876176, 26.1862658992]}, "type": "Feature", "properties": {"collection_times": [{"days": "Mon-Fri", "time": "3:20pm"}, {"days": "Sat", "time": "1:00pm"}, {"days": "Sun", "time": "Closed"}], "id": "3335100025", "name": "USPS COLLECTION BOX - BLUE BOX", "address": {"city": "TAMARAC", "state": "FL", "street": "10200 NW 50 ST.", "postcode": "33351"}}},
{"geometry": {"type": "Point", "coordinates": [-80.2557893047, 26.1950060152]}, "type": "Feature", "properties": {"collection_times": [{"days": "Mon-Sat", "time": "5:00pm"}, {"days": "Sun", "time": "Closed"}], "id": "3335100028", "name": "USPS COLLECTION BOX - APC", "address": {"city": "TAMARAC", "state": "FL", "street": "7875 NW 57TH ST", "postcode": "33351"}}},
{"geometry": {"type": "Point", "coordinates": [-80.2935115674, 26.1692357883]}, "type": "Feature", "properties": {"collection_times": [{"days": "Mon-Fri", "time": "3:30pm"}, {"days": "Sat-Sun", "time": "Closed"}], "id": "3335100030", "name": "USPS COLLECTION BOX - BLUE BOX", "address": {"city": "TAMARAC", "state": "FL", "street": "10770 W OAKLAND PARK BLVD.", "postcode": "33351"}}},
{"geometry": {"type": "Point", "coordinates": [-80.2557893047, 26.1950060152]}, "type": "Feature", "properties": {"collection_times": [{"days": "Mon-Fri", "time": "5:15pm"}, {"days": "Sat", "time": "5:00pm"}, {"days": "Sun", "time": "Closed"}], "id": "3335100031", "name": "USPS COLLECTION BOX - BLUE BOX", "address": {"city": "TAMARAC", "state": "FL", "street": "7875 NW 57TH ST", "postcode": "33351"}}}
]}
