{"type": "FeatureCollection", "features": [
{"geometry": {"type": "Point", "coordinates": [-80.0536408415, 26.710110886]}, "type": "Feature", "properties": {"collection_times": [{"days": "Mon-Fri", "time": "10:30am"}, {"days": "Sat-Sun", "time": "Closed"}], "id": "3340100025", "name": "USPS COLLECTION BOX - BLUE BOX", "address": {"city": "WEST PALM BEACH", "state": "FL", "street": "401 S DIXIE HWY", "postcode": "33401"}}},
{"geometry": {"type": "Point", "coordinates": [-80.0531916237, 26.7123315925]}, "type": "Feature", "properties": {"collection_times": [{"days": "Mon-Fri", "time": "2:45pm"}, {"days": "Sat-Sun", "time": "Closed"}], "id": "3340100031", "name": "USPS COLLECTION BOX - BLUE BOX", "address": {"city": "WEST PALM BEACH", "state": "FL", "street": "324 DATURA ST", "postcode": "33401"}}},
{"geometry": {"type": "Point", "coordinates": [-80.052720806, 26.7133501202]}, "type": "Feature", "properties": {"collection_times": [{"days": "Mon-Fri", "time": "2:45pm"}, {"days": "Sat-Sun", "time": "Closed"}], "id": "3340100035", "name": "USPS COLLECTION BOX - BLUE BOX", "address": {"city": "WEST PALM BEACH", "state": "FL", "street": "319 CLEMATIS ST", "postcode": "33401"}}},
{"geometry": {"type": "Point", "coordinates": [-80.0537931311, 26.7161787854]}, "type": "Feature", "properties": {"collection_times": [{"days": "Mon-Fri", "time": "2:45pm"}, {"days": "Sat-Sun", "time": "Closed"}], "id": "3340100049", "name": "USPS COLLECTION BOX - BLUE BOX", "address": {"city": "WEST PALM BEACH", "state": "FL", "street": "421 3RD ST", "postcode": "33401"}}},
{"geometry": {"type": "Point", "coordinates": [-80.0491825758, 26.7206548918]}, "type": "Feature", "properties": {"collection_times": [{"days": "Mon-Fri", "time": "2:30pm"}, {"days": "Sat-Sun", "time": "Closed"}], "id": "3340100061", "name": "USPS COLLECTION BOX - BLUE BOX", "address": {"city": "WEST PALM BEACH", "state": "FL", "street": "901 N FLAGLER DR", "postcode": "33401"}}},
{"geometry": {"type": "Point", "coordinates": [-80.0823503792, 26.7248650427]}, "type": "Feature", "properties": {"collection_times": [{"days": "Mon-Fri", "time": "3:30pm"}, {"days": "Sat-Sun", "time": "Closed"}], "id": "3340100069", "name": "USPS COLLECTION BOX - BLUE BOX", "address": {"city": "WEST PALM BEACH", "state": "FL", "street": "1655 PALM BEACH LAKES BLVD", "postcode": "33401"}}},
{"geometry": {"type": "Point", "coordinates": [-80.0817044836, 26.7250117297]}, "type": "Feature", "properties": {"collection_times": [{"days": "Mon-Fri", "time": "3:30pm"}, {"days": "Sat-Sun", "time": "Closed"}], "id": "3340100073", "name": "USPS COLLECTION BOX - BLUE BOX", "address": {"city": "WEST PALM BEACH", "state": "FL", "street": "1645 PALM BEACH LAKES BLVD", "postcode": "33401"}}},
{"geometry": {"type": "Point", "coordinates": [-80.0803519561, 26.7267005993]}, "type": "Feature", "properties": {"collection_times": [{"days": "Mon-Fri", "time": "3:00pm"}, {"days": "Sat-Sun", "time": "Closed"}], "id": "3340100083", "name": "USPS COLLECTION BOX - BLUE BOX", "address": {"city": "WEST PALM BEACH", "state": "FL", "street": "1615 FORUM PL", "postcode": "33401"}}},
{"geometry": {"type": "Point", "coordinates": [-80.0803519561, 26.7267005993]}, "type": "Feature", "properties": {"collection_times": [{"days": "Mon-Fri", "time": "3:00pm"}, {"days": "Sat-Sun", "time": "Closed"}], "id": "3340100084", "name": "USPS COLLECTION BOX - BLUE BOX", "address": {"city": "WEST PALM BEACH", "state": "FL", "street": "1615 FORUM PL", "postcode": "33401"}}},
{"geometry": {"type": "Point", "coordinates": [-80.0795846212, 26.7266678722]}, "type": "Feature", "properties": {"collection_times": [{"days": "Mon-Fri", "time": "3:00pm"}, {"days": "Sat-Sun", "time": "Closed"}], "id": "3340100086", "name": "USPS COLLECTION BOX - BLUE BOX", "address": {"city": "WEST PALM BEACH", "state": "FL", "street": "1601 FORUM PL", "postcode": "33401"}}},
{"geometry": {"type": "Point", "coordinates": [-80.0631944106, 26.7020057353]}, "type": "Feature", "properties": {"collection_times": [{"days": "Mon-Fri", "time": "3:15pm"}, {"days": "Sat", "time": "3:45pm"}, {"days": "Sun", "time": "Closed"}], "id": "3340100089", "name": "USPS COLLECTION BOX - BLUE BOX", "address": {"city": "WEST PALM BEACH", "state": "FL", "street": "1040 OKEECHOBEE RD", "postcode": "33401"}}},
{"geometry": {"type": "Point", "coordinates": [-80.0631944106, 26.7020057353]}, "type": "Feature", "properties": {"collection_times": [{"days": "Mon-Fri", "time": "3:15pm"}, {"days": "Sat", "time": "3:45pm"}, {"days": "Sun", "time": "Closed"}], "id": "3340100090", "name": "USPS COLLECTION BOX - BLUE BOX", "address": {"city": "WEST PALM BEACH", "state": "FL", "street": "1040 OKEECHOBEE RD", "postcode": "33401"}}},
{"geometry": {"type": "Point", "coordinates": [-80.0840866861, 26.7252469581]}, "type": "Feature", "properties": {"collection_times": [{"days": "Mon-Fri", "time": "3:15pm"}, {"days": "Sat", "time": "3:45pm"}, {"days": "Sun", "time": "Closed"}], "id": "3340100091", "name": "USPS COLLECTION BOX - BLUE BOX", "address": {"city": "WEST PALM BEACH", "state": "FL", "street": "1325 N CONGRESS AVE", "postcode": "33401"}}},
{"geometry": {"type": "Point", "coordinates": [-80.0823503792, 26.7248650427]}, "type": "Feature", "properties": {"collection_times": [{"days": "Mon-Fri", "time": "3:30pm"}, {"days": "Sat-Sun", "time": "Closed"}], "id": "3340100149", "name": "USPS COLLECTION BOX - BLUE BOX", "address": {"city": "WEST PALM BEACH", "state": "FL", "street": "1655 PALM BEACH LAKES BLVD", "postcode": "33401"}}},
{"geometry": {"type": "Point", "coordinates": [-80.0583114701, 26.7134873434]}, "type": "Feature", "properties": {"collection_times": [{"days": "Mon-Fri", "time": "5:00pm"}, {"days": "Sat", "time": "4:00pm"}, {"days": "Sun", "time": "Closed"}], "id": "3340200000", "name": "USPS COLLECTION BOX - BLUE BOX", "address": {"city": "WEST PALM BEACH", "state": "FL", "street": "640 CLEMATIS ST", "postcode": "33402"}}},
{"geometry": {"type": "Point", "coordinates": [-80.0583114701, 26.7134873434]}, "type": "Feature", "properties": {"collection_times": [{"days": "Mon-Fri", "time": "5:00pm"}, {"days": "Sat", "time": "4:00pm"}, {"days": "Sun", "time": "Closed"}], "id": "3340200001", "name": "USPS COLLECTION BOX - BLUE BOX", "address": {"city": "WEST PALM BEACH", "state": "FL", "street": "640 CLEMATIS ST", "postcode": "33402"}}},
{"geometry": {"type": "Point", "coordinates": [-80.0583114701, 26.7134873434]}, "type": "Feature", "properties": {"collection_times": [{"days": "Mon-Fri", "time": "5:00pm"}, {"days": "Sat-Sun", "time": "Closed"}], "id": "3340200002", "name": "USPS COLLECTION BOX - PO LOBBY", "address": {"city": "WEST PALM BEACH", "state": "FL", "street": "640 CLEMATIS ST", "postcode": "33402"}}},
{"geometry": {"type": "Point", "coordinates": [-80.0637578132, 26.7985089701]}, "type": "Feature", "properties": {"collection_times": [{"days": "Mon-Fri", "time": "2:45pm"}, {"days": "Sat-Sun", "time": "Closed"}], "id": "3340300002", "name": "USPS COLLECTION BOX - BLUE BOX", "address": {"city": "PALM BCH GDNS", "state": "FL", "street": "535 PARK AVE", "postcode": "33403"}}},
{"geometry": {"type": "Point", "coordinates": [-80.0794972247, 26.808064022]}, "type": "Feature", "properties": {"collection_times": [{"days": "Mon-Fri", "time": "2:30pm"}, {"days": "Sat-Sun", "time": "Closed"}], "id": "3340300005", "name": "USPS COLLECTION BOX - BLUE BOX", "address": {"city": "PALM BCH GDNS", "state": "FL", "street": "1260 NORTHLAKE BLVD", "postcode": "33403"}}},
{"geometry": {"type": "Point", "coordinates": [-80.0968676831, 26.8085598202]}, "type": "Feature", "properties": {"collection_times": [{"days": "Mon-Fri", "time": "2:45pm"}, {"days": "Sat-Sun", "time": "Closed"}], "id": "3340300010", "name": "USPS COLLECTION BOX - BLUE BOX", "address": {"city": "PALM BCH GDNS", "state": "FL", "street": "3950 NORTHLAKE BLVD", "postcode": "33403"}}},
{"geometry": {"type": "Point", "coordinates": [-80.0707632962, 26.7987621234]}, "type": "Feature", "properties": {"collection_times": [{"days": "Mon-Fri", "time": "5:00pm"}, {"days": "Sat", "time": "3:15pm"}, {"days": "Sun", "time": "Closed"}], "id": "3340300011", "name": "USPS COLLECTION BOX - BLUE BOX", "address": {"city": "PALM BCH GDNS", "state": "FL", "street": "904 PARK AVE", "postcode": "33403"}}},
{"geometry": {"type": "Point", "coordinates": [-80.0707632962, 26.7987621234]}, "type": "Feature", "properties": {"collection_times": [{"days": "Mon-Fri", "time": "5:00pm"}, {"days": "Sat", "time": "3:15pm"}, {"days": "Sun", "time": "Closed"}], "id": "3340300012", "name": "USPS COLLECTION BOX - BLUE BOX", "address": {"city": "PALM BCH GDNS", "state": "FL", "street": "904 PARK AVE", "postcode": "33403"}}},
{"geometry": {"type": "Point", "coordinates": [-80.0707632962, 26.7987621234]}, "type": "Feature", "properties": {"collection_times": [{"days": "Mon-Fri", "time": "5:00pm"}, {"days": "Sat-Sun", "time": "Closed"}], "id": "3340300013", "name": "USPS COLLECTION BOX - PO LOBBY", "address": {"city": "PALM BCH GDNS", "state": "FL", "street": "904 PARK AVE", "postcode": "33403"}}},
{"geometry": {"type": "Point", "coordinates": [-80.0707632962, 26.7987621234]}, "type": "Feature", "properties": {"collection_times": [{"days": "Mon-Fri", "time": "5:00pm"}, {"days": "Sat-Sun", "time": "Closed"}], "id": "3340300016", "name": "USPS COLLECTION BOX - PO LOBBY", "address": {"city": "PALM BCH GDNS", "state": "FL", "street": "904 PARK AVE", "postcode": "33403"}}},
{"geometry": {"type": "Point", "coordinates": [-80.0892375663, 26.7699949273]}, "type": "Feature", "properties": {"collection_times": [{"days": "Mon-Fri", "time": "2:30pm"}, {"days": "Sat-Sun", "time": "Closed"}], "id": "3340400003", "name": "USPS COLLECTION BOX - BLUE BOX", "address": {"city": "RIVIERA BEACH", "state": "FL", "street": "2051 MARTIN LUTHER KING JR BLVD", "postcode": "33404"}}},
{"geometry": {"type": "Point", "coordinates": [-80.0549140119, 26.7682808197]}, "type": "Feature", "properties": {"collection_times": [{"days": "Mon-Fri", "time": "2:15pm"}, {"days": "Sat-Sun", "time": "Closed"}], "id": "3340400004", "name": "USPS COLLECTION BOX - BLUE BOX", "address": {"city": "RIVIERA BEACH", "state": "FL", "street": "4 E PORT RD", "postcode": "33404"}}},
{"geometry": {"type": "Point", "coordinates": [-80.0544118677, 26.7716135605]}, "type": "Feature", "properties": {"collection_times": [{"days": "Mon-Fri", "time": "2:15pm"}, {"days": "Sat-Sun", "time": "Closed"}], "id": "3340400005", "name": "USPS COLLECTION BOX - BLUE BOX", "address": {"city": "RIVIERA BEACH", "state": "FL", "street": "1 E 11TH ST", "postcode": "33404"}}},
{"geometry": {"type": "Point", "coordinates": [-80.0548418514, 26.7829684382]}, "type": "Feature", "properties": {"collection_times": [{"days": "Mon-Sat", "time": "12:30pm"}, {"days": "Sun", "time": "Closed"}], "id": "3340400007", "name": "USPS COLLECTION BOX - BLUE BOX", "address": {"city": "RIVIERA BEACH", "state": "FL", "street": "2501 BROADWAY", "postcode": "33404"}}},
{"geometry": {"type": "Point", "coordinates": [-80.0370525145, 26.7783170436]}, "type": "Feature", "properties": {"collection_times": [{"days": "Mon-Fri", "time": "1:30pm"}, {"days": "Sat-Sun", "time": "Closed"}], "id": "3340400009", "name": "USPS COLLECTION BOX - BLUE BOX", "address": {"city": "RIVIERA BEACH", "state": "FL", "street": "247 EDWARDS LN", "postcode": "33404"}}},
{"geometry": {"type": "Point", "coordinates": [-80.0768747136, 26.7800889495]}, "type": "Feature", "properties": {"collection_times": [{"days": "Mon-Fri", "time": "1:30pm"}, {"days": "Sat", "time": "2:45pm"}, {"days": "Sun", "time": "Closed"}], "id": "3340400012", "name": "USPS COLLECTION BOX - BLUE BOX", "address": {"city": "RIVIERA BEACH", "state": "FL", "street": "1217 N OCEAN DR", "postcode": "33404"}}},
{"geometry": {"type": "Point", "coordinates": [-80.0955175066, 26.7843646027]}, "type": "Feature", "properties": {"collection_times": [{"days": "Mon-Fri", "time": "2:45pm"}, {"days": "Sat-Sun", "time": "Closed"}], "id": "3340400020", "name": "USPS COLLECTION BOX - BLUE BOX", "address": {"city": "RIVIERA BEACH", "state": "FL", "street": "7300 CENTRAL INDUSTRIAL DR", "postcode": "33404"}}},
{"geometry": {"type": "Point", "coordinates": [-80.0860991762, 26.7817275143]}, "type": "Feature", "properties": {"collection_times": [{"days": "Mon-Sat", "time": "5:00pm"}, {"days": "Sun", "time": "Closed"}], "id": "3340400028", "name": "USPS COLLECTION BOX - BLUE BOX", "address": {"city": "RIVIERA BEACH", "state": "FL", "street": "1905 W BLUE HERON BLVD", "postcode": "33404"}}},
{"geometry": {"type": "Point", "coordinates": [-80.0860991762, 26.7817275143]}, "type": "Feature", "properties": {"collection_times": [{"days": "Mon-Fri", "time": "5:00pm"}, {"days": "Sat", "time": "3:15pm"}, {"days": "Sun", "time": "Closed"}], "id": "3340400029", "name": "USPS COLLECTION BOX - PO LOBBY", "address": {"city": "RIVIERA BEACH", "state": "FL", "street": "1905 W BLUE HERON BLVD", "postcode": "33404"}}},
{"geometry": {"type": "Point", "coordinates": [-80.0858034972, 26.7815956698]}, "type": "Feature", "properties": {"collection_times": [{"days": "Mon-Sat", "time": "5:00pm"}, {"days": "Sun", "time": "Closed"}], "id": "3340400033", "name": "USPS COLLECTION BOX - BLUE BOX", "address": {"city": "RIVIERA BEACH", "state": "FL", "street": "1905 W BLUE HERON BLVD", "postcode": "33404"}}},
{"geometry": {"type": "Point", "coordinates": [-80.054911646, 26.7792480323]}, "type": "Feature", "properties": {"collection_times": [{"days": "Mon-Fri", "time": "1:45pm"}, {"days": "Sat-Sun", "time": "Closed"}], "id": "3340400034", "name": "USPS COLLECTION BOX - BLUE BOX", "address": {"city": "RIVIERA BEACH", "state": "FL", "street": "2001 BROADWAY", "postcode": "33404"}}},
{"geometry": {"type": "Point", "coordinates": [-80.1016740139, 26.7834428048]}, "type": "Feature", "properties": {"collection_times": [{"days": "Mon-Fri", "time": "2:45pm"}, {"days": "Sat-Sun", "time": "Closed"}], "id": "3340400035", "name": "USPS COLLECTION BOX - BLUE BOX", "address": {"city": "RIVIERA BEACH", "state": "FL", "street": "4152 W BLUE HERON BLVD", "postcode": "33404"}}},
{"geometry": {"type": "Point", "coordinates": [-80.0860991762, 26.7817275143]}, "type": "Feature", "properties": {"collection_times": [{"days": "Mon-Fri", "time": "5:00pm"}, {"days": "Sat", "time": "3:15pm"}, {"days": "Sun", "time": "Closed"}], "id": "3340400036", "name": "USPS COLLECTION BOX - PO LOBBY", "address": {"city": "RIVIERA BEACH", "state": "FL", "street": "1905 W BLUE HERON BLVD", "postcode": "33404"}}},
{"geometry": {"type": "Point", "coordinates": [-80.0615535074, 26.6758296447]}, "type": "Feature", "properties": {"collection_times": [{"days": "Mon-Fri", "time": "5:00pm"}, {"days": "Sat", "time": "4:00pm"}, {"days": "Sun", "time": "Closed"}], "id": "3340500028", "name": "USPS COLLECTION BOX - BLUE BOX", "address": {"city": "WEST PALM BEACH", "state": "FL", "street": "840 SOUTHERN BLVD", "postcode": "33405"}}},
{"geometry": {"type": "Point", "coordinates": [-80.0553004184, 26.6688767983]}, "type": "Feature", "properties": {"collection_times": [{"days": "Mon-Fri", "time": "5:00pm"}, {"days": "Sat", "time": "4:00pm"}, {"days": "Sun", "time": "Closed"}], "id": "3340500029", "name": "USPS COLLECTION BOX - BLUE BOX", "address": {"city": "WEST PALM BEACH", "state": "FL", "street": "4915 S DIXIE HWY", "postcode": "33405"}}},
{"geometry": {"type": "Point", "coordinates": [-80.0881314997, 26.6415693531]}, "type": "Feature", "properties": {"collection_times": [{"days": "Mon-Sat", "time": "12:00pm"}, {"days": "Sun", "time": "Closed"}], "id": "3340600003", "name": "USPS COLLECTION BOX - BLUE BOX", "address": {"city": "PALM SPRINGS", "state": "FL", "street": "2330 S CONGRESS AVE", "postcode": "33406"}}},
{"geometry": {"type": "Point", "coordinates": [-80.0879836298, 26.6455488271]}, "type": "Feature", "properties": {"collection_times": [{"days": "Mon-Fri", "time": "5:00pm"}, {"days": "Sat", "time": "1:45pm"}, {"days": "Sun", "time": "Closed"}], "id": "3340600006", "name": "USPS COLLECTION BOX - BLUE BOX", "address": {"city": "PALM SPRINGS", "state": "FL", "street": "2112 S CONGRESS AVE", "postcode": "33406"}}},
{"geometry": {"type": "Point", "coordinates": [-80.0787388055, 26.6513252157]}, "type": "Feature", "properties": {"collection_times": [{"days": "Mon-Fri", "time": "5:00pm"}, {"days": "Sat", "time": "1:45pm"}, {"days": "Sun", "time": "Closed"}], "id": "3340600007", "name": "USPS COLLECTION BOX - BLUE BOX", "address": {"city": "PALM SPRINGS", "state": "FL", "street": "1850 FOREST HILL BLVD", "postcode": "33406"}}},
{"geometry": {"type": "Point", "coordinates": [-80.1048088552, 26.6513607045]}, "type": "Feature", "properties": {"collection_times": [{"days": "Mon-Sat", "time": "12:30pm"}, {"days": "Sun", "time": "Closed"}], "id": "3340600008", "name": "USPS COLLECTION BOX - BLUE BOX", "address": {"city": "PALM SPRINGS", "state": "FL", "street": "4064 FOREST HILL BLVD", "postcode": "33406"}}},
{"geometry": {"type": "Point", "coordinates": [-80.0774671246, 26.6521343597]}, "type": "Feature", "properties": {"collection_times": [{"days": "Mon-Sat", "time": "10:30am"}, {"days": "Sun", "time": "Closed"}], "id": "3340600009", "name": "USPS COLLECTION BOX - BLUE BOX", "address": {"city": "PALM SPRINGS", "state": "FL", "street": "1800 FOREST HILL BLVD", "postcode": "33406"}}},
{"geometry": {"type": "Point", "coordinates": [-80.075957669, 26.691014672]}, "type": "Feature", "properties": {"collection_times": [{"days": "Mon-Sat", "time": "12:00pm"}, {"days": "Sun", "time": "Closed"}], "id": "3340600019", "name": "USPS COLLECTION BOX - BLUE BOX", "address": {"city": "PALM SPRINGS", "state": "FL", "street": "1601 BELVEDERE RD", "postcode": "33406"}}},
{"geometry": {"type": "Point", "coordinates": [-80.075957669, 26.691014672]}, "type": "Feature", "properties": {"collection_times": [{"days": "Mon-Sat", "time": "12:00pm"}, {"days": "Sun", "time": "Closed"}], "id": "3340600020", "name": "USPS COLLECTION BOX - BLUE BOX", "address": {"city": "PALM SPRINGS", "state": "FL", "street": "1601 BELVEDERE RD", "postcode": "33406"}}},
{"geometry": {"type": "Point", "coordinates": [-80.0827999036, 26.6507751398]}, "type": "Feature", "properties": {"collection_times": [{"days": "Mon-Sat", "time": "12:00pm"}, {"days": "Sun", "time": "Closed"}], "id": "3340600021", "name": "USPS COLLECTION BOX - BLUE BOX", "address": {"city": "PALM SPRINGS", "state": "FL", "street": "2677 FORESTHILL BLVD", "postcode": "33406"}}},
{"geometry": {"type": "Point", "coordinates": [-80.075957669, 26.691014672]}, "type": "Feature", "properties": {"collection_times": [{"days": "Mon-Sat", "time": "12:00pm"}, {"days": "Sun", "time": "Closed"}], "id": "3340600023", "name": "USPS COLLECTION BOX - BLUE BOX", "address": {"city": "PALM SPRINGS", "state": "FL", "street": "1601 BELVEDERE RD", "postcode": "33406"}}},
{"geometry": {"type": "Point", "coordinates": [-80.063243226, 26.7532312158]}, "type": "Feature", "properties": {"collection_times": [{"days": "Mon-Sat", "time": "10:00am"}, {"days": "Sun", "time": "Closed"}], "id": "3340700010", "name": "USPS COLLECTION BOX - BLUE BOX", "address": {"city": "WEST PALM BEACH", "state": "FL", "street": "901 45TH ST", "postcode": "33407"}}},
{"geometry": {"type": "Point", "coordinates": [-80.0942497634, 26.7619165005]}, "type": "Feature", "properties": {"collection_times": [{"days": "Mon-Fri", "time": "3:00pm"}, {"days": "Sat", "time": "3:30pm"}, {"days": "Sun", "time": "Closed"}], "id": "3340700018", "name": "USPS COLLECTION BOX - BLUE BOX", "address": {"city": "WEST PALM BEACH", "state": "FL", "street": "701 NORTHPOINT PKWY", "postcode": "33407"}}},
{"geometry": {"type": "Point", "coordinates": [-80.0847245779, 26.7558384573]}, "type": "Feature", "properties": {"collection_times": [{"days": "Mon-Fri", "time": "2:00pm"}, {"days": "Sat", "time": "3:15pm"}, {"days": "Sun", "time": "Closed"}], "id": "3340700025", "name": "USPS COLLECTION BOX - BLUE BOX", "address": {"city": "WEST PALM BEACH", "state": "FL", "street": "4431 EMBARCARDERO DR", "postcode": "33407"}}},
{"geometry": {"type": "Point", "coordinates": [-80.0555078573, 26.7350018181]}, "type": "Feature", "properties": {"collection_times": [{"days": "Mon-Fri", "time": "4:30pm"}, {"days": "Sat-Sun", "time": "Closed"}], "id": "3340700029", "name": "USPS COLLECTION BOX - PO LOBBY", "address": {"city": "WEST PALM BEACH", "state": "FL", "street": "516 NORTHWOOD RD", "postcode": "33407"}}},
{"geometry": {"type": "Point", "coordinates": [-80.1086794969, 26.758788757]}, "type": "Feature", "properties": {"collection_times": [{"days": "Mon-Sat", "time": "2:00pm"}, {"days": "Sun", "time": "Closed"}], "id": "3340700031", "name": "USPS COLLECTION BOX - BLUE BOX", "address": {"city": "WEST PALM BEACH", "state": "FL", "street": "5335 N MILITARY TRL", "postcode": "33407"}}},
{"geometry": {"type": "Point", "coordinates": [-80.0971054264, 26.7584823706]}, "type": "Feature", "properties": {"collection_times": [{"days": "Mon-Fri", "time": "3:00pm"}, {"days": "Sat", "time": "3:30pm"}, {"days": "Sun", "time": "Closed"}], "id": "3340700033", "name": "USPS COLLECTION BOX - BLUE BOX", "address": {"city": "WEST PALM BEACH", "state": "FL", "street": "2500 METROCENTRE BLVD", "postcode": "33407"}}},
{"geometry": {"type": "Point", "coordinates": [-80.0603544402, 26.7582197537]}, "type": "Feature", "properties": {"collection_times": [{"days": "Mon-Fri", "time": "1:45pm"}, {"days": "Sat", "time": "3:00pm"}, {"days": "Sun", "time": "Closed"}], "id": "3340700038", "name": "USPS COLLECTION BOX - BLUE BOX", "address": {"city": "WEST PALM BEACH", "state": "FL", "street": "5325 GREENWOOD AVE", "postcode": "33407"}}},
{"geometry": {"type": "Point", "coordinates": [-80.1991309053, 26.8115262506]}, "type": "Feature", "properties": {"collection_times": [{"days": "Mon-Fri", "time": "2:30pm"}, {"days": "Sat-Sun", "time": "Closed"}], "id": "3340700041", "name": "USPS COLLECTION BOX - BLUE BOX", "address": {"city": "WEST PALM BEACH", "state": "FL", "street": "10130 NORTHLAKE BLVD", "postcode": "33407"}}},
{"geometry": {"type": "Point", "coordinates": [-80.0555078573, 26.7350018181]}, "type": "Feature", "properties": {"collection_times": [{"days": "Mon-Fri", "time": "4:30pm"}, {"days": "Sat-Sun", "time": "Closed"}], "id": "3340700042", "name": "USPS COLLECTION BOX - PO LOBBY", "address": {"city": "WEST PALM BEACH", "state": "FL", "street": "516 NORTHWOOD RD", "postcode": "33407"}}},
{"geometry": {"type": "Point", "coordinates": [-80.0576845018, 26.8074568718]}, "type": "Feature", "properties": {"collection_times": [{"days": "Mon-Fri", "time": "12:00pm"}, {"days": "Sat-Sun", "time": "Closed"}], "id": "3340800006", "name": "USPS COLLECTION BOX - BLUE BOX", "address": {"city": "PALM BCH GDNS", "state": "FL", "street": "321 NORTHLAKE BLVD", "postcode": "33408"}}},
{"geometry": {"type": "Point", "coordinates": [-80.059842219, 26.8351144524]}, "type": "Feature", "properties": {"collection_times": [{"days": "Mon-Fri", "time": "1:15pm"}, {"days": "Sat-Sun", "time": "Closed"}], "id": "3340800011", "name": "USPS COLLECTION BOX - BLUE BOX", "address": {"city": "PALM BCH GDNS", "state": "FL", "street": "1200 US HIGHWAY 1", "postcode": "33408"}}},
{"geometry": {"type": "Point", "coordinates": [-80.0527326356, 26.8444598282]}, "type": "Feature", "properties": {"collection_times": [{"days": "Mon-Fri", "time": "12:00pm"}, {"days": "Sat-Sun", "time": "Closed"}], "id": "3340800013", "name": "USPS COLLECTION BOX - BLUE BOX", "address": {"city": "PALM BCH GDNS", "state": "FL", "street": "11555 LOST TREE WAY", "postcode": "33408"}}},
{"geometry": {"type": "Point", "coordinates": [-80.0525942294, 26.8721872034]}, "type": "Feature", "properties": {"collection_times": [{"days": "Mon-Fri", "time": "1:45pm"}, {"days": "Sat", "time": "1:15pm"}, {"days": "Sun", "time": "Closed"}], "id": "3340800019", "name": "USPS COLLECTION BOX - BLUE BOX", "address": {"city": "PALM BCH GDNS", "state": "FL", "street": "340 OCEAN DR", "postcode": "33408"}}},
{"geometry": {"type": "Point", "coordinates": [-80.0575851333, 26.8157423163]}, "type": "Feature", "properties": {"collection_times": [{"days": "Mon-Fri", "time": "5:00pm"}, {"days": "Sat", "time": "1:30pm"}, {"days": "Sun", "time": "Closed"}], "id": "3340800023", "name": "USPS COLLECTION BOX - BLUE BOX", "address": {"city": "PALM BCH GDNS", "state": "FL", "street": "643 US HIGHWAY 1", "postcode": "33408"}}},
{"geometry": {"type": "Point", "coordinates": [-80.0575851333, 26.8157423163]}, "type": "Feature", "properties": {"collection_times": [{"days": "Mon-Fri", "time": "5:00pm"}, {"days": "Sat", "time": "1:30pm"}, {"days": "Sun", "time": "Closed"}], "id": "3340800024", "name": "USPS COLLECTION BOX - BLUE BOX", "address": {"city": "PALM BCH GDNS", "state": "FL", "street": "643 US HIGHWAY 1", "postcode": "33408"}}},
{"geometry": {"type": "Point", "coordinates": [-80.0577010633, 26.816385846]}, "type": "Feature", "properties": {"collection_times": [{"days": "Mon-Fri", "time": "2:00pm"}, {"days": "Sat", "time": "1:30pm"}, {"days": "Sun", "time": "Closed"}], "id": "3340800028", "name": "USPS COLLECTION BOX - BLUE BOX", "address": {"city": "PALM BCH GDNS", "state": "FL", "street": "661 US 1", "postcode": "33408"}}},
{"geometry": {"type": "Point", "coordinates": [-80.0595679746, 26.8488268521]}, "type": "Feature", "properties": {"collection_times": [{"days": "Mon-Fri", "time": "1:30pm"}, {"days": "Sat", "time": "1:15pm"}, {"days": "Sun", "time": "Closed"}], "id": "3340800029", "name": "USPS COLLECTION BOX - BLUE BOX", "address": {"city": "PALM BCH GDNS", "state": "FL", "street": "11760 US HIGHWAY 1", "postcode": "33408"}}},
{"geometry": {"type": "Point", "coordinates": [-80.0575851333, 26.8157423163]}, "type": "Feature", "properties": {"collection_times": [{"days": "Mon-Fri", "time": "4:00pm"}, {"days": "Sat-Sun", "time": "Closed"}], "id": "3340800032", "name": "USPS COLLECTION BOX - PO LOBBY", "address": {"city": "PALM BCH GDNS", "state": "FL", "street": "643 US HIGHWAY 1", "postcode": "33408"}}},
{"geometry": {"type": "Point", "coordinates": [-80.0604584766, 26.8461559178]}, "type": "Feature", "properties": {"collection_times": [{"days": "Mon-Fri", "time": "1:30pm"}, {"days": "Sat", "time": "1:00pm"}, {"days": "Sun", "time": "Closed"}], "id": "3340800034", "name": "USPS COLLECTION BOX - BLUE BOX", "address": {"city": "PALM BCH GDNS", "state": "FL", "street": "11586 US 1", "postcode": "33408"}}},
{"geometry": {"type": "Point", "coordinates": [-80.0619585326, 26.8409949414]}, "type": "Feature", "properties": {"collection_times": [{"days": "Mon-Fri", "time": "1:15pm"}, {"days": "Sat-Sun", "time": "Closed"}], "id": "3340800038", "name": "USPS COLLECTION BOX - BLUE BOX", "address": {"city": "PALM BCH GDNS", "state": "FL", "street": "11300 US HIGHWAY 1", "postcode": "33408"}}},
{"geometry": {"type": "Point", "coordinates": [-80.0613611383, 26.8583844382]}, "type": "Feature", "properties": {"collection_times": [{"days": "Mon-Fri", "time": "1:45pm"}, {"days": "Sat-Sun", "time": "Closed"}], "id": "3340800039", "name": "USPS COLLECTION BOX - BLUE BOX", "address": {"city": "PALM BCH GDNS", "state": "FL", "street": "700 UNIVERSE BLVD", "postcode": "33408"}}},
{"geometry": {"type": "Point", "coordinates": [-80.0997032198, 26.7141068833]}, "type": "Feature", "properties": {"collection_times": [{"days": "Mon-Sat", "time": "3:45pm"}, {"days": "Sun", "time": "Closed"}], "id": "3340900007", "name": "USPS COLLECTION BOX - BLUE BOX", "address": {"city": "WEST PALM BEACH", "state": "FL", "street": "721 VILLAGE BLVD", "postcode": "33409"}}},
{"geometry": {"type": "Point", "coordinates": [-80.0995541514, 26.7118382986]}, "type": "Feature", "properties": {"collection_times": [{"days": "Mon-Fri", "time": "3:45pm"}, {"days": "Sat-Sun", "time": "Closed"}], "id": "3340900009", "name": "USPS COLLECTION BOX - BLUE BOX", "address": {"city": "WEST PALM BEACH", "state": "FL", "street": "500 COLUMBIA DR", "postcode": "33409"}}},
{"geometry": {"type": "Point", "coordinates": [-80.0962897408, 26.7161067381]}, "type": "Feature", "properties": {"collection_times": [{"days": "Mon-Fri", "time": "3:15pm"}, {"days": "Sat-Sun", "time": "Closed"}], "id": "3340900014", "name": "USPS COLLECTION BOX - BLUE BOX", "address": {"city": "WEST PALM BEACH", "state": "FL", "street": "2216 PALM BCH LAKE BLVD", "postcode": "33409"}}},
{"geometry": {"type": "Point", "coordinates": [-80.0962897408, 26.7161067381]}, "type": "Feature", "properties": {"collection_times": [{"days": "Mon-Fri", "time": "3:30pm"}, {"days": "Sat-Sun", "time": "Closed"}], "id": "3340900019", "name": "USPS COLLECTION BOX - BLUE BOX", "address": {"city": "WEST PALM BEACH", "state": "FL", "street": "1897 PALM BCH LAKE BLVD", "postcode": "33409"}}},
{"geometry": {"type": "Point", "coordinates": [-80.0784383339, 26.701737012]}, "type": "Feature", "properties": {"collection_times": [{"days": "Mon-Fri", "time": "2:15pm"}, {"days": "Sat-Sun", "time": "Closed"}], "id": "3340900027", "name": "USPS COLLECTION BOX - BLUE BOX", "address": {"city": "WEST PALM BEACH", "state": "FL", "street": "1300 N FLORIDA MANGO RD", "postcode": "33409"}}},
{"geometry": {"type": "Point", "coordinates": [-80.0729837101, 26.6976629013]}, "type": "Feature", "properties": {"collection_times": [{"days": "Mon-Fri", "time": "2:30pm"}, {"days": "Sat-Sun", "time": "Closed"}], "id": "3340900045", "name": "USPS COLLECTION BOX - BLUE BOX", "address": {"city": "WEST PALM BEACH", "state": "FL", "street": "1818 S AUSTRALIAN AVE", "postcode": "33409"}}},
{"geometry": {"type": "Point", "coordinates": [-80.0995541514, 26.7118382986]}, "type": "Feature", "properties": {"collection_times": [{"days": "Mon-Fri", "time": "3:45pm"}, {"days": "Sat-Sun", "time": "Closed"}], "id": "3340900052", "name": "USPS COLLECTION BOX - BLUE BOX", "address": {"city": "WEST PALM BEACH", "state": "FL", "street": "500 COLUMBIA DR", "postcode": "33409"}}},
{"geometry": {"type": "Point", "coordinates": [-80.076461051, 26.6972822166]}, "type": "Feature", "properties": {"collection_times": [{"days": "Mon-Fri", "time": "10:00am"}, {"days": "Sat-Sun", "time": "Closed"}], "id": "3340900053", "name": "USPS COLLECTION BOX - BLUE BOX", "address": {"city": "WEST PALM BEACH", "state": "FL", "street": "2500 BRISTOL DR", "postcode": "33409"}}},
{"geometry": {"type": "Point", "coordinates": [-80.111268307, 26.7058862614]}, "type": "Feature", "properties": {"collection_times": [{"days": "Mon-Fri", "time": "3:00pm"}, {"days": "Sat-Sun", "time": "Closed"}], "id": "3340900054", "name": "USPS COLLECTION BOX - BLUE BOX", "address": {"city": "WEST PALM BEACH", "state": "FL", "street": "1937 N MILITARY TRL", "postcode": "33409"}}},
{"geometry": {"type": "Point", "coordinates": [-80.0797076489, 26.7062902211]}, "type": "Feature", "properties": {"collection_times": [{"days": "Mon-Sat", "time": "10:00am"}, {"days": "Sun", "time": "Closed"}], "id": "3340900055", "name": "USPS COLLECTION BOX - BLUE BOX", "address": {"city": "WEST PALM BEACH", "state": "FL", "street": "1921 OKEECHOBEE BLVD", "postcode": "33409"}}},
{"geometry": {"type": "Point", "coordinates": [-80.0836338897, 26.8448703149]}, "type": "Feature", "properties": {"collection_times": [{"days": "Mon-Sat", "time": "12:45pm"}, {"days": "Sun", "time": "Closed"}], "id": "3341000001", "name": "USPS COLLECTION BOX - BLUE BOX", "address": {"city": "WEST PALM BEACH", "state": "FL", "street": "3188 PGA BLVD", "postcode": "33410"}}},
{"geometry": {"type": "Point", "coordinates": [-80.0721272436, 26.8419403863]}, "type": "Feature", "properties": {"collection_times": [{"days": "Mon-Sat", "time": "1:00pm"}, {"days": "Sun", "time": "Closed"}], "id": "3341000004", "name": "USPS COLLECTION BOX - BLUE BOX", "address": {"city": "WEST PALM BEACH", "state": "FL", "street": "11380 PROSPERITY FARMS RD", "postcode": "33410"}}},
{"geometry": {"type": "Point", "coordinates": [-80.0855017819, 26.8450938942]}, "type": "Feature", "properties": {"collection_times": [{"days": "Mon-Fri", "time": "4:00pm"}, {"days": "Sat", "time": "3:15pm"}, {"days": "Sun", "time": "Closed"}], "id": "3341000006", "name": "USPS COLLECTION BOX - PO LOBBY", "address": {"city": "WEST PALM BEACH", "state": "FL", "street": "3101 PGA BLVD", "postcode": "33410"}}},
{"geometry": {"type": "Point", "coordinates": [-80.1053175275, 26.8327875721]}, "type": "Feature", "properties": {"collection_times": [{"days": "Mon-Fri", "time": "12:30pm"}, {"days": "Sat", "time": "2:00pm"}, {"days": "Sun", "time": "Closed"}], "id": "3341000014", "name": "USPS COLLECTION BOX - BLUE BOX", "address": {"city": "WEST PALM BEACH", "state": "FL", "street": "10500 N MILITARY TRL", "postcode": "33410"}}},
{"geometry": {"type": "Point", "coordinates": [-80.104726048, 26.8381854138]}, "type": "Feature", "properties": {"collection_times": [{"days": "Mon-Fri", "time": "12:45pm"}, {"days": "Sat-Sun", "time": "Closed"}], "id": "3341000018", "name": "USPS COLLECTION BOX - BLUE BOX", "address": {"city": "WEST PALM BEACH", "state": "FL", "street": "4440 PGA BLVD", "postcode": "33410"}}},
{"geometry": {"type": "Point", "coordinates": [-80.0861890811, 26.8307493338]}, "type": "Feature", "properties": {"collection_times": [{"days": "Mon-Sat", "time": "10:30am"}, {"days": "Sun", "time": "Closed"}], "id": "3341000024", "name": "USPS COLLECTION BOX - BLUE BOX", "address": {"city": "WEST PALM BEACH", "state": "FL", "street": "3360 BURNS RD", "postcode": "33410"}}},
{"geometry": {"type": "Point", "coordinates": [-80.0884296053, 26.8425730086]}, "type": "Feature", "properties": {"collection_times": [{"days": "Mon-Sat", "time": "5:00pm"}, {"days": "Sun", "time": "Closed"}], "id": "3341000027", "name": "USPS COLLECTION BOX - BLUE BOX", "address": {"city": "WEST PALM BEACH", "state": "FL", "street": "3330 FAIRCHILD GARDENS AVE", "postcode": "33410"}}},
{"geometry": {"type": "Point", "coordinates": [-80.0884296053, 26.8425730086]}, "type": "Feature", "properties": {"collection_times": [{"days": "Mon-Sat", "time": "5:00pm"}, {"days": "Sun", "time": "Closed"}], "id": "3341000028", "name": "USPS COLLECTION BOX - BLUE BOX", "address": {"city": "WEST PALM BEACH", "state": "FL", "street": "3330 FAIRCHILD GARDENS AVE", "postcode": "33410"}}},
{"geometry": {"type": "Point", "coordinates": [-80.0884296053, 26.8425730086]}, "type": "Feature", "properties": {"collection_times": [{"days": "Mon-Fri", "time": "5:00pm"}, {"days": "Sat", "time": "4:15pm"}, {"days": "Sun", "time": "Closed"}], "id": "3341000030", "name": "USPS COLLECTION BOX - PO LOBBY", "address": {"city": "WEST PALM BEACH", "state": "FL", "street": "3330 FAIRCHILD GARDENS AVE", "postcode": "33410"}}},
{"geometry": {"type": "Point", "coordinates": [-80.1072469336, 26.7858773343]}, "type": "Feature", "properties": {"collection_times": [{"days": "Mon-Fri", "time": "2:15pm"}, {"days": "Sat-Sun", "time": "Closed"}], "id": "3341000036", "name": "USPS COLLECTION BOX - BLUE BOX", "address": {"city": "WEST PALM BEACH", "state": "FL", "street": "7305 N MILITARY TRL", "postcode": "33410"}}},
{"geometry": {"type": "Point", "coordinates": [-80.106313579, 26.80753613]}, "type": "Feature", "properties": {"collection_times": [{"days": "Mon-Fri", "time": "2:15pm"}, {"days": "Sat", "time": "1:45pm"}, {"days": "Sun", "time": "Closed"}], "id": "3341000040", "name": "USPS COLLECTION BOX - BLUE BOX", "address": {"city": "WEST PALM BEACH", "state": "FL", "street": "8900 N MILITARY TRL", "postcode": "33410"}}},
{"geometry": {"type": "Point", "coordinates": [-80.0689743703, 26.8447474483]}, "type": "Feature", "properties": {"collection_times": [{"days": "Mon-Sat", "time": "1:00pm"}, {"days": "Sun", "time": "Closed"}], "id": "3341000041", "name": "USPS COLLECTION BOX - BLUE BOX", "address": {"city": "WEST PALM BEACH", "state": "FL", "street": "2401 PGA BLVD", "postcode": "33410"}}},
{"geometry": {"type": "Point", "coordinates": [-80.0884296053, 26.8425730086]}, "type": "Feature", "properties": {"collection_times": [{"days": "Mon-Fri", "time": "5:00pm"}, {"days": "Sat", "time": "4:15pm"}, {"days": "Sun", "time": "Closed"}], "id": "3341000042", "name": "USPS COLLECTION BOX - APC", "address": {"city": "WEST PALM BEACH", "state": "FL", "street": "3330 FAIRCHILD GARDENS AVE", "postcode": "33410"}}},
{"geometry": {"type": "Point", "coordinates": [-80.0884296053, 26.8425730086]}, "type": "Feature", "properties": {"collection_times": [{"days": "Mon-Fri", "time": "5:00pm"}, {"days": "Sat", "time": "4:15pm"}, {"days": "Sun", "time": "Closed"}], "id": "3341000046", "name": "USPS COLLECTION BOX - PO LOBBY", "address": {"city": "WEST PALM BEACH", "state": "FL", "street": "3330 FAIRCHILD GARDENS AVE", "postcode": "33410"}}},
{"geometry": {"type": "Point", "coordinates": [-80.2025709396, 26.6993416719]}, "type": "Feature", "properties": {"collection_times": [{"days": "Mon-Fri", "time": "2:15pm"}, {"days": "Sat", "time": "3:30pm"}, {"days": "Sun", "time": "Closed"}], "id": "3341100001", "name": "USPS COLLECTION BOX - BLUE BOX", "address": {"city": "ROYAL PLM BCH", "state": "FL", "street": "180 BUSINESS PKWY", "postcode": "33411"}}},
{"geometry": {"type": "Point", "coordinates": [-80.2289764844, 26.7081200724]}, "type": "Feature", "properties": {"collection_times": [{"days": "Mon-Fri", "time": "2:30pm"}, {"days": "Sat", "time": "2:45pm"}, {"days": "Sun", "time": "Closed"}], "id": "3341100006", "name": "USPS COLLECTION BOX - BLUE BOX", "address": {"city": "ROYAL PLM BCH", "state": "FL", "street": "1180 ROYAL PALM BEACH BLVD", "postcode": "33411"}}},
{"geometry": {"type": "Point", "coordinates": [-80.2300664652, 26.6825352221]}, "type": "Feature", "properties": {"collection_times": [{"days": "Mon-Sat", "time": "10:30am"}, {"days": "Sun", "time": "Closed"}], "id": "3341100010", "name": "USPS COLLECTION BOX - BLUE BOX", "address": {"city": "ROYAL PLM BCH", "state": "FL", "street": "650 ROYAL PALM BEACH BLVD", "postcode": "33411"}}},
{"geometry": {"type": "Point", "coordinates": [-80.2272794139, 26.7042910204]}, "type": "Feature", "properties": {"collection_times": [{"days": "Mon-Sat", "time": "3:00pm"}, {"days": "Sun", "time": "Closed"}], "id": "3341100012", "name": "USPS COLLECTION BOX - BLUE BOX", "address": {"city": "ROYAL PLM BCH", "state": "FL", "street": "1050 ROYAL PALM BEACH BLVD", "postcode": "33411"}}},
{"geometry": {"type": "Point", "coordinates": [-80.2272794139, 26.7042910204]}, "type": "Feature", "properties": {"collection_times": [{"days": "Mon-Sat", "time": "3:00pm"}, {"days": "Sun", "time": "Closed"}], "id": "3341100013", "name": "USPS COLLECTION BOX - BLUE BOX", "address": {"city": "ROYAL PLM BCH", "state": "FL", "street": "1050 ROYAL PALM BEACH BLVD", "postcode": "33411"}}},
{"geometry": {"type": "Point", "coordinates": [-80.2052543139, 26.6809980194]}, "type": "Feature", "properties": {"collection_times": [{"days": "Mon-Sat", "time": "5:00pm"}, {"days": "Sun", "time": "Closed"}], "id": "3341100018", "name": "USPS COLLECTION BOX - BLUE BOX", "address": {"city": "ROYAL PLM BCH", "state": "FL", "street": "10299 SOUTHERN BLVD", "postcode": "33411"}}},
{"geometry": {"type": "Point", "coordinates": [-80.2052543139, 26.6809980194]}, "type": "Feature", "properties": {"collection_times": [{"days": "Mon-Sat", "time": "5:00pm"}, {"days": "Sun", "time": "Closed"}], "id": "3341100021", "name": "USPS COLLECTION BOX - BLUE BOX", "address": {"city": "ROYAL PLM BCH", "state": "FL", "street": "10299 SOUTHERN BLVD", "postcode": "33411"}}},
{"geometry": {"type": "Point", "coordinates": [-80.2052543139, 26.6809980194]}, "type": "Feature", "properties": {"collection_times": [{"days": "Mon-Sat", "time": "5:00pm"}, {"days": "Sun", "time": "Closed"}], "id": "3341100022", "name": "USPS COLLECTION BOX - BLUE BOX", "address": {"city": "ROYAL PLM BCH", "state": "FL", "street": "10299 SOUTHERN BLVD", "postcode": "33411"}}},
{"geometry": {"type": "Point", "coordinates": [-80.2052543139, 26.6809980194]}, "type": "Feature", "properties": {"collection_times": [{"days": "Mon-Sat", "time": "5:00pm"}, {"days": "Sun", "time": "Closed"}], "id": "3341100023", "name": "USPS COLLECTION BOX - PO LOBBY", "address": {"city": "ROYAL PLM BCH", "state": "FL", "street": "10299 SOUTHERN BLVD", "postcode": "33411"}}},
{"geometry": {"type": "Point", "coordinates": [-80.2292490405, 26.7071963676]}, "type": "Feature", "properties": {"collection_times": [{"days": "Mon-Fri", "time": "2:30pm"}, {"days": "Sat", "time": "3:00pm"}, {"days": "Sun", "time": "Closed"}], "id": "3341100029", "name": "USPS COLLECTION BOX - BLUE BOX", "address": {"city": "ROYAL PLM BCH", "state": "FL", "street": "1103 ROYAL PALM BEACH BLVD", "postcode": "33411"}}},
{"geometry": {"type": "Point", "coordinates": [-80.2272794139, 26.7042910204]}, "type": "Feature", "properties": {"collection_times": [{"days": "Mon-Sat", "time": "3:00pm"}, {"days": "Sun", "time": "Closed"}], "id": "3341100032", "name": "USPS COLLECTION BOX - BLUE BOX", "address": {"city": "ROYAL PLM BCH", "state": "FL", "street": "1050 ROYAL PALM BEACH BLVD", "postcode": "33411"}}},
{"geometry": {"type": "Point", "coordinates": [-80.2052543139, 26.6809980194]}, "type": "Feature", "properties": {"collection_times": [{"days": "Mon-Sat", "time": "5:00pm"}, {"days": "Sun", "time": "Closed"}], "id": "3341100034", "name": "USPS COLLECTION BOX - APC", "address": {"city": "ROYAL PLM BCH", "state": "FL", "street": "10299 SOUTHERN BLVD", "postcode": "33411"}}},
{"geometry": {"type": "Point", "coordinates": [-80.1592438949, 26.7129431823]}, "type": "Feature", "properties": {"collection_times": [{"days": "Mon-Fri", "time": "2:00pm"}, {"days": "Sat", "time": "2:30pm"}, {"days": "Sun", "time": "Closed"}], "id": "3341100035", "name": "USPS COLLECTION BOX - BLUE BOX", "address": {"city": "ROYAL PLM BCH", "state": "FL", "street": "7459 RIVERWALK CIR", "postcode": "33411"}}},
{"geometry": {"type": "Point", "coordinates": [-80.1664279627, 26.7027778821]}, "type": "Feature", "properties": {"collection_times": [{"days": "Mon-Fri", "time": "2:00pm"}, {"days": "Sat", "time": "2:45pm"}, {"days": "Sun", "time": "Closed"}], "id": "3341100036", "name": "USPS COLLECTION BOX - BLUE BOX", "address": {"city": "ROYAL PLM BCH", "state": "FL", "street": "1700 GOLDEN LAKES BLVD", "postcode": "33411"}}},
{"geometry": {"type": "Point", "coordinates": [-80.2052543139, 26.6809980194]}, "type": "Feature", "properties": {"collection_times": [{"days": "Mon-Sat", "time": "5:00pm"}, {"days": "Sun", "time": "Closed"}], "id": "3341100039", "name": "USPS COLLECTION BOX - PO LOBBY", "address": {"city": "ROYAL PLM BCH", "state": "FL", "street": "10299 SOUTHERN BLVD", "postcode": "33411"}}},
{"geometry": {"type": "Point", "coordinates": [-80.2052543139, 26.6809980194]}, "type": "Feature", "properties": {"collection_times": [{"days": "Mon-Sat", "time": "5:00pm"}, {"days": "Sun", "time": "Closed"}], "id": "3341100040", "name": "USPS COLLECTION BOX - PO LOBBY", "address": {"city": "ROYAL PLM BCH", "state": "FL", "street": "10299 SOUTHERN BLVD", "postcode": "33411"}}},
{"geometry": {"type": "Point", "coordinates": [-80.1477112279, 26.6510969046]}, "type": "Feature", "properties": {"collection_times": [{"days": "Mon-Fri", "time": "1:15pm"}, {"days": "Sat", "time": "1:30pm"}, {"days": "Sun", "time": "Closed"}], "id": "3341300001", "name": "USPS COLLECTION BOX - BLUE BOX", "address": {"city": "GREENACRES", "state": "FL", "street": "6708 FOREST HILL BLVD", "postcode": "33413"}}},
{"geometry": {"type": "Point", "coordinates": [-80.2474689412, 26.6557303846]}, "type": "Feature", "properties": {"collection_times": [{"days": "Mon-Fri", "time": "3:30pm"}, {"days": "Sat", "time": "3:15pm"}, {"days": "Sun", "time": "Closed"}], "id": "3341400003", "name": "USPS COLLECTION BOX - BLUE BOX", "address": {"city": "ROYAL PLM BCH", "state": "FL", "street": "13897 WELLINGTON TRCE", "postcode": "33414"}}},
{"geometry": {"type": "Point", "coordinates": [-80.2339647754, 26.6524544804]}, "type": "Feature", "properties": {"collection_times": [{"days": "Mon-Fri", "time": "3:30pm"}, {"days": "Sat", "time": "3:15pm"}, {"days": "Sun", "time": "Closed"}], "id": "3341400007", "name": "USPS COLLECTION BOX - BLUE BOX", "address": {"city": "ROYAL PLM BCH", "state": "FL", "street": "11936 FOREST HILL BLVD", "postcode": "33414"}}},
{"geometry": {"type": "Point", "coordinates": [-80.2339647754, 26.6524544804]}, "type": "Feature", "properties": {"collection_times": [{"days": "Mon-Fri", "time": "3:30pm"}, {"days": "Sat", "time": "3:15pm"}, {"days": "Sun", "time": "Closed"}], "id": "3341400008", "name": "USPS COLLECTION BOX - BLUE BOX", "address": {"city": "ROYAL PLM BCH", "state": "FL", "street": "11936 FOREST HILL BLVD", "postcode": "33414"}}},
{"geometry": {"type": "Point", "coordinates": [-80.2161531367, 26.6513565734]}, "type": "Feature", "properties": {"collection_times": [{"days": "Mon-Sat", "time": "3:30pm"}, {"days": "Sun", "time": "Closed"}], "id": "3341400011", "name": "USPS COLLECTION BOX - BLUE BOX", "address": {"city": "ROYAL PLM BCH", "state": "FL", "street": "10800 FOREST HILL BLVD", "postcode": "33414"}}},
{"geometry": {"type": "Point", "coordinates": [-80.2474689412, 26.6557303846]}, "type": "Feature", "properties": {"collection_times": [{"days": "Mon-Fri", "time": "5:00pm"}, {"days": "Sat", "time": "3:00pm"}, {"days": "Sun", "time": "Closed"}], "id": "3341400013", "name": "USPS COLLECTION BOX - BLUE BOX", "address": {"city": "ROYAL PLM BCH", "state": "FL", "street": "12794 FOREST HILL BLVD", "postcode": "33414"}}},
{"geometry": {"type": "Point", "coordinates": [-80.1125195556, 26.6638792766]}, "type": "Feature", "properties": {"collection_times": [{"days": "Mon-Fri", "time": "1:15pm"}, {"days": "Sat", "time": "1:00pm"}, {"days": "Sun", "time": "Closed"}], "id": "3341500006", "name": "USPS COLLECTION BOX - BLUE BOX", "address": {"city": "GREENACRES", "state": "FL", "street": "926 S MILITARY TRL", "postcode": "33415"}}},
{"geometry": {"type": "Point", "coordinates": [-80.1146948432, 26.6737150801]}, "type": "Feature", "properties": {"collection_times": [{"days": "Mon-Fri", "time": "1:30pm"}, {"days": "Sat", "time": "1:15pm"}, {"days": "Sun", "time": "Closed"}], "id": "3341500008", "name": "USPS COLLECTION BOX - BLUE BOX", "address": {"city": "GREENACRES", "state": "FL", "street": "4645 GUN CLUB RD", "postcode": "33415"}}},
{"geometry": {"type": "Point", "coordinates": [-80.1441481555, 26.6511335764]}, "type": "Feature", "properties": {"collection_times": [{"days": "Mon-Fri", "time": "1:15pm"}, {"days": "Sat", "time": "1:30pm"}, {"days": "Sun", "time": "Closed"}], "id": "3341500013", "name": "USPS COLLECTION BOX - BLUE BOX", "address": {"city": "GREENACRES", "state": "FL", "street": "6342 FOREST HILL BLVD", "postcode": "33415"}}},
{"geometry": {"type": "Point", "coordinates": [-80.1395695598, 26.637055555]}, "type": "Feature", "properties": {"collection_times": [{"days": "Mon-Fri", "time": "1:00pm"}, {"days": "Sat", "time": "1:15pm"}, {"days": "Sun", "time": "Closed"}], "id": "3341500020", "name": "USPS COLLECTION BOX - BLUE BOX", "address": {"city": "GREENACRES", "state": "FL", "street": "800 SKY PINE WAY", "postcode": "33415"}}},
{"geometry": {"type": "Point", "coordinates": [-80.1393076483, 26.6411844207]}, "type": "Feature", "properties": {"collection_times": [{"days": "Mon-Fri", "time": "1:00pm"}, {"days": "Sat", "time": "1:15pm"}, {"days": "Sun", "time": "Closed"}], "id": "3341500028", "name": "USPS COLLECTION BOX - BLUE BOX", "address": {"city": "GREENACRES", "state": "FL", "street": "600 SEA PINE WAY", "postcode": "33415"}}},
{"geometry": {"type": "Point", "coordinates": [-80.0917667326, 26.6664292358]}, "type": "Feature", "properties": {"collection_times": [{"days": "Mon-Fri", "time": "7:30pm"}, {"days": "Sat", "time": "6:30pm"}, {"days": "Sun", "time": "Closed"}], "id": "3341600000", "name": "USPS COLLECTION BOX - BLUE BOX", "address": {"city": "WEST PALM BEACH", "state": "FL", "street": "3200 SUMMIT BLVD", "postcode": "33416"}}},
{"geometry": {"type": "Point", "coordinates": [-80.0917667326, 26.6664292358]}, "type": "Feature", "properties": {"collection_times": [{"days": "Mon-Fri", "time": "7:30pm"}, {"days": "Sat", "time": "6:30pm"}, {"days": "Sun", "time": "Closed"}], "id": "3341600001", "name": "USPS COLLECTION BOX - BLUE BOX", "address": {"city": "WEST PALM BEACH", "state": "FL", "street": "3200 SUMMIT BLVD", "postcode": "33416"}}},
{"geometry": {"type": "Point", "coordinates": [-80.0917667326, 26.6664292358]}, "type": "Feature", "properties": {"collection_times": [{"days": "Mon-Fri", "time": "7:30pm"}, {"days": "Sat", "time": "6:30pm"}, {"days": "Sun", "time": "Closed"}], "id": "3341600002", "name": "USPS COLLECTION BOX - APC", "address": {"city": "WEST PALM BEACH", "state": "FL", "street": "3200 SUMMIT BLVD", "postcode": "33416"}}},
{"geometry": {"type": "Point", "coordinates": [-80.0917667326, 26.6664292358]}, "type": "Feature", "properties": {"collection_times": [{"days": "Mon-Fri", "time": "7:30pm"}, {"days": "Sat", "time": "6:30pm"}, {"days": "Sun", "time": "Closed"}], "id": "3341600003", "name": "USPS COLLECTION BOX - PO LOBBY", "address": {"city": "WEST PALM BEACH", "state": "FL", "street": "3200 SUMMIT BLVD", "postcode": "33416"}}},
{"geometry": {"type": "Point", "coordinates": [-80.0917667326, 26.6664292358]}, "type": "Feature", "properties": {"collection_times": [{"days": "Mon-Fri", "time": "7:30pm"}, {"days": "Sat", "time": "6:30pm"}, {"days": "Sun", "time": "Closed"}], "id": "3341600005", "name": "USPS COLLECTION BOX - PO LOBBY", "address": {"city": "WEST PALM BEACH", "state": "FL", "street": "3200 SUMMIT BLVD", "postcode": "33416"}}},
{"geometry": {"type": "Point", "coordinates": [-80.0917667326, 26.6664292358]}, "type": "Feature", "properties": {"collection_times": [{"days": "Mon-Fri", "time": "7:30pm"}, {"days": "Sat", "time": "6:30pm"}, {"days": "Sun", "time": "Closed"}], "id": "3341600006", "name": "USPS COLLECTION BOX - APC", "address": {"city": "WEST PALM BEACH", "state": "FL", "street": "3200 SUMMIT BLVD", "postcode": "33416"}}},
{"geometry": {"type": "Point", "coordinates": [-80.1182685623, 26.7353318637]}, "type": "Feature", "properties": {"collection_times": [{"days": "Mon-Fri", "time": "5:00pm"}, {"days": "Sat", "time": "4:00pm"}, {"days": "Sun", "time": "Closed"}], "id": "3341700026", "name": "USPS COLLECTION BOX - BLUE BOX", "address": {"city": "WEST PALM BEACH", "state": "FL", "street": "3900 HAVERHILL RD N", "postcode": "33417"}}},
{"geometry": {"type": "Point", "coordinates": [-80.1182685623, 26.7353318637]}, "type": "Feature", "properties": {"collection_times": [{"days": "Mon-Fri", "time": "5:00pm"}, {"days": "Sat", "time": "4:00pm"}, {"days": "Sun", "time": "Closed"}], "id": "3341700027", "name": "USPS COLLECTION BOX - BLUE BOX", "address": {"city": "WEST PALM BEACH", "state": "FL", "street": "3900 HAVERHILL RD N", "postcode": "33417"}}},
{"geometry": {"type": "Point", "coordinates": [-80.1182685623, 26.7353318637]}, "type": "Feature", "properties": {"collection_times": [{"days": "Mon-Fri", "time": "5:00pm"}, {"days": "Sat", "time": "4:00pm"}, {"days": "Sun", "time": "Closed"}], "id": "3341700028", "name": "USPS COLLECTION BOX - BLUE BOX", "address": {"city": "WEST PALM BEACH", "state": "FL", "street": "3900 HAVERHILL RD N", "postcode": "33417"}}},
{"geometry": {"type": "Point", "coordinates": [-80.1182685623, 26.7353318637]}, "type": "Feature", "properties": {"collection_times": [{"days": "Mon-Fri", "time": "5:00pm"}, {"days": "Sat", "time": "4:00pm"}, {"days": "Sun", "time": "Closed"}], "id": "3341700029", "name": "USPS COLLECTION BOX - PO LOBBY", "address": {"city": "WEST PALM BEACH", "state": "FL", "street": "3900 HAVERHILL RD N", "postcode": "33417"}}},
{"geometry": {"type": "Point", "coordinates": [-80.1188896011, 26.7196281805]}, "type": "Feature", "properties": {"collection_times": [{"days": "Mon-Fri", "time": "3:00pm"}, {"days": "Sat-Sun", "time": "Closed"}], "id": "3341700032", "name": "USPS COLLECTION BOX - BLUE BOX", "address": {"city": "WEST PALM BEACH", "state": "FL", "street": "2525 HAVERHILL RD N", "postcode": "33417"}}},
{"geometry": {"type": "Point", "coordinates": [-80.1328101001, 26.7076480629]}, "type": "Feature", "properties": {"collection_times": [{"days": "Mon-Fri", "time": "3:00pm"}, {"days": "Sat-Sun", "time": "Closed"}], "id": "3341700033", "name": "USPS COLLECTION BOX - BLUE BOX", "address": {"city": "WEST PALM BEACH", "state": "FL", "street": "5849 OKEECHOBEE BLVD", "postcode": "33417"}}},
{"geometry": {"type": "Point", "coordinates": [-80.1182685623, 26.7353318637]}, "type": "Feature", "properties": {"collection_times": [{"days": "Mon-Fri", "time": "5:00pm"}, {"days": "Sat", "time": "4:00pm"}, {"days": "Sun", "time": "Closed"}], "id": "3341700034", "name": "USPS COLLECTION BOX - APC", "address": {"city": "WEST PALM BEACH", "state": "FL", "street": "3900 HAVERHILL RD N", "postcode": "33417"}}},
{"geometry": {"type": "Point", "coordinates": [-80.1317831186, 26.8381114813]}, "type": "Feature", "properties": {"collection_times": [{"days": "Mon-Fri", "time": "12:15pm"}, {"days": "Sat", "time": "2:15pm"}, {"days": "Sun", "time": "Closed"}], "id": "3341800001", "name": "USPS COLLECTION BOX - BLUE BOX", "address": {"city": "PALM BCH GDNS", "state": "FL", "street": "7100 FAIRWAY DR", "postcode": "33418"}}},
{"geometry": {"type": "Point", "coordinates": [-80.1229826537, 26.8386893544]}, "type": "Feature", "properties": {"collection_times": [{"days": "Mon-Fri", "time": "12:30pm"}, {"days": "Sat", "time": "2:15pm"}, {"days": "Sun", "time": "Closed"}], "id": "3341800008", "name": "USPS COLLECTION BOX - BLUE BOX", "address": {"city": "PALM BCH GDNS", "state": "FL", "street": "5600 PGA BLVD", "postcode": "33418"}}},
{"geometry": {"type": "Point", "coordinates": [-80.1052973076, 26.8384024253]}, "type": "Feature", "properties": {"collection_times": [{"days": "Mon-Fri", "time": "12:15pm"}, {"days": "Sat", "time": "2:00pm"}, {"days": "Sun", "time": "Closed"}], "id": "3341800009", "name": "USPS COLLECTION BOX - BLUE BOX", "address": {"city": "PALM BCH GDNS", "state": "FL", "street": "4501 PGA BLVD", "postcode": "33418"}}},
{"geometry": {"type": "Point", "coordinates": [-80.0903661092, 26.5157238125]}, "type": "Feature", "properties": {"collection_times": [{"days": "Mon-Fri", "time": "2:00pm"}, {"days": "Sat-Sun", "time": "Closed"}], "id": "3342600004", "name": "USPS COLLECTION BOX - BLUE BOX", "address": {"city": "BOYNTON BEACH", "state": "FL", "street": "1325 S CONGRESS AVE", "postcode": "33426"}}},
{"geometry": {"type": "Point", "coordinates": [-80.0838988725, 26.5101094893]}, "type": "Feature", "properties": {"collection_times": [{"days": "Mon-Fri", "time": "2:30pm"}, {"days": "Sat", "time": "2:00pm"}, {"days": "Sun", "time": "Closed"}], "id": "3342600007", "name": "USPS COLLECTION BOX - BLUE BOX", "address": {"city": "BOYNTON BEACH", "state": "FL", "street": "1807 SW 18TH ST", "postcode": "33426"}}},
{"geometry": {"type": "Point", "coordinates": [-80.0888022374, 26.5131532427]}, "type": "Feature", "properties": {"collection_times": [{"days": "Mon-Fri", "time": "2:30pm"}, {"days": "Sat-Sun", "time": "Closed"}], "id": "3342600025", "name": "USPS COLLECTION BOX - BLUE BOX", "address": {"city": "BOYNTON BEACH", "state": "FL", "street": "2240 W WOOLBRIGHT RD", "postcode": "33426"}}},
{"geometry": {"type": "Point", "coordinates": [-80.0907777789, 26.5380900177]}, "type": "Feature", "properties": {"collection_times": [{"days": "Mon-Fri", "time": "2:00pm"}, {"days": "Sat-Sun", "time": "Closed"}], "id": "3342600029", "name": "USPS COLLECTION BOX - BLUE BOX", "address": {"city": "BOYNTON BEACH", "state": "FL", "street": "1301 N CONGRESS AVE", "postcode": "33426"}}},
{"geometry": {"type": "Point", "coordinates": [-80.0902880339, 26.5113788042]}, "type": "Feature", "properties": {"collection_times": [{"days": "Mon-Fri", "time": "2:00pm"}, {"days": "Sat-Sun", "time": "Closed"}], "id": "3342600030", "name": "USPS COLLECTION BOX - BLUE BOX", "address": {"city": "BOYNTON BEACH", "state": "FL", "street": "1901 S CONGRESS AVE", "postcode": "33426"}}},
{"geometry": {"type": "Point", "coordinates": [-80.0902762043, 26.5107080665]}, "type": "Feature", "properties": {"collection_times": [{"days": "Mon-Fri", "time": "2:00pm"}, {"days": "Sat-Sun", "time": "Closed"}], "id": "3342600031", "name": "USPS COLLECTION BOX - BLUE BOX", "address": {"city": "BOYNTON BEACH", "state": "FL", "street": "1903 S CONGRESS AVE", "postcode": "33426"}}},
{"geometry": {"type": "Point", "coordinates": [-80.2032357729, 26.3370662519]}, "type": "Feature", "properties": {"collection_times": [{"days": "Mon-Fri", "time": "2:00pm"}, {"days": "Sat", "time": "10:45am"}, {"days": "Sun", "time": "Closed"}], "id": "3342800001", "name": "USPS COLLECTION BOX - BLUE BOX", "address": {"city": "BOCA RATON", "state": "FL", "street": "23123 STATE ROAD 7", "postcode": "33428"}}},
{"geometry": {"type": "Point", "coordinates": [-80.2009142277, 26.3358557523]}, "type": "Feature", "properties": {"collection_times": [{"days": "Mon-Fri", "time": "3:30pm"}, {"days": "Sat", "time": "11:45am"}, {"days": "Sun", "time": "Closed"}], "id": "3342800005", "name": "USPS COLLECTION BOX - BLUE BOX", "address": {"city": "BOCA RATON", "state": "FL", "street": "9850 SANDALFOOT BLVD", "postcode": "33428"}}},
{"geometry": {"type": "Point", "coordinates": [-80.2032441088, 26.3343319082]}, "type": "Feature", "properties": {"collection_times": [{"days": "Mon-Sat", "time": "10:45am"}, {"days": "Sun", "time": "Closed"}], "id": "3342800010", "name": "USPS COLLECTION BOX - BLUE BOX", "address": {"city": "BOCA RATON", "state": "FL", "street": "23001 STATE ROAD 7", "postcode": "33428"}}},
{"geometry": {"type": "Point", "coordinates": [-80.2036882392, 26.3710172208]}, "type": "Feature", "properties": {"collection_times": [{"days": "Mon-Fri", "time": "2:30pm"}, {"days": "Sat", "time": "10:30am"}, {"days": "Sun", "time": "Closed"}], "id": "3342800011", "name": "USPS COLLECTION BOX - BLUE BOX", "address": {"city": "BOCA RATON", "state": "FL", "street": "20423 STATE ROAD 7", "postcode": "33428"}}},
{"geometry": {"type": "Point", "coordinates": [-80.2007113385, 26.3574545496]}, "type": "Feature", "properties": {"collection_times": [{"days": "Mon-Fri", "time": "2:00pm"}, {"days": "Sat", "time": "10:30am"}, {"days": "Sun", "time": "Closed"}], "id": "3342800017", "name": "USPS COLLECTION BOX - BLUE BOX", "address": {"city": "BOCA RATON", "state": "FL", "street": "9960 CENTRAL PARK BLVD N", "postcode": "33428"}}},
{"geometry": {"type": "Point", "coordinates": [-80.201405668, 26.3571246706]}, "type": "Feature", "properties": {"collection_times": [{"days": "Mon-Fri", "time": "2:15pm"}, {"days": "Sat", "time": "10:30am"}, {"days": "Sun", "time": "Closed"}], "id": "3342800020", "name": "USPS COLLECTION BOX - BLUE BOX", "address": {"city": "BOCA RATON", "state": "FL", "street": "9980 CENTRAL PARK BLVD N", "postcode": "33428"}}},
{"geometry": {"type": "Point", "coordinates": [-80.6809407574, 26.6967628532]}, "type": "Feature", "properties": {"collection_times": [{"days": "Mon-Fri", "time": "5:15pm"}, {"days": "Sat", "time": "4:00pm"}, {"days": "Sun", "time": "Closed"}], "id": "3343000002", "name": "USPS COLLECTION BOX - BLUE BOX", "address": {"city": "BELLE GLADE", "state": "FL", "street": "1340 NW AVENUE L", "postcode": "33430"}}},
{"geometry": {"type": "Point", "coordinates": [-80.6558472428, 26.7260435698]}, "type": "Feature", "properties": {"collection_times": [{"days": "Mon-Fri", "time": "2:45pm"}, {"days": "Sat-Sun", "time": "Closed"}], "id": "3343000003", "name": "USPS COLLECTION BOX - BLUE BOX", "address": {"city": "BELLE GLADE", "state": "FL", "street": "38840 STATE ROAD 80", "postcode": "33430"}}},
{"geometry": {"type": "Point", "coordinates": [-80.6678701144, 26.6965698473]}, "type": "Feature", "properties": {"collection_times": [{"days": "Mon-Fri", "time": "2:45pm"}, {"days": "Sat-Sun", "time": "Closed"}], "id": "3343000004", "name": "USPS COLLECTION BOX - BLUE BOX", "address": {"city": "BELLE GLADE", "state": "FL", "street": "1100 N MAIN ST", "postcode": "33430"}}},
{"geometry": {"type": "Point", "coordinates": [-80.6677482697, 26.6891243035]}, "type": "Feature", "properties": {"collection_times": [{"days": "Mon-Fri", "time": "2:45pm"}, {"days": "Sat-Sun", "time": "Closed"}], "id": "3343000005", "name": "USPS COLLECTION BOX - BLUE BOX", "address": {"city": "BELLE GLADE", "state": "FL", "street": "301 N MAIN ST", "postcode": "33430"}}},
{"geometry": {"type": "Point", "coordinates": [-80.6681398291, 26.6857516875]}, "type": "Feature", "properties": {"collection_times": [{"days": "Mon-Fri", "time": "2:45pm"}, {"days": "Sat-Sun", "time": "Closed"}], "id": "3343000006", "name": "USPS COLLECTION BOX - BLUE BOX", "address": {"city": "BELLE GLADE", "state": "FL", "street": "2 W AVENUE A", "postcode": "33430"}}},
{"geometry": {"type": "Point", "coordinates": [-80.6655254898, 26.6831408971]}, "type": "Feature", "properties": {"collection_times": [{"days": "Mon-Fri", "time": "2:45pm"}, {"days": "Sat-Sun", "time": "Closed"}], "id": "3343000010", "name": "USPS COLLECTION BOX - BLUE BOX", "address": {"city": "BELLE GLADE", "state": "FL", "street": "149 SE AVENUE D", "postcode": "33430"}}},
{"geometry": {"type": "Point", "coordinates": [-80.6844750711, 26.6813951008]}, "type": "Feature", "properties": {"collection_times": [{"days": "Mon-Fri", "time": "2:45pm"}, {"days": "Sat-Sun", "time": "Closed"}], "id": "3343000011", "name": "USPS COLLECTION BOX - BLUE BOX", "address": {"city": "BELLE GLADE", "state": "FL", "street": "533 SW 16TH ST", "postcode": "33430"}}},
{"geometry": {"type": "Point", "coordinates": [-80.6810234352, 26.6967851458]}, "type": "Feature", "properties": {"collection_times": [{"days": "Mon-Fri", "time": "5:15pm"}, {"days": "Sat", "time": "4:00pm"}, {"days": "Sun", "time": "Closed"}], "id": "3343000013", "name": "USPS COLLECTION BOX - PO LOBBY", "address": {"city": "BELLE GLADE", "state": "FL", "street": "1340 NW AVENUE L", "postcode": "33430"}}},
{"geometry": {"type": "Point", "coordinates": [-80.6810234352, 26.6967851458]}, "type": "Feature", "properties": {"collection_times": [{"days": "Mon-Fri", "time": "5:15pm"}, {"days": "Sat", "time": "4:00pm"}, {"days": "Sun", "time": "Closed"}], "id": "3343000014", "name": "USPS COLLECTION BOX - PO LOBBY", "address": {"city": "BELLE GLADE", "state": "FL", "street": "1340 NW AVENUE L", "postcode": "33430"}}},
{"geometry": {"type": "Point", "coordinates": [-80.0778350248, 26.385985154]}, "type": "Feature", "properties": {"collection_times": [{"days": "Mon-Fri", "time": "3:00pm"}, {"days": "Sat", "time": "9:45am"}, {"days": "Sun", "time": "Closed"}], "id": "3343100001", "name": "USPS COLLECTION BOX - BLUE BOX", "address": {"city": "HIGHLAND BEACH", "state": "FL", "street": "500 NE SPANISH RIVER BLVD", "postcode": "33431"}}},
{"geometry": {"type": "Point", "coordinates": [-80.080257172, 26.3861296569]}, "type": "Feature", "properties": {"collection_times": [{"days": "Mon-Fri", "time": "3:00pm"}, {"days": "Sat", "time": "2:30pm"}, {"days": "Sun", "time": "Closed"}], "id": "3343100002", "name": "USPS COLLECTION BOX - BLUE BOX", "address": {"city": "HIGHLAND BEACH", "state": "FL", "street": "275 NE SPANISH RIVER BLVD", "postcode": "33431"}}},
{"geometry": {"type": "Point", "coordinates": [-80.1210319544, 26.3775057041]}, "type": "Feature", "properties": {"collection_times": [{"days": "Mon-Fri", "time": "5:00pm"}, {"days": "Sat", "time": "4:30pm"}, {"days": "Sun", "time": "Closed"}], "id": "3343100006", "name": "USPS COLLECTION BOX - BLUE BOX", "address": {"city": "HIGHLAND BEACH", "state": "FL", "street": "2800 N MILITARY TRL", "postcode": "33431"}}},
{"geometry": {"type": "Point", "coordinates": [-80.1210319544, 26.3775057041]}, "type": "Feature", "properties": {"collection_times": [{"days": "Mon-Fri", "time": "5:00pm"}, {"days": "Sat", "time": "4:30pm"}, {"days": "Sun", "time": "Closed"}], "id": "3343100008", "name": "USPS COLLECTION BOX - BLUE BOX", "address": {"city": "HIGHLAND BEACH", "state": "FL", "street": "2800 N MILITARY TRL", "postcode": "33431"}}},
{"geometry": {"type": "Point", "coordinates": [-80.1296829333, 26.3640850346]}, "type": "Feature", "properties": {"collection_times": [{"days": "Mon-Fri", "time": "12:00pm"}, {"days": "Sat", "time": "2:15pm"}, {"days": "Sun", "time": "Closed"}], "id": "3343100011", "name": "USPS COLLECTION BOX - BLUE BOX", "address": {"city": "HIGHLAND BEACH", "state": "FL", "street": "6000 GLADES RD", "postcode": "33431"}}},
{"geometry": {"type": "Point", "coordinates": [-80.1278209559, 26.3681508646]}, "type": "Feature", "properties": {"collection_times": [{"days": "Mon-Fri", "time": "3:00pm"}, {"days": "Sat", "time": "9:15am"}, {"days": "Sun", "time": "Closed"}], "id": "3343100016", "name": "USPS COLLECTION BOX - BLUE BOX", "address": {"city": "HIGHLAND BEACH", "state": "FL", "street": "2300 GLADES RD", "postcode": "33431"}}},
{"geometry": {"type": "Point", "coordinates": [-80.1242768109, 26.368052679]}, "type": "Feature", "properties": {"collection_times": [{"days": "Mon-Fri", "time": "3:00pm"}, {"days": "Sat", "time": "9:15am"}, {"days": "Sun", "time": "Closed"}], "id": "3343100018", "name": "USPS COLLECTION BOX - BLUE BOX", "address": {"city": "HIGHLAND BEACH", "state": "FL", "street": "2000 GLADES RD", "postcode": "33431"}}},
{"geometry": {"type": "Point", "coordinates": [-80.136611524, 26.3687766499]}, "type": "Feature", "properties": {"collection_times": [{"days": "Mon-Fri", "time": "1:30pm"}, {"days": "Sat", "time": "10:00am"}, {"days": "Sun", "time": "Closed"}], "id": "3343100024", "name": "USPS COLLECTION BOX - BLUE BOX", "address": {"city": "HIGHLAND BEACH", "state": "FL", "street": "2499 GLADES RD", "postcode": "33431"}}},
{"geometry": {"type": "Point", "coordinates": [-80.1271655966, 26.370706056]}, "type": "Feature", "properties": {"collection_times": [{"days": "Mon-Fri", "time": "1:15pm"}, {"days": "Sat", "time": "9:00am"}, {"days": "Sun", "time": "Closed"}], "id": "3343100026", "name": "USPS COLLECTION BOX - BLUE BOX", "address": {"city": "HIGHLAND BEACH", "state": "FL", "street": "2201 NW CORPORATE BLVD", "postcode": "33431"}}},
{"geometry": {"type": "Point", "coordinates": [-80.0838318289, 26.3914039097]}, "type": "Feature", "properties": {"collection_times": [{"days": "Mon-Fri", "time": "2:45pm"}, {"days": "Sat", "time": "10:45am"}, {"days": "Sun", "time": "Closed"}], "id": "3343100030", "name": "USPS COLLECTION BOX - BLUE BOX", "address": {"city": "HIGHLAND BEACH", "state": "FL", "street": "4710 NW 2 AVE", "postcode": "33431"}}},
{"geometry": {"type": "Point", "coordinates": [-80.0765089278, 26.3924843305]}, "type": "Feature", "properties": {"collection_times": [{"days": "Mon-Fri", "time": "2:15pm"}, {"days": "Sat", "time": "10:15am"}, {"days": "Sun", "time": "Closed"}], "id": "3343100033", "name": "USPS COLLECTION BOX - BLUE BOX", "address": {"city": "HIGHLAND BEACH", "state": "FL", "street": "4800 N FEDERAL HWY", "postcode": "33431"}}},
{"geometry": {"type": "Point", "coordinates": [-80.0763085026, 26.3804486503]}, "type": "Feature", "properties": {"collection_times": [{"days": "Mon-Fri", "time": "12:30pm"}, {"days": "Sat", "time": "9:45am"}, {"days": "Sun", "time": "Closed"}], "id": "3343100036", "name": "USPS COLLECTION BOX - BLUE BOX", "address": {"city": "HIGHLAND BEACH", "state": "FL", "street": "3280 N FEDERAL HWY", "postcode": "33431"}}},
{"geometry": {"type": "Point", "coordinates": [-80.1261281416, 26.3707096048]}, "type": "Feature", "properties": {"collection_times": [{"days": "Mon-Fri", "time": "1:15pm"}, {"days": "Sat", "time": "8:45am"}, {"days": "Sun", "time": "Closed"}], "id": "3343100040", "name": "USPS COLLECTION BOX - BLUE BOX", "address": {"city": "HIGHLAND BEACH", "state": "FL", "street": "2101 NW CORPORATE BLVD", "postcode": "33431"}}},
{"geometry": {"type": "Point", "coordinates": [-80.0673331836, 26.3827536625]}, "type": "Feature", "properties": {"collection_times": [{"days": "Mon-Fri", "time": "3:45pm"}, {"days": "Sat", "time": "10:00am"}, {"days": "Sun", "time": "Closed"}], "id": "3343100042", "name": "USPS COLLECTION BOX - BLUE BOX", "address": {"city": "HIGHLAND BEACH", "state": "FL", "street": "3612 S OCEAN BLVD", "postcode": "33431"}}},
{"geometry": {"type": "Point", "coordinates": [-80.0979283277, 26.3860279248]}, "type": "Feature", "properties": {"collection_times": [{"days": "Mon-Fri", "time": "4:00pm"}, {"days": "Sat", "time": "9:00am"}, {"days": "Sun", "time": "Closed"}], "id": "3343100046", "name": "USPS COLLECTION BOX - BLUE BOX", "address": {"city": "HIGHLAND BEACH", "state": "FL", "street": "3998 FAU BLVD", "postcode": "33431"}}},
{"geometry": {"type": "Point", "coordinates": [-80.077364698, 26.3689016375]}, "type": "Feature", "properties": {"collection_times": [{"days": "Mon-Fri", "time": "1:30pm"}, {"days": "Sat", "time": "9:30am"}, {"days": "Sun", "time": "Closed"}], "id": "3343100047", "name": "USPS COLLECTION BOX - BLUE BOX", "address": {"city": "HIGHLAND BEACH", "state": "FL", "street": "2100 N FEDERAL HWY", "postcode": "33431"}}},
{"geometry": {"type": "Point", "coordinates": [-80.1194337768, 26.3772513679]}, "type": "Feature", "properties": {"collection_times": [{"days": "Mon-Fri", "time": "4:45pm"}, {"days": "Sat", "time": "4:00pm"}, {"days": "Sun", "time": "Closed"}], "id": "3343100053", "name": "USPS COLLECTION BOX - PO LOBBY", "address": {"city": "HIGHLAND BEACH", "state": "FL", "street": "604 BANYAN TRL", "postcode": "33431"}}},
{"geometry": {"type": "Point", "coordinates": [-80.1194337768, 26.3772513679]}, "type": "Feature", "properties": {"collection_times": [{"days": "Mon-Fri", "time": "4:45pm"}, {"days": "Sat", "time": "4:00pm"}, {"days": "Sun", "time": "Closed"}], "id": "3343100054", "name": "USPS COLLECTION BOX - PO LOBBY", "address": {"city": "HIGHLAND BEACH", "state": "FL", "street": "604 BANYAN TRL", "postcode": "33431"}}},
{"geometry": {"type": "Point", "coordinates": [-80.1250717593, 26.3682147444]}, "type": "Feature", "properties": {"collection_times": [{"days": "Mon-Fri", "time": "1:00pm"}, {"days": "Sat", "time": "9:00am"}, {"days": "Sun", "time": "Closed"}], "id": "3343100056", "name": "USPS COLLECTION BOX - BLUE BOX", "address": {"city": "HIGHLAND BEACH", "state": "FL", "street": "2255 GLADES RD", "postcode": "33431"}}},
{"geometry": {"type": "Point", "coordinates": [-80.1250717593, 26.3682147444]}, "type": "Feature", "properties": {"collection_times": [{"days": "Mon-Fri", "time": "1:00pm"}, {"days": "Sat", "time": "9:00am"}, {"days": "Sun", "time": "Closed"}], "id": "3343100057", "name": "USPS COLLECTION BOX - BLUE BOX", "address": {"city": "HIGHLAND BEACH", "state": "FL", "street": "2255 GLADES RD", "postcode": "33431"}}},
{"geometry": {"type": "Point", "coordinates": [-80.1194337768, 26.3772513679]}, "type": "Feature", "properties": {"collection_times": [{"days": "Mon-Fri", "time": "4:45pm"}, {"days": "Sat", "time": "4:00pm"}, {"days": "Sun", "time": "Closed"}], "id": "3343100060", "name": "USPS COLLECTION BOX - APC", "address": {"city": "HIGHLAND BEACH", "state": "FL", "street": "604 BANYAN TRL", "postcode": "33431"}}},
{"geometry": {"type": "Point", "coordinates": [-80.0919568493, 26.379183866]}, "type": "Feature", "properties": {"collection_times": [{"days": "Mon-Fri", "time": "4:00pm"}, {"days": "Sat", "time": "9:00am"}, {"days": "Sun", "time": "Closed"}], "id": "3343100066", "name": "USPS COLLECTION BOX - BLUE BOX", "address": {"city": "HIGHLAND BEACH", "state": "FL", "street": "3701 FAU BLVD", "postcode": "33431"}}},
{"geometry": {"type": "Point", "coordinates": [-80.0848558863, 26.3584399545]}, "type": "Feature", "properties": {"collection_times": [{"days": "Mon-Fri", "time": "1:00pm"}, {"days": "Sat", "time": "9:15am"}, {"days": "Sun", "time": "Closed"}], "id": "3343200020", "name": "USPS COLLECTION BOX - BLUE BOX", "address": {"city": "BOCA RATON", "state": "FL", "street": "900 N FEDERAL HWY", "postcode": "33432"}}},
{"geometry": {"type": "Point", "coordinates": [-80.085326704, 26.3656276131]}, "type": "Feature", "properties": {"collection_times": [{"days": "Mon-Fri", "time": "12:45pm"}, {"days": "Sat", "time": "2:15pm"}, {"days": "Sun", "time": "Closed"}], "id": "3343200025", "name": "USPS COLLECTION BOX - BLUE BOX", "address": {"city": "BOCA RATON", "state": "FL", "street": "1700 N DIXIE HWY", "postcode": "33432"}}},
{"geometry": {"type": "Point", "coordinates": [-80.0863465073, 26.3412815342]}, "type": "Feature", "properties": {"collection_times": [{"days": "Mon-Fri", "time": "2:45pm"}, {"days": "Sat", "time": "2:00pm"}, {"days": "Sun", "time": "Closed"}], "id": "3343200028", "name": "USPS COLLECTION BOX - BLUE BOX", "address": {"city": "BOCA RATON", "state": "FL", "street": "975 S FEDERAL HWY", "postcode": "33432"}}},
{"geometry": {"type": "Point", "coordinates": [-80.0857797773, 26.340809134]}, "type": "Feature", "properties": {"collection_times": [{"days": "Mon-Fri", "time": "3:15pm"}, {"days": "Sat", "time": "1:45pm"}, {"days": "Sun", "time": "Closed"}], "id": "3343200030", "name": "USPS COLLECTION BOX - BLUE BOX", "address": {"city": "BOCA RATON", "state": "FL", "street": "100 W CAMINO REAL", "postcode": "33432"}}},
{"geometry": {"type": "Point", "coordinates": [-80.0844288381, 26.3589864815]}, "type": "Feature", "properties": {"collection_times": [{"days": "Mon-Fri", "time": "1:00pm"}, {"days": "Sat", "time": "9:15am"}, {"days": "Sun", "time": "Closed"}], "id": "3343200046", "name": "USPS COLLECTION BOX - BLUE BOX", "address": {"city": "BOCA RATON", "state": "FL", "street": "980 N FEDERAL HWY", "postcode": "33432"}}},
{"geometry": {"type": "Point", "coordinates": [-80.0915561659, 26.3329117]}, "type": "Feature", "properties": {"collection_times": [{"days": "Mon-Fri", "time": "10:45am"}, {"days": "Sat", "time": "2:15pm"}, {"days": "Sun", "time": "Closed"}], "id": "3343200050", "name": "USPS COLLECTION BOX - BLUE BOX", "address": {"city": "BOCA RATON", "state": "FL", "street": "1640 NW 2ND AVE", "postcode": "33432"}}},
{"geometry": {"type": "Point", "coordinates": [-80.0843992641, 26.3523051293]}, "type": "Feature", "properties": {"collection_times": [{"days": "Mon-Fri", "time": "5:00pm"}, {"days": "Sat", "time": "3:00pm"}, {"days": "Sun", "time": "Closed"}], "id": "3343200053", "name": "USPS COLLECTION BOX - BLUE BOX", "address": {"city": "BOCA RATON", "state": "FL", "street": "170 NE 2ND ST", "postcode": "33432"}}},
{"geometry": {"type": "Point", "coordinates": [-80.084220721, 26.3523636509]}, "type": "Feature", "properties": {"collection_times": [{"days": "Mon-Fri", "time": "5:00pm"}, {"days": "Sat", "time": "3:00pm"}, {"days": "Sun", "time": "Closed"}], "id": "3343200054", "name": "USPS COLLECTION BOX - BLUE BOX", "address": {"city": "BOCA RATON", "state": "FL", "street": "170 NE 2ND ST", "postcode": "33432"}}},
{"geometry": {"type": "Point", "coordinates": [-80.085326704, 26.3656276131]}, "type": "Feature", "properties": {"collection_times": [{"days": "Mon-Sat", "time": "11:00am"}, {"days": "Sun", "time": "Closed"}], "id": "3343200061", "name": "USPS COLLECTION BOX - BLUE BOX", "address": {"city": "BOCA RATON", "state": "FL", "street": "1700 S DIXIE HWY", "postcode": "33432"}}},
{"geometry": {"type": "Point", "coordinates": [-80.0908227313, 26.3505105805]}, "type": "Feature", "properties": {"collection_times": [{"days": "Mon-Fri", "time": "3:15pm"}, {"days": "Sat-Sun", "time": "Closed"}], "id": "3343200063", "name": "USPS COLLECTION BOX - BLUE BOX", "address": {"city": "BOCA RATON", "state": "FL", "street": "201 W PALMETTO PARK RD", "postcode": "33432"}}},
{"geometry": {"type": "Point", "coordinates": [-80.0843992641, 26.3523051293]}, "type": "Feature", "properties": {"collection_times": [{"days": "Mon-Fri", "time": "5:00pm"}, {"days": "Sat", "time": "3:00pm"}, {"days": "Sun", "time": "Closed"}], "id": "3343200064", "name": "USPS COLLECTION BOX - BLUE BOX", "address": {"city": "BOCA RATON", "state": "FL", "street": "170 NE 2ND ST", "postcode": "33432"}}},
{"geometry": {"type": "Point", "coordinates": [-80.0877745612, 26.362053447]}, "type": "Feature", "properties": {"collection_times": [{"days": "Mon-Fri", "time": "11:00am"}, {"days": "Sat", "time": "2:15pm"}, {"days": "Sun", "time": "Closed"}], "id": "3343200065", "name": "USPS COLLECTION BOX - BLUE BOX", "address": {"city": "BOCA RATON", "state": "FL", "street": "123 NW 13TH ST", "postcode": "33432"}}},
{"geometry": {"type": "Point", "coordinates": [-80.0843992641, 26.3523051293]}, "type": "Feature", "properties": {"collection_times": [{"days": "Mon-Fri", "time": "5:00pm"}, {"days": "Sat", "time": "3:00pm"}, {"days": "Sun", "time": "Closed"}], "id": "3343200066", "name": "USPS COLLECTION BOX - APC", "address": {"city": "BOCA RATON", "state": "FL", "street": "170 NE 2ND ST", "postcode": "33432"}}},
{"geometry": {"type": "Point", "coordinates": [-80.1371407112, 26.331754196]}, "type": "Feature", "properties": {"collection_times": [{"days": "Mon-Fri", "time": "10:30am"}, {"days": "Sat", "time": "11:00am"}, {"days": "Sun", "time": "Closed"}], "id": "3343300001", "name": "USPS COLLECTION BOX - BLUE BOX", "address": {"city": "BOCA RATON", "state": "FL", "street": "6018 SW 18TH ST", "postcode": "33433"}}},
{"geometry": {"type": "Point", "coordinates": [-80.1365647716, 26.357601681]}, "type": "Feature", "properties": {"collection_times": [{"days": "Mon-Fri", "time": "11:45am"}, {"days": "Sat", "time": "9:45am"}, {"days": "Sun", "time": "Closed"}], "id": "3343300002", "name": "USPS COLLECTION BOX - BLUE BOX", "address": {"city": "BOCA RATON", "state": "FL", "street": "21346 SAINT ANDREWS BLVD", "postcode": "33433"}}},
{"geometry": {"type": "Point", "coordinates": [-80.1373560544, 26.3622542695]}, "type": "Feature", "properties": {"collection_times": [{"days": "Mon-Fri", "time": "12:00pm"}, {"days": "Sat", "time": "10:00am"}, {"days": "Sun", "time": "Closed"}], "id": "3343300003", "name": "USPS COLLECTION BOX - BLUE BOX", "address": {"city": "BOCA RATON", "state": "FL", "street": "21160 SAINT ANDREWS BLVD", "postcode": "33433"}}},
{"geometry": {"type": "Point", "coordinates": [-80.1530108841, 26.3602806386]}, "type": "Feature", "properties": {"collection_times": [{"days": "Mon-Fri", "time": "2:00pm"}, {"days": "Sat", "time": "1:00pm"}, {"days": "Sun", "time": "Closed"}], "id": "3343300005", "name": "USPS COLLECTION BOX - BLUE BOX", "address": {"city": "BOCA RATON", "state": "FL", "street": "21301 POWERLINE RD", "postcode": "33433"}}},
{"geometry": {"type": "Point", "coordinates": [-80.1556701759, 26.3518094695]}, "type": "Feature", "properties": {"collection_times": [{"days": "Mon-Fri", "time": "2:15pm"}, {"days": "Sat", "time": "1:15pm"}, {"days": "Sun", "time": "Closed"}], "id": "3343300006", "name": "USPS COLLECTION BOX - BLUE BOX", "address": {"city": "BOCA RATON", "state": "FL", "street": "7030 BERACASA WAY", "postcode": "33433"}}},
{"geometry": {"type": "Point", "coordinates": [-80.1563054248, 26.3502467807]}, "type": "Feature", "properties": {"collection_times": [{"days": "Mon-Fri", "time": "2:30pm"}, {"days": "Sat", "time": "1:15pm"}, {"days": "Sun", "time": "Closed"}], "id": "3343300008", "name": "USPS COLLECTION BOX - BLUE BOX", "address": {"city": "BOCA RATON", "state": "FL", "street": "7024 W PALMETTO PARK RD", "postcode": "33433"}}},
{"geometry": {"type": "Point", "coordinates": [-80.1591930277, 26.3502349511]}, "type": "Feature", "properties": {"collection_times": [{"days": "Mon-Fri", "time": "2:15pm"}, {"days": "Sat", "time": "1:15pm"}, {"days": "Sun", "time": "Closed"}], "id": "3343300016", "name": "USPS COLLECTION BOX - BLUE BOX", "address": {"city": "BOCA RATON", "state": "FL", "street": "7280 W PALMETTO PARK RD", "postcode": "33433"}}},
{"geometry": {"type": "Point", "coordinates": [-80.1525449212, 26.3319097691]}, "type": "Feature", "properties": {"collection_times": [{"days": "Mon-Fri", "time": "10:45am"}, {"days": "Sat", "time": "11:15am"}, {"days": "Sun", "time": "Closed"}], "id": "3343300018", "name": "USPS COLLECTION BOX - BLUE BOX", "address": {"city": "BOCA RATON", "state": "FL", "street": "6909 SW 18TH ST", "postcode": "33433"}}},
{"geometry": {"type": "Point", "coordinates": [-80.1573578721, 26.3462008828]}, "type": "Feature", "properties": {"collection_times": [{"days": "Mon-Sat", "time": "5:00pm"}, {"days": "Sun", "time": "Closed"}], "id": "3343300019", "name": "USPS COLLECTION BOX - BLUE BOX", "address": {"city": "BOCA RATON", "state": "FL", "street": "8185 VIA ANCHO RD", "postcode": "33433"}}},
{"geometry": {"type": "Point", "coordinates": [-80.1549911574, 26.3437878247]}, "type": "Feature", "properties": {"collection_times": [{"days": "Mon-Fri", "time": "2:45pm"}, {"days": "Sat", "time": "1:30pm"}, {"days": "Sun", "time": "Closed"}], "id": "3343300020", "name": "USPS COLLECTION BOX - BLUE BOX", "address": {"city": "BOCA RATON", "state": "FL", "street": "7700 W CAMINO REAL", "postcode": "33433"}}},
{"geometry": {"type": "Point", "coordinates": [-80.1573578721, 26.3462008828]}, "type": "Feature", "properties": {"collection_times": [{"days": "Mon-Sat", "time": "5:00pm"}, {"days": "Sun", "time": "Closed"}], "id": "3343300021", "name": "USPS COLLECTION BOX - APC", "address": {"city": "BOCA RATON", "state": "FL", "street": "8185 VIA ANCHO RD", "postcode": "33433"}}},
{"geometry": {"type": "Point", "coordinates": [-80.1573578721, 26.3462008828]}, "type": "Feature", "properties": {"collection_times": [{"days": "Mon-Sat", "time": "5:00pm"}, {"days": "Sun", "time": "Closed"}], "id": "3343300022", "name": "USPS COLLECTION BOX - PO LOBBY", "address": {"city": "BOCA RATON", "state": "FL", "street": "8185 VIA ANCHO RD", "postcode": "33433"}}},
{"geometry": {"type": "Point", "coordinates": [-80.1573578721, 26.3462008828]}, "type": "Feature", "properties": {"collection_times": [{"days": "Mon-Sat", "time": "5:00pm"}, {"days": "Sun", "time": "Closed"}], "id": "3343300023", "name": "USPS COLLECTION BOX - PO LOBBY", "address": {"city": "BOCA RATON", "state": "FL", "street": "8185 VIA ANCHO RD", "postcode": "33433"}}},
{"geometry": {"type": "Point", "coordinates": [-80.1573578721, 26.3462008828]}, "type": "Feature", "properties": {"collection_times": [{"days": "Mon-Sat", "time": "5:00pm"}, {"days": "Sun", "time": "Closed"}], "id": "3343300024", "name": "USPS COLLECTION BOX - PO LOBBY", "address": {"city": "BOCA RATON", "state": "FL", "street": "8185 VIA ANCHO RD", "postcode": "33433"}}},
{"geometry": {"type": "Point", "coordinates": [-80.1573578721, 26.3462008828]}, "type": "Feature", "properties": {"collection_times": [{"days": "Mon-Sat", "time": "5:00pm"}, {"days": "Sun", "time": "Closed"}], "id": "3343300026", "name": "USPS COLLECTION BOX - BLUE BOX", "address": {"city": "BOCA RATON", "state": "FL", "street": "8185 VIA ANCHO RD", "postcode": "33433"}}},
{"geometry": {"type": "Point", "coordinates": [-80.1706863064, 26.3811453051]}, "type": "Feature", "properties": {"collection_times": [{"days": "Mon-Fri", "time": "2:30pm"}, {"days": "Sat", "time": "1:00pm"}, {"days": "Sun", "time": "Closed"}], "id": "3343400002", "name": "USPS COLLECTION BOX - BLUE BOX", "address": {"city": "BOCA RATON", "state": "FL", "street": "8500 W WHISPER WALK BLVD W", "postcode": "33434"}}},
{"geometry": {"type": "Point", "coordinates": [-80.2005471914, 26.3677819549]}, "type": "Feature", "properties": {"collection_times": [{"days": "Mon-Fri", "time": "2:15pm"}, {"days": "Sat", "time": "12:45pm"}, {"days": "Sun", "time": "Closed"}], "id": "3343400004", "name": "USPS COLLECTION BOX - BLUE BOX", "address": {"city": "BOCA RATON", "state": "FL", "street": "9858 GLADES RD", "postcode": "33434"}}},
{"geometry": {"type": "Point", "coordinates": [-80.188127021, 26.3836618225]}, "type": "Feature", "properties": {"collection_times": [{"days": "Mon-Fri", "time": "4:15pm"}, {"days": "Sat", "time": "1:30pm"}, {"days": "Sun", "time": "Closed"}], "id": "3343400007", "name": "USPS COLLECTION BOX - BLUE BOX", "address": {"city": "BOCA RATON", "state": "FL", "street": "9070 KIMBERLY BLVD", "postcode": "33434"}}},
{"geometry": {"type": "Point", "coordinates": [-80.1683124583, 26.3679130898]}, "type": "Feature", "properties": {"collection_times": [{"days": "Mon-Fri", "time": "1:45pm"}, {"days": "Sat", "time": "1:00pm"}, {"days": "Sun", "time": "Closed"}], "id": "3343400008", "name": "USPS COLLECTION BOX - BLUE BOX", "address": {"city": "BOCA RATON", "state": "FL", "street": "7900 GLADES RD", "postcode": "33434"}}},
{"geometry": {"type": "Point", "coordinates": [-80.167573109, 26.3682502332]}, "type": "Feature", "properties": {"collection_times": [{"days": "Mon-Fri", "time": "1:30pm"}, {"days": "Sat", "time": "10:00am"}, {"days": "Sun", "time": "Closed"}], "id": "3343400012", "name": "USPS COLLECTION BOX - BLUE BOX", "address": {"city": "BOCA RATON", "state": "FL", "street": "7777 GLADES RD", "postcode": "33434"}}},
{"geometry": {"type": "Point", "coordinates": [-80.2027967442, 26.3680715506]}, "type": "Feature", "properties": {"collection_times": [{"days": "Mon-Fri", "time": "3:45pm"}, {"days": "Sat", "time": "1:45pm"}, {"days": "Sun", "time": "Closed"}], "id": "3343400020", "name": "USPS COLLECTION BOX - BLUE BOX", "address": {"city": "BOCA RATON", "state": "FL", "street": "9975 GLADES RD", "postcode": "33434"}}},
{"geometry": {"type": "Point", "coordinates": [-80.1865560515, 26.3835151356]}, "type": "Feature", "properties": {"collection_times": [{"days": "Mon-Fri", "time": "2:30pm"}, {"days": "Sat", "time": "1:15pm"}, {"days": "Sun", "time": "Closed"}], "id": "3343400021", "name": "USPS COLLECTION BOX - BLUE BOX", "address": {"city": "BOCA RATON", "state": "FL", "street": "19296 LYONS RD", "postcode": "33434"}}},
{"geometry": {"type": "Point", "coordinates": [-80.2038104843, 26.3853457758]}, "type": "Feature", "properties": {"collection_times": [{"days": "Mon-Fri", "time": "2:30pm"}, {"days": "Sat", "time": "10:15am"}, {"days": "Sun", "time": "Closed"}], "id": "3343400022", "name": "USPS COLLECTION BOX - BLUE BOX", "address": {"city": "BOCA RATON", "state": "FL", "street": "19605 STATE ROAD 7", "postcode": "33434"}}},
{"geometry": {"type": "Point", "coordinates": [-80.0626981512, 26.5289138299]}, "type": "Feature", "properties": {"collection_times": [{"days": "Mon-Sat", "time": "5:00pm"}, {"days": "Sun", "time": "Closed"}], "id": "3343500001", "name": "USPS COLLECTION BOX - BLUE BOX", "address": {"city": "BOYNTON BEACH", "state": "FL", "street": "217 N SEACREST BLVD", "postcode": "33435"}}},
{"geometry": {"type": "Point", "coordinates": [-80.0560691477, 26.5490343827]}, "type": "Feature", "properties": {"collection_times": [{"days": "Mon-Sat", "time": "10:30am"}, {"days": "Sun", "time": "Closed"}], "id": "3343500005", "name": "USPS COLLECTION BOX - BLUE BOX", "address": {"city": "BOYNTON BEACH", "state": "FL", "street": "101 NE 22ND AVE", "postcode": "33435"}}},
{"geometry": {"type": "Point", "coordinates": [-80.0682956437, 26.5045673265]}, "type": "Feature", "properties": {"collection_times": [{"days": "Mon-Sat", "time": "2:15pm"}, {"days": "Sun", "time": "Closed"}], "id": "3343500007", "name": "USPS COLLECTION BOX - BLUE BOX", "address": {"city": "BOYNTON BEACH", "state": "FL", "street": "2815 S SEACREST BLVD", "postcode": "33435"}}},
{"geometry": {"type": "Point", "coordinates": [-80.0535973786, 26.5076075311]}, "type": "Feature", "properties": {"collection_times": [{"days": "Mon-Sat", "time": "2:30pm"}, {"days": "Sun", "time": "Closed"}], "id": "3343500012", "name": "USPS COLLECTION BOX - BLUE BOX", "address": {"city": "BOYNTON BEACH", "state": "FL", "street": "5000 N OCEAN BLVD", "postcode": "33435"}}},
{"geometry": {"type": "Point", "coordinates": [-80.0763657898, 26.5273085297]}, "type": "Feature", "properties": {"collection_times": [{"days": "Mon-Sat", "time": "2:30pm"}, {"days": "Sun", "time": "Closed"}], "id": "3343500015", "name": "USPS COLLECTION BOX - BLUE BOX", "address": {"city": "BOYNTON BEACH", "state": "FL", "street": "639 E OCEAN AVE", "postcode": "33435"}}},
{"geometry": {"type": "Point", "coordinates": [-80.0478296643, 26.5309471109]}, "type": "Feature", "properties": {"collection_times": [{"days": "Mon-Sat", "time": "2:30pm"}, {"days": "Sun", "time": "Closed"}], "id": "3343500016", "name": "USPS COLLECTION BOX - BLUE BOX", "address": {"city": "BOYNTON BEACH", "state": "FL", "street": "6450 N OCEAN BLVD", "postcode": "33435"}}},
{"geometry": {"type": "Point", "coordinates": [-80.0642208669, 26.5281561784]}, "type": "Feature", "properties": {"collection_times": [{"days": "Mon-Sat", "time": "5:00pm"}, {"days": "Sun", "time": "Closed"}], "id": "3343500017", "name": "USPS COLLECTION BOX - PO LOBBY", "address": {"city": "BOYNTON BEACH", "state": "FL", "street": "217 N SEACREST BLVD", "postcode": "33435"}}},
{"geometry": {"type": "Point", "coordinates": [-80.0930443283, 26.5275273771]}, "type": "Feature", "properties": {"collection_times": [{"days": "Mon-Sat", "time": "5:15pm"}, {"days": "Sun", "time": "Closed"}], "id": "3343600001", "name": "USPS COLLECTION BOX - BLUE BOX", "address": {"city": "BOYNTON BEACH", "state": "FL", "street": "1530 W BOYNTON BEACH BLVD", "postcode": "33436"}}},
{"geometry": {"type": "Point", "coordinates": [-80.1065463878, 26.5249713719]}, "type": "Feature", "properties": {"collection_times": [{"days": "Mon-Fri", "time": "2:30pm"}, {"days": "Sat", "time": "2:00pm"}, {"days": "Sun", "time": "Closed"}], "id": "3343600007", "name": "USPS COLLECTION BOX - BLUE BOX", "address": {"city": "BOYNTON BEACH", "state": "FL", "street": "1 EASTGATE DR", "postcode": "33436"}}},
{"geometry": {"type": "Point", "coordinates": [-80.1226894058, 26.5310147937]}, "type": "Feature", "properties": {"collection_times": [{"days": "Mon-Sat", "time": "1:45pm"}, {"days": "Sun", "time": "Closed"}], "id": "3343600015", "name": "USPS COLLECTION BOX - BLUE BOX", "address": {"city": "BOYNTON BEACH", "state": "FL", "street": "9770 S MILITARY TRL", "postcode": "33436"}}},
{"geometry": {"type": "Point", "coordinates": [-80.1213631829, 26.55471414]}, "type": "Feature", "properties": {"collection_times": [{"days": "Mon-Sat", "time": "1:45pm"}, {"days": "Sun", "time": "Closed"}], "id": "3343600021", "name": "USPS COLLECTION BOX - BLUE BOX", "address": {"city": "BOYNTON BEACH", "state": "FL", "street": "4966 LE CHALET BLVD", "postcode": "33436"}}},
{"geometry": {"type": "Point", "coordinates": [-80.0930443283, 26.5275273771]}, "type": "Feature", "properties": {"collection_times": [{"days": "Mon-Sat", "time": "5:15pm"}, {"days": "Sun", "time": "Closed"}], "id": "3343600022", "name": "USPS COLLECTION BOX - PO LOBBY", "address": {"city": "BOYNTON BEACH", "state": "FL", "street": "1530 W BOYNTON BEACH BLVD", "postcode": "33436"}}},
{"geometry": {"type": "Point", "coordinates": [-80.0930443283, 26.5275273771]}, "type": "Feature", "properties": {"collection_times": [{"days": "Mon-Sat", "time": "5:15pm"}, {"days": "Sun", "time": "Closed"}], "id": "3343600023", "name": "USPS COLLECTION BOX - APC", "address": {"city": "BOYNTON BEACH", "state": "FL", "street": "1530 W BOYNTON BEACH BLVD", "postcode": "33436"}}},
{"geometry": {"type": "Point", "coordinates": [-80.1028018993, 26.5063652379]}, "type": "Feature", "properties": {"collection_times": [{"days": "Mon-Fri", "time": "2:15pm"}, {"days": "Sat-Sun", "time": "Closed"}], "id": "3343600024", "name": "USPS COLLECTION BOX - BLUE BOX", "address": {"city": "BOYNTON BEACH", "state": "FL", "street": "3800 GOLF RD", "postcode": "33436"}}},
{"geometry": {"type": "Point", "coordinates": [-80.0930443283, 26.5275273771]}, "type": "Feature", "properties": {"collection_times": [{"days": "Mon-Sat", "time": "5:15pm"}, {"days": "Sun", "time": "Closed"}], "id": "3343600025", "name": "USPS COLLECTION BOX - PO LOBBY", "address": {"city": "BOYNTON BEACH", "state": "FL", "street": "1530 W BOYNTON BEACH BLVD", "postcode": "33436"}}},
{"geometry": {"type": "Point", "coordinates": [-80.138576165, 26.505470292]}, "type": "Feature", "properties": {"collection_times": [{"days": "Mon-Sat", "time": "12:15pm"}, {"days": "Sun", "time": "Closed"}], "id": "3343700003", "name": "USPS COLLECTION BOX - BLUE BOX", "address": {"city": "BOYNTON BEACH", "state": "FL", "street": "11500 EL CLAIR RANCH RD", "postcode": "33437"}}},
{"geometry": {"type": "Point", "coordinates": [-80.1458989348, 26.5281815534]}, "type": "Feature", "properties": {"collection_times": [{"days": "Mon-Sat", "time": "5:15pm"}, {"days": "Sun", "time": "Closed"}], "id": "3343700011", "name": "USPS COLLECTION BOX - PO LOBBY", "address": {"city": "BOYNTON BEACH", "state": "FL", "street": "6400 W BOYNTON BEACH BLVD", "postcode": "33437"}}},
{"geometry": {"type": "Point", "coordinates": [-80.1458989348, 26.5281815534]}, "type": "Feature", "properties": {"collection_times": [{"days": "Mon-Sat", "time": "5:15pm"}, {"days": "Sun", "time": "Closed"}], "id": "3343700013", "name": "USPS COLLECTION BOX - BLUE BOX", "address": {"city": "BOYNTON BEACH", "state": "FL", "street": "6400 W BOYNTON BEACH BLVD", "postcode": "33437"}}},
{"geometry": {"type": "Point", "coordinates": [-80.1458989348, 26.5281815534]}, "type": "Feature", "properties": {"collection_times": [{"days": "Mon-Sat", "time": "5:15pm"}, {"days": "Sun", "time": "Closed"}], "id": "3343700015", "name": "USPS COLLECTION BOX - APC", "address": {"city": "BOYNTON BEACH", "state": "FL", "street": "6400 W BOYNTON BEACH BLVD", "postcode": "33437"}}},
{"geometry": {"type": "Point", "coordinates": [-80.1458989348, 26.5281815534]}, "type": "Feature", "properties": {"collection_times": [{"days": "Mon-Sat", "time": "5:15pm"}, {"days": "Sun", "time": "Closed"}], "id": "3343700016", "name": "USPS COLLECTION BOX - APC", "address": {"city": "BOYNTON BEACH", "state": "FL", "street": "6400 W BOYNTON BEACH BLVD", "postcode": "33437"}}},
{"geometry": {"type": "Point", "coordinates": [-80.1458989348, 26.5281815534]}, "type": "Feature", "properties": {"collection_times": [{"days": "Mon-Sat", "time": "5:15pm"}, {"days": "Sun", "time": "Closed"}], "id": "3343700017", "name": "USPS COLLECTION BOX - PO LOBBY", "address": {"city": "BOYNTON BEACH", "state": "FL", "street": "6400 W BOYNTON BEACH BLVD", "postcode": "33437"}}},
{"geometry": {"type": "Point", "coordinates": [-80.1458989348, 26.5281815534]}, "type": "Feature", "properties": {"collection_times": [{"days": "Mon-Sat", "time": "5:15pm"}, {"days": "Sun", "time": "Closed"}], "id": "3343700018", "name": "USPS COLLECTION BOX - PO LOBBY", "address": {"city": "BOYNTON BEACH", "state": "FL", "street": "6400 W BOYNTON BEACH BLVD", "postcode": "33437"}}},
{"geometry": {"type": "Point", "coordinates": [-80.1850325202, 26.5278159494]}, "type": "Feature", "properties": {"collection_times": [{"days": "Mon-Fri", "time": "4:30pm"}, {"days": "Sat", "time": "1:00pm"}, {"days": "Sun", "time": "Closed"}], "id": "3343700019", "name": "USPS COLLECTION BOX - BLUE BOX", "address": {"city": "BOYNTON BEACH", "state": "FL", "street": "8784 BOYNTON BEACH BLVD", "postcode": "33437"}}},
{"geometry": {"type": "Point", "coordinates": [-80.6320039816, 26.8626963236]}, "type": "Feature", "properties": {"collection_times": [{"days": "Mon-Fri", "time": "3:30pm"}, {"days": "Sat", "time": "9:00am"}, {"days": "Sun", "time": "Closed"}], "id": "3343800001", "name": "USPS COLLECTION BOX - BLUE BOX", "address": {"city": "CANAL POINT", "state": "FL", "street": "12570 US HIGHWAY 441", "postcode": "33438"}}},
{"geometry": {"type": "Point", "coordinates": [-80.6320039816, 26.8626963236]}, "type": "Feature", "properties": {"collection_times": [{"days": "Mon-Fri", "time": "3:30pm"}, {"days": "Sat", "time": "9:00am"}, {"days": "Sun", "time": "Closed"}], "id": "3343800002", "name": "USPS COLLECTION BOX - PO LOBBY", "address": {"city": "CANAL POINT", "state": "FL", "street": "12570 US HIGHWAY 441", "postcode": "33438"}}},
{"geometry": {"type": "Point", "coordinates": [-80.6320039816, 26.8626963236]}, "type": "Feature", "properties": {"collection_times": [{"days": "Mon-Fri", "time": "3:30pm"}, {"days": "Sat", "time": "9:00am"}, {"days": "Sun", "time": "Closed"}], "id": "3343800003", "name": "USPS COLLECTION BOX - PO LOBBY", "address": {"city": "CANAL POINT", "state": "FL", "street": "12570 US HIGHWAY 441", "postcode": "33438"}}},
{"geometry": {"type": "Point", "coordinates": [-80.9469264059, 26.7509563384]}, "type": "Feature", "properties": {"collection_times": [{"days": "Mon-Fri", "time": "4:00pm"}, {"days": "Sat", "time": "3:00pm"}, {"days": "Sun", "time": "Closed"}], "id": "3344000001", "name": "USPS COLLECTION BOX - BLUE BOX", "address": {"city": "CLEWISTON", "state": "FL", "street": "400 S BERNER RD", "postcode": "33440"}}},
{"geometry": {"type": "Point", "coordinates": [-80.9343411596, 26.7534454157]}, "type": "Feature", "properties": {"collection_times": [{"days": "Mon-Fri", "time": "2:30pm"}, {"days": "Sat", "time": "2:00pm"}, {"days": "Sun", "time": "Closed"}], "id": "3344000005", "name": "USPS COLLECTION BOX - BLUE BOX", "address": {"city": "CLEWISTON", "state": "FL", "street": "141 CENTRAL AVE", "postcode": "33440"}}},
{"geometry": {"type": "Point", "coordinates": [-80.9343411596, 26.7534454157]}, "type": "Feature", "properties": {"collection_times": [{"days": "Mon-Fri", "time": "2:30pm"}, {"days": "Sat", "time": "2:00pm"}, {"days": "Sun", "time": "Closed"}], "id": "3344000006", "name": "USPS COLLECTION BOX - BLUE BOX", "address": {"city": "CLEWISTON", "state": "FL", "street": "141 CENTRAL AVE", "postcode": "33440"}}},
{"geometry": {"type": "Point", "coordinates": [-80.9469264059, 26.7509563384]}, "type": "Feature", "properties": {"collection_times": [{"days": "Mon-Fri", "time": "4:00pm"}, {"days": "Sat", "time": "3:00pm"}, {"days": "Sun", "time": "Closed"}], "id": "3344000010", "name": "USPS COLLECTION BOX - PO LOBBY", "address": {"city": "CLEWISTON", "state": "FL", "street": "400 S BERNER RD", "postcode": "33440"}}},
{"geometry": {"type": "Point", "coordinates": [-80.9469264059, 26.7509563384]}, "type": "Feature", "properties": {"collection_times": [{"days": "Mon-Fri", "time": "4:00pm"}, {"days": "Sat", "time": "3:00pm"}, {"days": "Sun", "time": "Closed"}], "id": "3344000011", "name": "USPS COLLECTION BOX - PO LOBBY", "address": {"city": "CLEWISTON", "state": "FL", "street": "400 S BERNER RD", "postcode": "33440"}}},
{"geometry": {"type": "Point", "coordinates": [-80.1052551725, 26.3163307833]}, "type": "Feature", "properties": {"collection_times": [{"days": "Mon-Fri", "time": "2:30pm"}, {"days": "Sat-Sun", "time": "Closed"}], "id": "3344100004", "name": "USPS COLLECTION BOX - BLUE BOX", "address": {"city": "DEERFIELD BEACH", "state": "FL", "street": "150 NE 2ND AVE", "postcode": "33441"}}},
{"geometry": {"type": "Point", "coordinates": [-80.0762951157, 26.312668928]}, "type": "Feature", "properties": {"collection_times": [{"days": "Mon-Sat", "time": "11:30am"}, {"days": "Sun", "time": "Closed"}], "id": "3344100006", "name": "USPS COLLECTION BOX - BLUE BOX", "address": {"city": "DEERFIELD BEACH", "state": "FL", "street": "2080 NE 2ND ST", "postcode": "33441"}}},
{"geometry": {"type": "Point", "coordinates": [-80.0908892918, 26.3206379808]}, "type": "Feature", "properties": {"collection_times": [{"days": "Mon-Sat", "time": "12:15pm"}, {"days": "Sun", "time": "Closed"}], "id": "3344100013", "name": "USPS COLLECTION BOX - BLUE BOX", "address": {"city": "DEERFIELD BEACH", "state": "FL", "street": "201 N FEDERAL HWY", "postcode": "33441"}}},
{"geometry": {"type": "Point", "coordinates": [-80.0915217739, 26.3123821069]}, "type": "Feature", "properties": {"collection_times": [{"days": "Mon-Sat", "time": "12:00pm"}, {"days": "Sun", "time": "Closed"}], "id": "3344100017", "name": "USPS COLLECTION BOX - BLUE BOX", "address": {"city": "DEERFIELD BEACH", "state": "FL", "street": "440 S FEDERAL HWY", "postcode": "33441"}}},
{"geometry": {"type": "Point", "coordinates": [-80.0927413024, 26.3067568102]}, "type": "Feature", "properties": {"collection_times": [{"days": "Mon-Sat", "time": "10:30am"}, {"days": "Sun", "time": "Closed"}], "id": "3344100018", "name": "USPS COLLECTION BOX - BLUE BOX", "address": {"city": "DEERFIELD BEACH", "state": "FL", "street": "845 S FEDERAL HWY", "postcode": "33441"}}},
{"geometry": {"type": "Point", "coordinates": [-80.0926265772, 26.3057120301]}, "type": "Feature", "properties": {"collection_times": [{"days": "Mon-Sat", "time": "11:15am"}, {"days": "Sun", "time": "Closed"}], "id": "3344100019", "name": "USPS COLLECTION BOX - BLUE BOX", "address": {"city": "DEERFIELD BEACH", "state": "FL", "street": "930 S FEDERAL HWY", "postcode": "33441"}}},
{"geometry": {"type": "Point", "coordinates": [-80.0931075593, 26.3045316616]}, "type": "Feature", "properties": {"collection_times": [{"days": "Mon-Sat", "time": "11:00am"}, {"days": "Sun", "time": "Closed"}], "id": "3344100021", "name": "USPS COLLECTION BOX - BLUE BOX", "address": {"city": "DEERFIELD BEACH", "state": "FL", "street": "1031 S FEDERAL HWY", "postcode": "33441"}}},
{"geometry": {"type": "Point", "coordinates": [-80.0996103606, 26.3183485587]}, "type": "Feature", "properties": {"collection_times": [{"days": "Mon-Fri", "time": "5:15pm"}, {"days": "Sat", "time": "4:00pm"}, {"days": "Sun", "time": "Closed"}], "id": "3344100025", "name": "USPS COLLECTION BOX - BLUE BOX", "address": {"city": "DEERFIELD BEACH", "state": "FL", "street": "212 E HILLSBORO BLVD", "postcode": "33441"}}},
{"geometry": {"type": "Point", "coordinates": [-80.0996103606, 26.3183485587]}, "type": "Feature", "properties": {"collection_times": [{"days": "Mon-Fri", "time": "5:15pm"}, {"days": "Sat", "time": "4:00pm"}, {"days": "Sun", "time": "Closed"}], "id": "3344100027", "name": "USPS COLLECTION BOX - PO LOBBY", "address": {"city": "DEERFIELD BEACH", "state": "FL", "street": "212 E HILLSBORO BLVD", "postcode": "33441"}}},
{"geometry": {"type": "Point", "coordinates": [-80.110485694, 26.3186233865]}, "type": "Feature", "properties": {"collection_times": [{"days": "Mon-Sat", "time": "9:45am"}, {"days": "Sun", "time": "Closed"}], "id": "3344100030", "name": "USPS COLLECTION BOX - BLUE BOX", "address": {"city": "DEERFIELD BEACH", "state": "FL", "street": "10 FAIRWAY DR", "postcode": "33441"}}},
{"geometry": {"type": "Point", "coordinates": [-80.1147031111, 26.3230299613]}, "type": "Feature", "properties": {"collection_times": [{"days": "Mon-Fri", "time": "3:15pm"}, {"days": "Sat", "time": "12:00pm"}, {"days": "Sun", "time": "Closed"}], "id": "3344100031", "name": "USPS COLLECTION BOX - BLUE BOX", "address": {"city": "DEERFIELD BEACH", "state": "FL", "street": "400 FAIRWAY DR", "postcode": "33441"}}},
{"geometry": {"type": "Point", "coordinates": [-80.1156711424, 26.3096881647]}, "type": "Feature", "properties": {"collection_times": [{"days": "Mon-Sat", "time": "10:30am"}, {"days": "Sun", "time": "Closed"}], "id": "3344100041", "name": "USPS COLLECTION BOX - BLUE BOX", "address": {"city": "DEERFIELD BEACH", "state": "FL", "street": "999 SIESTA KEY BLVD", "postcode": "33441"}}},
{"geometry": {"type": "Point", "coordinates": [-80.1169398928, 26.3068903369]}, "type": "Feature", "properties": {"collection_times": [{"days": "Mon-Fri", "time": "12:30pm"}, {"days": "Sat", "time": "12:15pm"}, {"days": "Sun", "time": "Closed"}], "id": "3344100042", "name": "USPS COLLECTION BOX - BLUE BOX", "address": {"city": "DEERFIELD BEACH", "state": "FL", "street": "977 SPRING CIR", "postcode": "33441"}}},
{"geometry": {"type": "Point", "coordinates": [-80.0840299511, 26.3135645498]}, "type": "Feature", "properties": {"collection_times": [{"days": "Mon-Fri", "time": "2:30pm"}, {"days": "Sat-Sun", "time": "Closed"}], "id": "3344100046", "name": "USPS COLLECTION BOX - BLUE BOX", "address": {"city": "DEERFIELD BEACH", "state": "FL", "street": "1600 SE 3RD CT", "postcode": "33441"}}},
{"geometry": {"type": "Point", "coordinates": [-80.0910577993, 26.3151250999]}, "type": "Feature", "properties": {"collection_times": [{"days": "Mon-Sat", "time": "12:00pm"}, {"days": "Sun", "time": "Closed"}], "id": "3344100047", "name": "USPS COLLECTION BOX - BLUE BOX", "address": {"city": "DEERFIELD BEACH", "state": "FL", "street": "210 S FEDERAL HWY", "postcode": "33441"}}},
{"geometry": {"type": "Point", "coordinates": [-80.0996103606, 26.3183485587]}, "type": "Feature", "properties": {"collection_times": [{"days": "Mon-Fri", "time": "5:15pm"}, {"days": "Sat", "time": "4:00pm"}, {"days": "Sun", "time": "Closed"}], "id": "3344100048", "name": "USPS COLLECTION BOX - APC", "address": {"city": "DEERFIELD BEACH", "state": "FL", "street": "212 E HILLSBORO BLVD", "postcode": "33441"}}},
{"geometry": {"type": "Point", "coordinates": [-80.1126402039, 26.3182307531]}, "type": "Feature", "properties": {"collection_times": [{"days": "Mon-Fri", "time": "3:15pm"}, {"days": "Sat-Sun", "time": "Closed"}], "id": "3344100049", "name": "USPS COLLECTION BOX - BLUE BOX", "address": {"city": "DEERFIELD BEACH", "state": "FL", "street": "700 W HILLSBORO BLVD", "postcode": "33441"}}},
{"geometry": {"type": "Point", "coordinates": [-80.1116420425, 26.3182395046]}, "type": "Feature", "properties": {"collection_times": [{"days": "Mon-Fri", "time": "3:15pm"}, {"days": "Sat-Sun", "time": "Closed"}], "id": "3344100050", "name": "USPS COLLECTION BOX - BLUE BOX", "address": {"city": "DEERFIELD BEACH", "state": "FL", "street": "600 W HILLSBORO BLVD", "postcode": "33441"}}},
{"geometry": {"type": "Point", "coordinates": [-80.0996103606, 26.3183485587]}, "type": "Feature", "properties": {"collection_times": [{"days": "Mon-Fri", "time": "5:15pm"}, {"days": "Sat", "time": "4:00pm"}, {"days": "Sun", "time": "Closed"}], "id": "3344100052", "name": "USPS COLLECTION BOX - PO LOBBY", "address": {"city": "DEERFIELD BEACH", "state": "FL", "street": "212 E HILLSBORO BLVD", "postcode": "33441"}}},
{"geometry": {"type": "Point", "coordinates": [-80.1199705484, 26.3150280064]}, "type": "Feature", "properties": {"collection_times": [{"days": "Mon-Sat", "time": "11:30am"}, {"days": "Sun", "time": "Closed"}], "id": "3344200004", "name": "USPS COLLECTION BOX - BLUE BOX", "address": {"city": "DEERFIELD BEACH", "state": "FL", "street": "160 SW 12TH AVE", "postcode": "33442"}}},
{"geometry": {"type": "Point", "coordinates": [-80.1418012692, 26.3199611873]}, "type": "Feature", "properties": {"collection_times": [{"days": "Mon-Fri", "time": "1:45pm"}, {"days": "Sat", "time": "1:00pm"}, {"days": "Sun", "time": "Closed"}], "id": "3344200012", "name": "USPS COLLECTION BOX - BLUE BOX", "address": {"city": "DEERFIELD BEACH", "state": "FL", "street": "2801 DEER CREEK COUNTRY CLUB BLVD", "postcode": "33442"}}},
{"geometry": {"type": "Point", "coordinates": [-80.1260370681, 26.315381747]}, "type": "Feature", "properties": {"collection_times": [{"days": "Mon-Sat", "time": "4:00pm"}, {"days": "Sun", "time": "Closed"}], "id": "3344200019", "name": "USPS COLLECTION BOX - BLUE BOX", "address": {"city": "DEERFIELD BEACH", "state": "FL", "street": "155 GOOLSBY BLVD", "postcode": "33442"}}},
{"geometry": {"type": "Point", "coordinates": [-80.1270176974, 26.3181017965]}, "type": "Feature", "properties": {"collection_times": [{"days": "Mon-Fri", "time": "1:45pm"}, {"days": "Sat", "time": "1:00pm"}, {"days": "Sun", "time": "Closed"}], "id": "3344200024", "name": "USPS COLLECTION BOX - BLUE BOX", "address": {"city": "DEERFIELD BEACH", "state": "FL", "street": "1701 W HILLSBORO BLVD", "postcode": "33442"}}},
{"geometry": {"type": "Point", "coordinates": [-80.1283590866, 26.3178547256]}, "type": "Feature", "properties": {"collection_times": [{"days": "Mon-Sat", "time": "10:00am"}, {"days": "Sun", "time": "Closed"}], "id": "3344200028", "name": "USPS COLLECTION BOX - BLUE BOX", "address": {"city": "DEERFIELD BEACH", "state": "FL", "street": "1804 W HILLSBORO BLVD", "postcode": "33442"}}},
{"geometry": {"type": "Point", "coordinates": [-80.1485731126, 26.317771282]}, "type": "Feature", "properties": {"collection_times": [{"days": "Mon-Fri", "time": "4:00pm"}, {"days": "Sat", "time": "1:00pm"}, {"days": "Sun", "time": "Closed"}], "id": "3344200029", "name": "USPS COLLECTION BOX - BLUE BOX", "address": {"city": "DEERFIELD BEACH", "state": "FL", "street": "3310 W HILLSBORO BLVD", "postcode": "33442"}}},
{"geometry": {"type": "Point", "coordinates": [-80.1263320323, 26.3213535181]}, "type": "Feature", "properties": {"collection_times": [{"days": "Mon-Sat", "time": "12:30pm"}, {"days": "Sun", "time": "Closed"}], "id": "3344200032", "name": "USPS COLLECTION BOX - BLUE BOX", "address": {"city": "DEERFIELD BEACH", "state": "FL", "street": "301 LOCK RD", "postcode": "33442"}}},
{"geometry": {"type": "Point", "coordinates": [-80.1270077507, 26.3082792625]}, "type": "Feature", "properties": {"collection_times": [{"days": "Mon-Fri", "time": "2:00pm"}, {"days": "Sat", "time": "1:15pm"}, {"days": "Sun", "time": "Closed"}], "id": "3344200038", "name": "USPS COLLECTION BOX - BLUE BOX", "address": {"city": "DEERFIELD BEACH", "state": "FL", "street": "734 S MILITARY TRL", "postcode": "33442"}}},
{"geometry": {"type": "Point", "coordinates": [-80.1353452387, 26.3002731454]}, "type": "Feature", "properties": {"collection_times": [{"days": "Mon-Fri", "time": "1:45pm"}, {"days": "Sat", "time": "1:15pm"}, {"days": "Sun", "time": "Closed"}], "id": "3344200039", "name": "USPS COLLECTION BOX - BLUE BOX", "address": {"city": "DEERFIELD BEACH", "state": "FL", "street": "1341 S MILITARY TRL", "postcode": "33442"}}},
{"geometry": {"type": "Point", "coordinates": [-80.1280832757, 26.3167301754]}, "type": "Feature", "properties": {"collection_times": [{"days": "Mon-Sat", "time": "4:00pm"}, {"days": "Sun", "time": "Closed"}], "id": "3344200045", "name": "USPS COLLECTION BOX - PO LOBBY", "address": {"city": "DEERFIELD BEACH", "state": "FL", "street": "100 S MILITARY TRL STE 13", "postcode": "33442"}}},
{"geometry": {"type": "Point", "coordinates": [-80.1252728453, 26.2980961835]}, "type": "Feature", "properties": {"collection_times": [{"days": "Mon-Fri", "time": "2:00pm"}, {"days": "Sat", "time": "1:15pm"}, {"days": "Sun", "time": "Closed"}], "id": "3344200046", "name": "USPS COLLECTION BOX - BLUE BOX", "address": {"city": "DEERFIELD BEACH", "state": "FL", "street": "1400 E NEWPORT CENTER DR", "postcode": "33442"}}},
{"geometry": {"type": "Point", "coordinates": [-80.1252728453, 26.2980961835]}, "type": "Feature", "properties": {"collection_times": [{"days": "Mon-Sat", "time": "12:00pm"}, {"days": "Sun", "time": "Closed"}], "id": "3344200047", "name": "USPS COLLECTION BOX - BLUE BOX", "address": {"city": "DEERFIELD BEACH", "state": "FL", "street": "1400 E NEWPORT CENTER DR", "postcode": "33442"}}},
{"geometry": {"type": "Point", "coordinates": [-80.0749802429, 26.4571526736]}, "type": "Feature", "properties": {"collection_times": [{"days": "Mon-Sat", "time": "3:00pm"}, {"days": "Sun", "time": "Closed"}], "id": "3344400001", "name": "USPS COLLECTION BOX - BLUE BOX", "address": {"city": "DELRAY BEACH", "state": "FL", "street": "245 NE 2ND AVE", "postcode": "33444"}}},
{"geometry": {"type": "Point", "coordinates": [-80.0741820476, 26.4643431728]}, "type": "Feature", "properties": {"collection_times": [{"days": "Mon-Fri", "time": "3:00pm"}, {"days": "Sat-Sun", "time": "Closed"}], "id": "3344400005", "name": "USPS COLLECTION BOX - BLUE BOX", "address": {"city": "DELRAY BEACH", "state": "FL", "street": "100 NW 1ST AVE", "postcode": "33444"}}},
{"geometry": {"type": "Point", "coordinates": [-80.0756169768, 26.4615667681]}, "type": "Feature", "properties": {"collection_times": [{"days": "Mon-Fri", "time": "3:00pm"}, {"days": "Sat-Sun", "time": "Closed"}], "id": "3344400008", "name": "USPS COLLECTION BOX - BLUE BOX", "address": {"city": "DELRAY BEACH", "state": "FL", "street": "200 W ATLANTIC AVE", "postcode": "33444"}}},
{"geometry": {"type": "Point", "coordinates": [-80.0697080968, 26.4616389286]}, "type": "Feature", "properties": {"collection_times": [{"days": "Mon-Fri", "time": "3:15pm"}, {"days": "Sat", "time": "3:00pm"}, {"days": "Sun", "time": "Closed"}], "id": "3344400013", "name": "USPS COLLECTION BOX - BLUE BOX", "address": {"city": "DELRAY BEACH", "state": "FL", "street": "302 E ATLANTIC AVE", "postcode": "33444"}}},
{"geometry": {"type": "Point", "coordinates": [-80.0845737498, 26.4617479695]}, "type": "Feature", "properties": {"collection_times": [{"days": "Mon-Fri", "time": "3:15pm"}, {"days": "Sat", "time": "3:00pm"}, {"days": "Sun", "time": "Closed"}], "id": "3344400016", "name": "USPS COLLECTION BOX - BLUE BOX", "address": {"city": "DELRAY BEACH", "state": "FL", "street": "1049 E ATLANTIC AVE", "postcode": "33444"}}},
{"geometry": {"type": "Point", "coordinates": [-80.0682802653, 26.4616507582]}, "type": "Feature", "properties": {"collection_times": [{"days": "Mon-Sat", "time": "1:30pm"}, {"days": "Sun", "time": "Closed"}], "id": "3344400017", "name": "USPS COLLECTION BOX - BLUE BOX", "address": {"city": "DELRAY BEACH", "state": "FL", "street": "429 E ATLANTIC AVE", "postcode": "33444"}}},
{"geometry": {"type": "Point", "coordinates": [-80.0751059385, 26.4604973732]}, "type": "Feature", "properties": {"collection_times": [{"days": "Mon-Fri", "time": "2:45pm"}, {"days": "Sat", "time": "3:00pm"}, {"days": "Sun", "time": "Closed"}], "id": "3344400020", "name": "USPS COLLECTION BOX - BLUE BOX", "address": {"city": "DELRAY BEACH", "state": "FL", "street": "65 NE 2ND AVE", "postcode": "33444"}}},
{"geometry": {"type": "Point", "coordinates": [-80.0682246662, 26.4707512615]}, "type": "Feature", "properties": {"collection_times": [{"days": "Mon-Fri", "time": "1:30pm"}, {"days": "Sat", "time": "2:45pm"}, {"days": "Sun", "time": "Closed"}], "id": "3344400027", "name": "USPS COLLECTION BOX - BLUE BOX", "address": {"city": "DELRAY BEACH", "state": "FL", "street": "500 NE 5 AVE", "postcode": "33444"}}},
{"geometry": {"type": "Point", "coordinates": [-80.0673918631, 26.4497939602]}, "type": "Feature", "properties": {"collection_times": [{"days": "Mon-Fri", "time": "3:30pm"}, {"days": "Sat", "time": "3:15pm"}, {"days": "Sun", "time": "Closed"}], "id": "3344400028", "name": "USPS COLLECTION BOX - BLUE BOX", "address": {"city": "DELRAY BEACH", "state": "FL", "street": "551 SE 8TH ST", "postcode": "33444"}}},
{"geometry": {"type": "Point", "coordinates": [-80.0696549704, 26.4423148265]}, "type": "Feature", "properties": {"collection_times": [{"days": "Mon-Fri", "time": "3:30pm"}, {"days": "Sat", "time": "3:15pm"}, {"days": "Sun", "time": "Closed"}], "id": "3344400030", "name": "USPS COLLECTION BOX - BLUE BOX", "address": {"city": "DELRAY BEACH", "state": "FL", "street": "1530 S FEDERAL HWY", "postcode": "33444"}}},
{"geometry": {"type": "Point", "coordinates": [-80.0732356804, 26.4396725636]}, "type": "Feature", "properties": {"collection_times": [{"days": "Mon-Fri", "time": "3:45pm"}, {"days": "Sat", "time": "3:15pm"}, {"days": "Sun", "time": "Closed"}], "id": "3344400031", "name": "USPS COLLECTION BOX - BLUE BOX", "address": {"city": "DELRAY BEACH", "state": "FL", "street": "100 E LINTON BLVD", "postcode": "33444"}}},
{"geometry": {"type": "Point", "coordinates": [-80.0705846693, 26.4368855123]}, "type": "Feature", "properties": {"collection_times": [{"days": "Mon-Fri", "time": "3:45pm"}, {"days": "Sat", "time": "3:30pm"}, {"days": "Sun", "time": "Closed"}], "id": "3344400037", "name": "USPS COLLECTION BOX - BLUE BOX", "address": {"city": "DELRAY BEACH", "state": "FL", "street": "800 TROPIC BLVD", "postcode": "33444"}}},
{"geometry": {"type": "Point", "coordinates": [-80.0703397968, 26.4409714526]}, "type": "Feature", "properties": {"collection_times": [{"days": "Mon-Fri", "time": "3:45pm"}, {"days": "Sat", "time": "3:30pm"}, {"days": "Sun", "time": "Closed"}], "id": "3344400039", "name": "USPS COLLECTION BOX - BLUE BOX", "address": {"city": "DELRAY BEACH", "state": "FL", "street": "335 E LINTON BLVD STE B14", "postcode": "33444"}}},
{"geometry": {"type": "Point", "coordinates": [-80.0655227879, 26.4616744174]}, "type": "Feature", "properties": {"collection_times": [{"days": "Mon-Fri", "time": "3:30pm"}, {"days": "Sat", "time": "3:00pm"}, {"days": "Sun", "time": "Closed"}], "id": "3344400040", "name": "USPS COLLECTION BOX - BLUE BOX", "address": {"city": "DELRAY BEACH", "state": "FL", "street": "777 E ATLANTIC AVE", "postcode": "33444"}}},
{"geometry": {"type": "Point", "coordinates": [-80.0655227879, 26.4616744174]}, "type": "Feature", "properties": {"collection_times": [{"days": "Mon-Fri", "time": "3:30pm"}, {"days": "Sat", "time": "3:00pm"}, {"days": "Sun", "time": "Closed"}], "id": "3344400045", "name": "USPS COLLECTION BOX - BLUE BOX", "address": {"city": "DELRAY BEACH", "state": "FL", "street": "777 E ATLANTIC AVE", "postcode": "33444"}}},
{"geometry": {"type": "Point", "coordinates": [-80.0732356804, 26.4396725636]}, "type": "Feature", "properties": {"collection_times": [{"days": "Mon-Fri", "time": "3:45pm"}, {"days": "Sat", "time": "3:15pm"}, {"days": "Sun", "time": "Closed"}], "id": "3344400050", "name": "USPS COLLECTION BOX - BLUE BOX", "address": {"city": "DELRAY BEACH", "state": "FL", "street": "100 E LINTON BLVD", "postcode": "33444"}}},
{"geometry": {"type": "Point", "coordinates": [-80.0718102148, 26.4616460264]}, "type": "Feature", "properties": {"collection_times": [{"days": "Mon-Fri", "time": "3:15pm"}, {"days": "Sat", "time": "3:00pm"}, {"days": "Sun", "time": "Closed"}], "id": "3344400052", "name": "USPS COLLECTION BOX - BLUE BOX", "address": {"city": "DELRAY BEACH", "state": "FL", "street": "110 E ATLANTIC AVE", "postcode": "33444"}}},
{"geometry": {"type": "Point", "coordinates": [-80.0749802429, 26.4571526736]}, "type": "Feature", "properties": {"collection_times": [{"days": "Mon-Sat", "time": "3:00pm"}, {"days": "Sun", "time": "Closed"}], "id": "3344400053", "name": "USPS COLLECTION BOX - BLUE BOX", "address": {"city": "DELRAY BEACH", "state": "FL", "street": "245 NE 2ND AVE", "postcode": "33444"}}},
{"geometry": {"type": "Point", "coordinates": [-80.0958515395, 26.4592608263]}, "type": "Feature", "properties": {"collection_times": [{"days": "Mon-Fri", "time": "3:30pm"}, {"days": "Sat-Sun", "time": "Closed"}], "id": "3344500002", "name": "USPS COLLECTION BOX - BLUE BOX", "address": {"city": "DELRAY BEACH", "state": "FL", "street": "2162 W ATLANTIC AVE", "postcode": "33445"}}},
{"geometry": {"type": "Point", "coordinates": [-80.1170690419, 26.4577623721]}, "type": "Feature", "properties": {"collection_times": [{"days": "Mon-Fri", "time": "4:00pm"}, {"days": "Sat-Sun", "time": "Closed"}], "id": "3344500004", "name": "USPS COLLECTION BOX - BLUE BOX", "address": {"city": "DELRAY BEACH", "state": "FL", "street": "4650 W ATLANTIC AVE", "postcode": "33445"}}},
{"geometry": {"type": "Point", "coordinates": [-80.1184120099, 26.4579693382]}, "type": "Feature", "properties": {"collection_times": [{"days": "Mon-Fri", "time": "12:00pm"}, {"days": "Sat-Sun", "time": "Closed"}], "id": "3344500005", "name": "USPS COLLECTION BOX - BLUE BOX", "address": {"city": "DELRAY BEACH", "state": "FL", "street": "4771 W ATLANTIC AVE", "postcode": "33445"}}},
{"geometry": {"type": "Point", "coordinates": [-80.1184120099, 26.4579693382]}, "type": "Feature", "properties": {"collection_times": [{"days": "Mon-Fri", "time": "12:00pm"}, {"days": "Sat-Sun", "time": "Closed"}], "id": "3344500006", "name": "USPS COLLECTION BOX - BLUE BOX", "address": {"city": "DELRAY BEACH", "state": "FL", "street": "4771 W ATLANTIC AVE", "postcode": "33445"}}},
{"geometry": {"type": "Point", "coordinates": [-80.092475325, 26.4351915151]}, "type": "Feature", "properties": {"collection_times": [{"days": "Mon-Fri", "time": "3:45pm"}, {"days": "Sat-Sun", "time": "Closed"}], "id": "3344500013", "name": "USPS COLLECTION BOX - BLUE BOX", "address": {"city": "DELRAY BEACH", "state": "FL", "street": "1690 S CONGRESS AVE", "postcode": "33445"}}},
{"geometry": {"type": "Point", "coordinates": [-80.0924321196, 26.4246507452]}, "type": "Feature", "properties": {"collection_times": [{"days": "Mon-Fri", "time": "10:00am"}, {"days": "Sat-Sun", "time": "Closed"}], "id": "3344500014", "name": "USPS COLLECTION BOX - BLUE BOX", "address": {"city": "DELRAY BEACH", "state": "FL", "street": "3333 S CONGRESS AVE", "postcode": "33445"}}},
{"geometry": {"type": "Point", "coordinates": [-80.0923049789, 26.435568879]}, "type": "Feature", "properties": {"collection_times": [{"days": "Mon-Fri", "time": "3:45pm"}, {"days": "Sat-Sun", "time": "Closed"}], "id": "3344500016", "name": "USPS COLLECTION BOX - BLUE BOX", "address": {"city": "DELRAY BEACH", "state": "FL", "street": "1625 S CONGRESS AVE", "postcode": "33445"}}},
{"geometry": {"type": "Point", "coordinates": [-80.1210638943, 26.4392396006]}, "type": "Feature", "properties": {"collection_times": [{"days": "Mon-Fri", "time": "4:00pm"}, {"days": "Sat-Sun", "time": "Closed"}], "id": "3344500022", "name": "USPS COLLECTION BOX - BLUE BOX", "address": {"city": "DELRAY BEACH", "state": "FL", "street": "4900 LINTON BLVD", "postcode": "33445"}}},
{"geometry": {"type": "Point", "coordinates": [-80.122572167, 26.4649760559]}, "type": "Feature", "properties": {"collection_times": [{"days": "Mon-Sat", "time": "5:15pm"}, {"days": "Sun", "time": "Closed"}], "id": "3344500025", "name": "USPS COLLECTION BOX - BLUE BOX", "address": {"city": "DELRAY BEACH", "state": "FL", "street": "14280 MILITARY TRL", "postcode": "33445"}}},
{"geometry": {"type": "Point", "coordinates": [-80.122572167, 26.4649760559]}, "type": "Feature", "properties": {"collection_times": [{"days": "Mon-Sat", "time": "5:15pm"}, {"days": "Sun", "time": "Closed"}], "id": "3344500026", "name": "USPS COLLECTION BOX - PO LOBBY", "address": {"city": "DELRAY BEACH", "state": "FL", "street": "14280 MILITARY TRL", "postcode": "33445"}}},
{"geometry": {"type": "Point", "coordinates": [-80.0887123325, 26.4781554017]}, "type": "Feature", "properties": {"collection_times": [{"days": "Mon-Fri", "time": "3:15pm"}, {"days": "Sat-Sun", "time": "Closed"}], "id": "3344500027", "name": "USPS COLLECTION BOX - BLUE BOX", "address": {"city": "DELRAY BEACH", "state": "FL", "street": "1395 NW 17TH AVE", "postcode": "33445"}}},
{"geometry": {"type": "Point", "coordinates": [-80.122572167, 26.4649760559]}, "type": "Feature", "properties": {"collection_times": [{"days": "Mon-Sat", "time": "5:15pm"}, {"days": "Sun", "time": "Closed"}], "id": "3344500028", "name": "USPS COLLECTION BOX - APC", "address": {"city": "DELRAY BEACH", "state": "FL", "street": "14280 MILITARY TRL", "postcode": "33445"}}},
{"geometry": {"type": "Point", "coordinates": [-80.0915336703, 26.4733907461]}, "type": "Feature", "properties": {"collection_times": [{"days": "Mon-Fri", "time": "3:15pm"}, {"days": "Sat-Sun", "time": "Closed"}], "id": "3344500029", "name": "USPS COLLECTION BOX - BLUE BOX", "address": {"city": "DELRAY BEACH", "state": "FL", "street": "601 N CONGRESS AVE", "postcode": "33445"}}},
{"geometry": {"type": "Point", "coordinates": [-80.093800239, 26.4659271549]}, "type": "Feature", "properties": {"collection_times": [{"days": "Mon-Fri", "time": "3:30pm"}, {"days": "Sat-Sun", "time": "Closed"}], "id": "3344500030", "name": "USPS COLLECTION BOX - BLUE BOX", "address": {"city": "DELRAY BEACH", "state": "FL", "street": "220 S CONGRESS AVE", "postcode": "33445"}}},
{"geometry": {"type": "Point", "coordinates": [-80.1554619751, 26.453730848]}, "type": "Feature", "properties": {"collection_times": [{"days": "Mon-Fri", "time": "2:45pm"}, {"days": "Sat-Sun", "time": "Closed"}], "id": "3344600001", "name": "USPS COLLECTION BOX - BLUE BOX", "address": {"city": "DELRAY BEACH", "state": "FL", "street": "7000 W ATLANTIC AVE", "postcode": "33446"}}},
{"geometry": {"type": "Point", "coordinates": [-80.1627910482, 26.4538730237]}, "type": "Feature", "properties": {"collection_times": [{"days": "Mon-Fri", "time": "3:45pm"}, {"days": "Sat-Sun", "time": "Closed"}], "id": "3344600002", "name": "USPS COLLECTION BOX - BLUE BOX", "address": {"city": "DELRAY BEACH", "state": "FL", "street": "7431 W ATLANTIC AVE", "postcode": "33446"}}},
{"geometry": {"type": "Point", "coordinates": [-80.162431225, 26.4538480195]}, "type": "Feature", "properties": {"collection_times": [{"days": "Mon-Fri", "time": "2:30pm"}, {"days": "Sat-Sun", "time": "Closed"}], "id": "3344600003", "name": "USPS COLLECTION BOX - BLUE BOX", "address": {"city": "DELRAY BEACH", "state": "FL", "street": "7431 W ATLANTIC AVE", "postcode": "33446"}}},
{"geometry": {"type": "Point", "coordinates": [-80.1627910482, 26.4538730237]}, "type": "Feature", "properties": {"collection_times": [{"days": "Mon-Fri", "time": "3:45pm"}, {"days": "Sat-Sun", "time": "Closed"}], "id": "3344600004", "name": "USPS COLLECTION BOX - BLUE BOX", "address": {"city": "DELRAY BEACH", "state": "FL", "street": "7431 W ATLANTIC AVE", "postcode": "33446"}}},
{"geometry": {"type": "Point", "coordinates": [-80.149046975, 26.453688454]}, "type": "Feature", "properties": {"collection_times": [{"days": "Mon-Fri", "time": "2:45pm"}, {"days": "Sat-Sun", "time": "Closed"}], "id": "3344600006", "name": "USPS COLLECTION BOX - BLUE BOX", "address": {"city": "DELRAY BEACH", "state": "FL", "street": "6618 W ATLANTIC AVE", "postcode": "33446"}}},
{"geometry": {"type": "Point", "coordinates": [-80.1468843396, 26.4505510543]}, "type": "Feature", "properties": {"collection_times": [{"days": "Mon-Fri", "time": "2:45pm"}, {"days": "Sat-Sun", "time": "Closed"}], "id": "3344600007", "name": "USPS COLLECTION BOX - BLUE BOX", "address": {"city": "DELRAY BEACH", "state": "FL", "street": "15200 JOG RD", "postcode": "33446"}}},
{"geometry": {"type": "Point", "coordinates": [-80.2068858398, 26.4535612572]}, "type": "Feature", "properties": {"collection_times": [{"days": "Mon-Sat", "time": "5:15pm"}, {"days": "Sun", "time": "Closed"}], "id": "3344600014", "name": "USPS COLLECTION BOX - BLUE BOX", "address": {"city": "DELRAY BEACH", "state": "FL", "street": "10290 W ATLANTIC AVE", "postcode": "33446"}}},
{"geometry": {"type": "Point", "coordinates": [-80.2068858398, 26.4535612572]}, "type": "Feature", "properties": {"collection_times": [{"days": "Mon-Sat", "time": "5:15pm"}, {"days": "Sun", "time": "Closed"}], "id": "3344600015", "name": "USPS COLLECTION BOX - PO LOBBY", "address": {"city": "DELRAY BEACH", "state": "FL", "street": "10290 W ATLANTIC AVE", "postcode": "33446"}}},
{"geometry": {"type": "Point", "coordinates": [-80.1306024755, 27.0662391032]}, "type": "Feature", "properties": {"collection_times": [{"days": "Mon-Sat", "time": "10:45am"}, {"days": "Sun", "time": "Closed"}], "id": "3345500002", "name": "USPS COLLECTION BOX - BLUE BOX", "address": {"city": "HOBE SOUND", "state": "FL", "street": "11305 SE GOMEZ AVE", "postcode": "33455"}}},
{"geometry": {"type": "Point", "coordinates": [-80.1332226659, 27.0607227643]}, "type": "Feature", "properties": {"collection_times": [{"days": "Mon-Sat", "time": "10:00am"}, {"days": "Sun", "time": "Closed"}], "id": "3345500003", "name": "USPS COLLECTION BOX - BLUE BOX", "address": {"city": "HOBE SOUND", "state": "FL", "street": "8959 SE BRIDGE RD", "postcode": "33455"}}},
{"geometry": {"type": "Point", "coordinates": [-80.146586234, 27.0822617882]}, "type": "Feature", "properties": {"collection_times": [{"days": "Mon-Fri", "time": "5:00pm"}, {"days": "Sat", "time": "3:00pm"}, {"days": "Sun", "time": "Closed"}], "id": "3345500004", "name": "USPS COLLECTION BOX - BLUE BOX", "address": {"city": "HOBE SOUND", "state": "FL", "street": "9995 SE FEDERAL HWY", "postcode": "33455"}}},
{"geometry": {"type": "Point", "coordinates": [-80.146586234, 27.0822617882]}, "type": "Feature", "properties": {"collection_times": [{"days": "Mon-Fri", "time": "5:00pm"}, {"days": "Sat", "time": "3:00pm"}, {"days": "Sun", "time": "Closed"}], "id": "3345500005", "name": "USPS COLLECTION BOX - BLUE BOX", "address": {"city": "HOBE SOUND", "state": "FL", "street": "9995 SE FEDERAL HWY", "postcode": "33455"}}},
{"geometry": {"type": "Point", "coordinates": [-80.146586234, 27.0822617882]}, "type": "Feature", "properties": {"collection_times": [{"days": "Mon-Fri", "time": "5:00pm"}, {"days": "Sat", "time": "3:00pm"}, {"days": "Sun", "time": "Closed"}], "id": "3345500012", "name": "USPS COLLECTION BOX - PO LOBBY", "address": {"city": "HOBE SOUND", "state": "FL", "street": "9995 SE FEDERAL HWY", "postcode": "33455"}}},
{"geometry": {"type": "Point", "coordinates": [-80.1378772901, 27.0621798768]}, "type": "Feature", "properties": {"collection_times": [{"days": "Mon-Sat", "time": "10:00am"}, {"days": "Sun", "time": "Closed"}], "id": "3345500014", "name": "USPS COLLECTION BOX - BLUE BOX", "address": {"city": "HOBE SOUND", "state": "FL", "street": "11750 SE FEDERAL HWY", "postcode": "33455"}}},
{"geometry": {"type": "Point", "coordinates": [-80.146586234, 27.0822617882]}, "type": "Feature", "properties": {"collection_times": [{"days": "Mon-Fri", "time": "5:00pm"}, {"days": "Sat", "time": "3:00pm"}, {"days": "Sun", "time": "Closed"}], "id": "3345500015", "name": "USPS COLLECTION BOX - APC", "address": {"city": "HOBE SOUND", "state": "FL", "street": "9995 SE FEDERAL HWY", "postcode": "33455"}}},
{"geometry": {"type": "Point", "coordinates": [-80.1108312993, 26.9340476765]}, "type": "Feature", "properties": {"collection_times": [{"days": "Mon-Sat", "time": "3:00pm"}, {"days": "Sun", "time": "Closed"}], "id": "3345800018", "name": "USPS COLLECTION BOX - BLUE BOX", "address": {"city": "JUPITER", "state": "FL", "street": "901 W INDIANTOWN RD", "postcode": "33458"}}},
{"geometry": {"type": "Point", "coordinates": [-80.1374881196, 26.9345777416]}, "type": "Feature", "properties": {"collection_times": [{"days": "Mon-Sat", "time": "3:00pm"}, {"days": "Sun", "time": "Closed"}], "id": "3345800019", "name": "USPS COLLECTION BOX - BLUE BOX", "address": {"city": "JUPITER", "state": "FL", "street": "6761 W INDIANTOWN RD", "postcode": "33458"}}},
{"geometry": {"type": "Point", "coordinates": [-80.1289962118, 26.9353722267]}, "type": "Feature", "properties": {"collection_times": [{"days": "Mon-Sat", "time": "3:00pm"}, {"days": "Sun", "time": "Closed"}], "id": "3345800021", "name": "USPS COLLECTION BOX - BLUE BOX", "address": {"city": "JUPITER", "state": "FL", "street": "6500 JUPITER PARK DR", "postcode": "33458"}}},
{"geometry": {"type": "Point", "coordinates": [-80.1328657198, 26.9344074354]}, "type": "Feature", "properties": {"collection_times": [{"days": "Mon-Sat", "time": "3:00pm"}, {"days": "Sun", "time": "Closed"}], "id": "3345800022", "name": "USPS COLLECTION BOX - BLUE BOX", "address": {"city": "JUPITER", "state": "FL", "street": "6370 W INDIANTOWN RD", "postcode": "33458"}}},
{"geometry": {"type": "Point", "coordinates": [-80.1198418977, 26.9327535194]}, "type": "Feature", "properties": {"collection_times": [{"days": "Mon-Sat", "time": "3:00pm"}, {"days": "Sun", "time": "Closed"}], "id": "3345800023", "name": "USPS COLLECTION BOX - BLUE BOX", "address": {"city": "JUPITER", "state": "FL", "street": "106 COMMERCE WAY", "postcode": "33458"}}},
{"geometry": {"type": "Point", "coordinates": [-80.1020518762, 26.9208809177]}, "type": "Feature", "properties": {"collection_times": [{"days": "Mon-Fri", "time": "5:00pm"}, {"days": "Sat", "time": "4:15pm"}, {"days": "Sun", "time": "Closed"}], "id": "3345800024", "name": "USPS COLLECTION BOX - BLUE BOX", "address": {"city": "JUPITER", "state": "FL", "street": "1095 MILITARY TRL", "postcode": "33458"}}},
{"geometry": {"type": "Point", "coordinates": [-80.1020518762, 26.9208809177]}, "type": "Feature", "properties": {"collection_times": [{"days": "Mon-Fri", "time": "5:00pm"}, {"days": "Sat", "time": "4:15pm"}, {"days": "Sun", "time": "Closed"}], "id": "3345800031", "name": "USPS COLLECTION BOX - PO LOBBY", "address": {"city": "JUPITER", "state": "FL", "street": "1095 MILITARY TRL", "postcode": "33458"}}},
{"geometry": {"type": "Point", "coordinates": [-80.1035301192, 26.8911632114]}, "type": "Feature", "properties": {"collection_times": [{"days": "Mon-Sat", "time": "2:45pm"}, {"days": "Sun", "time": "Closed"}], "id": "3345800033", "name": "USPS COLLECTION BOX - BLUE BOX", "address": {"city": "JUPITER", "state": "FL", "street": "500 UNIVERSITY BLVD", "postcode": "33458"}}},
{"geometry": {"type": "Point", "coordinates": [-80.1020518762, 26.9208809177]}, "type": "Feature", "properties": {"collection_times": [{"days": "Mon-Sat", "time": "4:15pm"}, {"days": "Sun", "time": "Closed"}], "id": "3345800034", "name": "USPS COLLECTION BOX - APC", "address": {"city": "JUPITER", "state": "FL", "street": "1095 MILITARY TRL", "postcode": "33458"}}},
{"geometry": {"type": "Point", "coordinates": [-80.8048778501, 26.6961162929]}, "type": "Feature", "properties": {"collection_times": [{"days": "Mon-Fri", "time": "10:00am"}, {"days": "Sat-Sun", "time": "Closed"}], "id": "3345900001", "name": "USPS COLLECTION BOX - BLUE BOX", "address": {"city": "LAKE HARBOR", "state": "FL", "street": "15 W CORKSCREW BLVD", "postcode": "33459"}}},
{"geometry": {"type": "Point", "coordinates": [-80.8048778501, 26.6961162929]}, "type": "Feature", "properties": {"collection_times": [{"days": "Mon-Fri", "time": "10:00am"}, {"days": "Sat-Sun", "time": "Closed"}], "id": "3345900002", "name": "USPS COLLECTION BOX - PO LOBBY", "address": {"city": "LAKE HARBOR", "state": "FL", "street": "15 W CORKSCREW BLVD", "postcode": "33459"}}},
{"geometry": {"type": "Point", "coordinates": [-80.0507381668, 26.6157276145]}, "type": "Feature", "properties": {"collection_times": [{"days": "Mon-Fri", "time": "2:00pm"}, {"days": "Sat", "time": "1:00pm"}, {"days": "Sun", "time": "Closed"}], "id": "3346000004", "name": "USPS COLLECTION BOX - BLUE BOX", "address": {"city": "LAKE WORTH", "state": "FL", "street": "200 LAKE AVE", "postcode": "33460"}}},
{"geometry": {"type": "Point", "coordinates": [-80.053397206, 26.6165634144]}, "type": "Feature", "properties": {"collection_times": [{"days": "Mon-Fri", "time": "2:15pm"}, {"days": "Sat", "time": "1:00pm"}, {"days": "Sun", "time": "Closed"}], "id": "3346000005", "name": "USPS COLLECTION BOX - BLUE BOX", "address": {"city": "LAKE WORTH", "state": "FL", "street": "500 LUCERNE AVE", "postcode": "33460"}}},
{"geometry": {"type": "Point", "coordinates": [-80.0555345491, 26.6166263294]}, "type": "Feature", "properties": {"collection_times": [{"days": "Mon-Fri", "time": "5:00pm"}, {"days": "Sat", "time": "1:30pm"}, {"days": "Sun", "time": "Closed"}], "id": "3346000006", "name": "USPS COLLECTION BOX - BLUE BOX", "address": {"city": "LAKE WORTH", "state": "FL", "street": "720 LUCERNE AVE", "postcode": "33460"}}},
{"geometry": {"type": "Point", "coordinates": [-80.0501263907, 26.6237989839]}, "type": "Feature", "properties": {"collection_times": [{"days": "Mon-Fri", "time": "2:00pm"}, {"days": "Sat", "time": "1:00pm"}, {"days": "Sun", "time": "Closed"}], "id": "3346000011", "name": "USPS COLLECTION BOX - BLUE BOX", "address": {"city": "LAKE WORTH", "state": "FL", "street": "704 N PALMWAY", "postcode": "33460"}}},
{"geometry": {"type": "Point", "coordinates": [-80.05208674, 26.6343923411]}, "type": "Feature", "properties": {"collection_times": [{"days": "Mon-Fri", "time": "2:00pm"}, {"days": "Sat", "time": "1:00pm"}, {"days": "Sun", "time": "Closed"}], "id": "3346000013", "name": "USPS COLLECTION BOX - BLUE BOX", "address": {"city": "LAKE WORTH", "state": "FL", "street": "1530 N FEDERAL HWY", "postcode": "33460"}}},
{"geometry": {"type": "Point", "coordinates": [-80.056349618, 26.644106698]}, "type": "Feature", "properties": {"collection_times": [{"days": "Mon-Fri", "time": "2:15pm"}, {"days": "Sat", "time": "1:15pm"}, {"days": "Sun", "time": "Closed"}], "id": "3346000016", "name": "USPS COLLECTION BOX - BLUE BOX", "address": {"city": "LAKE WORTH", "state": "FL", "street": "2555 N DIXIE HWY", "postcode": "33460"}}},
{"geometry": {"type": "Point", "coordinates": [-80.058285445, 26.6181869862]}, "type": "Feature", "properties": {"collection_times": [{"days": "Mon-Fri", "time": "2:15pm"}, {"days": "Sat", "time": "1:15pm"}, {"days": "Sun", "time": "Closed"}], "id": "3346000018", "name": "USPS COLLECTION BOX - BLUE BOX", "address": {"city": "LAKE WORTH", "state": "FL", "street": "202 N H ST", "postcode": "33460"}}},
{"geometry": {"type": "Point", "coordinates": [-80.0574959786, 26.6159791439]}, "type": "Feature", "properties": {"collection_times": [{"days": "Mon-Fri", "time": "2:15pm"}, {"days": "Sat", "time": "1:15pm"}, {"days": "Sun", "time": "Closed"}], "id": "3346000019", "name": "USPS COLLECTION BOX - BLUE BOX", "address": {"city": "LAKE WORTH", "state": "FL", "street": "7 N DIXIE HWY", "postcode": "33460"}}},
{"geometry": {"type": "Point", "coordinates": [-80.0535934376, 26.615760702]}, "type": "Feature", "properties": {"collection_times": [{"days": "Mon-Fri", "time": "2:00pm"}, {"days": "Sat", "time": "1:00pm"}, {"days": "Sun", "time": "Closed"}], "id": "3346000029", "name": "USPS COLLECTION BOX - BLUE BOX", "address": {"city": "LAKE WORTH", "state": "FL", "street": "519 LAKE AVE", "postcode": "33460"}}},
{"geometry": {"type": "Point", "coordinates": [-80.0555345491, 26.6166263294]}, "type": "Feature", "properties": {"collection_times": [{"days": "Mon-Fri", "time": "5:00pm"}, {"days": "Sat", "time": "1:30pm"}, {"days": "Sun", "time": "Closed"}], "id": "3346000033", "name": "USPS COLLECTION BOX - PO LOBBY", "address": {"city": "LAKE WORTH", "state": "FL", "street": "720 LUCERNE AVE", "postcode": "33460"}}},
{"geometry": {"type": "Point", "coordinates": [-80.0719296937, 26.6279641421]}, "type": "Feature", "properties": {"collection_times": [{"days": "Mon-Fri", "time": "2:45pm"}, {"days": "Sat-Sun", "time": "Closed"}], "id": "3346100000", "name": "USPS COLLECTION BOX - BLUE BOX", "address": {"city": "GREENACRES", "state": "FL", "street": "1926 10TH AVE N", "postcode": "33461"}}},
{"geometry": {"type": "Point", "coordinates": [-80.0771801611, 26.628090906]}, "type": "Feature", "properties": {"collection_times": [{"days": "Mon-Fri", "time": "2:45pm"}, {"days": "Sat", "time": "1:30pm"}, {"days": "Sun", "time": "Closed"}], "id": "3346100001", "name": "USPS COLLECTION BOX - BLUE BOX", "address": {"city": "GREENACRES", "state": "FL", "street": "2328 10TH AVE N", "postcode": "33461"}}},
{"geometry": {"type": "Point", "coordinates": [-80.0771801611, 26.628090906]}, "type": "Feature", "properties": {"collection_times": [{"days": "Mon-Fri", "time": "2:45pm"}, {"days": "Sat", "time": "1:30pm"}, {"days": "Sun", "time": "Closed"}], "id": "3346100002", "name": "USPS COLLECTION BOX - BLUE BOX", "address": {"city": "GREENACRES", "state": "FL", "street": "2328 10TH AVE N", "postcode": "33461"}}},
{"geometry": {"type": "Point", "coordinates": [-80.0881893466, 26.6383258951]}, "type": "Feature", "properties": {"collection_times": [{"days": "Mon-Fri", "time": "3:00pm"}, {"days": "Sat-Sun", "time": "Closed"}], "id": "3346100004", "name": "USPS COLLECTION BOX - BLUE BOX", "address": {"city": "GREENACRES", "state": "FL", "street": "1728 CONGRESS AVE", "postcode": "33461"}}},
{"geometry": {"type": "Point", "coordinates": [-80.0890199019, 26.6156838451]}, "type": "Feature", "properties": {"collection_times": [{"days": "Mon-Fri", "time": "2:30pm"}, {"days": "Sat-Sun", "time": "Closed"}], "id": "3346100005", "name": "USPS COLLECTION BOX - BLUE BOX", "address": {"city": "GREENACRES", "state": "FL", "street": "4200 S CONGRESS AVE", "postcode": "33461"}}},
{"geometry": {"type": "Point", "coordinates": [-80.0883337857, 26.636240123]}, "type": "Feature", "properties": {"collection_times": [{"days": "Mon-Fri", "time": "2:50pm"}, {"days": "Sat-Sun", "time": "Closed"}], "id": "3346100007", "name": "USPS COLLECTION BOX - BLUE BOX", "address": {"city": "GREENACRES", "state": "FL", "street": "1630 S CONGRESS AVE", "postcode": "33461"}}},
{"geometry": {"type": "Point", "coordinates": [-80.0713263958, 26.6169949816]}, "type": "Feature", "properties": {"collection_times": [{"days": "Mon-Fri", "time": "2:35pm"}, {"days": "Sat-Sun", "time": "Closed"}], "id": "3346100009", "name": "USPS COLLECTION BOX - BLUE BOX", "address": {"city": "GREENACRES", "state": "FL", "street": "1910 LAKE WORTH RD", "postcode": "33461"}}},
{"geometry": {"type": "Point", "coordinates": [-80.1079851, 26.6182721593]}, "type": "Feature", "properties": {"collection_times": [{"days": "Mon-Fri", "time": "5:00pm"}, {"days": "Sat", "time": "4:00pm"}, {"days": "Sun", "time": "Closed"}], "id": "3346100010", "name": "USPS COLLECTION BOX - PO LOBBY", "address": {"city": "GREENACRES", "state": "FL", "street": "4151 LAKE WORTH RD", "postcode": "33461"}}},
{"geometry": {"type": "Point", "coordinates": [-80.1079851, 26.6182721593]}, "type": "Feature", "properties": {"collection_times": [{"days": "Mon-Fri", "time": "5:00pm"}, {"days": "Sat", "time": "4:00pm"}, {"days": "Sun", "time": "Closed"}], "id": "3346100011", "name": "USPS COLLECTION BOX - BLUE BOX", "address": {"city": "GREENACRES", "state": "FL", "street": "4151 LAKE WORTH RD", "postcode": "33461"}}},
{"geometry": {"type": "Point", "coordinates": [-80.1079851, 26.6182721593]}, "type": "Feature", "properties": {"collection_times": [{"days": "Mon-Fri", "time": "5:00pm"}, {"days": "Sat", "time": "4:00pm"}, {"days": "Sun", "time": "Closed"}], "id": "3346100013", "name": "USPS COLLECTION BOX - APC", "address": {"city": "GREENACRES", "state": "FL", "street": "4151 LAKE WORTH RD", "postcode": "33461"}}},
{"geometry": {"type": "Point", "coordinates": [-80.0930158304, 26.594450458]}, "type": "Feature", "properties": {"collection_times": [{"days": "Mon-Fri", "time": "2:30pm"}, {"days": "Sat-Sun", "time": "Closed"}], "id": "3346200000", "name": "USPS COLLECTION BOX - BLUE BOX", "address": {"city": "LANTANA", "state": "FL", "street": "117 CLUBHOUSE BLVD", "postcode": "33462"}}},
{"geometry": {"type": "Point", "coordinates": [-80.0911563257, 26.5971184871]}, "type": "Feature", "properties": {"collection_times": [{"days": "Mon-Fri", "time": "2:34pm"}, {"days": "Sat-Sun", "time": "Closed"}], "id": "3346200001", "name": "USPS COLLECTION BOX - BLUE BOX", "address": {"city": "LANTANA", "state": "FL", "street": "5301 S CONGRESS AVE", "postcode": "33462"}}},
{"geometry": {"type": "Point", "coordinates": [-80.0906336753, 26.6007379683]}, "type": "Feature", "properties": {"collection_times": [{"days": "Mon-Fri", "time": "2:30pm"}, {"days": "Sat", "time": "1:00pm"}, {"days": "Sun", "time": "Closed"}], "id": "3346200004", "name": "USPS COLLECTION BOX - BLUE BOX", "address": {"city": "LANTANA", "state": "FL", "street": "150 JOHN F KENNEDY DR", "postcode": "33462"}}},
{"geometry": {"type": "Point", "coordinates": [-80.0528284553, 26.5844560943]}, "type": "Feature", "properties": {"collection_times": [{"days": "Mon-Fri", "time": "2:00pm"}, {"days": "Sat-Sun", "time": "Closed"}], "id": "3346200006", "name": "USPS COLLECTION BOX - BLUE BOX", "address": {"city": "LANTANA", "state": "FL", "street": "205 W OCEAN AVE", "postcode": "33462"}}},
{"geometry": {"type": "Point", "coordinates": [-80.0524889461, 26.5844324351]}, "type": "Feature", "properties": {"collection_times": [{"days": "Mon-Fri", "time": "5:00pm"}, {"days": "Sat", "time": "1:15pm"}, {"days": "Sun", "time": "Closed"}], "id": "3346200008", "name": "USPS COLLECTION BOX - BLUE BOX", "address": {"city": "LANTANA", "state": "FL", "street": "201 W OCEAN AVE", "postcode": "33462"}}},
{"geometry": {"type": "Point", "coordinates": [-80.0390872039, 26.5836765243]}, "type": "Feature", "properties": {"collection_times": [{"days": "Mon-Fri", "time": "2:31pm"}, {"days": "Sat-Sun", "time": "Closed"}], "id": "3346200011", "name": "USPS COLLECTION BOX - BLUE BOX", "address": {"city": "LANTANA", "state": "FL", "street": "131 N OCEAN BLVD", "postcode": "33462"}}},
{"geometry": {"type": "Point", "coordinates": [-80.1334506576, 26.6190186064]}, "type": "Feature", "properties": {"collection_times": [{"days": "Mon-Fri", "time": "2:30pm"}, {"days": "Sat", "time": "2:15pm"}, {"days": "Sun", "time": "Closed"}], "id": "3346300011", "name": "USPS COLLECTION BOX - BLUE BOX", "address": {"city": "GREENACRES", "state": "FL", "street": "5700 LAKE WORTH RD", "postcode": "33463"}}},
{"geometry": {"type": "Point", "coordinates": [-80.1457277169, 26.5894546415]}, "type": "Feature", "properties": {"collection_times": [{"days": "Mon-Fri", "time": "2:15pm"}, {"days": "Sat", "time": "2:00pm"}, {"days": "Sun", "time": "Closed"}], "id": "3346300012", "name": "USPS COLLECTION BOX - BLUE BOX", "address": {"city": "GREENACRES", "state": "FL", "street": "6338 LANTANA RD STE 60", "postcode": "33463"}}},
{"geometry": {"type": "Point", "coordinates": [-80.1334506576, 26.6190186064]}, "type": "Feature", "properties": {"collection_times": [{"days": "Mon-Fri", "time": "2:30pm"}, {"days": "Sat", "time": "2:15pm"}, {"days": "Sun", "time": "Closed"}], "id": "3346300022", "name": "USPS COLLECTION BOX - BLUE BOX", "address": {"city": "GREENACRES", "state": "FL", "street": "5700 LAKE WORTH RD", "postcode": "33463"}}},
{"geometry": {"type": "Point", "coordinates": [-80.1575113211, 26.6213114818]}, "type": "Feature", "properties": {"collection_times": [{"days": "Mon-Fri", "time": "3:00pm"}, {"days": "Sat", "time": "2:00pm"}, {"days": "Sun", "time": "Closed"}], "id": "3346700004", "name": "USPS COLLECTION BOX - BLUE BOX", "address": {"city": "GREENACRES", "state": "FL", "street": "300 COVERED BRIDGE BLVD", "postcode": "33467"}}},
{"geometry": {"type": "Point", "coordinates": [-80.1690029468, 26.6176135884]}, "type": "Feature", "properties": {"collection_times": [{"days": "Mon-Fri", "time": "2:45pm"}, {"days": "Sat", "time": "1:45pm"}, {"days": "Sun", "time": "Closed"}], "id": "3346700005", "name": "USPS COLLECTION BOX - BLUE BOX", "address": {"city": "GREENACRES", "state": "FL", "street": "7745 LAKE WORTH RD", "postcode": "33467"}}},
{"geometry": {"type": "Point", "coordinates": [-80.1522112039, 26.6177398277]}, "type": "Feature", "properties": {"collection_times": [{"days": "Mon-Fri", "time": "3:00pm"}, {"days": "Sat", "time": "2:00pm"}, {"days": "Sun", "time": "Closed"}], "id": "3346700007", "name": "USPS COLLECTION BOX - BLUE BOX", "address": {"city": "GREENACRES", "state": "FL", "street": "6801 LAKE WORTH RD", "postcode": "33467"}}},
{"geometry": {"type": "Point", "coordinates": [-80.1463070557, 26.5871047394]}, "type": "Feature", "properties": {"collection_times": [{"days": "Mon-Fri", "time": "2:15pm"}, {"days": "Sat", "time": "1:45pm"}, {"days": "Sun", "time": "Closed"}], "id": "3346700010", "name": "USPS COLLECTION BOX - BLUE BOX", "address": {"city": "GREENACRES", "state": "FL", "street": "6169 S JOG RD STE B5", "postcode": "33467"}}},
{"geometry": {"type": "Point", "coordinates": [-80.2026703185, 26.6173139625]}, "type": "Feature", "properties": {"collection_times": [{"days": "Mon-Sat", "time": "10:15am"}, {"days": "Sun", "time": "Closed"}], "id": "3346700015", "name": "USPS COLLECTION BOX - BLUE BOX", "address": {"city": "GREENACRES", "state": "FL", "street": "9855 LAKE WORTH RD", "postcode": "33467"}}},
{"geometry": {"type": "Point", "coordinates": [-80.1465846256, 26.615483169]}, "type": "Feature", "properties": {"collection_times": [{"days": "Mon-Fri", "time": "5:00pm"}, {"days": "Sat", "time": "4:30pm"}, {"days": "Sun", "time": "Closed"}], "id": "3346700016", "name": "USPS COLLECTION BOX - BLUE BOX", "address": {"city": "GREENACRES", "state": "FL", "street": "4300 S JOG RD", "postcode": "33467"}}},
{"geometry": {"type": "Point", "coordinates": [-80.1465846256, 26.615483169]}, "type": "Feature", "properties": {"collection_times": [{"days": "Mon-Fri", "time": "5:00pm"}, {"days": "Sat", "time": "4:30pm"}, {"days": "Sun", "time": "Closed"}], "id": "3346700017", "name": "USPS COLLECTION BOX - PO LOBBY", "address": {"city": "GREENACRES", "state": "FL", "street": "4300 S JOG RD", "postcode": "33467"}}},
{"geometry": {"type": "Point", "coordinates": [-80.1465846256, 26.615483169]}, "type": "Feature", "properties": {"collection_times": [{"days": "Mon-Fri", "time": "5:00pm"}, {"days": "Sat", "time": "4:30pm"}, {"days": "Sun", "time": "Closed"}], "id": "3346700018", "name": "USPS COLLECTION BOX - APC", "address": {"city": "GREENACRES", "state": "FL", "street": "4300 S JOG RD", "postcode": "33467"}}},
{"geometry": {"type": "Point", "coordinates": [-80.0887963226, 26.9564943229]}, "type": "Feature", "properties": {"collection_times": [{"days": "Mon-Sat", "time": "3:00pm"}, {"days": "Sun", "time": "Closed"}], "id": "3346900003", "name": "USPS COLLECTION BOX - BLUE BOX", "address": {"city": "JUPITER", "state": "FL", "street": "354 CYPRESS DR", "postcode": "33469"}}},
{"geometry": {"type": "Point", "coordinates": [-80.0943550468, 26.9587218346]}, "type": "Feature", "properties": {"collection_times": [{"days": "Mon-Sat", "time": "3:00pm"}, {"days": "Sun", "time": "Closed"}], "id": "3346900004", "name": "USPS COLLECTION BOX - BLUE BOX", "address": {"city": "JUPITER", "state": "FL", "street": "373 TEQUESTA DR", "postcode": "33469"}}},
{"geometry": {"type": "Point", "coordinates": [-80.0865594894, 26.9591808789]}, "type": "Feature", "properties": {"collection_times": [{"days": "Mon-Sat", "time": "3:00pm"}, {"days": "Sun", "time": "Closed"}], "id": "3346900007", "name": "USPS COLLECTION BOX - BLUE BOX", "address": {"city": "JUPITER", "state": "FL", "street": "200 TEQUESTA DR", "postcode": "33469"}}},
{"geometry": {"type": "Point", "coordinates": [-80.0845548455, 26.9599093353]}, "type": "Feature", "properties": {"collection_times": [{"days": "Mon-Sat", "time": "3:00pm"}, {"days": "Sun", "time": "Closed"}], "id": "3346900011", "name": "USPS COLLECTION BOX - BLUE BOX", "address": {"city": "JUPITER", "state": "FL", "street": "225 S US HIGHWAY 1", "postcode": "33469"}}},
{"geometry": {"type": "Point", "coordinates": [-80.0883123819, 26.9588303423]}, "type": "Feature", "properties": {"collection_times": [{"days": "Mon-Fri", "time": "5:00pm"}, {"days": "Sat", "time": "4:00pm"}, {"days": "Sun", "time": "Closed"}], "id": "3346900012", "name": "USPS COLLECTION BOX - BLUE BOX", "address": {"city": "JUPITER", "state": "FL", "street": "401 OLD DIXIE HWY", "postcode": "33469"}}},
{"geometry": {"type": "Point", "coordinates": [-80.0883123819, 26.9588303423]}, "type": "Feature", "properties": {"collection_times": [{"days": "Mon-Fri", "time": "5:00pm"}, {"days": "Sat", "time": "4:00pm"}, {"days": "Sun", "time": "Closed"}], "id": "3346900013", "name": "USPS COLLECTION BOX - BLUE BOX", "address": {"city": "JUPITER", "state": "FL", "street": "401 OLD DIXIE HWY", "postcode": "33469"}}},
{"geometry": {"type": "Point", "coordinates": [-80.0883123819, 26.9588303423]}, "type": "Feature", "properties": {"collection_times": [{"days": "Mon-Sat", "time": "4:00pm"}, {"days": "Sun", "time": "Closed"}], "id": "3346900015", "name": "USPS COLLECTION BOX - PO LOBBY", "address": {"city": "JUPITER", "state": "FL", "street": "401 OLD DIXIE HWY", "postcode": "33469"}}},
{"geometry": {"type": "Point", "coordinates": [-80.0883123819, 26.9588303423]}, "type": "Feature", "properties": {"collection_times": [{"days": "Mon-Sat", "time": "4:00pm"}, {"days": "Sun", "time": "Closed"}], "id": "3346900016", "name": "USPS COLLECTION BOX - APC", "address": {"city": "JUPITER", "state": "FL", "street": "401 OLD DIXIE HWY", "postcode": "33469"}}},
{"geometry": {"type": "Point", "coordinates": [-80.2769190514, 26.6827528623]}, "type": "Feature", "properties": {"collection_times": [{"days": "Mon-Fri", "time": "5:00pm"}, {"days": "Sat", "time": "1:15pm"}, {"days": "Sun", "time": "Closed"}], "id": "3347000001", "name": "USPS COLLECTION BOX - BLUE BOX", "address": {"city": "LOXAHATCHEE", "state": "FL", "street": "14611 STATE RD 80", "postcode": "33470"}}},
{"geometry": {"type": "Point", "coordinates": [-80.2769190514, 26.6827528623]}, "type": "Feature", "properties": {"collection_times": [{"days": "Mon-Fri", "time": "5:00pm"}, {"days": "Sat", "time": "1:15pm"}, {"days": "Sun", "time": "Closed"}], "id": "3347000002", "name": "USPS COLLECTION BOX - PO LOBBY", "address": {"city": "LOXAHATCHEE", "state": "FL", "street": "14611 STATE RD 80", "postcode": "33470"}}},
{"geometry": {"type": "Point", "coordinates": [-80.2769190514, 26.6827528623]}, "type": "Feature", "properties": {"collection_times": [{"days": "Mon-Fri", "time": "5:00pm"}, {"days": "Sat", "time": "1:15pm"}, {"days": "Sun", "time": "Closed"}], "id": "3347000003", "name": "USPS COLLECTION BOX - PO LOBBY", "address": {"city": "LOXAHATCHEE", "state": "FL", "street": "14611 STATE RD 80", "postcode": "33470"}}},
{"geometry": {"type": "Point", "coordinates": [-81.1039956345, 26.8366568352]}, "type": "Feature", "properties": {"collection_times": [{"days": "Mon-Fri", "time": "4:15pm"}, {"days": "Sat", "time": "12:30pm"}, {"days": "Sun", "time": "Closed"}], "id": "3347100003", "name": "USPS COLLECTION BOX - BLUE BOX", "address": {"city": "MOORE HAVEN", "state": "FL", "street": "250 10TH ST NW", "postcode": "33471"}}},
{"geometry": {"type": "Point", "coordinates": [-81.1039956345, 26.8366568352]}, "type": "Feature", "properties": {"collection_times": [{"days": "Mon-Fri", "time": "4:15pm"}, {"days": "Sat", "time": "12:30pm"}, {"days": "Sun", "time": "Closed"}], "id": "3347100004", "name": "USPS COLLECTION BOX - BLUE BOX", "address": {"city": "MOORE HAVEN", "state": "FL", "street": "250 10TH ST NW", "postcode": "33471"}}},
{"geometry": {"type": "Point", "coordinates": [-81.1039956345, 26.8366568352]}, "type": "Feature", "properties": {"collection_times": [{"days": "Mon-Fri", "time": "4:15pm"}, {"days": "Sat", "time": "12:30pm"}, {"days": "Sun", "time": "Closed"}], "id": "3347100006", "name": "USPS COLLECTION BOX - PO LOBBY", "address": {"city": "MOORE HAVEN", "state": "FL", "street": "250 10TH ST NW", "postcode": "33471"}}},
{"geometry": {"type": "Point", "coordinates": [-81.1039956345, 26.8366568352]}, "type": "Feature", "properties": {"collection_times": [{"days": "Mon-Fri", "time": "4:15pm"}, {"days": "Sat", "time": "12:30pm"}, {"days": "Sun", "time": "Closed"}], "id": "3347100007", "name": "USPS COLLECTION BOX - PO LOBBY", "address": {"city": "MOORE HAVEN", "state": "FL", "street": "250 10TH ST NW", "postcode": "33471"}}},
{"geometry": {"type": "Point", "coordinates": [-80.6617478355, 26.8184508864]}, "type": "Feature", "properties": {"collection_times": [{"days": "Mon-Fri", "time": "4:00pm"}, {"days": "Sat", "time": "3:30pm"}, {"days": "Sun", "time": "Closed"}], "id": "3347600001", "name": "USPS COLLECTION BOX - BLUE BOX", "address": {"city": "PAHOKEE", "state": "FL", "street": "320 WEST MAIN STREET", "postcode": "33476"}}},
{"geometry": {"type": "Point", "coordinates": [-80.6679872274, 26.8222154678]}, "type": "Feature", "properties": {"collection_times": [{"days": "Mon-Fri", "time": "4:00pm"}, {"days": "Sat", "time": "3:30pm"}, {"days": "Sun", "time": "Closed"}], "id": "3347600005", "name": "USPS COLLECTION BOX - PO LOBBY", "address": {"city": "PAHOKEE", "state": "FL", "street": "331 BACOM POINT RD", "postcode": "33476"}}},
{"geometry": {"type": "Point", "coordinates": [-80.0883775968, 26.9354950119]}, "type": "Feature", "properties": {"collection_times": [{"days": "Mon-Sat", "time": "3:15pm"}, {"days": "Sun", "time": "Closed"}], "id": "3347700000", "name": "USPS COLLECTION BOX - BLUE BOX", "address": {"city": "JUPITER", "state": "FL", "street": "120 INTRACOASTAL POINTE DR", "postcode": "33477"}}},
{"geometry": {"type": "Point", "coordinates": [-80.0799436093, 26.9142664653]}, "type": "Feature", "properties": {"collection_times": [{"days": "Mon-Sat", "time": "3:00pm"}, {"days": "Sun", "time": "Closed"}], "id": "3347700002", "name": "USPS COLLECTION BOX - BLUE BOX", "address": {"city": "JUPITER", "state": "FL", "street": "151 RIDGE RD", "postcode": "33477"}}},
{"geometry": {"type": "Point", "coordinates": [-80.0710105346, 26.8968696422]}, "type": "Feature", "properties": {"collection_times": [{"days": "Mon-Sat", "time": "3:00pm"}, {"days": "Sun", "time": "Closed"}], "id": "3347700003", "name": "USPS COLLECTION BOX - BLUE BOX", "address": {"city": "JUPITER", "state": "FL", "street": "1430 MARCINSKI RD", "postcode": "33477"}}},
{"geometry": {"type": "Point", "coordinates": [-80.0605874831, 26.8947769878]}, "type": "Feature", "properties": {"collection_times": [{"days": "Mon-Sat", "time": "3:00pm"}, {"days": "Sun", "time": "Closed"}], "id": "3347700004", "name": "USPS COLLECTION BOX - BLUE BOX", "address": {"city": "JUPITER", "state": "FL", "street": "4050 S US 1", "postcode": "33477"}}},
{"geometry": {"type": "Point", "coordinates": [-80.0705290703, 26.9132891126]}, "type": "Feature", "properties": {"collection_times": [{"days": "Mon-Sat", "time": "3:00pm"}, {"days": "Sun", "time": "Closed"}], "id": "3347700005", "name": "USPS COLLECTION BOX - BLUE BOX", "address": {"city": "JUPITER", "state": "FL", "street": "2101 S US 1", "postcode": "33477"}}},
{"geometry": {"type": "Point", "coordinates": [-80.0762676042, 26.933919917]}, "type": "Feature", "properties": {"collection_times": [{"days": "Mon-Sat", "time": "3:15pm"}, {"days": "Sun", "time": "Closed"}], "id": "3347700007", "name": "USPS COLLECTION BOX - BLUE BOX", "address": {"city": "JUPITER", "state": "FL", "street": "900 E INDIANTOWN RD", "postcode": "33477"}}},
{"geometry": {"type": "Point", "coordinates": [-80.084188613, 26.9423367478]}, "type": "Feature", "properties": {"collection_times": [{"days": "Mon-Sat", "time": "3:15pm"}, {"days": "Sun", "time": "Closed"}], "id": "3347700008", "name": "USPS COLLECTION BOX - BLUE BOX", "address": {"city": "JUPITER", "state": "FL", "street": "1001 N US 1", "postcode": "33477"}}},
{"geometry": {"type": "Point", "coordinates": [-80.0758168968, 26.9339163681]}, "type": "Feature", "properties": {"collection_times": [{"days": "Mon-Sat", "time": "3:15pm"}, {"days": "Sun", "time": "Closed"}], "id": "3347700009", "name": "USPS COLLECTION BOX - BLUE BOX", "address": {"city": "JUPITER", "state": "FL", "street": "1061 E INDIANTOWN RD", "postcode": "33477"}}},
{"geometry": {"type": "Point", "coordinates": [-80.0809340154, 26.9343234966]}, "type": "Feature", "properties": {"collection_times": [{"days": "Mon-Sat", "time": "3:15pm"}, {"days": "Sun", "time": "Closed"}], "id": "3347700010", "name": "USPS COLLECTION BOX - BLUE BOX", "address": {"city": "JUPITER", "state": "FL", "street": "59 N US 1", "postcode": "33477"}}},
{"geometry": {"type": "Point", "coordinates": [-80.1795929501, 26.938059863]}, "type": "Feature", "properties": {"collection_times": [{"days": "Mon-Sat", "time": "3:00pm"}, {"days": "Sun", "time": "Closed"}], "id": "3347800001", "name": "USPS COLLECTION BOX - BLUE BOX", "address": {"city": "JUPITER", "state": "FL", "street": "9270 W INDIANTOWN RD STE 14", "postcode": "33478"}}},
{"geometry": {"type": "Point", "coordinates": [-80.1910194147, 26.9417722334]}, "type": "Feature", "properties": {"collection_times": [{"days": "Mon-Sat", "time": "3:00pm"}, {"days": "Sun", "time": "Closed"}], "id": "3347800002", "name": "USPS COLLECTION BOX - BLUE BOX", "address": {"city": "JUPITER", "state": "FL", "street": "17905 JUPITER FARMS RD", "postcode": "33478"}}},
{"geometry": {"type": "Point", "coordinates": [-80.0407409804, 26.7202313923]}, "type": "Feature", "properties": {"collection_times": [{"days": "Mon-Sat", "time": "3:00pm"}, {"days": "Sun", "time": "Closed"}], "id": "3348000002", "name": "USPS COLLECTION BOX - BLUE BOX", "address": {"city": "PALM BEACH", "state": "FL", "street": "285 SUNRISE AVE", "postcode": "33480"}}},
{"geometry": {"type": "Point", "coordinates": [-80.0380391023, 26.7252826273]}, "type": "Feature", "properties": {"collection_times": [{"days": "Mon-Sat", "time": "3:00pm"}, {"days": "Sun", "time": "Closed"}], "id": "3348000008", "name": "USPS COLLECTION BOX - BLUE BOX", "address": {"city": "PALM BEACH", "state": "FL", "street": "300 N COUNTY RD", "postcode": "33480"}}},
{"geometry": {"type": "Point", "coordinates": [-80.0378841347, 26.7198788707]}, "type": "Feature", "properties": {"collection_times": [{"days": "Mon-Sat", "time": "3:00pm"}, {"days": "Sun", "time": "Closed"}], "id": "3348000009", "name": "USPS COLLECTION BOX - BLUE BOX", "address": {"city": "PALM BEACH", "state": "FL", "street": "140 N COUNTY RD", "postcode": "33480"}}},
{"geometry": {"type": "Point", "coordinates": [-80.0416048604, 26.7180374513]}, "type": "Feature", "properties": {"collection_times": [{"days": "Mon-Fri", "time": "5:00pm"}, {"days": "Sat", "time": "3:45pm"}, {"days": "Sun", "time": "Closed"}], "id": "3348000016", "name": "USPS COLLECTION BOX - BLUE BOX", "address": {"city": "PALM BEACH", "state": "FL", "street": "340 ROYAL POINCIANA WAY", "postcode": "33480"}}},
{"geometry": {"type": "Point", "coordinates": [-80.0364897029, 26.7065919515]}, "type": "Feature", "properties": {"collection_times": [{"days": "Mon-Sat", "time": "3:00pm"}, {"days": "Sun", "time": "Closed"}], "id": "3348000022", "name": "USPS COLLECTION BOX - BLUE BOX", "address": {"city": "PALM BEACH", "state": "FL", "street": "260 S COUNTY RD", "postcode": "33480"}}},
{"geometry": {"type": "Point", "coordinates": [-80.0365935264, 26.7036001724]}, "type": "Feature", "properties": {"collection_times": [{"days": "Mon-Sat", "time": "3:15pm"}, {"days": "Sun", "time": "Closed"}], "id": "3348000025", "name": "USPS COLLECTION BOX - BLUE BOX", "address": {"city": "PALM BEACH", "state": "FL", "street": "340 S COUNTY RD", "postcode": "33480"}}},
{"geometry": {"type": "Point", "coordinates": [-80.0365320126, 26.7014046005]}, "type": "Feature", "properties": {"collection_times": [{"days": "Mon-Fri", "time": "5:00pm"}, {"days": "Sat", "time": "3:15pm"}, {"days": "Sun", "time": "Closed"}], "id": "3348000028", "name": "USPS COLLECTION BOX - BLUE BOX", "address": {"city": "PALM BEACH", "state": "FL", "street": "401 S COUNTY RD", "postcode": "33480"}}},
{"geometry": {"type": "Point", "coordinates": [-80.0346771618, 26.7054426378]}, "type": "Feature", "properties": {"collection_times": [{"days": "Mon-Sat", "time": "3:15pm"}, {"days": "Sun", "time": "Closed"}], "id": "3348000030", "name": "USPS COLLECTION BOX - BLUE BOX", "address": {"city": "PALM BEACH", "state": "FL", "street": "140 ROYAL PALM WAY", "postcode": "33480"}}},
{"geometry": {"type": "Point", "coordinates": [-80.0390670936, 26.7008793668]}, "type": "Feature", "properties": {"collection_times": [{"days": "Mon-Sat", "time": "3:30pm"}, {"days": "Sun", "time": "Closed"}], "id": "3348000035", "name": "USPS COLLECTION BOX - BLUE BOX", "address": {"city": "PALM BEACH", "state": "FL", "street": "301 WORTH AVE", "postcode": "33480"}}},
{"geometry": {"type": "Point", "coordinates": [-80.0402306335, 26.7011767849]}, "type": "Feature", "properties": {"collection_times": [{"days": "Mon-Sat", "time": "3:30pm"}, {"days": "Sun", "time": "Closed"}], "id": "3348000037", "name": "USPS COLLECTION BOX - BLUE BOX", "address": {"city": "PALM BEACH", "state": "FL", "street": "1 VIA MIZNER", "postcode": "33480"}}},
{"geometry": {"type": "Point", "coordinates": [-80.0410262253, 26.7023155621]}, "type": "Feature", "properties": {"collection_times": [{"days": "Mon-Sat", "time": "3:30pm"}, {"days": "Sun", "time": "Closed"}], "id": "3348000038", "name": "USPS COLLECTION BOX - BLUE BOX", "address": {"city": "PALM BEACH", "state": "FL", "street": "381 COCOANUT ROW", "postcode": "33480"}}},
{"geometry": {"type": "Point", "coordinates": [-80.0435597056, 26.7041617606]}, "type": "Feature", "properties": {"collection_times": [{"days": "Mon-Sat", "time": "3:30pm"}, {"days": "Sun", "time": "Closed"}], "id": "3348000039", "name": "USPS COLLECTION BOX - BLUE BOX", "address": {"city": "PALM BEACH", "state": "FL", "street": "321 S LAKE DR", "postcode": "33480"}}},
{"geometry": {"type": "Point", "coordinates": [-80.0378013275, 26.7055757139]}, "type": "Feature", "properties": {"collection_times": [{"days": "Mon-Sat", "time": "3:45pm"}, {"days": "Sun", "time": "Closed"}], "id": "3348000045", "name": "USPS COLLECTION BOX - BLUE BOX", "address": {"city": "PALM BEACH", "state": "FL", "street": "230 ROYAL PALM WAY", "postcode": "33480"}}},
{"geometry": {"type": "Point", "coordinates": [-80.037944145, 26.705787703]}, "type": "Feature", "properties": {"collection_times": [{"days": "Mon-Sat", "time": "3:45pm"}, {"days": "Sun", "time": "Closed"}], "id": "3348000047", "name": "USPS COLLECTION BOX - BLUE BOX", "address": {"city": "PALM BEACH", "state": "FL", "street": "249 ROYAL PALM WAY", "postcode": "33480"}}},
{"geometry": {"type": "Point", "coordinates": [-80.0407421635, 26.7056514232]}, "type": "Feature", "properties": {"collection_times": [{"days": "Mon-Sat", "time": "3:30pm"}, {"days": "Sun", "time": "Closed"}], "id": "3348000055", "name": "USPS COLLECTION BOX - BLUE BOX", "address": {"city": "PALM BEACH", "state": "FL", "street": "396 ROYAL PALM WAY", "postcode": "33480"}}},
{"geometry": {"type": "Point", "coordinates": [-80.0366068932, 26.7028838396]}, "type": "Feature", "properties": {"collection_times": [{"days": "Mon-Sat", "time": "4:00pm"}, {"days": "Sun", "time": "Closed"}], "id": "3348000058", "name": "USPS COLLECTION BOX - BLUE BOX", "address": {"city": "PALM BEACH", "state": "FL", "street": "NORTH BREAKER ROW", "postcode": "33480"}}},
{"geometry": {"type": "Point", "coordinates": [-80.1227261598, 26.461038665]}, "type": "Feature", "properties": {"collection_times": [{"days": "Mon-Fri", "time": "4:15pm"}, {"days": "Sat-Sun", "time": "Closed"}], "id": "3348400078", "name": "USPS COLLECTION BOX - BLUE BOX", "address": {"city": "DELRAY BEACH", "state": "FL", "street": "14535 S MILITARY TRL STE A", "postcode": "33484"}}},
{"geometry": {"type": "Point", "coordinates": [-80.1270626792, 26.4577446277]}, "type": "Feature", "properties": {"collection_times": [{"days": "Mon-Fri", "time": "3:30pm"}, {"days": "Sat-Sun", "time": "Closed"}], "id": "3348400079", "name": "USPS COLLECTION BOX - BLUE BOX", "address": {"city": "DELRAY BEACH", "state": "FL", "street": "5300 W ATLANTIC AVE", "postcode": "33484"}}},
{"geometry": {"type": "Point", "coordinates": [-80.1281178786, 26.457880668]}, "type": "Feature", "properties": {"collection_times": [{"days": "Mon-Fri", "time": "3:30pm"}, {"days": "Sat-Sun", "time": "Closed"}], "id": "3348400080", "name": "USPS COLLECTION BOX - BLUE BOX", "address": {"city": "DELRAY BEACH", "state": "FL", "street": "5317 W ATLANTIC AVE", "postcode": "33484"}}},
{"geometry": {"type": "Point", "coordinates": [-80.1270626792, 26.4577446277]}, "type": "Feature", "properties": {"collection_times": [{"days": "Mon-Fri", "time": "3:30pm"}, {"days": "Sat-Sun", "time": "Closed"}], "id": "3348400081", "name": "USPS COLLECTION BOX - BLUE BOX", "address": {"city": "DELRAY BEACH", "state": "FL", "street": "5300 W ATLANTIC AVE", "postcode": "33484"}}},
{"geometry": {"type": "Point", "coordinates": [-80.1313785472, 26.442646253]}, "type": "Feature", "properties": {"collection_times": [{"days": "Mon-Fri", "time": "3:00pm"}, {"days": "Sat-Sun", "time": "Closed"}], "id": "3348400082", "name": "USPS COLLECTION BOX - BLUE BOX", "address": {"city": "DELRAY BEACH", "state": "FL", "street": "721 BURGUNDY P", "postcode": "33484"}}},
{"geometry": {"type": "Point", "coordinates": [-80.13834101, 26.4460155896]}, "type": "Feature", "properties": {"collection_times": [{"days": "Mon-Fri", "time": "3:00pm"}, {"days": "Sat-Sun", "time": "Closed"}], "id": "3348400083", "name": "USPS COLLECTION BOX - BLUE BOX", "address": {"city": "DELRAY BEACH", "state": "FL", "street": "6561 FLANDERS WAY", "postcode": "33484"}}},
{"geometry": {"type": "Point", "coordinates": [-80.1238000784, 26.4392443325]}, "type": "Feature", "properties": {"collection_times": [{"days": "Mon-Fri", "time": "3:15pm"}, {"days": "Sat-Sun", "time": "Closed"}], "id": "3348400084", "name": "USPS COLLECTION BOX - BLUE BOX", "address": {"city": "DELRAY BEACH", "state": "FL", "street": "5130 LINTON BLVD", "postcode": "33484"}}},
{"geometry": {"type": "Point", "coordinates": [-80.125642969, 26.4392014741]}, "type": "Feature", "properties": {"collection_times": [{"days": "Mon-Fri", "time": "3:15pm"}, {"days": "Sat-Sun", "time": "Closed"}], "id": "3348400085", "name": "USPS COLLECTION BOX - BLUE BOX", "address": {"city": "DELRAY BEACH", "state": "FL", "street": "5210 LINTON BLVD", "postcode": "33484"}}},
{"geometry": {"type": "Point", "coordinates": [-80.126456072, 26.4391992685]}, "type": "Feature", "properties": {"collection_times": [{"days": "Mon-Fri", "time": "3:15pm"}, {"days": "Sat-Sun", "time": "Closed"}], "id": "3348400086", "name": "USPS COLLECTION BOX - BLUE BOX", "address": {"city": "DELRAY BEACH", "state": "FL", "street": "5258 LINTON BLVD", "postcode": "33484"}}},
{"geometry": {"type": "Point", "coordinates": [-80.147852149, 26.4426949458]}, "type": "Feature", "properties": {"collection_times": [{"days": "Mon-Fri", "time": "3:00pm"}, {"days": "Sat-Sun", "time": "Closed"}], "id": "3348400089", "name": "USPS COLLECTION BOX - BLUE BOX", "address": {"city": "DELRAY BEACH", "state": "FL", "street": "6570 MONACO BLVD", "postcode": "33484"}}},
{"geometry": {"type": "Point", "coordinates": [-80.1346154165, 26.4539960566]}, "type": "Feature", "properties": {"collection_times": [{"days": "Mon-Fri", "time": "3:45pm"}, {"days": "Sat-Sun", "time": "Closed"}], "id": "3348400090", "name": "USPS COLLECTION BOX - BLUE BOX", "address": {"city": "DELRAY BEACH", "state": "FL", "street": "6400 N ORIOLE BLVD", "postcode": "33484"}}},
{"geometry": {"type": "Point", "coordinates": [-80.1227261598, 26.461038665]}, "type": "Feature", "properties": {"collection_times": [{"days": "Mon-Fri", "time": "4:15pm"}, {"days": "Sat-Sun", "time": "Closed"}], "id": "3348400091", "name": "USPS COLLECTION BOX - BLUE BOX", "address": {"city": "DELRAY BEACH", "state": "FL", "street": "14535 S MILITARY TRL STE A", "postcode": "33484"}}},
{"geometry": {"type": "Point", "coordinates": [-80.1223724618, 26.456159641]}, "type": "Feature", "properties": {"collection_times": [{"days": "Mon-Fri", "time": "3:00pm"}, {"days": "Sat-Sun", "time": "Closed"}], "id": "3348400092", "name": "USPS COLLECTION BOX - BLUE BOX", "address": {"city": "DELRAY BEACH", "state": "FL", "street": "14838 S MILITARY TRL", "postcode": "33484"}}},
{"geometry": {"type": "Point", "coordinates": [-80.1281048661, 26.3636201318]}, "type": "Feature", "properties": {"collection_times": [{"days": "Mon-Fri", "time": "3:45pm"}, {"days": "Sat", "time": "9:45am"}, {"days": "Sun", "time": "Closed"}], "id": "3348600006", "name": "USPS COLLECTION BOX - BLUE BOX", "address": {"city": "BOCA RATON", "state": "FL", "street": "5355 TOWN CENTER RD", "postcode": "33486"}}},
{"geometry": {"type": "Point", "coordinates": [-80.1259353193, 26.3630546774]}, "type": "Feature", "properties": {"collection_times": [{"days": "Mon-Fri", "time": "3:45pm"}, {"days": "Sat", "time": "9:30am"}, {"days": "Sun", "time": "Closed"}], "id": "3348600007", "name": "USPS COLLECTION BOX - BLUE BOX", "address": {"city": "BOCA RATON", "state": "FL", "street": "5295 TOWN CENTER RD", "postcode": "33486"}}},
{"geometry": {"type": "Point", "coordinates": [-80.1246387963, 26.3614115474]}, "type": "Feature", "properties": {"collection_times": [{"days": "Mon-Fri", "time": "3:30pm"}, {"days": "Sat", "time": "9:30am"}, {"days": "Sun", "time": "Closed"}], "id": "3348600008", "name": "USPS COLLECTION BOX - BLUE BOX", "address": {"city": "BOCA RATON", "state": "FL", "street": "5200 TOWN CENTER CIR", "postcode": "33486"}}},
{"geometry": {"type": "Point", "coordinates": [-80.1109637907, 26.3510772179]}, "type": "Feature", "properties": {"collection_times": [{"days": "Mon-Fri", "time": "5:00pm"}, {"days": "Sat", "time": "4:00pm"}, {"days": "Sun", "time": "Closed"}], "id": "3348600016", "name": "USPS COLLECTION BOX - BLUE BOX", "address": {"city": "BOCA RATON", "state": "FL", "street": "1275 W PALMETTO PARK RD", "postcode": "33486"}}},
{"geometry": {"type": "Point", "coordinates": [-80.1109637907, 26.3510772179]}, "type": "Feature", "properties": {"collection_times": [{"days": "Mon-Fri", "time": "5:00pm"}, {"days": "Sat", "time": "4:00pm"}, {"days": "Sun", "time": "Closed"}], "id": "3348600017", "name": "USPS COLLECTION BOX - BLUE BOX", "address": {"city": "BOCA RATON", "state": "FL", "street": "1275 W PALMETTO PARK RD", "postcode": "33486"}}},
{"geometry": {"type": "Point", "coordinates": [-80.1047201332, 26.338560329]}, "type": "Feature", "properties": {"collection_times": [{"days": "Mon-Fri", "time": "2:30pm"}, {"days": "Sat", "time": "9:00am"}, {"days": "Sun", "time": "Closed"}], "id": "3348600020", "name": "USPS COLLECTION BOX - BLUE BOX", "address": {"city": "BOCA RATON", "state": "FL", "street": "900 NW 13TH ST", "postcode": "33486"}}},
{"geometry": {"type": "Point", "coordinates": [-80.1218966974, 26.3626725816]}, "type": "Feature", "properties": {"collection_times": [{"days": "Mon-Fri", "time": "3:30pm"}, {"days": "Sat", "time": "9:15am"}, {"days": "Sun", "time": "Closed"}], "id": "3348600026", "name": "USPS COLLECTION BOX - BLUE BOX", "address": {"city": "BOCA RATON", "state": "FL", "street": "5100 TOWN CENTER CIR", "postcode": "33486"}}},
{"geometry": {"type": "Point", "coordinates": [-80.1292686058, 26.3635485734]}, "type": "Feature", "properties": {"collection_times": [{"days": "Mon-Fri", "time": "10:00am"}, {"days": "Sat", "time": "9:45am"}, {"days": "Sun", "time": "Closed"}], "id": "3348600029", "name": "USPS COLLECTION BOX - BLUE BOX", "address": {"city": "BOCA RATON", "state": "FL", "street": "5458 TOWN CENTER RD", "postcode": "33486"}}},
{"geometry": {"type": "Point", "coordinates": [-80.1023305561, 26.3595673143]}, "type": "Feature", "properties": {"collection_times": [{"days": "Mon-Fri", "time": "2:30pm"}, {"days": "Sat", "time": "9:15am"}, {"days": "Sun", "time": "Closed"}], "id": "3348600030", "name": "USPS COLLECTION BOX - BLUE BOX", "address": {"city": "BOCA RATON", "state": "FL", "street": "800 MEADOWS RD", "postcode": "33486"}}},
{"geometry": {"type": "Point", "coordinates": [-80.1110513296, 26.3510772179]}, "type": "Feature", "properties": {"collection_times": [{"days": "Mon-Fri", "time": "5:00pm"}, {"days": "Sat", "time": "4:00pm"}, {"days": "Sun", "time": "Closed"}], "id": "3348600031", "name": "USPS COLLECTION BOX - APC", "address": {"city": "BOCA RATON", "state": "FL", "street": "1279 W PALMETTO PARK RD", "postcode": "33486"}}},
{"geometry": {"type": "Point", "coordinates": [-80.1110513296, 26.3510772179]}, "type": "Feature", "properties": {"collection_times": [{"days": "Mon-Fri", "time": "5:00pm"}, {"days": "Sat", "time": "4:00pm"}, {"days": "Sun", "time": "Closed"}], "id": "3348600032", "name": "USPS COLLECTION BOX - PO LOBBY", "address": {"city": "BOCA RATON", "state": "FL", "street": "1279 W PALMETTO PARK RD", "postcode": "33486"}}},
{"geometry": {"type": "Point", "coordinates": [-80.1110513296, 26.3510772179]}, "type": "Feature", "properties": {"collection_times": [{"days": "Mon-Fri", "time": "5:00pm"}, {"days": "Sat", "time": "4:00pm"}, {"days": "Sun", "time": "Closed"}], "id": "3348600033", "name": "USPS COLLECTION BOX - PO LOBBY", "address": {"city": "BOCA RATON", "state": "FL", "street": "1279 W PALMETTO PARK RD", "postcode": "33486"}}},
{"geometry": {"type": "Point", "coordinates": [-80.1045835672, 26.3453593008]}, "type": "Feature", "properties": {"collection_times": [{"days": "Mon-Fri", "time": "12:00pm"}, {"days": "Sat-Sun", "time": "Closed"}], "id": "3348600034", "name": "USPS COLLECTION BOX - BLUE BOX", "address": {"city": "BOCA RATON", "state": "FL", "street": "450 SW 9TH AVE", "postcode": "33486"}}},
{"geometry": {"type": "Point", "coordinates": [-80.0938525546, 26.4166975748]}, "type": "Feature", "properties": {"collection_times": [{"days": "Mon-Sat", "time": "11:00am"}, {"days": "Sun", "time": "Closed"}], "id": "3348700001", "name": "USPS COLLECTION BOX - BLUE BOX", "address": {"city": "BOCA RATON", "state": "FL", "street": "7600 NW 6TH AVE", "postcode": "33487"}}},
{"geometry": {"type": "Point", "coordinates": [-80.1025729663, 26.4047548255]}, "type": "Feature", "properties": {"collection_times": [{"days": "Mon-Fri", "time": "1:15pm"}, {"days": "Sat", "time": "11:00am"}, {"days": "Sun", "time": "Closed"}], "id": "3348700003", "name": "USPS COLLECTION BOX - BLUE BOX", "address": {"city": "BOCA RATON", "state": "FL", "street": "6401 CONGRESS AVE", "postcode": "33487"}}},
{"geometry": {"type": "Point", "coordinates": [-80.076361058, 26.3967701908]}, "type": "Feature", "properties": {"collection_times": [{"days": "Mon-Fri", "time": "2:30pm"}, {"days": "Sat", "time": "10:30am"}, {"days": "Sun", "time": "Closed"}], "id": "3348700008", "name": "USPS COLLECTION BOX - BLUE BOX", "address": {"city": "BOCA RATON", "state": "FL", "street": "5455 N FEDERAL HWY", "postcode": "33487"}}},
{"geometry": {"type": "Point", "coordinates": [-80.0958337455, 26.3964141202]}, "type": "Feature", "properties": {"collection_times": [{"days": "Mon-Fri", "time": "1:15pm"}, {"days": "Sat", "time": "10:45am"}, {"days": "Sun", "time": "Closed"}], "id": "3348700017", "name": "USPS COLLECTION BOX - BLUE BOX", "address": {"city": "BOCA RATON", "state": "FL", "street": "621 NW 53RD ST", "postcode": "33487"}}},
{"geometry": {"type": "Point", "coordinates": [-80.1113387887, 26.4067472667]}, "type": "Feature", "properties": {"collection_times": [{"days": "Mon-Fri", "time": "12:45pm"}, {"days": "Sat", "time": "11:15am"}, {"days": "Sun", "time": "Closed"}], "id": "3348700022", "name": "USPS COLLECTION BOX - BLUE BOX", "address": {"city": "BOCA RATON", "state": "FL", "street": "1120 HOLLAND DR", "postcode": "33487"}}},
{"geometry": {"type": "Point", "coordinates": [-80.0747569656, 26.4180244146]}, "type": "Feature", "properties": {"collection_times": [{"days": "Mon-Fri", "time": "2:15pm"}, {"days": "Sat", "time": "10:15am"}, {"days": "Sun", "time": "Closed"}], "id": "3348700026", "name": "USPS COLLECTION BOX - BLUE BOX", "address": {"city": "BOCA RATON", "state": "FL", "street": "7601 N FEDERAL HWY", "postcode": "33487"}}},
{"geometry": {"type": "Point", "coordinates": [-80.1039677713, 26.4081609027]}, "type": "Feature", "properties": {"collection_times": [{"days": "Mon-Fri", "time": "12:45pm"}, {"days": "Sat", "time": "11:15am"}, {"days": "Sun", "time": "Closed"}], "id": "3348700030", "name": "USPS COLLECTION BOX - BLUE BOX", "address": {"city": "BOCA RATON", "state": "FL", "street": "902 CLINT MOORE RD", "postcode": "33487"}}},
{"geometry": {"type": "Point", "coordinates": [-80.1026376871, 26.4083897832]}, "type": "Feature", "properties": {"collection_times": [{"days": "Mon-Sat", "time": "9:30am"}, {"days": "Sun", "time": "Closed"}], "id": "3348700031", "name": "USPS COLLECTION BOX - BLUE BOX", "address": {"city": "BOCA RATON", "state": "FL", "street": "901 CLINT MOORE RD", "postcode": "33487"}}},
{"geometry": {"type": "Point", "coordinates": [-80.1156554059, 26.4021360927]}, "type": "Feature", "properties": {"collection_times": [{"days": "Mon-Fri", "time": "1:00pm"}, {"days": "Sat-Sun", "time": "Closed"}], "id": "3348700032", "name": "USPS COLLECTION BOX - BLUE BOX", "address": {"city": "BOCA RATON", "state": "FL", "street": "5901 BROKEN SOUND PKWY", "postcode": "33487"}}},
{"geometry": {"type": "Point", "coordinates": [-80.097289968, 26.421644269]}, "type": "Feature", "properties": {"collection_times": [{"days": "Mon-Fri", "time": "12:45pm"}, {"days": "Sat", "time": "11:00am"}, {"days": "Sun", "time": "Closed"}], "id": "3348700033", "name": "USPS COLLECTION BOX - BLUE BOX", "address": {"city": "BOCA RATON", "state": "FL", "street": "950 PENINSULA CORPORATE CIR", "postcode": "33487"}}},
{"geometry": {"type": "Point", "coordinates": [-80.1116732957, 26.4030632858]}, "type": "Feature", "properties": {"collection_times": [{"days": "Mon-Fri", "time": "12:30pm"}, {"days": "Sat-Sun", "time": "Closed"}], "id": "3348700034", "name": "USPS COLLECTION BOX - BLUE BOX", "address": {"city": "BOCA RATON", "state": "FL", "street": "1200 S ROGERS CIR", "postcode": "33487"}}},
{"geometry": {"type": "Point", "coordinates": [-80.7282568602, 26.6788427337]}, "type": "Feature", "properties": {"collection_times": [{"days": "Mon-Fri", "time": "3:30pm"}, {"days": "Sat", "time": "2:30pm"}, {"days": "Sun", "time": "Closed"}], "id": "3349300001", "name": "USPS COLLECTION BOX - BLUE BOX", "address": {"city": "SOUTH BAY", "state": "FL", "street": "190 US  HIGHWAY27", "postcode": "33493"}}},
{"geometry": {"type": "Point", "coordinates": [-80.7154357115, 26.6627869051]}, "type": "Feature", "properties": {"collection_times": [{"days": "Mon-Fri", "time": "2:30pm"}, {"days": "Sat-Sun", "time": "Closed"}], "id": "3349300002", "name": "USPS COLLECTION BOX - PO LOBBY", "address": {"city": "SOUTH BAY", "state": "FL", "street": "190 US HIGHWAY 27 S", "postcode": "33493"}}},
{"geometry": {"type": "Point", "coordinates": [-80.7154357115, 26.6627869051]}, "type": "Feature", "properties": {"collection_times": [{"days": "Mon-Fri", "time": "2:30pm"}, {"days": "Sat-Sun", "time": "Closed"}], "id": "3349300003", "name": "USPS COLLECTION BOX - PO LOBBY", "address": {"city": "SOUTH BAY", "state": "FL", "street": "190 US HIGHWAY 27 S", "postcode": "33493"}}},
{"geometry": {"type": "Point", "coordinates": [-80.1266591934, 26.4152668874]}, "type": "Feature", "properties": {"collection_times": [{"days": "Mon-Fri", "time": "12:30pm"}, {"days": "Sat", "time": "11:30am"}, {"days": "Sun", "time": "Closed"}], "id": "3349600001", "name": "USPS COLLECTION BOX - BLUE BOX", "address": {"city": "BOCA RATON", "state": "FL", "street": "5100 CHAMPION BLVD", "postcode": "33496"}}},
{"geometry": {"type": "Point", "coordinates": [-80.1471800794, 26.3942126336]}, "type": "Feature", "properties": {"collection_times": [{"days": "Mon-Fri", "time": "1:30pm"}, {"days": "Sat", "time": "12:00pm"}, {"days": "Sun", "time": "Closed"}], "id": "3349600002", "name": "USPS COLLECTION BOX - BLUE BOX", "address": {"city": "BOCA RATON", "state": "FL", "street": "3003 YAMATO RD", "postcode": "33496"}}},
{"geometry": {"type": "Point", "coordinates": [-80.1251498346, 26.4077657944]}, "type": "Feature", "properties": {"collection_times": [{"days": "Mon-Fri", "time": "12:30pm"}, {"days": "Sat", "time": "11:45am"}, {"days": "Sun", "time": "Closed"}], "id": "3349600003", "name": "USPS COLLECTION BOX - BLUE BOX", "address": {"city": "BOCA RATON", "state": "FL", "street": "1905 CLINT MOORE RD", "postcode": "33496"}}},
{"geometry": {"type": "Point", "coordinates": [-80.1213974945, 26.4034951213]}, "type": "Feature", "properties": {"collection_times": [{"days": "Mon-Fri", "time": "1:30pm"}, {"days": "Sat", "time": "11:30am"}, {"days": "Sun", "time": "Closed"}], "id": "3349600004", "name": "USPS COLLECTION BOX - BLUE BOX", "address": {"city": "BOCA RATON", "state": "FL", "street": "6600 N MILITARY TRL", "postcode": "33496"}}},
{"geometry": {"type": "Point", "coordinates": [-80.1213974945, 26.4034951213]}, "type": "Feature", "properties": {"collection_times": [{"days": "Mon-Fri", "time": "1:30pm"}, {"days": "Sat", "time": "11:30am"}, {"days": "Sun", "time": "Closed"}], "id": "3349600005", "name": "USPS COLLECTION BOX - BLUE BOX", "address": {"city": "BOCA RATON", "state": "FL", "street": "6600 N MILITARY TRL", "postcode": "33496"}}},
{"geometry": {"type": "Point", "coordinates": [-80.1630889344, 26.4062923089]}, "type": "Feature", "properties": {"collection_times": [{"days": "Mon-Fri", "time": "2:00pm"}, {"days": "Sat-Sun", "time": "Closed"}], "id": "3349600006", "name": "USPS COLLECTION BOX - BLUE BOX", "address": {"city": "BOCA RATON", "state": "FL", "street": "9858 CLINT MOORE RD", "postcode": "33496"}}},
{"geometry": {"type": "Point", "coordinates": [-80.2291709652, 26.3483646929]}, "type": "Feature", "properties": {"collection_times": [{"days": "Mon-Fri", "time": "5:00pm"}, {"days": "Sat", "time": "3:00pm"}, {"days": "Sun", "time": "Closed"}], "id": "3349700000", "name": "USPS COLLECTION BOX - BLUE BOX", "address": {"city": "BOCA RATON", "state": "FL", "street": "11419 W PALMETTO PARK RD #A", "postcode": "33497"}}},
{"geometry": {"type": "Point", "coordinates": [-80.2291709652, 26.3483646929]}, "type": "Feature", "properties": {"collection_times": [{"days": "Mon-Fri", "time": "5:00pm"}, {"days": "Sat", "time": "3:00pm"}, {"days": "Sun", "time": "Closed"}], "id": "3349700001", "name": "USPS COLLECTION BOX - APC", "address": {"city": "BOCA RATON", "state": "FL", "street": "11419 W PALMETTO PARK RD #A", "postcode": "33497"}}},
{"geometry": {"type": "Point", "coordinates": [-80.2291709652, 26.3483646929]}, "type": "Feature", "properties": {"collection_times": [{"days": "Mon-Fri", "time": "5:00pm"}, {"days": "Sat", "time": "3:00pm"}, {"days": "Sun", "time": "Closed"}], "id": "3349700002", "name": "USPS COLLECTION BOX - PO LOBBY", "address": {"city": "BOCA RATON", "state": "FL", "street": "11419 W PALMETTO PARK RD #A", "postcode": "33497"}}},
{"geometry": {"type": "Point", "coordinates": [-80.2291709652, 26.3483646929]}, "type": "Feature", "properties": {"collection_times": [{"days": "Mon-Fri", "time": "5:00pm"}, {"days": "Sat", "time": "3:00pm"}, {"days": "Sun", "time": "Closed"}], "id": "3349700003", "name": "USPS COLLECTION BOX - PO LOBBY", "address": {"city": "BOCA RATON", "state": "FL", "street": "11419 W PALMETTO PARK RD #A", "postcode": "33497"}}},
{"geometry": {"type": "Point", "coordinates": [-80.2291709652, 26.3483646929]}, "type": "Feature", "properties": {"collection_times": [{"days": "Mon-Fri", "time": "5:00pm"}, {"days": "Sat", "time": "3:00pm"}, {"days": "Sun", "time": "Closed"}], "id": "3349700004", "name": "USPS COLLECTION BOX - PO LOBBY", "address": {"city": "BOCA RATON", "state": "FL", "street": "11419 W PALMETTO PARK RD #A", "postcode": "33497"}}}
]}
