{"type": "FeatureCollection", "features": [
{"geometry": {"type": "Point", "coordinates": [-82.285763473, 27.9329657945]}, "type": "Feature", "properties": {"collection_times": [{"days": "Mon-Fri", "time": "4:05pm"}, {"days": "Sat", "time": "3:30pm"}, {"days": "Sun", "time": "Closed"}], "id": "3351100004", "name": "USPS COLLECTION BOX - BLUE BOX", "address": {"city": "BRANDON", "state": "FL", "street": "427 S PARSONS AVE", "postcode": "33511"}}},
{"geometry": {"type": "Point", "coordinates": [-82.2960669705, 27.9233627812]}, "type": "Feature", "properties": {"collection_times": [{"days": "Mon-Fri", "time": "3:30pm"}, {"days": "Sat", "time": "3:20pm"}, {"days": "Sun", "time": "Closed"}], "id": "3351100015", "name": "USPS COLLECTION BOX - BLUE BOX", "address": {"city": "BRANDON", "state": "FL", "street": "798 W LUMSDEN RD", "postcode": "33511"}}},
{"geometry": {"type": "Point", "coordinates": [-82.302520023, 27.9339888442]}, "type": "Feature", "properties": {"collection_times": [{"days": "Mon-Fri", "time": "5:00pm"}, {"days": "Sat", "time": "4:30pm"}, {"days": "Sun", "time": "Closed"}], "id": "3351100017", "name": "USPS COLLECTION BOX - BLUE BOX", "address": {"city": "BRANDON", "state": "FL", "street": "1315 OAKFIELD DR", "postcode": "33511"}}},
{"geometry": {"type": "Point", "coordinates": [-82.3173336791, 27.9328696149]}, "type": "Feature", "properties": {"collection_times": [{"days": "Mon-Sat", "time": "2:45pm"}, {"days": "Sun", "time": "Closed"}], "id": "3351100024", "name": "USPS COLLECTION BOX - BLUE BOX", "address": {"city": "BRANDON", "state": "FL", "street": "1918 PLANTATION KEY CIR", "postcode": "33511"}}},
{"geometry": {"type": "Point", "coordinates": [-82.2886942426, 27.933590037]}, "type": "Feature", "properties": {"collection_times": [{"days": "Mon-Fri", "time": "4:20pm"}, {"days": "Sat", "time": "4:10pm"}, {"days": "Sun", "time": "Closed"}], "id": "3351100025", "name": "USPS COLLECTION BOX - BLUE BOX", "address": {"city": "BRANDON", "state": "FL", "street": "119 OAKFIELD DR", "postcode": "33511"}}},
{"geometry": {"type": "Point", "coordinates": [-82.2953625823, 27.9343483137]}, "type": "Feature", "properties": {"collection_times": [{"days": "Mon-Fri", "time": "4:30pm"}, {"days": "Sat", "time": "4:20pm"}, {"days": "Sun", "time": "Closed"}], "id": "3351100026", "name": "USPS COLLECTION BOX - BLUE BOX", "address": {"city": "BRANDON", "state": "FL", "street": "710 OAKFIELD DR", "postcode": "33511"}}},
{"geometry": {"type": "Point", "coordinates": [-82.2886575709, 27.930301411]}, "type": "Feature", "properties": {"collection_times": [{"days": "Mon-Fri", "time": "4:25pm"}, {"days": "Sat", "time": "4:15pm"}, {"days": "Sun", "time": "Closed"}], "id": "3351100032", "name": "USPS COLLECTION BOX - BLUE BOX", "address": {"city": "BRANDON", "state": "FL", "street": "510 VONDERBURG DR", "postcode": "33511"}}},
{"geometry": {"type": "Point", "coordinates": [-82.2829101946, 27.8936194897]}, "type": "Feature", "properties": {"collection_times": [{"days": "Mon-Fri", "time": "3:40pm"}, {"days": "Sat", "time": "3:30pm"}, {"days": "Sun", "time": "Closed"}], "id": "3351100042", "name": "USPS COLLECTION BOX - BLUE BOX", "address": {"city": "BRANDON", "state": "FL", "street": "179 E BLOOMINGDALE AVE", "postcode": "33511"}}},
{"geometry": {"type": "Point", "coordinates": [-82.3228080825, 27.9303029602]}, "type": "Feature", "properties": {"collection_times": [{"days": "Mon-Fri", "time": "3:05pm"}, {"days": "Sat", "time": "2:55pm"}, {"days": "Sun", "time": "Closed"}], "id": "3351100044", "name": "USPS COLLECTION BOX - BLUE BOX", "address": {"city": "BRANDON", "state": "FL", "street": "605 BRANDON TOWN CENTER MALL", "postcode": "33511"}}},
{"geometry": {"type": "Point", "coordinates": [-82.29235463, 27.9230552602]}, "type": "Feature", "properties": {"collection_times": [{"days": "Mon-Fri", "time": "3:30pm"}, {"days": "Sat", "time": "3:20pm"}, {"days": "Sun", "time": "Closed"}], "id": "3351100046", "name": "USPS COLLECTION BOX - BLUE BOX", "address": {"city": "BRANDON", "state": "FL", "street": "625 W LUMSDEN RD", "postcode": "33511"}}},
{"geometry": {"type": "Point", "coordinates": [-82.3246845861, 27.9232781837]}, "type": "Feature", "properties": {"collection_times": [{"days": "Mon-Fri", "time": "3:15pm"}, {"days": "Sat", "time": "3:05pm"}, {"days": "Sun", "time": "Closed"}], "id": "3351100049", "name": "USPS COLLECTION BOX - BLUE BOX", "address": {"city": "BRANDON", "state": "FL", "street": "11110 CAUSEWAY BLVD", "postcode": "33511"}}},
{"geometry": {"type": "Point", "coordinates": [-82.3239263094, 27.9231208501]}, "type": "Feature", "properties": {"collection_times": [{"days": "Mon-Fri", "time": "3:20pm"}, {"days": "Sat", "time": "3:10pm"}, {"days": "Sun", "time": "Closed"}], "id": "3351100055", "name": "USPS COLLECTION BOX - BLUE BOX", "address": {"city": "BRANDON", "state": "FL", "street": "11255 CAUSEWAY BLVD", "postcode": "33511"}}},
{"geometry": {"type": "Point", "coordinates": [-82.302520023, 27.9339888442]}, "type": "Feature", "properties": {"collection_times": [{"days": "Mon-Fri", "time": "5:00pm"}, {"days": "Sat", "time": "4:30pm"}, {"days": "Sun", "time": "Closed"}], "id": "3351100063", "name": "USPS COLLECTION BOX - APC", "address": {"city": "BRANDON", "state": "FL", "street": "1315 OAKFIELD DR", "postcode": "33511"}}},
{"geometry": {"type": "Point", "coordinates": [-82.1117496065, 28.6744074422]}, "type": "Feature", "properties": {"collection_times": [{"days": "Mon-Fri", "time": "4:30pm"}, {"days": "Sat", "time": "10:30am"}, {"days": "Sun", "time": "Closed"}], "id": "3351300001", "name": "USPS COLLECTION BOX - BLUE BOX", "address": {"city": "BUSHNELL", "state": "FL", "street": "800 N MAIN ST", "postcode": "33513"}}},
{"geometry": {"type": "Point", "coordinates": [-82.1117496065, 28.6744074422]}, "type": "Feature", "properties": {"collection_times": [{"days": "Mon-Fri", "time": "4:30pm"}, {"days": "Sat", "time": "10:30am"}, {"days": "Sun", "time": "Closed"}], "id": "3351300002", "name": "USPS COLLECTION BOX - BLUE BOX", "address": {"city": "BUSHNELL", "state": "FL", "street": "800 N MAIN ST", "postcode": "33513"}}},
{"geometry": {"type": "Point", "coordinates": [-81.9950010204, 28.649907179]}, "type": "Feature", "properties": {"collection_times": [{"days": "Mon-Fri", "time": "4:00pm"}, {"days": "Sat", "time": "9:00am"}, {"days": "Sun", "time": "Closed"}], "id": "3351400001", "name": "USPS COLLECTION BOX - BLUE BOX", "address": {"city": "CENTER HILL", "state": "FL", "street": "89 E KINGS HWY", "postcode": "33514"}}},
{"geometry": {"type": "Point", "coordinates": [-82.157447047, 28.1785386984]}, "type": "Feature", "properties": {"collection_times": [{"days": "Mon-Fri", "time": "3:15pm"}, {"days": "Sat", "time": "8:15am"}, {"days": "Sun", "time": "Closed"}], "id": "3352400001", "name": "USPS COLLECTION BOX - BLUE BOX", "address": {"city": "CRYSTAL SPRINGS", "state": "FL", "street": "1425 PAUL S BUCHMAN HWY", "postcode": "33524"}}},
{"geometry": {"type": "Point", "coordinates": [-82.2016698663, 28.3478835598]}, "type": "Feature", "properties": {"collection_times": [{"days": "Mon-Sat", "time": "2:00pm"}, {"days": "Sun", "time": "Closed"}], "id": "3352500007", "name": "USPS COLLECTION BOX - BLUE BOX", "address": {"city": "DADE CITY", "state": "FL", "street": "13100 FORT KING RD", "postcode": "33525"}}},
{"geometry": {"type": "Point", "coordinates": [-82.1883651269, 28.3629367126]}, "type": "Feature", "properties": {"collection_times": [{"days": "Mon-Sat", "time": "5:00pm"}, {"days": "Sun", "time": "Closed"}], "id": "3352500011", "name": "USPS COLLECTION BOX - BLUE BOX", "address": {"city": "DADE CITY", "state": "FL", "street": "37926 CHURCH AVE", "postcode": "33525"}}},
{"geometry": {"type": "Point", "coordinates": [-82.1883651269, 28.3629367126]}, "type": "Feature", "properties": {"collection_times": [{"days": "Mon-Sat", "time": "5:00pm"}, {"days": "Sun", "time": "Closed"}], "id": "3352500012", "name": "USPS COLLECTION BOX - BLUE BOX", "address": {"city": "DADE CITY", "state": "FL", "street": "37926 CHURCH AVE", "postcode": "33525"}}},
{"geometry": {"type": "Point", "coordinates": [-82.1861225696, 28.3652493834]}, "type": "Feature", "properties": {"collection_times": [{"days": "Mon-Fri", "time": "3:30pm"}, {"days": "Sat-Sun", "time": "Closed"}], "id": "3352500026", "name": "USPS COLLECTION BOX - BLUE BOX", "address": {"city": "DADE CITY", "state": "FL", "street": "38053 LIVE OAK", "postcode": "33525"}}},
{"geometry": {"type": "Point", "coordinates": [-82.1881643399, 28.36531296]}, "type": "Feature", "properties": {"collection_times": [{"days": "Mon-Fri", "time": "3:30pm"}, {"days": "Sat-Sun", "time": "Closed"}], "id": "3352500027", "name": "USPS COLLECTION BOX - BLUE BOX", "address": {"city": "DADE CITY", "state": "FL", "street": "14234 6TH ST", "postcode": "33525"}}},
{"geometry": {"type": "Point", "coordinates": [-82.1881643399, 28.36531296]}, "type": "Feature", "properties": {"collection_times": [{"days": "Mon-Fri", "time": "3:30pm"}, {"days": "Sat-Sun", "time": "Closed"}], "id": "3352500028", "name": "USPS COLLECTION BOX - BLUE BOX", "address": {"city": "DADE CITY", "state": "FL", "street": "14234 6TH ST", "postcode": "33525"}}},
{"geometry": {"type": "Point", "coordinates": [-82.1705719238, 27.9052867441]}, "type": "Feature", "properties": {"collection_times": [{"days": "Mon-Fri", "time": "4:00pm"}, {"days": "Sat", "time": "9:00am"}, {"days": "Sun", "time": "Closed"}], "id": "3353000001", "name": "USPS COLLECTION BOX - BLUE BOX", "address": {"city": "DURANT", "state": "FL", "street": "7202 TURKEY CRK", "postcode": "33530"}}},
{"geometry": {"type": "Point", "coordinates": [-82.3815254432, 27.8408863258]}, "type": "Feature", "properties": {"collection_times": [{"days": "Mon-Fri", "time": "4:30pm"}, {"days": "Sat", "time": "9:45am"}, {"days": "Sun", "time": "Closed"}], "id": "3353400004", "name": "USPS COLLECTION BOX - BLUE BOX", "address": {"city": "GIBSONTON", "state": "FL", "street": "11126 S US HIGHWAY 41", "postcode": "33534"}}},
{"geometry": {"type": "Point", "coordinates": [-82.1715115756, 28.4666889229]}, "type": "Feature", "properties": {"collection_times": [{"days": "Mon-Fri", "time": "3:30pm"}, {"days": "Sat", "time": "8:30am"}, {"days": "Sun", "time": "Closed"}], "id": "3353700001", "name": "USPS COLLECTION BOX - BLUE BOX", "address": {"city": "LACOOCHEE", "state": "FL", "street": "38915 HWY 575", "postcode": "33537"}}},
{"geometry": {"type": "Point", "coordinates": [-82.126791533, 28.7876060428]}, "type": "Feature", "properties": {"collection_times": [{"days": "Mon-Fri", "time": "4:15pm"}, {"days": "Sat", "time": "10:00am"}, {"days": "Sun", "time": "Closed"}], "id": "3353800001", "name": "USPS COLLECTION BOX - BLUE BOX", "address": {"city": "LK PANASOFFKE", "state": "FL", "street": "1397 CR 437", "postcode": "33538"}}},
{"geometry": {"type": "Point", "coordinates": [-82.1870772074, 28.2454802961]}, "type": "Feature", "properties": {"collection_times": [{"days": "Mon-Fri", "time": "5:00pm"}, {"days": "Sat", "time": "3:00pm"}, {"days": "Sun", "time": "Closed"}], "id": "3354000027", "name": "USPS COLLECTION BOX - BLUE BOX", "address": {"city": "ZEPHYRHILLS", "state": "FL", "street": "38032 POSTAL DR", "postcode": "33540"}}},
{"geometry": {"type": "Point", "coordinates": [-82.1870772074, 28.2454802961]}, "type": "Feature", "properties": {"collection_times": [{"days": "Mon-Fri", "time": "5:00pm"}, {"days": "Sat", "time": "3:00pm"}, {"days": "Sun", "time": "Closed"}], "id": "3354000028", "name": "USPS COLLECTION BOX - BLUE BOX", "address": {"city": "ZEPHYRHILLS", "state": "FL", "street": "38032 POSTAL DR", "postcode": "33540"}}},
{"geometry": {"type": "Point", "coordinates": [-82.1870772074, 28.2454802961]}, "type": "Feature", "properties": {"collection_times": [{"days": "Mon-Fri", "time": "5:00pm"}, {"days": "Sat", "time": "3:00pm"}, {"days": "Sun", "time": "Closed"}], "id": "3354000054", "name": "USPS COLLECTION BOX - APC", "address": {"city": "ZEPHYRHILLS", "state": "FL", "street": "38032 POSTAL DR", "postcode": "33540"}}},
{"geometry": {"type": "Point", "coordinates": [-82.1512944172, 27.8502481098]}, "type": "Feature", "properties": {"collection_times": [{"days": "Mon-Fri", "time": "4:00pm"}, {"days": "Sat", "time": "12:00pm"}, {"days": "Sun", "time": "Closed"}], "id": "3354700001", "name": "USPS COLLECTION BOX - BLUE BOX", "address": {"city": "LITHIA", "state": "FL", "street": "7825 HWY 640", "postcode": "33547"}}},
{"geometry": {"type": "Point", "coordinates": [-82.5441296877, 28.137382728]}, "type": "Feature", "properties": {"collection_times": [{"days": "Mon-Sat", "time": "11:30am"}, {"days": "Sun", "time": "Closed"}], "id": "3354900002", "name": "USPS COLLECTION BOX - BLUE BOX", "address": {"city": "LUTZ", "state": "FL", "street": "17815 JAMESTOWN WAY", "postcode": "33549"}}},
{"geometry": {"type": "Point", "coordinates": [-82.4623402845, 28.1421618671]}, "type": "Feature", "properties": {"collection_times": [{"days": "Mon-Sat", "time": "4:45pm"}, {"days": "Sun", "time": "Closed"}], "id": "3354900004", "name": "USPS COLLECTION BOX - BLUE BOX", "address": {"city": "LUTZ", "state": "FL", "street": "18489 N US HIGHWAY 41", "postcode": "33549"}}},
{"geometry": {"type": "Point", "coordinates": [-82.4623402845, 28.1421618671]}, "type": "Feature", "properties": {"collection_times": [{"days": "Mon-Sat", "time": "4:45pm"}, {"days": "Sun", "time": "Closed"}], "id": "3354900006", "name": "USPS COLLECTION BOX - BLUE BOX", "address": {"city": "LUTZ", "state": "FL", "street": "18489 N US HIGHWAY 41", "postcode": "33549"}}},
{"geometry": {"type": "Point", "coordinates": [-82.4324319575, 28.1857686947]}, "type": "Feature", "properties": {"collection_times": [{"days": "Mon-Sat", "time": "11:30am"}, {"days": "Sun", "time": "Closed"}], "id": "3354900008", "name": "USPS COLLECTION BOX - BLUE BOX", "address": {"city": "LUTZ", "state": "FL", "street": "23180 SR 54", "postcode": "33549"}}},
{"geometry": {"type": "Point", "coordinates": [-82.4623402845, 28.1421618671]}, "type": "Feature", "properties": {"collection_times": [{"days": "Mon-Sat", "time": "4:45pm"}, {"days": "Sun", "time": "Closed"}], "id": "3354900014", "name": "USPS COLLECTION BOX - APC", "address": {"city": "LUTZ", "state": "FL", "street": "18489 N US HIGHWAY 41", "postcode": "33549"}}},
{"geometry": {"type": "Point", "coordinates": [-82.3057951373, 27.9814891275]}, "type": "Feature", "properties": {"collection_times": [{"days": "Mon-Fri", "time": "4:00pm"}, {"days": "Sat", "time": "10:00am"}, {"days": "Sun", "time": "Closed"}], "id": "3355000001", "name": "USPS COLLECTION BOX - BLUE BOX", "address": {"city": "MANGO", "state": "FL", "street": "11507 MLK BLVD", "postcode": "33550"}}},
{"geometry": {"type": "Point", "coordinates": [-82.5962174383, 28.1749515207]}, "type": "Feature", "properties": {"collection_times": [{"days": "Mon-Fri", "time": "4:30pm"}, {"days": "Sat", "time": "12:00pm"}, {"days": "Sun", "time": "Closed"}], "id": "3355600001", "name": "USPS COLLECTION BOX - BLUE BOX", "address": {"city": "ODESSA", "state": "FL", "street": "13266 BYRD DR STE 100", "postcode": "33556"}}},
{"geometry": {"type": "Point", "coordinates": [-82.5820448611, 28.1142920422]}, "type": "Feature", "properties": {"collection_times": [{"days": "Mon-Sat", "time": "11:00am"}, {"days": "Sun", "time": "Closed"}], "id": "3355600003", "name": "USPS COLLECTION BOX - BLUE BOX", "address": {"city": "ODESSA", "state": "FL", "street": "8702 N MOBLEY ST", "postcode": "33556"}}},
{"geometry": {"type": "Point", "coordinates": [-82.5962174383, 28.1749515207]}, "type": "Feature", "properties": {"collection_times": [{"days": "Mon-Fri", "time": "4:30pm"}, {"days": "Sat", "time": "12:00pm"}, {"days": "Sun", "time": "Closed"}], "id": "3355600005", "name": "USPS COLLECTION BOX - PO LOBBY", "address": {"city": "ODESSA", "state": "FL", "street": "13266 BYRD DR STE 100", "postcode": "33556"}}},
{"geometry": {"type": "Point", "coordinates": [-82.117462446, 28.048799758]}, "type": "Feature", "properties": {"collection_times": [{"days": "Mon-Sat", "time": "11:00am"}, {"days": "Sun", "time": "Closed"}], "id": "3356500001", "name": "USPS COLLECTION BOX - BLUE BOX", "address": {"city": "PLANT CITY", "state": "FL", "street": "750 COUNTRY MEADOWS BLVD", "postcode": "33565"}}},
{"geometry": {"type": "Point", "coordinates": [-82.1255109682, 28.0159689334]}, "type": "Feature", "properties": {"collection_times": [{"days": "Mon-Fri", "time": "4:45pm"}, {"days": "Sat", "time": "12:00pm"}, {"days": "Sun", "time": "Closed"}], "id": "3356600010", "name": "USPS COLLECTION BOX - BLUE BOX", "address": {"city": "PLANT CITY", "state": "FL", "street": "301 W REYNOLDS ST", "postcode": "33566"}}},
{"geometry": {"type": "Point", "coordinates": [-82.1158107047, 27.9871248449]}, "type": "Feature", "properties": {"collection_times": [{"days": "Mon-Sat", "time": "5:00pm"}, {"days": "Sun", "time": "Closed"}], "id": "3356600026", "name": "USPS COLLECTION BOX - APC", "address": {"city": "PLANT CITY", "state": "FL", "street": "2501 WALDEN WOODS DR", "postcode": "33566"}}},
{"geometry": {"type": "Point", "coordinates": [-82.1158107047, 27.9871248449]}, "type": "Feature", "properties": {"collection_times": [{"days": "Mon-Sat", "time": "5:00pm"}, {"days": "Sun", "time": "Closed"}], "id": "3356600030", "name": "USPS COLLECTION BOX - BLUE BOX", "address": {"city": "PLANT CITY", "state": "FL", "street": "2501 WALDEN WOODS DR", "postcode": "33566"}}},
{"geometry": {"type": "Point", "coordinates": [-82.1158107047, 27.9871248449]}, "type": "Feature", "properties": {"collection_times": [{"days": "Mon-Sat", "time": "5:00pm"}, {"days": "Sun", "time": "Closed"}], "id": "3356600031", "name": "USPS COLLECTION BOX - BLUE BOX", "address": {"city": "PLANT CITY", "state": "FL", "street": "2501 WALDEN WOODS DR", "postcode": "33566"}}},
{"geometry": {"type": "Point", "coordinates": [-82.1388513306, 27.9966129067]}, "type": "Feature", "properties": {"collection_times": [{"days": "Mon-Sat", "time": "10:45am"}, {"days": "Sun", "time": "Closed"}], "id": "3356600032", "name": "USPS COLLECTION BOX - BLUE BOX", "address": {"city": "PLANT CITY", "state": "FL", "street": "1601 W TIMBERLANE DR", "postcode": "33566"}}},
{"geometry": {"type": "Point", "coordinates": [-82.3410212494, 27.9205278041]}, "type": "Feature", "properties": {"collection_times": [{"days": "Mon-Fri", "time": "2:00pm"}, {"days": "Sat", "time": "12:00pm"}, {"days": "Sun", "time": "Closed"}], "id": "3356900001", "name": "USPS COLLECTION BOX - BLUE BOX", "address": {"city": "RIVERVIEW", "state": "FL", "street": "10301 MARSH HARBOR WAY", "postcode": "33569"}}},
{"geometry": {"type": "Point", "coordinates": [-82.3262288708, 27.8572266141]}, "type": "Feature", "properties": {"collection_times": [{"days": "Mon-Fri", "time": "4:30pm"}, {"days": "Sat", "time": "3:00pm"}, {"days": "Sun", "time": "Closed"}], "id": "3356900004", "name": "USPS COLLECTION BOX - BLUE BOX", "address": {"city": "RIVERVIEW", "state": "FL", "street": "10810 BOYETTE RD", "postcode": "33569"}}},
{"geometry": {"type": "Point", "coordinates": [-82.3267417518, 27.8799617752]}, "type": "Feature", "properties": {"collection_times": [{"days": "Mon-Fri", "time": "1:00pm"}, {"days": "Sat", "time": "12:00pm"}, {"days": "Sun", "time": "Closed"}], "id": "3356900006", "name": "USPS COLLECTION BOX - BLUE BOX", "address": {"city": "RIVERVIEW", "state": "FL", "street": "6929 US HWY 301", "postcode": "33569"}}},
{"geometry": {"type": "Point", "coordinates": [-82.3262288708, 27.8572266141]}, "type": "Feature", "properties": {"collection_times": [{"days": "Mon-Fri", "time": "4:30pm"}, {"days": "Sat", "time": "3:00pm"}, {"days": "Sun", "time": "Closed"}], "id": "3356900011", "name": "USPS COLLECTION BOX - APC", "address": {"city": "RIVERVIEW", "state": "FL", "street": "10810 BOYETTE RD", "postcode": "33569"}}},
{"geometry": {"type": "Point", "coordinates": [-82.4353269406, 27.7079820916]}, "type": "Feature", "properties": {"collection_times": [{"days": "Mon-Fri", "time": "5:00pm"}, {"days": "Sat", "time": "1:00pm"}, {"days": "Sun", "time": "Closed"}], "id": "3357000001", "name": "USPS COLLECTION BOX - BLUE BOX", "address": {"city": "RUSKIN", "state": "FL", "street": "455 N US HIGHWAY 41", "postcode": "33570"}}},
{"geometry": {"type": "Point", "coordinates": [-82.3943585033, 27.7712525782]}, "type": "Feature", "properties": {"collection_times": [{"days": "Mon-Fri", "time": "4:00pm"}, {"days": "Sat", "time": "3:00pm"}, {"days": "Sun", "time": "Closed"}], "id": "3357200001", "name": "USPS COLLECTION BOX - BLUE BOX", "address": {"city": "RUSKIN", "state": "FL", "street": "246 APOLLO BEACH BLVD", "postcode": "33572"}}},
{"geometry": {"type": "Point", "coordinates": [-82.3943585033, 27.7712525782]}, "type": "Feature", "properties": {"collection_times": [{"days": "Mon-Fri", "time": "4:00pm"}, {"days": "Sat", "time": "3:00pm"}, {"days": "Sun", "time": "Closed"}], "id": "3357200002", "name": "USPS COLLECTION BOX - BLUE BOX", "address": {"city": "RUSKIN", "state": "FL", "street": "246 APOLLO BEACH BLVD", "postcode": "33572"}}},
{"geometry": {"type": "Point", "coordinates": [-82.3968048624, 27.7656985859]}, "type": "Feature", "properties": {"collection_times": [{"days": "Mon-Fri", "time": "4:00pm"}, {"days": "Sat", "time": "3:00pm"}, {"days": "Sun", "time": "Closed"}], "id": "3357200007", "name": "USPS COLLECTION BOX - BLUE BOX", "address": {"city": "RUSKIN", "state": "FL", "street": "219 FLAMINGO DR", "postcode": "33572"}}},
{"geometry": {"type": "Point", "coordinates": [-82.3604581509, 27.7111930506]}, "type": "Feature", "properties": {"collection_times": [{"days": "Mon-Fri", "time": "4:00pm"}, {"days": "Sat", "time": "3:00pm"}, {"days": "Sun", "time": "Closed"}], "id": "3357300004", "name": "USPS COLLECTION BOX - BLUE BOX", "address": {"city": "RUSKIN", "state": "FL", "street": "301 KINGS BLVD", "postcode": "33573"}}},
{"geometry": {"type": "Point", "coordinates": [-82.3556686474, 27.7140872692]}, "type": "Feature", "properties": {"collection_times": [{"days": "Mon-Fri", "time": "5:00pm"}, {"days": "Sat", "time": "3:00pm"}, {"days": "Sun", "time": "Closed"}], "id": "3357300005", "name": "USPS COLLECTION BOX - BLUE BOX", "address": {"city": "RUSKIN", "state": "FL", "street": "1645 SUN CITY CENTER PLZ", "postcode": "33573"}}},
{"geometry": {"type": "Point", "coordinates": [-82.3556686474, 27.7140872692]}, "type": "Feature", "properties": {"collection_times": [{"days": "Mon-Fri", "time": "5:00pm"}, {"days": "Sat", "time": "3:00pm"}, {"days": "Sun", "time": "Closed"}], "id": "3357300006", "name": "USPS COLLECTION BOX - BLUE BOX", "address": {"city": "RUSKIN", "state": "FL", "street": "1645 SUN CITY CENTER PLZ", "postcode": "33573"}}},
{"geometry": {"type": "Point", "coordinates": [-82.3556686474, 27.7140872692]}, "type": "Feature", "properties": {"collection_times": [{"days": "Mon-Fri", "time": "5:00pm"}, {"days": "Sat", "time": "3:00pm"}, {"days": "Sun", "time": "Closed"}], "id": "3357300007", "name": "USPS COLLECTION BOX - BLUE BOX", "address": {"city": "RUSKIN", "state": "FL", "street": "1645 SUN CITY CENTER PLZ", "postcode": "33573"}}},
{"geometry": {"type": "Point", "coordinates": [-82.3604581509, 27.7111930506]}, "type": "Feature", "properties": {"collection_times": [{"days": "Mon-Fri", "time": "4:00pm"}, {"days": "Sat", "time": "3:00pm"}, {"days": "Sun", "time": "Closed"}], "id": "3357300012", "name": "USPS COLLECTION BOX - BLUE BOX", "address": {"city": "RUSKIN", "state": "FL", "street": "301 KINGS BLVD", "postcode": "33573"}}},
{"geometry": {"type": "Point", "coordinates": [-82.3556686474, 27.7140872692]}, "type": "Feature", "properties": {"collection_times": [{"days": "Mon-Fri", "time": "5:00pm"}, {"days": "Sat", "time": "3:00pm"}, {"days": "Sun", "time": "Closed"}], "id": "3357300014", "name": "USPS COLLECTION BOX - APC", "address": {"city": "RUSKIN", "state": "FL", "street": "1645 SUN CITY CENTER PLZ", "postcode": "33573"}}},
{"geometry": {"type": "Point", "coordinates": [-82.2729407781, 28.3360220302]}, "type": "Feature", "properties": {"collection_times": [{"days": "Mon-Fri", "time": "4:00pm"}, {"days": "Sat", "time": "9:00am"}, {"days": "Sun", "time": "Closed"}], "id": "3357600003", "name": "USPS COLLECTION BOX - BLUE BOX", "address": {"city": "SAN ANTONIO", "state": "FL", "street": "12231 MAIN ST", "postcode": "33576"}}},
{"geometry": {"type": "Point", "coordinates": [-82.277669065, 27.9829407191]}, "type": "Feature", "properties": {"collection_times": [{"days": "Mon-Fri", "time": "4:15pm"}, {"days": "Sat", "time": "2:45pm"}, {"days": "Sun", "time": "Closed"}], "id": "3358400001", "name": "USPS COLLECTION BOX - BLUE BOX", "address": {"city": "SEFFNER", "state": "FL", "street": "1431 S KINGSWAY RD", "postcode": "33584"}}},
{"geometry": {"type": "Point", "coordinates": [-82.2882257099, 28.0062193114]}, "type": "Feature", "properties": {"collection_times": [{"days": "Mon-Fri", "time": "10:00am"}, {"days": "Sat", "time": "9:30am"}, {"days": "Sun", "time": "Closed"}], "id": "3358400005", "name": "USPS COLLECTION BOX - BLUE BOX", "address": {"city": "SEFFNER", "state": "FL", "street": "11720 E DR MARTIN LUTHER KING JR BLVD", "postcode": "33584"}}},
{"geometry": {"type": "Point", "coordinates": [-82.0622191147, 28.7495182387]}, "type": "Feature", "properties": {"collection_times": [{"days": "Mon-Fri", "time": "3:00pm"}, {"days": "Sat", "time": "9:15am"}, {"days": "Sun", "time": "Closed"}], "id": "3358500001", "name": "USPS COLLECTION BOX - BLUE BOX", "address": {"city": "SUMTERVILLE", "state": "FL", "street": "445 S US 301", "postcode": "33585"}}},
{"geometry": {"type": "Point", "coordinates": [-82.2936153519, 28.0579769892]}, "type": "Feature", "properties": {"collection_times": [{"days": "Mon-Fri", "time": "4:30pm"}, {"days": "Sat", "time": "12:00pm"}, {"days": "Sun", "time": "Closed"}], "id": "3359200001", "name": "USPS COLLECTION BOX - BLUE BOX", "address": {"city": "THONOTOSASSA", "state": "FL", "street": "10806 MAIN ST", "postcode": "33592"}}},
{"geometry": {"type": "Point", "coordinates": [-82.1957212393, 28.462558408]}, "type": "Feature", "properties": {"collection_times": [{"days": "Mon-Fri", "time": "3:30pm"}, {"days": "Sat", "time": "9:00am"}, {"days": "Sun", "time": "Closed"}], "id": "3359300001", "name": "USPS COLLECTION BOX - BLUE BOX", "address": {"city": "TRILBY", "state": "FL", "street": "37451 TRILBY RD", "postcode": "33593"}}},
{"geometry": {"type": "Point", "coordinates": [-82.2467537451, 27.9380003071]}, "type": "Feature", "properties": {"collection_times": [{"days": "Mon-Fri", "time": "5:00pm"}, {"days": "Sat", "time": "3:00pm"}, {"days": "Sun", "time": "Closed"}], "id": "3359400001", "name": "USPS COLLECTION BOX - BLUE BOX", "address": {"city": "VALRICO", "state": "FL", "street": "2406 E STATE ROAD 60", "postcode": "33594"}}},
{"geometry": {"type": "Point", "coordinates": [-82.2467537451, 27.9380003071]}, "type": "Feature", "properties": {"collection_times": [{"days": "Mon-Fri", "time": "5:00pm"}, {"days": "Sat", "time": "3:00pm"}, {"days": "Sun", "time": "Closed"}], "id": "3359400002", "name": "USPS COLLECTION BOX - BLUE BOX", "address": {"city": "VALRICO", "state": "FL", "street": "2406 E STATE ROAD 60", "postcode": "33594"}}},
{"geometry": {"type": "Point", "coordinates": [-82.2467537451, 27.9380003071]}, "type": "Feature", "properties": {"collection_times": [{"days": "Mon-Fri", "time": "5:00pm"}, {"days": "Sat", "time": "3:00pm"}, {"days": "Sun", "time": "Closed"}], "id": "3359400005", "name": "USPS COLLECTION BOX - BLUE BOX", "address": {"city": "VALRICO", "state": "FL", "street": "2406 E STATE ROAD 60", "postcode": "33594"}}},
{"geometry": {"type": "Point", "coordinates": [-82.2467537451, 27.9380003071]}, "type": "Feature", "properties": {"collection_times": [{"days": "Mon-Fri", "time": "5:00pm"}, {"days": "Sat", "time": "3:00pm"}, {"days": "Sun", "time": "Closed"}], "id": "3359400006", "name": "USPS COLLECTION BOX - BLUE BOX", "address": {"city": "VALRICO", "state": "FL", "street": "2406 E STATE ROAD 60", "postcode": "33594"}}},
{"geometry": {"type": "Point", "coordinates": [-82.2467537451, 27.9380003071]}, "type": "Feature", "properties": {"collection_times": [{"days": "Mon-Fri", "time": "5:00pm"}, {"days": "Sat", "time": "3:00pm"}, {"days": "Sun", "time": "Closed"}], "id": "3359400007", "name": "USPS COLLECTION BOX - APC", "address": {"city": "VALRICO", "state": "FL", "street": "2406 E STATE ROAD 60", "postcode": "33594"}}},
{"geometry": {"type": "Point", "coordinates": [-82.0533540202, 28.6095103133]}, "type": "Feature", "properties": {"collection_times": [{"days": "Mon-Fri", "time": "4:30pm"}, {"days": "Sat", "time": "12:00pm"}, {"days": "Sun", "time": "Closed"}], "id": "3359700001", "name": "USPS COLLECTION BOX - BLUE BOX", "address": {"city": "WEBSTER", "state": "FL", "street": "40 SE 1ST ST", "postcode": "33597"}}}
]}
