{"type": "FeatureCollection", "features": [
{"geometry": {"type": "Point", "coordinates": [-82.4576026057, 27.9492033086]}, "type": "Feature", "properties": {"collection_times": [{"days": "Mon-Fri", "time": "2:45pm"}, {"days": "Sat", "time": "12:00pm"}, {"days": "Sun", "time": "Closed"}], "id": "3360200016", "name": "USPS COLLECTION BOX - BLUE BOX", "address": {"city": "TAMPA", "state": "FL", "street": "509 N FLORIDA AVE", "postcode": "33602"}}},
{"geometry": {"type": "Point", "coordinates": [-82.4572992311, 27.9487325225]}, "type": "Feature", "properties": {"collection_times": [{"days": "Mon-Fri", "time": "2:30pm"}, {"days": "Sat-Sun", "time": "Closed"}], "id": "3360200074", "name": "USPS COLLECTION BOX - BLUE BOX", "address": {"city": "TAMPA", "state": "FL", "street": "403 E MADISON ST", "postcode": "33602"}}},
{"geometry": {"type": "Point", "coordinates": [-82.4552748616, 27.9477100014]}, "type": "Feature", "properties": {"collection_times": [{"days": "Mon-Fri", "time": "2:45pm"}, {"days": "Sat", "time": "12:00pm"}, {"days": "Sun", "time": "Closed"}], "id": "3360200083", "name": "USPS COLLECTION BOX - BLUE BOX", "address": {"city": "TAMPA", "state": "FL", "street": "513 E JACKSON ST", "postcode": "33602"}}},
{"geometry": {"type": "Point", "coordinates": [-82.4591270744, 27.9502772349]}, "type": "Feature", "properties": {"collection_times": [{"days": "Mon-Fri", "time": "3:00pm"}, {"days": "Sat", "time": "12:00pm"}, {"days": "Sun", "time": "Closed"}], "id": "3360200092", "name": "USPS COLLECTION BOX - BLUE BOX", "address": {"city": "TAMPA", "state": "FL", "street": "702 N FRANKLIN ST", "postcode": "33602"}}},
{"geometry": {"type": "Point", "coordinates": [-82.4546700487, 27.9505664578]}, "type": "Feature", "properties": {"collection_times": [{"days": "Mon-Fri", "time": "4:15pm"}, {"days": "Sat", "time": "12:00pm"}, {"days": "Sun", "time": "Closed"}], "id": "3360200099", "name": "USPS COLLECTION BOX - BLUE BOX", "address": {"city": "TAMPA", "state": "FL", "street": "700 E TWIGGS ST", "postcode": "33602"}}},
{"geometry": {"type": "Point", "coordinates": [-82.4585613046, 27.9448649673]}, "type": "Feature", "properties": {"collection_times": [{"days": "Mon-Fri", "time": "3:00pm"}, {"days": "Sat", "time": "12:00pm"}, {"days": "Sun", "time": "Closed"}], "id": "3360200112", "name": "USPS COLLECTION BOX - BLUE BOX", "address": {"city": "TAMPA", "state": "FL", "street": "102 W WHITING ST", "postcode": "33602"}}},
{"geometry": {"type": "Point", "coordinates": [-82.4548521092, 27.9487239591]}, "type": "Feature", "properties": {"collection_times": [{"days": "Mon-Fri", "time": "3:00pm"}, {"days": "Sat-Sun", "time": "Closed"}], "id": "3360200158", "name": "USPS COLLECTION BOX - BLUE BOX", "address": {"city": "TAMPA", "state": "FL", "street": "601 E KENNEDY BLVD", "postcode": "33602"}}},
{"geometry": {"type": "Point", "coordinates": [-82.4595550006, 27.9472451428]}, "type": "Feature", "properties": {"collection_times": [{"days": "Mon-Fri", "time": "5:00pm"}, {"days": "Sat-Sun", "time": "Closed"}], "id": "3360200159", "name": "USPS COLLECTION BOX - PO LOBBY", "address": {"city": "TAMPA", "state": "FL", "street": "401 N ASHLEY DR", "postcode": "33602"}}},
{"geometry": {"type": "Point", "coordinates": [-82.4512966842, 28.0083920812]}, "type": "Feature", "properties": {"collection_times": [{"days": "Mon-Fri", "time": "5:00pm"}, {"days": "Sat", "time": "3:00pm"}, {"days": "Sun", "time": "Closed"}], "id": "3360400022", "name": "USPS COLLECTION BOX - BLUE BOX", "address": {"city": "TAMPA", "state": "FL", "street": "6706 N NEBRASKA AVE", "postcode": "33604"}}},
{"geometry": {"type": "Point", "coordinates": [-82.4036151572, 27.9520134399]}, "type": "Feature", "properties": {"collection_times": [{"days": "Mon-Sat", "time": "1:00pm"}, {"days": "Sun", "time": "Closed"}], "id": "3360500040", "name": "USPS COLLECTION BOX - BLUE BOX", "address": {"city": "TAMPA", "state": "FL", "street": "4951 E ADAMO DR", "postcode": "33605"}}},
{"geometry": {"type": "Point", "coordinates": [-82.4364884038, 27.9638311999]}, "type": "Feature", "properties": {"collection_times": [{"days": "Mon-Fri", "time": "5:00pm"}, {"days": "Sat", "time": "1:00pm"}, {"days": "Sun", "time": "Closed"}], "id": "3360500047", "name": "USPS COLLECTION BOX - BLUE BOX", "address": {"city": "TAMPA", "state": "FL", "street": "2000 E 12TH AVE", "postcode": "33605"}}},
{"geometry": {"type": "Point", "coordinates": [-82.4645848622, 27.938058073]}, "type": "Feature", "properties": {"collection_times": [{"days": "Mon-Sat", "time": "11:00am"}, {"days": "Sun", "time": "Closed"}], "id": "3360600055", "name": "USPS COLLECTION BOX - BLUE BOX", "address": {"city": "TAMPA", "state": "FL", "street": "511 W BAY ST", "postcode": "33606"}}},
{"geometry": {"type": "Point", "coordinates": [-82.4594259782, 27.936788758]}, "type": "Feature", "properties": {"collection_times": [{"days": "Mon-Sat", "time": "9:15am"}, {"days": "Sun", "time": "Closed"}], "id": "3360600056", "name": "USPS COLLECTION BOX - BLUE BOX", "address": {"city": "TAMPA", "state": "FL", "street": "4 COLUMBIA DR", "postcode": "33606"}}},
{"geometry": {"type": "Point", "coordinates": [-82.4534295592, 27.9266886544]}, "type": "Feature", "properties": {"collection_times": [{"days": "Mon-Sat", "time": "10:30am"}, {"days": "Sun", "time": "Closed"}], "id": "3360600057", "name": "USPS COLLECTION BOX - BLUE BOX", "address": {"city": "TAMPA", "state": "FL", "street": "232 E DAVIS BLVD", "postcode": "33606"}}},
{"geometry": {"type": "Point", "coordinates": [-82.4830307414, 27.9288593841]}, "type": "Feature", "properties": {"collection_times": [{"days": "Mon-Sat", "time": "9:30am"}, {"days": "Sun", "time": "Closed"}], "id": "3360600058", "name": "USPS COLLECTION BOX - BLUE BOX", "address": {"city": "TAMPA", "state": "FL", "street": "1304 S DESOTO AVE", "postcode": "33606"}}},
{"geometry": {"type": "Point", "coordinates": [-82.4829153037, 27.9447056876]}, "type": "Feature", "properties": {"collection_times": [{"days": "Mon-Sat", "time": "8:30am"}, {"days": "Sun", "time": "Closed"}], "id": "3360600059", "name": "USPS COLLECTION BOX - BLUE BOX", "address": {"city": "TAMPA", "state": "FL", "street": "100 N HOWARD AVE", "postcode": "33606"}}},
{"geometry": {"type": "Point", "coordinates": [-82.4637989868, 27.9454862021]}, "type": "Feature", "properties": {"collection_times": [{"days": "Mon-Sat", "time": "1:45pm"}, {"days": "Sun", "time": "Closed"}], "id": "3360600060", "name": "USPS COLLECTION BOX - BLUE BOX", "address": {"city": "TAMPA", "state": "FL", "street": "100 S HYDE PARK AVE", "postcode": "33606"}}},
{"geometry": {"type": "Point", "coordinates": [-82.4639196263, 27.9410600059]}, "type": "Feature", "properties": {"collection_times": [{"days": "Mon-Sat", "time": "10:00am"}, {"days": "Sun", "time": "Closed"}], "id": "3360600061", "name": "USPS COLLECTION BOX - BLUE BOX", "address": {"city": "TAMPA", "state": "FL", "street": "300 S HYDE PARK AVE", "postcode": "33606"}}},
{"geometry": {"type": "Point", "coordinates": [-82.4658553601, 27.9382532612]}, "type": "Feature", "properties": {"collection_times": [{"days": "Mon-Sat", "time": "10:30am"}, {"days": "Sun", "time": "Closed"}], "id": "3360600062", "name": "USPS COLLECTION BOX - BLUE BOX", "address": {"city": "TAMPA", "state": "FL", "street": "607 S MAGNOLIA AVE", "postcode": "33606"}}},
{"geometry": {"type": "Point", "coordinates": [-82.4686140205, 27.9386270762]}, "type": "Feature", "properties": {"collection_times": [{"days": "Mon-Sat", "time": "9:00am"}, {"days": "Sun", "time": "Closed"}], "id": "3360600063", "name": "USPS COLLECTION BOX - BLUE BOX", "address": {"city": "TAMPA", "state": "FL", "street": "601 S BOULEVARD", "postcode": "33606"}}},
{"geometry": {"type": "Point", "coordinates": [-82.4892767647, 27.9667188028]}, "type": "Feature", "properties": {"collection_times": [{"days": "Mon-Fri", "time": "1:00pm"}, {"days": "Sat", "time": "12:00pm"}, {"days": "Sun", "time": "Closed"}], "id": "3360700019", "name": "USPS COLLECTION BOX - BLUE BOX", "address": {"city": "TAMPA", "state": "FL", "street": "2902 W COLUMBUS DR", "postcode": "33607"}}},
{"geometry": {"type": "Point", "coordinates": [-82.5329870985, 27.9523813401]}, "type": "Feature", "properties": {"collection_times": [{"days": "Mon-Fri", "time": "3:50pm"}, {"days": "Sat-Sun", "time": "Closed"}], "id": "3360700031", "name": "USPS COLLECTION BOX - BLUE BOX", "address": {"city": "TAMPA", "state": "FL", "street": "5300 W CYPRESS ST", "postcode": "33607"}}},
{"geometry": {"type": "Point", "coordinates": [-82.5329870985, 27.9523813401]}, "type": "Feature", "properties": {"collection_times": [{"days": "Mon-Fri", "time": "3:50pm"}, {"days": "Sat-Sun", "time": "Closed"}], "id": "3360700032", "name": "USPS COLLECTION BOX - BLUE BOX", "address": {"city": "TAMPA", "state": "FL", "street": "5300 W CYPRESS ST", "postcode": "33607"}}},
{"geometry": {"type": "Point", "coordinates": [-82.5012971592, 27.9640811071]}, "type": "Feature", "properties": {"collection_times": [{"days": "Mon-Fri", "time": "3:00pm"}, {"days": "Sat-Sun", "time": "Closed"}], "id": "3360700040", "name": "USPS COLLECTION BOX - BLUE BOX", "address": {"city": "TAMPA", "state": "FL", "street": "3000 BAYPORT DR", "postcode": "33607"}}},
{"geometry": {"type": "Point", "coordinates": [-82.567566172, 27.9673978212]}, "type": "Feature", "properties": {"collection_times": [{"days": "Mon-Fri", "time": "3:00pm"}, {"days": "Sat-Sun", "time": "Closed"}], "id": "3360700051", "name": "USPS COLLECTION BOX - BLUE BOX", "address": {"city": "TAMPA", "state": "FL", "street": "7650 W COURTNEY CAMPBELL CSWY", "postcode": "33607"}}},
{"geometry": {"type": "Point", "coordinates": [-82.567566172, 27.9673978212]}, "type": "Feature", "properties": {"collection_times": [{"days": "Mon-Fri", "time": "3:00pm"}, {"days": "Sat-Sun", "time": "Closed"}], "id": "3360700052", "name": "USPS COLLECTION BOX - BLUE BOX", "address": {"city": "TAMPA", "state": "FL", "street": "7650 W COURTNEY CAMPBELL CSWY", "postcode": "33607"}}},
{"geometry": {"type": "Point", "coordinates": [-82.4829006159, 27.9581246059]}, "type": "Feature", "properties": {"collection_times": [{"days": "Mon-Fri", "time": "5:00pm"}, {"days": "Sat", "time": "3:00pm"}, {"days": "Sun", "time": "Closed"}], "id": "3360700058", "name": "USPS COLLECTION BOX - BLUE BOX", "address": {"city": "TAMPA", "state": "FL", "street": "1802 N HOWARD AVE", "postcode": "33607"}}},
{"geometry": {"type": "Point", "coordinates": [-82.4829006159, 27.9581246059]}, "type": "Feature", "properties": {"collection_times": [{"days": "Mon-Fri", "time": "5:00pm"}, {"days": "Sat", "time": "3:00pm"}, {"days": "Sun", "time": "Closed"}], "id": "3360700059", "name": "USPS COLLECTION BOX - BLUE BOX", "address": {"city": "TAMPA", "state": "FL", "street": "1802 N HOWARD AVE", "postcode": "33607"}}},
{"geometry": {"type": "Point", "coordinates": [-82.5240616731, 27.9575035524]}, "type": "Feature", "properties": {"collection_times": [{"days": "Mon-Fri", "time": "4:40pm"}, {"days": "Sat-Sun", "time": "Closed"}], "id": "3360700071", "name": "USPS COLLECTION BOX - BLUE BOX", "address": {"city": "TAMPA", "state": "FL", "street": "1715 N WESTSHORE BLVD", "postcode": "33607"}}},
{"geometry": {"type": "Point", "coordinates": [-82.524014645, 27.9543363324]}, "type": "Feature", "properties": {"collection_times": [{"days": "Mon-Fri", "time": "4:20pm"}, {"days": "Sat", "time": "12:00pm"}, {"days": "Sun", "time": "Closed"}], "id": "3360700089", "name": "USPS COLLECTION BOX - BLUE BOX", "address": {"city": "TAMPA", "state": "FL", "street": "1211 N WESTSHORE BLVD", "postcode": "33607"}}},
{"geometry": {"type": "Point", "coordinates": [-82.524014645, 27.9543363324]}, "type": "Feature", "properties": {"collection_times": [{"days": "Mon-Fri", "time": "4:20pm"}, {"days": "Sat", "time": "12:00pm"}, {"days": "Sun", "time": "Closed"}], "id": "3360700090", "name": "USPS COLLECTION BOX - BLUE BOX", "address": {"city": "TAMPA", "state": "FL", "street": "1211 N WESTSHORE BLVD", "postcode": "33607"}}},
{"geometry": {"type": "Point", "coordinates": [-82.5240616731, 27.9575035524]}, "type": "Feature", "properties": {"collection_times": [{"days": "Mon-Fri", "time": "4:40pm"}, {"days": "Sat-Sun", "time": "Closed"}], "id": "3360700091", "name": "USPS COLLECTION BOX - BLUE BOX", "address": {"city": "TAMPA", "state": "FL", "street": "1715 N WESTSHORE BLVD", "postcode": "33607"}}},
{"geometry": {"type": "Point", "coordinates": [-82.5240117325, 27.9550371268]}, "type": "Feature", "properties": {"collection_times": [{"days": "Mon-Fri", "time": "4:25pm"}, {"days": "Sat-Sun", "time": "Closed"}], "id": "3360700095", "name": "USPS COLLECTION BOX - BLUE BOX", "address": {"city": "TAMPA", "state": "FL", "street": "1401 N WESTSHORE BLVD", "postcode": "33607"}}},
{"geometry": {"type": "Point", "coordinates": [-82.5242012622, 27.9555883419]}, "type": "Feature", "properties": {"collection_times": [{"days": "Mon-Fri", "time": "3:00pm"}, {"days": "Sat-Sun", "time": "Closed"}], "id": "3360700097", "name": "USPS COLLECTION BOX - BLUE BOX", "address": {"city": "TAMPA", "state": "FL", "street": "1410 N WESTSHORE BLVD", "postcode": "33607"}}},
{"geometry": {"type": "Point", "coordinates": [-82.5242012622, 27.9555883419]}, "type": "Feature", "properties": {"collection_times": [{"days": "Mon-Fri", "time": "3:00pm"}, {"days": "Sat-Sun", "time": "Closed"}], "id": "3360700098", "name": "USPS COLLECTION BOX - BLUE BOX", "address": {"city": "TAMPA", "state": "FL", "street": "1410 N WESTSHORE BLVD", "postcode": "33607"}}},
{"geometry": {"type": "Point", "coordinates": [-82.4860170437, 27.9755706423]}, "type": "Feature", "properties": {"collection_times": [{"days": "Mon-Fri", "time": "1:00pm"}, {"days": "Sat", "time": "12:00pm"}, {"days": "Sun", "time": "Closed"}], "id": "3360700111", "name": "USPS COLLECTION BOX - BLUE BOX", "address": {"city": "TAMPA", "state": "FL", "street": "4056 FIESTA PLZ", "postcode": "33607"}}},
{"geometry": {"type": "Point", "coordinates": [-82.513743905, 27.9607141031]}, "type": "Feature", "properties": {"collection_times": [{"days": "Mon-Fri", "time": "4:10pm"}, {"days": "Sat-Sun", "time": "Closed"}], "id": "3360700120", "name": "USPS COLLECTION BOX - BLUE BOX", "address": {"city": "TAMPA", "state": "FL", "street": "2203 N LOIS AVE", "postcode": "33607"}}},
{"geometry": {"type": "Point", "coordinates": [-82.5047120133, 27.9528580726]}, "type": "Feature", "properties": {"collection_times": [{"days": "Mon-Fri", "time": "1:00pm"}, {"days": "Sat-Sun", "time": "Closed"}], "id": "3360700147", "name": "USPS COLLECTION BOX - BLUE BOX", "address": {"city": "TAMPA", "state": "FL", "street": "2727 W DR MARTIN LUTHER KING JR BLVD", "postcode": "33607"}}},
{"geometry": {"type": "Point", "coordinates": [-82.5149848289, 27.9643682633]}, "type": "Feature", "properties": {"collection_times": [{"days": "Mon-Fri", "time": "4:00pm"}, {"days": "Sat-Sun", "time": "Closed"}], "id": "3360700152", "name": "USPS COLLECTION BOX - BLUE BOX", "address": {"city": "TAMPA", "state": "FL", "street": "4211 W BOYSCOUT BLVD", "postcode": "33607"}}},
{"geometry": {"type": "Point", "coordinates": [-82.5679594368, 27.9677169275]}, "type": "Feature", "properties": {"collection_times": [{"days": "Mon-Fri", "time": "3:00pm"}, {"days": "Sat-Sun", "time": "Closed"}], "id": "3360700157", "name": "USPS COLLECTION BOX - BLUE BOX", "address": {"city": "TAMPA", "state": "FL", "street": "3031 ROCKY POINT BLVD.", "postcode": "33607"}}},
{"geometry": {"type": "Point", "coordinates": [-82.5242012622, 27.9555883419]}, "type": "Feature", "properties": {"collection_times": [{"days": "Mon-Fri", "time": "3:00pm"}, {"days": "Sat-Sun", "time": "Closed"}], "id": "3360700159", "name": "USPS COLLECTION BOX - BLUE BOX", "address": {"city": "TAMPA", "state": "FL", "street": "1410 N WESTSHORE BLVD", "postcode": "33607"}}},
{"geometry": {"type": "Point", "coordinates": [-82.5138633838, 27.9601474657]}, "type": "Feature", "properties": {"collection_times": [{"days": "Mon-Fri", "time": "3:00pm"}, {"days": "Sat-Sun", "time": "Closed"}], "id": "3360700161", "name": "USPS COLLECTION BOX - BLUE BOX", "address": {"city": "TAMPA", "state": "FL", "street": "2002 N LOIS AVE", "postcode": "33607"}}},
{"geometry": {"type": "Point", "coordinates": [-82.5138633838, 27.9601474657]}, "type": "Feature", "properties": {"collection_times": [{"days": "Mon-Fri", "time": "3:00pm"}, {"days": "Sat-Sun", "time": "Closed"}], "id": "3360700162", "name": "USPS COLLECTION BOX - BLUE BOX", "address": {"city": "TAMPA", "state": "FL", "street": "2002 N LOIS AVE", "postcode": "33607"}}},
{"geometry": {"type": "Point", "coordinates": [-82.4976614781, 27.8630094077]}, "type": "Feature", "properties": {"collection_times": [{"days": "Mon-Sat", "time": "1:00pm"}, {"days": "Sun", "time": "Closed"}], "id": "3360800001", "name": "USPS COLLECTION BOX - BLUE BOX", "address": {"city": "TAMPA", "state": "FL", "street": "3108 N BOUNDARY BLVD", "postcode": "33608"}}},
{"geometry": {"type": "Point", "coordinates": [-82.4899594071, 27.850953564]}, "type": "Feature", "properties": {"collection_times": [{"days": "Mon-Fri", "time": "4:30pm"}, {"days": "Sat", "time": "11:00am"}, {"days": "Sun", "time": "Closed"}], "id": "3360800002", "name": "USPS COLLECTION BOX - BLUE BOX", "address": {"city": "TAMPA", "state": "FL", "street": "8106 CONDOR ST", "postcode": "33608"}}},
{"geometry": {"type": "Point", "coordinates": [-82.4899594071, 27.850953564]}, "type": "Feature", "properties": {"collection_times": [{"days": "Mon-Fri", "time": "4:30pm"}, {"days": "Sat", "time": "11:00am"}, {"days": "Sun", "time": "Closed"}], "id": "3360800003", "name": "USPS COLLECTION BOX - BLUE BOX", "address": {"city": "TAMPA", "state": "FL", "street": "8106 CONDOR ST", "postcode": "33608"}}},
{"geometry": {"type": "Point", "coordinates": [-82.4899594071, 27.850953564]}, "type": "Feature", "properties": {"collection_times": [{"days": "Mon-Fri", "time": "4:30pm"}, {"days": "Sat-Sun", "time": "Closed"}], "id": "3360800004", "name": "USPS COLLECTION BOX - BLUE BOX", "address": {"city": "TAMPA", "state": "FL", "street": "8106 CONDOR ST", "postcode": "33608"}}},
{"geometry": {"type": "Point", "coordinates": [-82.4959753949, 27.8609427206]}, "type": "Feature", "properties": {"collection_times": [{"days": "Mon-Sat", "time": "1:00pm"}, {"days": "Sun", "time": "Closed"}], "id": "3360800006", "name": "USPS COLLECTION BOX - BLUE BOX", "address": {"city": "TAMPA", "state": "FL", "street": "3250 ZEMKE AVE", "postcode": "33608"}}},
{"geometry": {"type": "Point", "coordinates": [-82.53571027, 27.9444212092]}, "type": "Feature", "properties": {"collection_times": [{"days": "Mon-Fri", "time": "3:35pm"}, {"days": "Sat-Sun", "time": "Closed"}], "id": "3360900005", "name": "USPS COLLECTION BOX - BLUE BOX", "address": {"city": "TAMPA", "state": "FL", "street": "5420 BAY CENTER DR", "postcode": "33609"}}},
{"geometry": {"type": "Point", "coordinates": [-82.53571027, 27.9444212092]}, "type": "Feature", "properties": {"collection_times": [{"days": "Mon-Fri", "time": "3:35pm"}, {"days": "Sat-Sun", "time": "Closed"}], "id": "3360900006", "name": "USPS COLLECTION BOX - BLUE BOX", "address": {"city": "TAMPA", "state": "FL", "street": "5420 BAY CENTER DR", "postcode": "33609"}}},
{"geometry": {"type": "Point", "coordinates": [-82.5056027814, 27.9455627646]}, "type": "Feature", "properties": {"collection_times": [{"days": "Mon-Fri", "time": "3:00pm"}, {"days": "Sat-Sun", "time": "Closed"}], "id": "3360900014", "name": "USPS COLLECTION BOX - BLUE BOX", "address": {"city": "TAMPA", "state": "FL", "street": "1 N DALE MABRY HWY", "postcode": "33609"}}},
{"geometry": {"type": "Point", "coordinates": [-82.5056027814, 27.9455627646]}, "type": "Feature", "properties": {"collection_times": [{"days": "Mon-Fri", "time": "3:00pm"}, {"days": "Sat-Sun", "time": "Closed"}], "id": "3360900015", "name": "USPS COLLECTION BOX - BLUE BOX", "address": {"city": "TAMPA", "state": "FL", "street": "1 N DALE MABRY HWY", "postcode": "33609"}}},
{"geometry": {"type": "Point", "coordinates": [-82.4986221405, 27.9410213852]}, "type": "Feature", "properties": {"collection_times": [{"days": "Mon-Fri", "time": "3:00pm"}, {"days": "Sat-Sun", "time": "Closed"}], "id": "3360900023", "name": "USPS COLLECTION BOX - BLUE BOX", "address": {"city": "TAMPA", "state": "FL", "street": "3314 HENDERSON BLVD", "postcode": "33609"}}},
{"geometry": {"type": "Point", "coordinates": [-82.5113109362, 27.9447083289]}, "type": "Feature", "properties": {"collection_times": [{"days": "Mon-Fri", "time": "3:00pm"}, {"days": "Sat", "time": "12:00pm"}, {"days": "Sun", "time": "Closed"}], "id": "3360900033", "name": "USPS COLLECTION BOX - BLUE BOX", "address": {"city": "TAMPA", "state": "FL", "street": "4050 W KENNEDY BLVD", "postcode": "33609"}}},
{"geometry": {"type": "Point", "coordinates": [-82.52530556, 27.9447078642]}, "type": "Feature", "properties": {"collection_times": [{"days": "Mon-Fri", "time": "4:00pm"}, {"days": "Sat", "time": "12:00pm"}, {"days": "Sun", "time": "Closed"}], "id": "3360900040", "name": "USPS COLLECTION BOX - BLUE BOX", "address": {"city": "TAMPA", "state": "FL", "street": "4830 W KENNEDY BLVD", "postcode": "33609"}}},
{"geometry": {"type": "Point", "coordinates": [-82.52530556, 27.9447078642]}, "type": "Feature", "properties": {"collection_times": [{"days": "Mon-Fri", "time": "4:00pm"}, {"days": "Sat", "time": "12:00pm"}, {"days": "Sun", "time": "Closed"}], "id": "3360900041", "name": "USPS COLLECTION BOX - BLUE BOX", "address": {"city": "TAMPA", "state": "FL", "street": "4830 W KENNEDY BLVD", "postcode": "33609"}}},
{"geometry": {"type": "Point", "coordinates": [-82.5293424019, 27.9450186035]}, "type": "Feature", "properties": {"collection_times": [{"days": "Mon-Fri", "time": "3:55pm"}, {"days": "Sat-Sun", "time": "Closed"}], "id": "3360900050", "name": "USPS COLLECTION BOX - BLUE BOX", "address": {"city": "TAMPA", "state": "FL", "street": "5100 W KENNEDY BLVD", "postcode": "33609"}}},
{"geometry": {"type": "Point", "coordinates": [-82.5293424019, 27.9450186035]}, "type": "Feature", "properties": {"collection_times": [{"days": "Mon-Fri", "time": "3:55pm"}, {"days": "Sat-Sun", "time": "Closed"}], "id": "3360900051", "name": "USPS COLLECTION BOX - BLUE BOX", "address": {"city": "TAMPA", "state": "FL", "street": "5100 W KENNEDY BLVD", "postcode": "33609"}}},
{"geometry": {"type": "Point", "coordinates": [-82.5345131155, 27.9449298816]}, "type": "Feature", "properties": {"collection_times": [{"days": "Mon-Fri", "time": "3:25pm"}, {"days": "Sat-Sun", "time": "Closed"}], "id": "3360900052", "name": "USPS COLLECTION BOX - BLUE BOX", "address": {"city": "TAMPA", "state": "FL", "street": "5401 W KENNEDY BLVD", "postcode": "33609"}}},
{"geometry": {"type": "Point", "coordinates": [-82.5345131155, 27.9449298816]}, "type": "Feature", "properties": {"collection_times": [{"days": "Mon-Fri", "time": "3:25pm"}, {"days": "Sat-Sun", "time": "Closed"}], "id": "3360900053", "name": "USPS COLLECTION BOX - BLUE BOX", "address": {"city": "TAMPA", "state": "FL", "street": "5401 W KENNEDY BLVD", "postcode": "33609"}}},
{"geometry": {"type": "Point", "coordinates": [-82.5222218205, 27.9449768292]}, "type": "Feature", "properties": {"collection_times": [{"days": "Mon-Fri", "time": "3:00pm"}, {"days": "Sat", "time": "12:00pm"}, {"days": "Sun", "time": "Closed"}], "id": "3360900059", "name": "USPS COLLECTION BOX - BLUE BOX", "address": {"city": "TAMPA", "state": "FL", "street": "4601 W KENNEDY BLVD", "postcode": "33609"}}},
{"geometry": {"type": "Point", "coordinates": [-82.5314752769, 27.9504590318]}, "type": "Feature", "properties": {"collection_times": [{"days": "Mon-Fri", "time": "3:10pm"}, {"days": "Sat-Sun", "time": "Closed"}], "id": "3360900062", "name": "USPS COLLECTION BOX - BLUE BOX", "address": {"city": "TAMPA", "state": "FL", "street": "5100 W LEMON ST", "postcode": "33609"}}},
{"geometry": {"type": "Point", "coordinates": [-82.5350939484, 27.9433423507]}, "type": "Feature", "properties": {"collection_times": [{"days": "Mon-Fri", "time": "3:30pm"}, {"days": "Sat-Sun", "time": "Closed"}], "id": "3360900064", "name": "USPS COLLECTION BOX - BLUE BOX", "address": {"city": "TAMPA", "state": "FL", "street": "5415 MARINER ST", "postcode": "33609"}}},
{"geometry": {"type": "Point", "coordinates": [-82.5364389289, 27.9482109232]}, "type": "Feature", "properties": {"collection_times": [{"days": "Mon-Fri", "time": "3:25pm"}, {"days": "Sat-Sun", "time": "Closed"}], "id": "3360900076", "name": "USPS COLLECTION BOX - BLUE BOX", "address": {"city": "TAMPA", "state": "FL", "street": "503 N REO ST", "postcode": "33609"}}},
{"geometry": {"type": "Point", "coordinates": [-82.5364945718, 27.9490217367]}, "type": "Feature", "properties": {"collection_times": [{"days": "Mon-Fri", "time": "3:25pm"}, {"days": "Sat", "time": "12:00pm"}, {"days": "Sun", "time": "Closed"}], "id": "3360900079", "name": "USPS COLLECTION BOX - BLUE BOX", "address": {"city": "TAMPA", "state": "FL", "street": "504 N REO ST", "postcode": "33609"}}},
{"geometry": {"type": "Point", "coordinates": [-82.5364945718, 27.9490217367]}, "type": "Feature", "properties": {"collection_times": [{"days": "Mon-Fri", "time": "3:25pm"}, {"days": "Sat", "time": "12:00pm"}, {"days": "Sun", "time": "Closed"}], "id": "3360900081", "name": "USPS COLLECTION BOX - BLUE BOX", "address": {"city": "TAMPA", "state": "FL", "street": "504 N REO ST", "postcode": "33609"}}},
{"geometry": {"type": "Point", "coordinates": [-82.4905902749, 27.9375159023]}, "type": "Feature", "properties": {"collection_times": [{"days": "Mon-Fri", "time": "3:00pm"}, {"days": "Sat-Sun", "time": "Closed"}], "id": "3360900083", "name": "USPS COLLECTION BOX - BLUE BOX", "address": {"city": "TAMPA", "state": "FL", "street": "2919 W SWANN AVE", "postcode": "33609"}}},
{"geometry": {"type": "Point", "coordinates": [-82.524265142, 27.9490584084]}, "type": "Feature", "properties": {"collection_times": [{"days": "Mon-Fri", "time": "3:00pm"}, {"days": "Sat-Sun", "time": "Closed"}], "id": "3360900086", "name": "USPS COLLECTION BOX - BLUE BOX", "address": {"city": "TAMPA", "state": "FL", "street": "500 N WESTSHORE BLVD", "postcode": "33609"}}},
{"geometry": {"type": "Point", "coordinates": [-82.524265142, 27.9490584084]}, "type": "Feature", "properties": {"collection_times": [{"days": "Mon-Fri", "time": "3:00pm"}, {"days": "Sat-Sun", "time": "Closed"}], "id": "3360900087", "name": "USPS COLLECTION BOX - BLUE BOX", "address": {"city": "TAMPA", "state": "FL", "street": "500 N WESTSHORE BLVD", "postcode": "33609"}}},
{"geometry": {"type": "Point", "coordinates": [-82.5242473976, 27.9508103706]}, "type": "Feature", "properties": {"collection_times": [{"days": "Mon-Fri", "time": "3:00pm"}, {"days": "Sat", "time": "12:00pm"}, {"days": "Sun", "time": "Closed"}], "id": "3360900090", "name": "USPS COLLECTION BOX - BLUE BOX", "address": {"city": "TAMPA", "state": "FL", "street": "600 N WESTSHORE BLVD", "postcode": "33609"}}},
{"geometry": {"type": "Point", "coordinates": [-82.5242473976, 27.9508103706]}, "type": "Feature", "properties": {"collection_times": [{"days": "Mon-Fri", "time": "3:00pm"}, {"days": "Sat", "time": "12:00pm"}, {"days": "Sun", "time": "Closed"}], "id": "3360900091", "name": "USPS COLLECTION BOX - BLUE BOX", "address": {"city": "TAMPA", "state": "FL", "street": "600 N WESTSHORE BLVD", "postcode": "33609"}}},
{"geometry": {"type": "Point", "coordinates": [-82.5272289776, 27.9458914393]}, "type": "Feature", "properties": {"collection_times": [{"days": "Mon-Fri", "time": "3:00pm"}, {"days": "Sat", "time": "12:00pm"}, {"days": "Sun", "time": "Closed"}], "id": "3360900094", "name": "USPS COLLECTION BOX - BLUE BOX", "address": {"city": "TAMPA", "state": "FL", "street": "225 WESTSHORE PLZ", "postcode": "33609"}}},
{"geometry": {"type": "Point", "coordinates": [-82.5355458387, 27.950367944]}, "type": "Feature", "properties": {"collection_times": [{"days": "Mon-Fri", "time": "3:40pm"}, {"days": "Sat-Sun", "time": "Closed"}], "id": "3360900098", "name": "USPS COLLECTION BOX - BLUE BOX", "address": {"city": "TAMPA", "state": "FL", "street": "5404 CYPRESS CENTER DR", "postcode": "33609"}}},
{"geometry": {"type": "Point", "coordinates": [-82.5355458387, 27.950367944]}, "type": "Feature", "properties": {"collection_times": [{"days": "Mon-Fri", "time": "3:40pm"}, {"days": "Sat-Sun", "time": "Closed"}], "id": "3360900099", "name": "USPS COLLECTION BOX - BLUE BOX", "address": {"city": "TAMPA", "state": "FL", "street": "5404 CYPRESS CENTER DR", "postcode": "33609"}}},
{"geometry": {"type": "Point", "coordinates": [-82.5315841091, 27.9449298816]}, "type": "Feature", "properties": {"collection_times": [{"days": "Mon-Fri", "time": "3:20pm"}, {"days": "Sat-Sun", "time": "Closed"}], "id": "3360900102", "name": "USPS COLLECTION BOX - BLUE BOX", "address": {"city": "TAMPA", "state": "FL", "street": "5201 W KENNEDY BLVD", "postcode": "33609"}}},
{"geometry": {"type": "Point", "coordinates": [-82.52530556, 27.9447078642]}, "type": "Feature", "properties": {"collection_times": [{"days": "Mon-Fri", "time": "4:00pm"}, {"days": "Sat", "time": "12:00pm"}, {"days": "Sun", "time": "Closed"}], "id": "3360900112", "name": "USPS COLLECTION BOX - BLUE BOX", "address": {"city": "TAMPA", "state": "FL", "street": "4830 W KENNEDY BLVD", "postcode": "33609"}}},
{"geometry": {"type": "Point", "coordinates": [-82.52530556, 27.9447078642]}, "type": "Feature", "properties": {"collection_times": [{"days": "Mon-Fri", "time": "4:00pm"}, {"days": "Sat", "time": "12:00pm"}, {"days": "Sun", "time": "Closed"}], "id": "3360900113", "name": "USPS COLLECTION BOX - BLUE BOX", "address": {"city": "TAMPA", "state": "FL", "street": "4830 W KENNEDY BLVD", "postcode": "33609"}}},
{"geometry": {"type": "Point", "coordinates": [-82.5242473976, 27.9508103706]}, "type": "Feature", "properties": {"collection_times": [{"days": "Mon-Fri", "time": "3:00pm"}, {"days": "Sat", "time": "12:00pm"}, {"days": "Sun", "time": "Closed"}], "id": "3360900119", "name": "USPS COLLECTION BOX - BLUE BOX", "address": {"city": "TAMPA", "state": "FL", "street": "600 N WESTSHORE BLVD", "postcode": "33609"}}},
{"geometry": {"type": "Point", "coordinates": [-82.5312610634, 27.9503930307]}, "type": "Feature", "properties": {"collection_times": [{"days": "Mon-Fri", "time": "3:10pm"}, {"days": "Sat-Sun", "time": "Closed"}], "id": "3360900121", "name": "USPS COLLECTION BOX - BLUE BOX", "address": {"city": "TAMPA", "state": "FL", "street": "5100 W LEMON ST", "postcode": "33609"}}},
{"geometry": {"type": "Point", "coordinates": [-82.5314752769, 27.9504590318]}, "type": "Feature", "properties": {"collection_times": [{"days": "Mon-Fri", "time": "3:10pm"}, {"days": "Sat-Sun", "time": "Closed"}], "id": "3360900123", "name": "USPS COLLECTION BOX - BLUE BOX", "address": {"city": "TAMPA", "state": "FL", "street": "5100 W LEMON ST", "postcode": "33609"}}},
{"geometry": {"type": "Point", "coordinates": [-82.5242473976, 27.9508103706]}, "type": "Feature", "properties": {"collection_times": [{"days": "Mon-Fri", "time": "3:00pm"}, {"days": "Sat", "time": "12:00pm"}, {"days": "Sun", "time": "Closed"}], "id": "3360900124", "name": "USPS COLLECTION BOX - BLUE BOX", "address": {"city": "TAMPA", "state": "FL", "street": "600 N WESTSHORE BLVD", "postcode": "33609"}}},
{"geometry": {"type": "Point", "coordinates": [-82.5271882336, 27.9503904202]}, "type": "Feature", "properties": {"collection_times": [{"days": "Mon-Fri", "time": "3:05pm"}, {"days": "Sat-Sun", "time": "Closed"}], "id": "3360900126", "name": "USPS COLLECTION BOX - BLUE BOX", "address": {"city": "TAMPA", "state": "FL", "street": "4900 W LEMON ST", "postcode": "33609"}}},
{"geometry": {"type": "Point", "coordinates": [-82.5345131155, 27.9449298816]}, "type": "Feature", "properties": {"collection_times": [{"days": "Mon-Fri", "time": "3:25pm"}, {"days": "Sat-Sun", "time": "Closed"}], "id": "3360900127", "name": "USPS COLLECTION BOX - BLUE BOX", "address": {"city": "TAMPA", "state": "FL", "street": "5401 W KENNEDY BLVD", "postcode": "33609"}}},
{"geometry": {"type": "Point", "coordinates": [-82.5315841091, 27.9449298816]}, "type": "Feature", "properties": {"collection_times": [{"days": "Mon-Fri", "time": "3:20pm"}, {"days": "Sat-Sun", "time": "Closed"}], "id": "3360900128", "name": "USPS COLLECTION BOX - BLUE BOX", "address": {"city": "TAMPA", "state": "FL", "street": "5201 W KENNEDY BLVD", "postcode": "33609"}}},
{"geometry": {"type": "Point", "coordinates": [-82.5277986404, 27.9447843776]}, "type": "Feature", "properties": {"collection_times": [{"days": "Mon-Fri", "time": "3:00pm"}, {"days": "Sat-Sun", "time": "Closed"}], "id": "3360900129", "name": "USPS COLLECTION BOX - BLUE BOX", "address": {"city": "TAMPA", "state": "FL", "street": "4950 W KENNEDY BLVD", "postcode": "33609"}}},
{"geometry": {"type": "Point", "coordinates": [-82.5355000611, 27.9503032856]}, "type": "Feature", "properties": {"collection_times": [{"days": "Mon-Fri", "time": "3:40pm"}, {"days": "Sat-Sun", "time": "Closed"}], "id": "3360900130", "name": "USPS COLLECTION BOX - BLUE BOX", "address": {"city": "TAMPA", "state": "FL", "street": "5404 CYPRESS CENTER DR", "postcode": "33609"}}},
{"geometry": {"type": "Point", "coordinates": [-82.5314752769, 27.9504590318]}, "type": "Feature", "properties": {"collection_times": [{"days": "Mon-Fri", "time": "3:10pm"}, {"days": "Sat-Sun", "time": "Closed"}], "id": "3360900132", "name": "USPS COLLECTION BOX - BLUE BOX", "address": {"city": "TAMPA", "state": "FL", "street": "5100 W LEMON ST", "postcode": "33609"}}},
{"geometry": {"type": "Point", "coordinates": [-82.3936119408, 27.9938009685]}, "type": "Feature", "properties": {"collection_times": [{"days": "Mon-Fri", "time": "3:00pm"}, {"days": "Sat-Sun", "time": "Closed"}], "id": "3361000008", "name": "USPS COLLECTION BOX - BLUE BOX", "address": {"city": "TAMPA", "state": "FL", "street": "5118 N 56TH ST", "postcode": "33610"}}},
{"geometry": {"type": "Point", "coordinates": [-82.3574525283, 27.9999321994]}, "type": "Feature", "properties": {"collection_times": [{"days": "Mon-Fri", "time": "11:00am"}, {"days": "Sat-Sun", "time": "Closed"}], "id": "3361000011", "name": "USPS COLLECTION BOX - BLUE BOX", "address": {"city": "TAMPA", "state": "FL", "street": "5600 BRECKENRIDGE PKWY", "postcode": "33610"}}},
{"geometry": {"type": "Point", "coordinates": [-82.3574525283, 27.9999321994]}, "type": "Feature", "properties": {"collection_times": [{"days": "Mon-Fri", "time": "11:00am"}, {"days": "Sat-Sun", "time": "Closed"}], "id": "3361000012", "name": "USPS COLLECTION BOX - BLUE BOX", "address": {"city": "TAMPA", "state": "FL", "street": "5600 BRECKENRIDGE PKWY", "postcode": "33610"}}},
{"geometry": {"type": "Point", "coordinates": [-82.3574525283, 27.9999321994]}, "type": "Feature", "properties": {"collection_times": [{"days": "Mon-Fri", "time": "11:00am"}, {"days": "Sat-Sun", "time": "Closed"}], "id": "3361000013", "name": "USPS COLLECTION BOX - BLUE BOX", "address": {"city": "TAMPA", "state": "FL", "street": "5600 BRECKENRIDGE PKWY", "postcode": "33610"}}},
{"geometry": {"type": "Point", "coordinates": [-82.4282126345, 27.9961415804]}, "type": "Feature", "properties": {"collection_times": [{"days": "Mon-Fri", "time": "5:00pm"}, {"days": "Sat", "time": "3:00pm"}, {"days": "Sun", "time": "Closed"}], "id": "3361000022", "name": "USPS COLLECTION BOX - BLUE BOX", "address": {"city": "TAMPA", "state": "FL", "street": "2810 E HILLSBOROUGH AVE", "postcode": "33610"}}},
{"geometry": {"type": "Point", "coordinates": [-82.3561595753, 27.9871993713]}, "type": "Feature", "properties": {"collection_times": [{"days": "Mon-Fri", "time": "10:30am"}, {"days": "Sat-Sun", "time": "Closed"}], "id": "3361000024", "name": "USPS COLLECTION BOX - BLUE BOX", "address": {"city": "TAMPA", "state": "FL", "street": "4508 OAK FAIR BLVD", "postcode": "33610"}}},
{"geometry": {"type": "Point", "coordinates": [-82.3561595753, 27.9871993713]}, "type": "Feature", "properties": {"collection_times": [{"days": "Mon-Fri", "time": "10:30am"}, {"days": "Sat-Sun", "time": "Closed"}], "id": "3361000025", "name": "USPS COLLECTION BOX - BLUE BOX", "address": {"city": "TAMPA", "state": "FL", "street": "4508 OAK FAIR BLVD", "postcode": "33610"}}},
{"geometry": {"type": "Point", "coordinates": [-82.3336738913, 27.9834564892]}, "type": "Feature", "properties": {"collection_times": [{"days": "Mon-Fri", "time": "11:00am"}, {"days": "Sat-Sun", "time": "Closed"}], "id": "3361000040", "name": "USPS COLLECTION BOX - BLUE BOX", "address": {"city": "TAMPA", "state": "FL", "street": "10150 HIGHLAND MANOR DR", "postcode": "33610"}}},
{"geometry": {"type": "Point", "coordinates": [-82.3336738913, 27.9834564892]}, "type": "Feature", "properties": {"collection_times": [{"days": "Mon-Fri", "time": "11:00am"}, {"days": "Sat-Sun", "time": "Closed"}], "id": "3361000041", "name": "USPS COLLECTION BOX - BLUE BOX", "address": {"city": "TAMPA", "state": "FL", "street": "10150 HIGHLAND MANOR DR", "postcode": "33610"}}},
{"geometry": {"type": "Point", "coordinates": [-82.3908600469, 27.996068442]}, "type": "Feature", "properties": {"collection_times": [{"days": "Mon-Fri", "time": "3:05pm"}, {"days": "Sat-Sun", "time": "Closed"}], "id": "3361000045", "name": "USPS COLLECTION BOX - BLUE BOX", "address": {"city": "TAMPA", "state": "FL", "street": "5701 E HILLSBOROUGH AVE", "postcode": "33610"}}},
{"geometry": {"type": "Point", "coordinates": [-82.3908600469, 27.996068442]}, "type": "Feature", "properties": {"collection_times": [{"days": "Mon-Fri", "time": "3:05pm"}, {"days": "Sat-Sun", "time": "Closed"}], "id": "3361000047", "name": "USPS COLLECTION BOX - BLUE BOX", "address": {"city": "TAMPA", "state": "FL", "street": "5701 E HILLSBOROUGH AVE", "postcode": "33610"}}},
{"geometry": {"type": "Point", "coordinates": [-82.3730285702, 27.9925688221]}, "type": "Feature", "properties": {"collection_times": [{"days": "Mon-Sat", "time": "11:00am"}, {"days": "Sun", "time": "Closed"}], "id": "3361000048", "name": "USPS COLLECTION BOX - BLUE BOX", "address": {"city": "TAMPA", "state": "FL", "street": "5223 ORIENT RD", "postcode": "33610"}}},
{"geometry": {"type": "Point", "coordinates": [-82.5042614183, 27.9064217062]}, "type": "Feature", "properties": {"collection_times": [{"days": "Mon-Sat", "time": "1:00pm"}, {"days": "Sun", "time": "Closed"}], "id": "3361100004", "name": "USPS COLLECTION BOX - BLUE BOX", "address": {"city": "TAMPA", "state": "FL", "street": "3902 BRITTON PLZ", "postcode": "33611"}}},
{"geometry": {"type": "Point", "coordinates": [-82.5272154417, 27.8933777129]}, "type": "Feature", "properties": {"collection_times": [{"days": "Mon-Fri", "time": "10:00am"}, {"days": "Sat-Sun", "time": "Closed"}], "id": "3361100011", "name": "USPS COLLECTION BOX - BLUE BOX", "address": {"city": "TAMPA", "state": "FL", "street": "4802 W GANDY BLVD", "postcode": "33611"}}},
{"geometry": {"type": "Point", "coordinates": [-82.5278272819, 27.8935883667]}, "type": "Feature", "properties": {"collection_times": [{"days": "Mon-Fri", "time": "1:00pm"}, {"days": "Sat", "time": "12:00pm"}, {"days": "Sun", "time": "Closed"}], "id": "3361100012", "name": "USPS COLLECTION BOX - BLUE BOX", "address": {"city": "TAMPA", "state": "FL", "street": "4851 W GANDY BLVD", "postcode": "33611"}}},
{"geometry": {"type": "Point", "coordinates": [-82.5267221478, 27.9065333995]}, "type": "Feature", "properties": {"collection_times": [{"days": "Mon-Sat", "time": "1:00pm"}, {"days": "Sun", "time": "Closed"}], "id": "3361100022", "name": "USPS COLLECTION BOX - BLUE BOX", "address": {"city": "TAMPA", "state": "FL", "street": "4003 S WESTSHORE BLVD", "postcode": "33611"}}},
{"geometry": {"type": "Point", "coordinates": [-82.5220577406, 27.8962700475]}, "type": "Feature", "properties": {"collection_times": [{"days": "Mon-Fri", "time": "5:00pm"}, {"days": "Sat", "time": "3:30pm"}, {"days": "Sun", "time": "Closed"}], "id": "3361100027", "name": "USPS COLLECTION BOX - BLUE BOX", "address": {"city": "TAMPA", "state": "FL", "street": "4520 W OAKELLAR AVE", "postcode": "33611"}}},
{"geometry": {"type": "Point", "coordinates": [-82.4593257512, 28.0332320925]}, "type": "Feature", "properties": {"collection_times": [{"days": "Mon-Fri", "time": "2:05pm"}, {"days": "Sat-Sun", "time": "Closed"}], "id": "3361200009", "name": "USPS COLLECTION BOX - BLUE BOX", "address": {"city": "TAMPA", "state": "FL", "street": "9215 N FLORIDA AVE", "postcode": "33612"}}},
{"geometry": {"type": "Point", "coordinates": [-82.4393582623, 28.0543878917]}, "type": "Feature", "properties": {"collection_times": [{"days": "Mon-Sat", "time": "1:00pm"}, {"days": "Sun", "time": "Closed"}], "id": "3361200010", "name": "USPS COLLECTION BOX - BLUE BOX", "address": {"city": "TAMPA", "state": "FL", "street": "1715 E FOWLER AVE", "postcode": "33612"}}},
{"geometry": {"type": "Point", "coordinates": [-82.4342147567, 28.054580714]}, "type": "Feature", "properties": {"collection_times": [{"days": "Mon-Sat", "time": "12:00pm"}, {"days": "Sun", "time": "Closed"}], "id": "3361200012", "name": "USPS COLLECTION BOX - BLUE BOX", "address": {"city": "TAMPA", "state": "FL", "street": "2200 E FOWLER AVE", "postcode": "33612"}}},
{"geometry": {"type": "Point", "coordinates": [-82.4678041967, 28.0400527767]}, "type": "Feature", "properties": {"collection_times": [{"days": "Mon-Fri", "time": "2:20pm"}, {"days": "Sat-Sun", "time": "Closed"}], "id": "3361200013", "name": "USPS COLLECTION BOX - BLUE BOX", "address": {"city": "TAMPA", "state": "FL", "street": "905 W LINEBAUGH AVE", "postcode": "33612"}}},
{"geometry": {"type": "Point", "coordinates": [-82.4593751109, 28.0570838552]}, "type": "Feature", "properties": {"collection_times": [{"days": "Mon-Fri", "time": "5:00pm"}, {"days": "Sat", "time": "4:00pm"}, {"days": "Sun", "time": "Closed"}], "id": "3361200019", "name": "USPS COLLECTION BOX - BLUE BOX", "address": {"city": "TAMPA", "state": "FL", "street": "11800 N FLORIDA AVE", "postcode": "33612"}}},
{"geometry": {"type": "Point", "coordinates": [-82.4593751109, 28.0570838552]}, "type": "Feature", "properties": {"collection_times": [{"days": "Mon-Fri", "time": "5:00pm"}, {"days": "Sat", "time": "4:00pm"}, {"days": "Sun", "time": "Closed"}], "id": "3361200040", "name": "USPS COLLECTION BOX - APC", "address": {"city": "TAMPA", "state": "FL", "street": "11800 N FLORIDA AVE", "postcode": "33612"}}},
{"geometry": {"type": "Point", "coordinates": [-82.4260239488, 28.0735884986]}, "type": "Feature", "properties": {"collection_times": [{"days": "Mon-Sat", "time": "1:00pm"}, {"days": "Sun", "time": "Closed"}], "id": "3361300001", "name": "USPS COLLECTION BOX - BLUE BOX", "address": {"city": "TAMPA", "state": "FL", "street": "13801 BRUCE B DOWNS BLVD", "postcode": "33613"}}},
{"geometry": {"type": "Point", "coordinates": [-82.4593715621, 28.0713716335]}, "type": "Feature", "properties": {"collection_times": [{"days": "Mon-Sat", "time": "1:00pm"}, {"days": "Sun", "time": "Closed"}], "id": "3361300008", "name": "USPS COLLECTION BOX - BLUE BOX", "address": {"city": "TAMPA", "state": "FL", "street": "13540 N FLORIDA AVE", "postcode": "33613"}}},
{"geometry": {"type": "Point", "coordinates": [-82.4581450503, 28.0881709956]}, "type": "Feature", "properties": {"collection_times": [{"days": "Mon-Sat", "time": "2:00pm"}, {"days": "Sun", "time": "Closed"}], "id": "3361300011", "name": "USPS COLLECTION BOX - BLUE BOX", "address": {"city": "TAMPA", "state": "FL", "street": "218 E BEARSS AVE", "postcode": "33613"}}},
{"geometry": {"type": "Point", "coordinates": [-82.4366087176, 28.0779115612]}, "type": "Feature", "properties": {"collection_times": [{"days": "Mon-Sat", "time": "1:00pm"}, {"days": "Sun", "time": "Closed"}], "id": "3361300013", "name": "USPS COLLECTION BOX - BLUE BOX", "address": {"city": "TAMPA", "state": "FL", "street": "15526 N FLORIDA AVE", "postcode": "33613"}}},
{"geometry": {"type": "Point", "coordinates": [-82.4234699404, 28.069196172]}, "type": "Feature", "properties": {"collection_times": [{"days": "Mon-Sat", "time": "1:00pm"}, {"days": "Sun", "time": "Closed"}], "id": "3361300016", "name": "USPS COLLECTION BOX - BLUE BOX", "address": {"city": "TAMPA", "state": "FL", "street": "3100 E FLETCHER AVE", "postcode": "33613"}}},
{"geometry": {"type": "Point", "coordinates": [-82.4195957498, 28.069194989]}, "type": "Feature", "properties": {"collection_times": [{"days": "Mon-Fri", "time": "1:00pm"}, {"days": "Sat-Sun", "time": "Closed"}], "id": "3361300026", "name": "USPS COLLECTION BOX - BLUE BOX", "address": {"city": "TAMPA", "state": "FL", "street": "3500 E FLETCHER AVE", "postcode": "33613"}}},
{"geometry": {"type": "Point", "coordinates": [-82.4214967649, 28.0805502121]}, "type": "Feature", "properties": {"collection_times": [{"days": "Mon-Fri", "time": "1:50pm"}, {"days": "Sat", "time": "12:00pm"}, {"days": "Sun", "time": "Closed"}], "id": "3361300028", "name": "USPS COLLECTION BOX - BLUE BOX", "address": {"city": "TAMPA", "state": "FL", "street": "14529 BRUCE B DOWNS BLVD", "postcode": "33613"}}},
{"geometry": {"type": "Point", "coordinates": [-82.504943636, 28.0151202185]}, "type": "Feature", "properties": {"collection_times": [{"days": "Mon-Fri", "time": "10:00am"}, {"days": "Sat", "time": "9:30am"}, {"days": "Sun", "time": "Closed"}], "id": "3361400005", "name": "USPS COLLECTION BOX - BLUE BOX", "address": {"city": "TAMPA", "state": "FL", "street": "7171 N DALE MABRY HWY", "postcode": "33614"}}},
{"geometry": {"type": "Point", "coordinates": [-82.505008936, 28.0320832004]}, "type": "Feature", "properties": {"collection_times": [{"days": "Mon-Sat", "time": "10:00am"}, {"days": "Sun", "time": "Closed"}], "id": "3361400009", "name": "USPS COLLECTION BOX - BLUE BOX", "address": {"city": "TAMPA", "state": "FL", "street": "8902 N DALE MABRY HWY", "postcode": "33614"}}},
{"geometry": {"type": "Point", "coordinates": [-82.4887905686, 27.9845885809]}, "type": "Feature", "properties": {"collection_times": [{"days": "Mon-Sat", "time": "10:00am"}, {"days": "Sun", "time": "Closed"}], "id": "3361400010", "name": "USPS COLLECTION BOX - BLUE BOX", "address": {"city": "TAMPA", "state": "FL", "street": "4600 N HABANA AVE", "postcode": "33614"}}},
{"geometry": {"type": "Point", "coordinates": [-82.4887905686, 27.9845885809]}, "type": "Feature", "properties": {"collection_times": [{"days": "Mon-Sat", "time": "10:00am"}, {"days": "Sun", "time": "Closed"}], "id": "3361400011", "name": "USPS COLLECTION BOX - BLUE BOX", "address": {"city": "TAMPA", "state": "FL", "street": "4600 N HABANA AVE", "postcode": "33614"}}},
{"geometry": {"type": "Point", "coordinates": [-82.4241915454, 27.9960230623]}, "type": "Feature", "properties": {"collection_times": [{"days": "Mon-Fri", "time": "5:00pm"}, {"days": "Sat", "time": "4:00pm"}, {"days": "Sun", "time": "Closed"}], "id": "3361400016", "name": "USPS COLLECTION BOX - BLUE BOX", "address": {"city": "TAMPA", "state": "FL", "street": "3201 W HILLSBOROUGH AVE", "postcode": "33614"}}},
{"geometry": {"type": "Point", "coordinates": [-82.5012991767, 28.0254716427]}, "type": "Feature", "properties": {"collection_times": [{"days": "Mon-Fri", "time": "10:00am"}, {"days": "Sat", "time": "9:30am"}, {"days": "Sun", "time": "Closed"}], "id": "3361400032", "name": "USPS COLLECTION BOX - BLUE BOX", "address": {"city": "TAMPA", "state": "FL", "street": "3601 W WATERS AVE", "postcode": "33614"}}},
{"geometry": {"type": "Point", "coordinates": [-82.5012991767, 28.0254716427]}, "type": "Feature", "properties": {"collection_times": [{"days": "Mon-Fri", "time": "10:00am"}, {"days": "Sat", "time": "9:30am"}, {"days": "Sun", "time": "Closed"}], "id": "3361400033", "name": "USPS COLLECTION BOX - BLUE BOX", "address": {"city": "TAMPA", "state": "FL", "street": "3601 W WATERS AVE", "postcode": "33614"}}},
{"geometry": {"type": "Point", "coordinates": [-82.5216974058, 28.023126806]}, "type": "Feature", "properties": {"collection_times": [{"days": "Mon-Fri", "time": "10:00am"}, {"days": "Sat-Sun", "time": "Closed"}], "id": "3361400037", "name": "USPS COLLECTION BOX - BLUE BOX", "address": {"city": "TAMPA", "state": "FL", "street": "4600 CLUSTER OAK CT", "postcode": "33614"}}},
{"geometry": {"type": "Point", "coordinates": [-82.4942712174, 28.0253734571]}, "type": "Feature", "properties": {"collection_times": [{"days": "Mon-Sat", "time": "10:00am"}, {"days": "Sun", "time": "Closed"}], "id": "3361400042", "name": "USPS COLLECTION BOX - BLUE BOX", "address": {"city": "TAMPA", "state": "FL", "street": "3202 W WATERS AVE", "postcode": "33614"}}},
{"geometry": {"type": "Point", "coordinates": [-82.5700704961, 27.9852877096]}, "type": "Feature", "properties": {"collection_times": [{"days": "Mon-Fri", "time": "2:00pm"}, {"days": "Sat", "time": "10:00am"}, {"days": "Sun", "time": "Closed"}], "id": "3361500004", "name": "USPS COLLECTION BOX - BLUE BOX", "address": {"city": "TAMPA", "state": "FL", "street": "5901 MEMORIAL HWY", "postcode": "33615"}}},
{"geometry": {"type": "Point", "coordinates": [-82.5751501219, 28.0023554416]}, "type": "Feature", "properties": {"collection_times": [{"days": "Mon-Fri", "time": "2:00pm"}, {"days": "Sat", "time": "8:45am"}, {"days": "Sun", "time": "Closed"}], "id": "3361500013", "name": "USPS COLLECTION BOX - BLUE BOX", "address": {"city": "TAMPA", "state": "FL", "street": "6001 WEBB RD", "postcode": "33615"}}},
{"geometry": {"type": "Point", "coordinates": [-82.5647909502, 27.9993057734]}, "type": "Feature", "properties": {"collection_times": [{"days": "Mon-Fri", "time": "5:00pm"}, {"days": "Sat", "time": "4:00pm"}, {"days": "Sun", "time": "Closed"}], "id": "3361500014", "name": "USPS COLLECTION BOX - BLUE BOX", "address": {"city": "TAMPA", "state": "FL", "street": "7521 PAULA DR", "postcode": "33615"}}},
{"geometry": {"type": "Point", "coordinates": [-82.5831729496, 27.9984871658]}, "type": "Feature", "properties": {"collection_times": [{"days": "Mon-Fri", "time": "1:30pm"}, {"days": "Sat", "time": "9:30am"}, {"days": "Sun", "time": "Closed"}], "id": "3361500029", "name": "USPS COLLECTION BOX - BLUE BOX", "address": {"city": "TAMPA", "state": "FL", "street": "5537 SHELDON RD", "postcode": "33615"}}},
{"geometry": {"type": "Point", "coordinates": [-82.5641675309, 27.9966488475]}, "type": "Feature", "properties": {"collection_times": [{"days": "Mon-Fri", "time": "3:15pm"}, {"days": "Sat", "time": "2:50pm"}, {"days": "Sun", "time": "Closed"}], "id": "3361500030", "name": "USPS COLLECTION BOX - BLUE BOX", "address": {"city": "TAMPA", "state": "FL", "street": "7501 W HILLSBOROUGH AVE", "postcode": "33615"}}},
{"geometry": {"type": "Point", "coordinates": [-82.5647909502, 27.9993057734]}, "type": "Feature", "properties": {"collection_times": [{"days": "Mon-Fri", "time": "5:00pm"}, {"days": "Sat", "time": "4:00pm"}, {"days": "Sun", "time": "Closed"}], "id": "3361500034", "name": "USPS COLLECTION BOX - APC", "address": {"city": "TAMPA", "state": "FL", "street": "7521 PAULA DR", "postcode": "33615"}}},
{"geometry": {"type": "Point", "coordinates": [-82.5226398262, 27.8703636371]}, "type": "Feature", "properties": {"collection_times": [{"days": "Mon-Sat", "time": "1:00pm"}, {"days": "Sun", "time": "Closed"}], "id": "3361600001", "name": "USPS COLLECTION BOX - BLUE BOX", "address": {"city": "TAMPA", "state": "FL", "street": "4902 W COMMERCE ST", "postcode": "33616"}}},
{"geometry": {"type": "Point", "coordinates": [-82.3937705727, 28.0565562555]}, "type": "Feature", "properties": {"collection_times": [{"days": "Mon-Fri", "time": "2:35pm"}, {"days": "Sat", "time": "1:30pm"}, {"days": "Sun", "time": "Closed"}], "id": "3361700017", "name": "USPS COLLECTION BOX - BLUE BOX", "address": {"city": "TEMPLE TERRACE", "state": "FL", "street": "11816 N 56TH ST", "postcode": "33617"}}},
{"geometry": {"type": "Point", "coordinates": [-82.3819764718, 28.0544706988]}, "type": "Feature", "properties": {"collection_times": [{"days": "Mon-Fri", "time": "1:30pm"}, {"days": "Sat", "time": "12:30pm"}, {"days": "Sun", "time": "Closed"}], "id": "3361700018", "name": "USPS COLLECTION BOX - BLUE BOX", "address": {"city": "TEMPLE TERRACE", "state": "FL", "street": "6314 E FOWLER AVE", "postcode": "33617"}}},
{"geometry": {"type": "Point", "coordinates": [-82.3840904194, 28.0350264023]}, "type": "Feature", "properties": {"collection_times": [{"days": "Mon-Fri", "time": "1:45pm"}, {"days": "Sat", "time": "1:00pm"}, {"days": "Sun", "time": "Closed"}], "id": "3361700021", "name": "USPS COLLECTION BOX - BLUE BOX", "address": {"city": "TEMPLE TERRACE", "state": "FL", "street": "119 N GLEN ARVEN AVE", "postcode": "33617"}}},
{"geometry": {"type": "Point", "coordinates": [-82.393336643, 28.0286510746]}, "type": "Feature", "properties": {"collection_times": [{"days": "Mon-Fri", "time": "5:00pm"}, {"days": "Sat", "time": "2:30pm"}, {"days": "Sun", "time": "Closed"}], "id": "3361700027", "name": "USPS COLLECTION BOX - BLUE BOX", "address": {"city": "TEMPLE TERRACE", "state": "FL", "street": "8761 N 56TH ST", "postcode": "33617"}}},
{"geometry": {"type": "Point", "coordinates": [-82.3943597412, 28.0507728451]}, "type": "Feature", "properties": {"collection_times": [{"days": "Mon-Fri", "time": "2:05pm"}, {"days": "Sat", "time": "11:30am"}, {"days": "Sun", "time": "Closed"}], "id": "3361700041", "name": "USPS COLLECTION BOX - BLUE BOX", "address": {"city": "TEMPLE TERRACE", "state": "FL", "street": "5500 E 113TH AVE", "postcode": "33617"}}},
{"geometry": {"type": "Point", "coordinates": [-82.393336643, 28.0286510746]}, "type": "Feature", "properties": {"collection_times": [{"days": "Mon-Fri", "time": "5:00pm"}, {"days": "Sat", "time": "2:30pm"}, {"days": "Sun", "time": "Closed"}], "id": "3361700042", "name": "USPS COLLECTION BOX - APC", "address": {"city": "TEMPLE TERRACE", "state": "FL", "street": "8761 N 56TH ST", "postcode": "33617"}}},
{"geometry": {"type": "Point", "coordinates": [-82.393336643, 28.0286510746]}, "type": "Feature", "properties": {"collection_times": [{"days": "Mon-Fri", "time": "5:00pm"}, {"days": "Sat", "time": "2:30pm"}, {"days": "Sun", "time": "Closed"}], "id": "3361700044", "name": "USPS COLLECTION BOX - BLUE BOX", "address": {"city": "TEMPLE TERRACE", "state": "FL", "street": "8761 N 56TH ST", "postcode": "33617"}}},
{"geometry": {"type": "Point", "coordinates": [-82.4269265465, 28.0324830405]}, "type": "Feature", "properties": {"collection_times": [{"days": "Mon-Sat", "time": "10:00am"}, {"days": "Sun", "time": "Closed"}], "id": "3361800003", "name": "USPS COLLECTION BOX - BLUE BOX", "address": {"city": "TAMPA", "state": "FL", "street": "2901 W BUSCH BLVD", "postcode": "33618"}}},
{"geometry": {"type": "Point", "coordinates": [-82.4992573895, 28.0352476156]}, "type": "Feature", "properties": {"collection_times": [{"days": "Mon-Sat", "time": "10:00am"}, {"days": "Sun", "time": "Closed"}], "id": "3361800008", "name": "USPS COLLECTION BOX - BLUE BOX", "address": {"city": "TAMPA", "state": "FL", "street": "3550 BUSCHWOOD PARK DR", "postcode": "33618"}}},
{"geometry": {"type": "Point", "coordinates": [-82.5069300613, 28.0742166498]}, "type": "Feature", "properties": {"collection_times": [{"days": "Mon-Sat", "time": "12:00pm"}, {"days": "Sun", "time": "Closed"}], "id": "3361800016", "name": "USPS COLLECTION BOX - BLUE BOX", "address": {"city": "TAMPA", "state": "FL", "street": "13902 N DALE MABRY HWY", "postcode": "33618"}}},
{"geometry": {"type": "Point", "coordinates": [-82.5050105016, 28.0404430568]}, "type": "Feature", "properties": {"collection_times": [{"days": "Mon-Sat", "time": "10:00am"}, {"days": "Sun", "time": "Closed"}], "id": "3361800018", "name": "USPS COLLECTION BOX - BLUE BOX", "address": {"city": "TAMPA", "state": "FL", "street": "10008 N DALE MABRY HWY", "postcode": "33618"}}},
{"geometry": {"type": "Point", "coordinates": [-82.5050105016, 28.0404430568]}, "type": "Feature", "properties": {"collection_times": [{"days": "Mon-Sat", "time": "10:00am"}, {"days": "Sun", "time": "Closed"}], "id": "3361800019", "name": "USPS COLLECTION BOX - BLUE BOX", "address": {"city": "TAMPA", "state": "FL", "street": "10008 N DALE MABRY HWY", "postcode": "33618"}}},
{"geometry": {"type": "Point", "coordinates": [-82.5067143134, 28.0793185742]}, "type": "Feature", "properties": {"collection_times": [{"days": "Mon-Sat", "time": "10:00am"}, {"days": "Sun", "time": "Closed"}], "id": "3361800022", "name": "USPS COLLECTION BOX - BLUE BOX", "address": {"city": "TAMPA", "state": "FL", "street": "14499 N DALE MABRY HWY", "postcode": "33618"}}},
{"geometry": {"type": "Point", "coordinates": [-82.5022207017, 28.1011845654]}, "type": "Feature", "properties": {"collection_times": [{"days": "Mon-Fri", "time": "10:00am"}, {"days": "Sat-Sun", "time": "Closed"}], "id": "3361800026", "name": "USPS COLLECTION BOX - BLUE BOX", "address": {"city": "TAMPA", "state": "FL", "street": "16313 N DALE MABRY HWY", "postcode": "33618"}}},
{"geometry": {"type": "Point", "coordinates": [-82.5036331547, 28.061238407]}, "type": "Feature", "properties": {"collection_times": [{"days": "Mon-Fri", "time": "5:00pm"}, {"days": "Sat", "time": "4:00pm"}, {"days": "Sun", "time": "Closed"}], "id": "3361800030", "name": "USPS COLLECTION BOX - BLUE BOX", "address": {"city": "TAMPA", "state": "FL", "street": "12651 N DALE MABRY HWY", "postcode": "33618"}}},
{"geometry": {"type": "Point", "coordinates": [-82.5036331547, 28.061238407]}, "type": "Feature", "properties": {"collection_times": [{"days": "Mon-Fri", "time": "5:00pm"}, {"days": "Sat", "time": "4:00pm"}, {"days": "Sun", "time": "Closed"}], "id": "3361800031", "name": "USPS COLLECTION BOX - BLUE BOX", "address": {"city": "TAMPA", "state": "FL", "street": "12651 N DALE MABRY HWY", "postcode": "33618"}}},
{"geometry": {"type": "Point", "coordinates": [-82.50688156, 28.0802426428]}, "type": "Feature", "properties": {"collection_times": [{"days": "Mon-Sat", "time": "12:00pm"}, {"days": "Sun", "time": "Closed"}], "id": "3361800042", "name": "USPS COLLECTION BOX - BLUE BOX", "address": {"city": "TAMPA", "state": "FL", "street": "14502 N DALE MABRY HWY", "postcode": "33618"}}},
{"geometry": {"type": "Point", "coordinates": [-82.502529454, 28.1084562141]}, "type": "Feature", "properties": {"collection_times": [{"days": "Mon-Sat", "time": "10:00am"}, {"days": "Sun", "time": "Closed"}], "id": "3361800044", "name": "USPS COLLECTION BOX - BLUE BOX", "address": {"city": "TAMPA", "state": "FL", "street": "16562 N DALE MABRY HWY", "postcode": "33618"}}},
{"geometry": {"type": "Point", "coordinates": [-82.5023200702, 28.094277268]}, "type": "Feature", "properties": {"collection_times": [{"days": "Mon-Sat", "time": "11:30am"}, {"days": "Sun", "time": "Closed"}], "id": "3361800047", "name": "USPS COLLECTION BOX - BLUE BOX", "address": {"city": "TAMPA", "state": "FL", "street": "15602 N DALE MABRY HWY", "postcode": "33618"}}},
{"geometry": {"type": "Point", "coordinates": [-82.5047794419, 28.040455001]}, "type": "Feature", "properties": {"collection_times": [{"days": "Mon-Fri", "time": "5:00pm"}, {"days": "Sat", "time": "1:00pm"}, {"days": "Sun", "time": "Closed"}], "id": "3361800048", "name": "USPS COLLECTION BOX - BLUE BOX", "address": {"city": "TAMPA", "state": "FL", "street": "10001 N DALE MABRY HWY", "postcode": "33618"}}},
{"geometry": {"type": "Point", "coordinates": [-82.508496299, 28.0391809542]}, "type": "Feature", "properties": {"collection_times": [{"days": "Mon-Sat", "time": "10:00am"}, {"days": "Sun", "time": "Closed"}], "id": "3361800050", "name": "USPS COLLECTION BOX - BLUE BOX", "address": {"city": "TAMPA", "state": "FL", "street": "4012 GUNN HWY", "postcode": "33618"}}},
{"geometry": {"type": "Point", "coordinates": [-82.5066378705, 28.0400646245]}, "type": "Feature", "properties": {"collection_times": [{"days": "Mon-Sat", "time": "12:00pm"}, {"days": "Sun", "time": "Closed"}], "id": "3361800052", "name": "USPS COLLECTION BOX - BLUE BOX", "address": {"city": "TAMPA", "state": "FL", "street": "3816 W LINEBAUGH AVE", "postcode": "33618"}}},
{"geometry": {"type": "Point", "coordinates": [-82.5036331547, 28.061238407]}, "type": "Feature", "properties": {"collection_times": [{"days": "Mon-Fri", "time": "5:00pm"}, {"days": "Sat", "time": "4:00pm"}, {"days": "Sun", "time": "Closed"}], "id": "3361800054", "name": "USPS COLLECTION BOX - APC", "address": {"city": "TAMPA", "state": "FL", "street": "12651 N DALE MABRY HWY", "postcode": "33618"}}},
{"geometry": {"type": "Point", "coordinates": [-82.4974692592, 28.0850634339]}, "type": "Feature", "properties": {"collection_times": [{"days": "Mon-Sat", "time": "12:00pm"}, {"days": "Sun", "time": "Closed"}], "id": "3361800055", "name": "USPS COLLECTION BOX - BLUE BOX", "address": {"city": "TAMPA", "state": "FL", "street": "3317 W BEARSS AVE", "postcode": "33618"}}},
{"geometry": {"type": "Point", "coordinates": [-82.504382717, 28.0432742006]}, "type": "Feature", "properties": {"collection_times": [{"days": "Mon-Sat", "time": "10:00am"}, {"days": "Sun", "time": "Closed"}], "id": "3361800056", "name": "USPS COLLECTION BOX - BLUE BOX", "address": {"city": "TAMPA", "state": "FL", "street": "10205 LAKE CARROLL WAY", "postcode": "33618"}}},
{"geometry": {"type": "Point", "coordinates": [-82.4017661923, 27.9780326223]}, "type": "Feature", "properties": {"collection_times": [{"days": "Mon-Fri", "time": "10:00am"}, {"days": "Sat-Sun", "time": "Closed"}], "id": "3361900002", "name": "USPS COLLECTION BOX - BLUE BOX", "address": {"city": "TAMPA", "state": "FL", "street": "3710 N 50TH ST", "postcode": "33619"}}},
{"geometry": {"type": "Point", "coordinates": [-82.3479548028, 27.9468730241]}, "type": "Feature", "properties": {"collection_times": [{"days": "Mon-Fri", "time": "10:30am"}, {"days": "Sat-Sun", "time": "Closed"}], "id": "3361900004", "name": "USPS COLLECTION BOX - BLUE BOX", "address": {"city": "TAMPA", "state": "FL", "street": "9350 BAY PLAZA BLVD", "postcode": "33619"}}},
{"geometry": {"type": "Point", "coordinates": [-82.4009658732, 27.9621374412]}, "type": "Feature", "properties": {"collection_times": [{"days": "Mon-Fri", "time": "1:00pm"}, {"days": "Sat-Sun", "time": "Closed"}], "id": "3361900006", "name": "USPS COLLECTION BOX - BLUE BOX", "address": {"city": "TAMPA", "state": "FL", "street": "5008 E BROADWAY AVE", "postcode": "33619"}}},
{"geometry": {"type": "Point", "coordinates": [-82.349703295, 27.9791325263]}, "type": "Feature", "properties": {"collection_times": [{"days": "Mon-Fri", "time": "3:00pm"}, {"days": "Sat-Sun", "time": "Closed"}], "id": "3361900011", "name": "USPS COLLECTION BOX - BLUE BOX", "address": {"city": "TAMPA", "state": "FL", "street": "3925 COCONUT PALM DR", "postcode": "33619"}}},
{"geometry": {"type": "Point", "coordinates": [-82.3791255407, 27.9801158131]}, "type": "Feature", "properties": {"collection_times": [{"days": "Mon-Fri", "time": "2:00pm"}, {"days": "Sat-Sun", "time": "Closed"}], "id": "3361900015", "name": "USPS COLLECTION BOX - BLUE BOX", "address": {"city": "TAMPA", "state": "FL", "street": "3904 CORPOREX PARK DR", "postcode": "33619"}}},
{"geometry": {"type": "Point", "coordinates": [-82.3554838846, 27.956173161]}, "type": "Feature", "properties": {"collection_times": [{"days": "Mon-Fri", "time": "2:45pm"}, {"days": "Sat-Sun", "time": "Closed"}], "id": "3361900021", "name": "USPS COLLECTION BOX - BLUE BOX", "address": {"city": "TAMPA", "state": "FL", "street": "1221 N US HIGHWAY 301", "postcode": "33619"}}},
{"geometry": {"type": "Point", "coordinates": [-82.3363426467, 27.9792747292]}, "type": "Feature", "properties": {"collection_times": [{"days": "Mon-Fri", "time": "3:05pm"}, {"days": "Sat-Sun", "time": "Closed"}], "id": "3361900028", "name": "USPS COLLECTION BOX - BLUE BOX", "address": {"city": "TAMPA", "state": "FL", "street": "10002 PRINCESS PALM AVE", "postcode": "33619"}}},
{"geometry": {"type": "Point", "coordinates": [-82.3363426467, 27.9792747292]}, "type": "Feature", "properties": {"collection_times": [{"days": "Mon-Fri", "time": "3:05pm"}, {"days": "Sat-Sun", "time": "Closed"}], "id": "3361900029", "name": "USPS COLLECTION BOX - BLUE BOX", "address": {"city": "TAMPA", "state": "FL", "street": "10002 PRINCESS PALM AVE", "postcode": "33619"}}},
{"geometry": {"type": "Point", "coordinates": [-82.3664082454, 27.9407236268]}, "type": "Feature", "properties": {"collection_times": [{"days": "Mon-Fri", "time": "1:00pm"}, {"days": "Sat-Sun", "time": "Closed"}], "id": "3361900030", "name": "USPS COLLECTION BOX - BLUE BOX", "address": {"city": "TAMPA", "state": "FL", "street": "7867 PALM RIVER RD", "postcode": "33619"}}},
{"geometry": {"type": "Point", "coordinates": [-82.3328351734, 27.9619384656]}, "type": "Feature", "properties": {"collection_times": [{"days": "Mon-Fri", "time": "3:15pm"}, {"days": "Sat-Sun", "time": "Closed"}], "id": "3361900034", "name": "USPS COLLECTION BOX - BLUE BOX", "address": {"city": "TAMPA", "state": "FL", "street": "1211 TECH BLVD", "postcode": "33619"}}},
{"geometry": {"type": "Point", "coordinates": [-82.3474068619, 27.9466570017]}, "type": "Feature", "properties": {"collection_times": [{"days": "Mon-Fri", "time": "10:30am"}, {"days": "Sat-Sun", "time": "Closed"}], "id": "3361900037", "name": "USPS COLLECTION BOX - BLUE BOX", "address": {"city": "TAMPA", "state": "FL", "street": "410 S WARE BLVD", "postcode": "33619"}}},
{"geometry": {"type": "Point", "coordinates": [-82.3865628037, 27.9815933288]}, "type": "Feature", "properties": {"collection_times": [{"days": "Mon-Fri", "time": "1:00pm"}, {"days": "Sat-Sun", "time": "Closed"}], "id": "3361900057", "name": "USPS COLLECTION BOX - BLUE BOX", "address": {"city": "TAMPA", "state": "FL", "street": "6302 E MLK BLVD", "postcode": "33619"}}},
{"geometry": {"type": "Point", "coordinates": [-82.3350087479, 27.9436717271]}, "type": "Feature", "properties": {"collection_times": [{"days": "Mon-Fri", "time": "5:00pm"}, {"days": "Sat", "time": "12:00pm"}, {"days": "Sun", "time": "Closed"}], "id": "3361900059", "name": "USPS COLLECTION BOX - BLUE BOX", "address": {"city": "TAMPA", "state": "FL", "street": "10121 E ADAMO DR", "postcode": "33619"}}},
{"geometry": {"type": "Point", "coordinates": [-82.358100811, 27.9445702621]}, "type": "Feature", "properties": {"collection_times": [{"days": "Mon-Fri", "time": "10:30am"}, {"days": "Sat-Sun", "time": "Closed"}], "id": "3361900062", "name": "USPS COLLECTION BOX - BLUE BOX", "address": {"city": "TAMPA", "state": "FL", "street": "201 KELSEY LN", "postcode": "33619"}}},
{"geometry": {"type": "Point", "coordinates": [-82.4116134285, 28.0546122706]}, "type": "Feature", "properties": {"collection_times": [{"days": "Mon-Fri", "time": "1:00pm"}, {"days": "Sat-Sun", "time": "Closed"}], "id": "3362000011", "name": "USPS COLLECTION BOX - BLUE BOX", "address": {"city": "TAMPA", "state": "FL", "street": "4202 E FOWLER AVE", "postcode": "33620"}}},
{"geometry": {"type": "Point", "coordinates": [-82.4116134285, 28.0546122706]}, "type": "Feature", "properties": {"collection_times": [{"days": "Mon-Fri", "time": "1:00pm"}, {"days": "Sat-Sun", "time": "Closed"}], "id": "3362000012", "name": "USPS COLLECTION BOX - BLUE BOX", "address": {"city": "TAMPA", "state": "FL", "street": "4202 E FOWLER AVE", "postcode": "33620"}}},
{"geometry": {"type": "Point", "coordinates": [-82.4116134285, 28.0546122706]}, "type": "Feature", "properties": {"collection_times": [{"days": "Mon-Fri", "time": "1:00pm"}, {"days": "Sat", "time": "12:00pm"}, {"days": "Sun", "time": "Closed"}], "id": "3362000013", "name": "USPS COLLECTION BOX - BLUE BOX", "address": {"city": "TAMPA", "state": "FL", "street": "4202 E FOWLER AVE", "postcode": "33620"}}},
{"geometry": {"type": "Point", "coordinates": [-82.4116134285, 28.0546122706]}, "type": "Feature", "properties": {"collection_times": [{"days": "Mon-Fri", "time": "1:00pm"}, {"days": "Sat-Sun", "time": "Closed"}], "id": "3362000015", "name": "USPS COLLECTION BOX - BLUE BOX", "address": {"city": "TAMPA", "state": "FL", "street": "4202 E FOWLER AVE", "postcode": "33620"}}},
{"geometry": {"type": "Point", "coordinates": [-82.5283723755, 28.0402101285]}, "type": "Feature", "properties": {"collection_times": [{"days": "Mon-Sat", "time": "1:00pm"}, {"days": "Sun", "time": "Closed"}], "id": "3362400007", "name": "USPS COLLECTION BOX - BLUE BOX", "address": {"city": "TAMPA", "state": "FL", "street": "5008 W LINEBAUGH AVE", "postcode": "33624"}}},
{"geometry": {"type": "Point", "coordinates": [-82.5352401201, 28.0848315591]}, "type": "Feature", "properties": {"collection_times": [{"days": "Mon-Sat", "time": "11:00am"}, {"days": "Sun", "time": "Closed"}], "id": "3362400014", "name": "USPS COLLECTION BOX - BLUE BOX", "address": {"city": "TAMPA", "state": "FL", "street": "5121 EHRLICH RD", "postcode": "33624"}}},
{"geometry": {"type": "Point", "coordinates": [-82.5422199236, 28.0611068759]}, "type": "Feature", "properties": {"collection_times": [{"days": "Mon-Fri", "time": "3:10pm"}, {"days": "Sat", "time": "12:00pm"}, {"days": "Sun", "time": "Closed"}], "id": "3362500004", "name": "USPS COLLECTION BOX - BLUE BOX", "address": {"city": "TAMPA", "state": "FL", "street": "12088 ANDERSON RD", "postcode": "33625"}}},
{"geometry": {"type": "Point", "coordinates": [-82.5038023178, 28.0882063226]}, "type": "Feature", "properties": {"collection_times": [{"days": "Mon-Fri", "time": "4:30pm"}, {"days": "Sat", "time": "1:00pm"}, {"days": "Sun", "time": "Closed"}], "id": "3362500006", "name": "USPS COLLECTION BOX - BLUE BOX", "address": {"city": "TAMPA", "state": "FL", "street": "14910 N DALE MABRY HWY", "postcode": "33625"}}},
{"geometry": {"type": "Point", "coordinates": [-82.5598386233, 28.0653066226]}, "type": "Feature", "properties": {"collection_times": [{"days": "Mon-Fri", "time": "1:00pm"}, {"days": "Sat-Sun", "time": "Closed"}], "id": "3362500011", "name": "USPS COLLECTION BOX - BLUE BOX", "address": {"city": "TAMPA", "state": "FL", "street": "6550 GUNN HWY", "postcode": "33625"}}},
{"geometry": {"type": "Point", "coordinates": [-82.5038023178, 28.0882063226]}, "type": "Feature", "properties": {"collection_times": [{"days": "Mon-Fri", "time": "4:30pm"}, {"days": "Sat", "time": "1:00pm"}, {"days": "Sun", "time": "Closed"}], "id": "3362500012", "name": "USPS COLLECTION BOX - APC", "address": {"city": "TAMPA", "state": "FL", "street": "14910 N DALE MABRY HWY", "postcode": "33625"}}},
{"geometry": {"type": "Point", "coordinates": [-82.5598386233, 28.0653066226]}, "type": "Feature", "properties": {"collection_times": [{"days": "Mon-Fri", "time": "1:00pm"}, {"days": "Sat-Sun", "time": "Closed"}], "id": "3362500013", "name": "USPS COLLECTION BOX - BLUE BOX", "address": {"city": "TAMPA", "state": "FL", "street": "6550 GUNN HWY", "postcode": "33625"}}},
{"geometry": {"type": "Point", "coordinates": [-82.6416714534, 28.0623977068]}, "type": "Feature", "properties": {"collection_times": [{"days": "Mon-Sat", "time": "1:00pm"}, {"days": "Sun", "time": "Closed"}], "id": "3362600001", "name": "USPS COLLECTION BOX - BLUE BOX", "address": {"city": "TAMPA", "state": "FL", "street": "12320 RACETRACK RD", "postcode": "33626"}}},
{"geometry": {"type": "Point", "coordinates": [-82.6462566023, 28.061180442]}, "type": "Feature", "properties": {"collection_times": [{"days": "Mon-Sat", "time": "1:00pm"}, {"days": "Sun", "time": "Closed"}], "id": "3362600002", "name": "USPS COLLECTION BOX - BLUE BOX", "address": {"city": "TAMPA", "state": "FL", "street": "13300 MCCORMICK DR", "postcode": "33626"}}},
{"geometry": {"type": "Point", "coordinates": [-82.5827492715, 28.0618616849]}, "type": "Feature", "properties": {"collection_times": [{"days": "Mon-Sat", "time": "11:00am"}, {"days": "Sun", "time": "Closed"}], "id": "3362600003", "name": "USPS COLLECTION BOX - BLUE BOX", "address": {"city": "TAMPA", "state": "FL", "street": "12900 FAWN RIDGE BLVD", "postcode": "33626"}}},
{"geometry": {"type": "Point", "coordinates": [-82.6476678724, 28.0588358174]}, "type": "Feature", "properties": {"collection_times": [{"days": "Mon-Sat", "time": "1:00pm"}, {"days": "Sun", "time": "Closed"}], "id": "3362600004", "name": "USPS COLLECTION BOX - BLUE BOX", "address": {"city": "TAMPA", "state": "FL", "street": "12900 DUPONT CIR", "postcode": "33626"}}},
{"geometry": {"type": "Point", "coordinates": [-82.6244709091, 28.0557740725]}, "type": "Feature", "properties": {"collection_times": [{"days": "Mon-Sat", "time": "11:15am"}, {"days": "Sun", "time": "Closed"}], "id": "3362600005", "name": "USPS COLLECTION BOX - BLUE BOX", "address": {"city": "TAMPA", "state": "FL", "street": "12139 W LINEBAUGH AVE", "postcode": "33626"}}},
{"geometry": {"type": "Point", "coordinates": [-82.6159097142, 28.0599623432]}, "type": "Feature", "properties": {"collection_times": [{"days": "Mon-Sat", "time": "11:00am"}, {"days": "Sun", "time": "Closed"}], "id": "3362600006", "name": "USPS COLLECTION BOX - BLUE BOX", "address": {"city": "TAMPA", "state": "FL", "street": "11203 SHELDON RD", "postcode": "33626"}}},
{"geometry": {"type": "Point", "coordinates": [-82.4914162967, 27.919490925]}, "type": "Feature", "properties": {"collection_times": [{"days": "Mon-Fri", "time": "2:05pm"}, {"days": "Sat-Sun", "time": "Closed"}], "id": "3362900002", "name": "USPS COLLECTION BOX - BLUE BOX", "address": {"city": "TAMPA", "state": "FL", "street": "2909 W BAY TO BAY BLVD", "postcode": "33629"}}},
{"geometry": {"type": "Point", "coordinates": [-82.5167616333, 27.9242860647]}, "type": "Feature", "properties": {"collection_times": [{"days": "Mon-Sat", "time": "1:00pm"}, {"days": "Sun", "time": "Closed"}], "id": "3362900013", "name": "USPS COLLECTION BOX - BLUE BOX", "address": {"city": "TAMPA", "state": "FL", "street": "4302 HENDERSON BLVD", "postcode": "33629"}}},
{"geometry": {"type": "Point", "coordinates": [-82.49350466, 27.9268069503]}, "type": "Feature", "properties": {"collection_times": [{"days": "Mon-Fri", "time": "2:50pm"}, {"days": "Sat", "time": "2:00pm"}, {"days": "Sun", "time": "Closed"}], "id": "3362900018", "name": "USPS COLLECTION BOX - BLUE BOX", "address": {"city": "TAMPA", "state": "FL", "street": "1906 S MACDILL AVE", "postcode": "33629"}}},
{"geometry": {"type": "Point", "coordinates": [-82.5265186788, 27.9156126096]}, "type": "Feature", "properties": {"collection_times": [{"days": "Mon-Sat", "time": "2:00pm"}, {"days": "Sun", "time": "Closed"}], "id": "3362900020", "name": "USPS COLLECTION BOX - BLUE BOX", "address": {"city": "TAMPA", "state": "FL", "street": "3206 S WESTSHORE BLVD", "postcode": "33629"}}},
{"geometry": {"type": "Point", "coordinates": [-82.5078586841, 27.9336657463]}, "type": "Feature", "properties": {"collection_times": [{"days": "Mon-Fri", "time": "5:00pm"}, {"days": "Sat", "time": "1:00pm"}, {"days": "Sun", "time": "Closed"}], "id": "3362900022", "name": "USPS COLLECTION BOX - BLUE BOX", "address": {"city": "TAMPA", "state": "FL", "street": "1002 S CHURCH AVE", "postcode": "33629"}}},
{"geometry": {"type": "Point", "coordinates": [-82.5062143712, 27.9190621179]}, "type": "Feature", "properties": {"collection_times": [{"days": "Mon-Fri", "time": "1:45pm"}, {"days": "Sat", "time": "11:00am"}, {"days": "Sun", "time": "Closed"}], "id": "3362900030", "name": "USPS COLLECTION BOX - BLUE BOX", "address": {"city": "TAMPA", "state": "FL", "street": "3802 W SANTIAGO ST", "postcode": "33629"}}},
{"geometry": {"type": "Point", "coordinates": [-82.5078586841, 27.9336657463]}, "type": "Feature", "properties": {"collection_times": [{"days": "Mon-Fri", "time": "5:00pm"}, {"days": "Sat", "time": "1:00pm"}, {"days": "Sun", "time": "Closed"}], "id": "3362900035", "name": "USPS COLLECTION BOX - APC", "address": {"city": "TAMPA", "state": "FL", "street": "1002 S CHURCH AVE", "postcode": "33629"}}},
{"geometry": {"type": "Point", "coordinates": [-82.5308077013, 27.9597866364]}, "type": "Feature", "properties": {"collection_times": [{"days": "Mon-Sat", "time": "7:30pm"}, {"days": "Sun", "time": "Closed"}], "id": "3363000000", "name": "USPS COLLECTION BOX - BLUE BOX", "address": {"city": "TAMPA", "state": "FL", "street": "3501 BESSIE COLEMAN (MAIN P0) BLVD", "postcode": "33630"}}},
{"geometry": {"type": "Point", "coordinates": [-82.5308077013, 27.9597866364]}, "type": "Feature", "properties": {"collection_times": [{"days": "Mon-Sat", "time": "7:30pm"}, {"days": "Sun", "time": "Closed"}], "id": "3363000001", "name": "USPS COLLECTION BOX - BLUE BOX", "address": {"city": "TAMPA", "state": "FL", "street": "3501 BESSIE COLEMAN (MAIN P0) BLVD", "postcode": "33630"}}},
{"geometry": {"type": "Point", "coordinates": [-82.5308077013, 27.9597866364]}, "type": "Feature", "properties": {"collection_times": [{"days": "Mon-Sat", "time": "7:30pm"}, {"days": "Sun", "time": "Closed"}], "id": "3363000004", "name": "USPS COLLECTION BOX - APC", "address": {"city": "TAMPA", "state": "FL", "street": "3501 BESSIE COLEMAN (MAIN P0) BLVD", "postcode": "33630"}}},
{"geometry": {"type": "Point", "coordinates": [-82.5482626476, 27.9974402471]}, "type": "Feature", "properties": {"collection_times": [{"days": "Mon-Fri", "time": "12:00pm"}, {"days": "Sat-Sun", "time": "Closed"}], "id": "3363400003", "name": "USPS COLLECTION BOX - BLUE BOX", "address": {"city": "TAMPA", "state": "FL", "street": "5421 BEAUMONT CENTER BLVD", "postcode": "33634"}}},
{"geometry": {"type": "Point", "coordinates": [-82.5482626476, 27.9974402471]}, "type": "Feature", "properties": {"collection_times": [{"days": "Mon-Fri", "time": "12:00pm"}, {"days": "Sat-Sun", "time": "Closed"}], "id": "3363400004", "name": "USPS COLLECTION BOX - BLUE BOX", "address": {"city": "TAMPA", "state": "FL", "street": "5421 BEAUMONT CENTER BLVD", "postcode": "33634"}}},
{"geometry": {"type": "Point", "coordinates": [-82.5482626476, 27.9974402471]}, "type": "Feature", "properties": {"collection_times": [{"days": "Mon-Fri", "time": "12:00pm"}, {"days": "Sat-Sun", "time": "Closed"}], "id": "3363400005", "name": "USPS COLLECTION BOX - BLUE BOX", "address": {"city": "TAMPA", "state": "FL", "street": "5421 BEAUMONT CENTER BLVD", "postcode": "33634"}}},
{"geometry": {"type": "Point", "coordinates": [-82.5406609533, 28.0064319182]}, "type": "Feature", "properties": {"collection_times": [{"days": "Mon-Fri", "time": "10:00am"}, {"days": "Sat-Sun", "time": "Closed"}], "id": "3363400006", "name": "USPS COLLECTION BOX - BLUE BOX", "address": {"city": "TAMPA", "state": "FL", "street": "5910 BENJAMIN CENTER DR", "postcode": "33634"}}},
{"geometry": {"type": "Point", "coordinates": [-82.5420189902, 28.0022880129]}, "type": "Feature", "properties": {"collection_times": [{"days": "Mon-Fri", "time": "10:00am"}, {"days": "Sat-Sun", "time": "Closed"}], "id": "3363400008", "name": "USPS COLLECTION BOX - BLUE BOX", "address": {"city": "TAMPA", "state": "FL", "street": "6002 BENJAMIN RD", "postcode": "33634"}}},
{"geometry": {"type": "Point", "coordinates": [-82.5420138971, 28.009351719]}, "type": "Feature", "properties": {"collection_times": [{"days": "Mon-Fri", "time": "10:00am"}, {"days": "Sat-Sun", "time": "Closed"}], "id": "3363400010", "name": "USPS COLLECTION BOX - BLUE BOX", "address": {"city": "TAMPA", "state": "FL", "street": "6708 BENJAMIN RD", "postcode": "33634"}}},
{"geometry": {"type": "Point", "coordinates": [-82.5420138971, 28.009351719]}, "type": "Feature", "properties": {"collection_times": [{"days": "Mon-Fri", "time": "10:00am"}, {"days": "Sat-Sun", "time": "Closed"}], "id": "3363400011", "name": "USPS COLLECTION BOX - BLUE BOX", "address": {"city": "TAMPA", "state": "FL", "street": "6708 BENJAMIN RD", "postcode": "33634"}}},
{"geometry": {"type": "Point", "coordinates": [-82.5417386289, 28.0267847272]}, "type": "Feature", "properties": {"collection_times": [{"days": "Mon-Fri", "time": "12:00pm"}, {"days": "Sat-Sun", "time": "Closed"}], "id": "3363400013", "name": "USPS COLLECTION BOX - BLUE BOX", "address": {"city": "TAMPA", "state": "FL", "street": "8403 BENJAMIN RD", "postcode": "33634"}}},
{"geometry": {"type": "Point", "coordinates": [-82.5462930209, 27.9875081236]}, "type": "Feature", "properties": {"collection_times": [{"days": "Mon-Fri", "time": "12:00pm"}, {"days": "Sat-Sun", "time": "Closed"}], "id": "3363400015", "name": "USPS COLLECTION BOX - BLUE BOX", "address": {"city": "TAMPA", "state": "FL", "street": "4710 EISENHOWER BLVD", "postcode": "33634"}}},
{"geometry": {"type": "Point", "coordinates": [-82.5462007501, 27.9900219114]}, "type": "Feature", "properties": {"collection_times": [{"days": "Mon-Fri", "time": "12:00pm"}, {"days": "Sat-Sun", "time": "Closed"}], "id": "3363400017", "name": "USPS COLLECTION BOX - BLUE BOX", "address": {"city": "TAMPA", "state": "FL", "street": "4902 EISENHOWER BLVD", "postcode": "33634"}}},
{"geometry": {"type": "Point", "coordinates": [-82.5462007501, 27.9900219114]}, "type": "Feature", "properties": {"collection_times": [{"days": "Mon-Fri", "time": "12:00pm"}, {"days": "Sat-Sun", "time": "Closed"}], "id": "3363400018", "name": "USPS COLLECTION BOX - BLUE BOX", "address": {"city": "TAMPA", "state": "FL", "street": "4902 EISENHOWER BLVD", "postcode": "33634"}}},
{"geometry": {"type": "Point", "coordinates": [-82.5504285229, 27.9851862087]}, "type": "Feature", "properties": {"collection_times": [{"days": "Mon-Fri", "time": "10:00am"}, {"days": "Sat-Sun", "time": "Closed"}], "id": "3363400028", "name": "USPS COLLECTION BOX - BLUE BOX", "address": {"city": "TAMPA", "state": "FL", "street": "4519 GEORGE RD", "postcode": "33634"}}},
{"geometry": {"type": "Point", "coordinates": [-82.5338249315, 27.996412536]}, "type": "Feature", "properties": {"collection_times": [{"days": "Mon-Fri", "time": "10:00am"}, {"days": "Sat-Sun", "time": "Closed"}], "id": "3363400030", "name": "USPS COLLECTION BOX - BLUE BOX", "address": {"city": "TAMPA", "state": "FL", "street": "5406 HOOVER BLVD", "postcode": "33634"}}},
{"geometry": {"type": "Point", "coordinates": [-82.5484765289, 28.0074640754]}, "type": "Feature", "properties": {"collection_times": [{"days": "Mon-Fri", "time": "10:00am"}, {"days": "Sat-Sun", "time": "Closed"}], "id": "3363400033", "name": "USPS COLLECTION BOX - BLUE BOX", "address": {"city": "TAMPA", "state": "FL", "street": "6201 JOHNS RD", "postcode": "33634"}}},
{"geometry": {"type": "Point", "coordinates": [-82.5301073992, 28.0178807028]}, "type": "Feature", "properties": {"collection_times": [{"days": "Mon-Fri", "time": "10:00am"}, {"days": "Sat-Sun", "time": "Closed"}], "id": "3363400034", "name": "USPS COLLECTION BOX - BLUE BOX", "address": {"city": "TAMPA", "state": "FL", "street": "5100 TAMPA WEST", "postcode": "33634"}}},
{"geometry": {"type": "Point", "coordinates": [-82.5301073992, 28.0178807028]}, "type": "Feature", "properties": {"collection_times": [{"days": "Mon-Fri", "time": "10:00am"}, {"days": "Sat-Sun", "time": "Closed"}], "id": "3363400035", "name": "USPS COLLECTION BOX - BLUE BOX", "address": {"city": "TAMPA", "state": "FL", "street": "5100 TAMPA WEST", "postcode": "33634"}}},
{"geometry": {"type": "Point", "coordinates": [-82.5490256561, 27.9818109932]}, "type": "Feature", "properties": {"collection_times": [{"days": "Mon-Fri", "time": "10:00am"}, {"days": "Sat-Sun", "time": "Closed"}], "id": "3363400039", "name": "USPS COLLECTION BOX - BLUE BOX", "address": {"city": "TAMPA", "state": "FL", "street": "4919 MEMORIAL HWY", "postcode": "33634"}}},
{"geometry": {"type": "Point", "coordinates": [-82.5463273267, 27.9946555617]}, "type": "Feature", "properties": {"collection_times": [{"days": "Mon-Fri", "time": "10:00am"}, {"days": "Sat-Sun", "time": "Closed"}], "id": "3363400046", "name": "USPS COLLECTION BOX - BLUE BOX", "address": {"city": "TAMPA", "state": "FL", "street": "5130 EISENHOWER BLVD", "postcode": "33634"}}},
{"geometry": {"type": "Point", "coordinates": [-82.5462563492, 27.9929899555]}, "type": "Feature", "properties": {"collection_times": [{"days": "Mon-Fri", "time": "10:00am"}, {"days": "Sat-Sun", "time": "Closed"}], "id": "3363400047", "name": "USPS COLLECTION BOX - BLUE BOX", "address": {"city": "TAMPA", "state": "FL", "street": "5110 EISENHOWER BLVD", "postcode": "33634"}}},
{"geometry": {"type": "Point", "coordinates": [-82.5462563492, 27.9929899555]}, "type": "Feature", "properties": {"collection_times": [{"days": "Mon-Fri", "time": "10:00am"}, {"days": "Sat-Sun", "time": "Closed"}], "id": "3363400049", "name": "USPS COLLECTION BOX - BLUE BOX", "address": {"city": "TAMPA", "state": "FL", "street": "5110 EISENHOWER BLVD", "postcode": "33634"}}},
{"geometry": {"type": "Point", "coordinates": [-82.5495658252, 28.0055541382]}, "type": "Feature", "properties": {"collection_times": [{"days": "Mon-Fri", "time": "12:00pm"}, {"days": "Sat-Sun", "time": "Closed"}], "id": "3363400050", "name": "USPS COLLECTION BOX - BLUE BOX", "address": {"city": "TAMPA", "state": "FL", "street": "4900 MEMORIAL HWY", "postcode": "33634"}}},
{"geometry": {"type": "Point", "coordinates": [-82.5406609533, 28.0064319182]}, "type": "Feature", "properties": {"collection_times": [{"days": "Mon-Fri", "time": "10:00am"}, {"days": "Sat-Sun", "time": "Closed"}], "id": "3363400054", "name": "USPS COLLECTION BOX - BLUE BOX", "address": {"city": "TAMPA", "state": "FL", "street": "5910 BENJAMIN CENTER DR", "postcode": "33634"}}},
{"geometry": {"type": "Point", "coordinates": [-82.5349579081, 28.0256597332]}, "type": "Feature", "properties": {"collection_times": [{"days": "Mon-Fri", "time": "12:00pm"}, {"days": "Sat-Sun", "time": "Closed"}], "id": "3363400066", "name": "USPS COLLECTION BOX - BLUE BOX", "address": {"city": "TAMPA", "state": "FL", "street": "5455 W WATERS AVE", "postcode": "33634"}}},
{"geometry": {"type": "Point", "coordinates": [-82.5496502586, 27.9816926971]}, "type": "Feature", "properties": {"collection_times": [{"days": "Mon-Fri", "time": "12:00pm"}, {"days": "Sat-Sun", "time": "Closed"}], "id": "3363400068", "name": "USPS COLLECTION BOX - BLUE BOX", "address": {"city": "TAMPA", "state": "FL", "street": "4900 MEMORIAL HWY", "postcode": "33634"}}},
{"geometry": {"type": "Point", "coordinates": [-82.3530106649, 28.0475158486]}, "type": "Feature", "properties": {"collection_times": [{"days": "Mon-Fri", "time": "12:00pm"}, {"days": "Sat", "time": "10:00am"}, {"days": "Sun", "time": "Closed"}], "id": "3363700001", "name": "USPS COLLECTION BOX - BLUE BOX", "address": {"city": "TAMPA", "state": "FL", "street": "7800 WOODSTORK DR", "postcode": "33637"}}},
{"geometry": {"type": "Point", "coordinates": [-82.3662487704, 28.0283022707]}, "type": "Feature", "properties": {"collection_times": [{"days": "Mon-Fri", "time": "12:00pm"}, {"days": "Sat", "time": "10:00am"}, {"days": "Sun", "time": "Closed"}], "id": "3363700002", "name": "USPS COLLECTION BOX - BLUE BOX", "address": {"city": "TAMPA", "state": "FL", "street": "8600 PALM CT", "postcode": "33637"}}},
{"geometry": {"type": "Point", "coordinates": [-82.3564221922, 28.0726859009]}, "type": "Feature", "properties": {"collection_times": [{"days": "Mon-Fri", "time": "12:00pm"}, {"days": "Sat", "time": "10:00am"}, {"days": "Sun", "time": "Closed"}], "id": "3363700013", "name": "USPS COLLECTION BOX - BLUE BOX", "address": {"city": "TAMPA", "state": "FL", "street": "8800 GRAND OAK CIR", "postcode": "33637"}}},
{"geometry": {"type": "Point", "coordinates": [-82.3564221922, 28.0726859009]}, "type": "Feature", "properties": {"collection_times": [{"days": "Mon-Fri", "time": "12:00pm"}, {"days": "Sat", "time": "10:00am"}, {"days": "Sun", "time": "Closed"}], "id": "3363700018", "name": "USPS COLLECTION BOX - BLUE BOX", "address": {"city": "TAMPA", "state": "FL", "street": "8800 GRAND OAK CIR", "postcode": "33637"}}},
{"geometry": {"type": "Point", "coordinates": [-82.3564221922, 28.0726859009]}, "type": "Feature", "properties": {"collection_times": [{"days": "Mon-Fri", "time": "12:00pm"}, {"days": "Sat", "time": "10:00am"}, {"days": "Sun", "time": "Closed"}], "id": "3363700020", "name": "USPS COLLECTION BOX - BLUE BOX", "address": {"city": "TAMPA", "state": "FL", "street": "8800 GRAND OAK CIR", "postcode": "33637"}}},
{"geometry": {"type": "Point", "coordinates": [-82.404772091, 28.0897737432]}, "type": "Feature", "properties": {"collection_times": [{"days": "Mon-Fri", "time": "1:00pm"}, {"days": "Sat-Sun", "time": "Closed"}], "id": "3364700003", "name": "USPS COLLECTION BOX - BLUE BOX", "address": {"city": "TAMPA", "state": "FL", "street": "15310 AMBERLY DR", "postcode": "33647"}}},
{"geometry": {"type": "Point", "coordinates": [-82.3997084751, 28.0986874872]}, "type": "Feature", "properties": {"collection_times": [{"days": "Mon-Fri", "time": "2:50pm"}, {"days": "Sat", "time": "9:30am"}, {"days": "Sun", "time": "Closed"}], "id": "3364700004", "name": "USPS COLLECTION BOX - BLUE BOX", "address": {"city": "TAMPA", "state": "FL", "street": "16057 TAMPA PALMS BLVD W", "postcode": "33647"}}},
{"geometry": {"type": "Point", "coordinates": [-82.3532483133, 28.1525995109]}, "type": "Feature", "properties": {"collection_times": [{"days": "Mon-Fri", "time": "1:00pm"}, {"days": "Sat", "time": "10:30am"}, {"days": "Sun", "time": "Closed"}], "id": "3364700006", "name": "USPS COLLECTION BOX - BLUE BOX", "address": {"city": "TAMPA", "state": "FL", "street": "19651 BRUCE B DOWNS BLVD", "postcode": "33647"}}},
{"geometry": {"type": "Point", "coordinates": [-82.3534200801, 28.146114793]}, "type": "Feature", "properties": {"collection_times": [{"days": "Mon-Fri", "time": "1:35pm"}, {"days": "Sat", "time": "9:30am"}, {"days": "Sun", "time": "Closed"}], "id": "3364700012", "name": "USPS COLLECTION BOX - BLUE BOX", "address": {"city": "TAMPA", "state": "FL", "street": "19046 BRUCE B DOWNS BLVD", "postcode": "33647"}}},
{"geometry": {"type": "Point", "coordinates": [-82.3264105233, 28.1421811913]}, "type": "Feature", "properties": {"collection_times": [{"days": "Mon-Fri", "time": "1:00pm"}, {"days": "Sat", "time": "9:30am"}, {"days": "Sun", "time": "Closed"}], "id": "3364700014", "name": "USPS COLLECTION BOX - BLUE BOX", "address": {"city": "TAMPA", "state": "FL", "street": "10052 CROSS CREEK BLVD", "postcode": "33647"}}},
{"geometry": {"type": "Point", "coordinates": [-82.3861884923, 28.1103014128]}, "type": "Feature", "properties": {"collection_times": [{"days": "Mon-Fri", "time": "5:00pm"}, {"days": "Sat", "time": "3:30pm"}, {"days": "Sun", "time": "Closed"}], "id": "3364700016", "name": "USPS COLLECTION BOX - APC", "address": {"city": "TAMPA", "state": "FL", "street": "16350 BRUCE B DOWNS BLVD", "postcode": "33647"}}},
{"geometry": {"type": "Point", "coordinates": [-82.3861884923, 28.1103014128]}, "type": "Feature", "properties": {"collection_times": [{"days": "Mon-Fri", "time": "5:00pm"}, {"days": "Sat", "time": "3:30pm"}, {"days": "Sun", "time": "Closed"}], "id": "3364700017", "name": "USPS COLLECTION BOX - BLUE BOX", "address": {"city": "TAMPA", "state": "FL", "street": "16350 BRUCE B DOWNS BLVD", "postcode": "33647"}}}
]}
