{"type": "FeatureCollection", "features": [
{"geometry": {"type": "Point", "coordinates": [-82.6392960718, 27.7720676369]}, "type": "Feature", "properties": {"collection_times": [{"days": "Mon-Fri", "time": "4:35pm"}, {"days": "Sat", "time": "1:45pm"}, {"days": "Sun", "time": "Closed"}], "id": "3370100003", "name": "USPS COLLECTION BOX - BLUE BOX", "address": {"city": "ST PETERSBURG", "state": "FL", "street": "411 1ST AVE N", "postcode": "33701"}}},
{"geometry": {"type": "Point", "coordinates": [-82.6406058513, 27.7721167102]}, "type": "Feature", "properties": {"collection_times": [{"days": "Mon-Fri", "time": "4:40pm"}, {"days": "Sat", "time": "1:50pm"}, {"days": "Sun", "time": "Closed"}], "id": "3370100005", "name": "USPS COLLECTION BOX - BLUE BOX", "address": {"city": "ST PETERSBURG", "state": "FL", "street": "527 1ST AVE N", "postcode": "33701"}}},
{"geometry": {"type": "Point", "coordinates": [-82.6422191634, 27.7720522585]}, "type": "Feature", "properties": {"collection_times": [{"days": "Mon-Fri", "time": "4:45pm"}, {"days": "Sat-Sun", "time": "Closed"}], "id": "3370100008", "name": "USPS COLLECTION BOX - BLUE BOX", "address": {"city": "ST PETERSBURG", "state": "FL", "street": "600 1ST AVE N", "postcode": "33701"}}},
{"geometry": {"type": "Point", "coordinates": [-82.6340815886, 27.7796054514]}, "type": "Feature", "properties": {"collection_times": [{"days": "Mon-Fri", "time": "4:30pm"}, {"days": "Sat-Sun", "time": "Closed"}], "id": "3370100010", "name": "USPS COLLECTION BOX - BLUE BOX", "address": {"city": "ST PETERSBURG", "state": "FL", "street": "701 1ST AVE N", "postcode": "33701"}}},
{"geometry": {"type": "Point", "coordinates": [-82.6388366793, 27.7843511054]}, "type": "Feature", "properties": {"collection_times": [{"days": "Mon-Fri", "time": "2:00pm"}, {"days": "Sat-Sun", "time": "Closed"}], "id": "3370100021", "name": "USPS COLLECTION BOX - BLUE BOX", "address": {"city": "ST PETERSBURG", "state": "FL", "street": "412 12TH AVE N", "postcode": "33701"}}},
{"geometry": {"type": "Point", "coordinates": [-82.6330399641, 27.777540754]}, "type": "Feature", "properties": {"collection_times": [{"days": "Mon-Fri", "time": "1:00pm"}, {"days": "Sat-Sun", "time": "Closed"}], "id": "3370100022", "name": "USPS COLLECTION BOX - BLUE BOX", "address": {"city": "ST PETERSBURG", "state": "FL", "street": "166 5TH AVE NE", "postcode": "33701"}}},
{"geometry": {"type": "Point", "coordinates": [-82.641680917, 27.7653153071]}, "type": "Feature", "properties": {"collection_times": [{"days": "Mon-Fri", "time": "3:00pm"}, {"days": "Sat-Sun", "time": "Closed"}], "id": "3370100024", "name": "USPS COLLECTION BOX - BLUE BOX", "address": {"city": "ST PETERSBURG", "state": "FL", "street": "501 6TH ST N", "postcode": "33701"}}},
{"geometry": {"type": "Point", "coordinates": [-82.6304499046, 27.785671665]}, "type": "Feature", "properties": {"collection_times": [{"days": "Mon-Fri", "time": "1:00pm"}, {"days": "Sat-Sun", "time": "Closed"}], "id": "3370100031", "name": "USPS COLLECTION BOX - BLUE BOX", "address": {"city": "ST PETERSBURG", "state": "FL", "street": "356 14TH AVE NE", "postcode": "33701"}}},
{"geometry": {"type": "Point", "coordinates": [-82.63344, 27.77351]}, "type": "Feature", "properties": {"collection_times": [{"days": "Mon-Fri", "time": "4:55pm"}, {"days": "Sat", "time": "1:40pm"}, {"days": "Sun", "time": "Closed"}], "id": "3370100039", "name": "USPS COLLECTION BOX - BLUE BOX", "address": {"city": "ST PETERSBURG", "state": "FL", "street": "111 2ND AVE NE", "postcode": "33701"}}},
{"geometry": {"type": "Point", "coordinates": [-82.6363646994, 27.7706646476]}, "type": "Feature", "properties": {"collection_times": [{"days": "Mon-Fri", "time": "5:00pm"}, {"days": "Sat-Sun", "time": "Closed"}], "id": "3370100044", "name": "USPS COLLECTION BOX - BLUE BOX", "address": {"city": "ST PETERSBURG", "state": "FL", "street": "1 PROGRESS PLZ", "postcode": "33701"}}},
{"geometry": {"type": "Point", "coordinates": [-82.6363646994, 27.7706646476]}, "type": "Feature", "properties": {"collection_times": [{"days": "Mon-Fri", "time": "5:00pm"}, {"days": "Sat-Sun", "time": "Closed"}], "id": "3370100046", "name": "USPS COLLECTION BOX - BLUE BOX", "address": {"city": "ST PETERSBURG", "state": "FL", "street": "1 PROGRESS PLZ", "postcode": "33701"}}},
{"geometry": {"type": "Point", "coordinates": [-82.6401809251, 27.7698507718]}, "type": "Feature", "properties": {"collection_times": [{"days": "Mon-Fri", "time": "3:00pm"}, {"days": "Sat-Sun", "time": "Closed"}], "id": "3370100048", "name": "USPS COLLECTION BOX - BLUE BOX", "address": {"city": "ST PETERSBURG", "state": "FL", "street": "125 5TH ST S", "postcode": "33701"}}},
{"geometry": {"type": "Point", "coordinates": [-82.64165, 27.76284]}, "type": "Feature", "properties": {"collection_times": [{"days": "Mon-Fri", "time": "2:45pm"}, {"days": "Sat-Sun", "time": "Closed"}], "id": "3370100055", "name": "USPS COLLECTION BOX - BLUE BOX", "address": {"city": "ST PETERSBURG", "state": "FL", "street": "700 6TH ST S", "postcode": "33701"}}},
{"geometry": {"type": "Point", "coordinates": [-82.640817357, 27.7786472547]}, "type": "Feature", "properties": {"collection_times": [{"days": "Mon-Fri", "time": "3:00pm"}, {"days": "Sat-Sun", "time": "Closed"}], "id": "3370100070", "name": "USPS COLLECTION BOX - BLUE BOX", "address": {"city": "ST PETERSBURG", "state": "FL", "street": "501 6TH AVE S", "postcode": "33701"}}},
{"geometry": {"type": "Point", "coordinates": [-82.6370130911, 27.7707663752]}, "type": "Feature", "properties": {"collection_times": [{"days": "Mon-Fri", "time": "4:20pm"}, {"days": "Sat-Sun", "time": "Closed"}], "id": "3370100079", "name": "USPS COLLECTION BOX - BLUE BOX", "address": {"city": "ST PETERSBURG", "state": "FL", "street": "100 3RD ST S", "postcode": "33701"}}},
{"geometry": {"type": "Point", "coordinates": [-82.737362187, 27.6873311033]}, "type": "Feature", "properties": {"collection_times": [{"days": "Mon-Fri", "time": "3:00pm"}, {"days": "Sat-Sun", "time": "Closed"}], "id": "3370100083", "name": "USPS COLLECTION BOX - BLUE BOX", "address": {"city": "ST PETERSBURG", "state": "FL", "street": "111 7TH AVE S", "postcode": "33701"}}},
{"geometry": {"type": "Point", "coordinates": [-82.6406058513, 27.7721167102]}, "type": "Feature", "properties": {"collection_times": [{"days": "Mon-Fri", "time": "4:40pm"}, {"days": "Sat", "time": "1:50pm"}, {"days": "Sun", "time": "Closed"}], "id": "3370100090", "name": "USPS COLLECTION BOX - BLUE BOX", "address": {"city": "ST PETERSBURG", "state": "FL", "street": "527 1ST AVE N", "postcode": "33701"}}},
{"geometry": {"type": "Point", "coordinates": [-82.6398485136, 27.7746121817]}, "type": "Feature", "properties": {"collection_times": [{"days": "Mon-Fri", "time": "4:35pm"}, {"days": "Sat-Sun", "time": "Closed"}], "id": "3370100092", "name": "USPS COLLECTION BOX - BLUE BOX", "address": {"city": "ST PETERSBURG", "state": "FL", "street": "300 5TH ST N", "postcode": "33701"}}},
{"geometry": {"type": "Point", "coordinates": [-82.63798, 27.77639]}, "type": "Feature", "properties": {"collection_times": [{"days": "Mon-Fri", "time": "4:30pm"}, {"days": "Sat-Sun", "time": "Closed"}], "id": "3370100093", "name": "USPS COLLECTION BOX - BLUE BOX", "address": {"city": "ST PETERSBURG", "state": "FL", "street": "331 4TH AVE N", "postcode": "33701"}}},
{"geometry": {"type": "Point", "coordinates": [-82.6453670172, 27.7694154429]}, "type": "Feature", "properties": {"collection_times": [{"days": "Mon-Fri", "time": "2:00pm"}, {"days": "Sat-Sun", "time": "Closed"}], "id": "3370100098", "name": "USPS COLLECTION BOX - BLUE BOX", "address": {"city": "ST PETERSBURG", "state": "FL", "street": "800 2ND AVE S", "postcode": "33701"}}},
{"geometry": {"type": "Point", "coordinates": [-82.6401178035, 27.7707610288]}, "type": "Feature", "properties": {"collection_times": [{"days": "Mon-Fri", "time": "3:00pm"}, {"days": "Sat-Sun", "time": "Closed"}], "id": "3370100102", "name": "USPS COLLECTION BOX - BLUE BOX", "address": {"city": "ST PETERSBURG", "state": "FL", "street": "50 5TH ST S", "postcode": "33701"}}},
{"geometry": {"type": "Point", "coordinates": [-82.6466659061, 27.7739307973]}, "type": "Feature", "properties": {"collection_times": [{"days": "Mon-Fri", "time": "1:00pm"}, {"days": "Sat-Sun", "time": "Closed"}], "id": "3370100108", "name": "USPS COLLECTION BOX - BLUE BOX", "address": {"city": "ST PETERSBURG", "state": "FL", "street": "205 9TH ST N", "postcode": "33701"}}},
{"geometry": {"type": "Point", "coordinates": [-82.6439746745, 27.7711674051]}, "type": "Feature", "properties": {"collection_times": [{"days": "Mon-Fri", "time": "4:40pm"}, {"days": "Sat-Sun", "time": "Closed"}], "id": "3370100109", "name": "USPS COLLECTION BOX - BLUE BOX", "address": {"city": "ST PETERSBURG", "state": "FL", "street": "700 CENTRAL AVE", "postcode": "33701"}}},
{"geometry": {"type": "Point", "coordinates": [-82.6439746745, 27.7711674051]}, "type": "Feature", "properties": {"collection_times": [{"days": "Mon-Fri", "time": "4:40pm"}, {"days": "Sat-Sun", "time": "Closed"}], "id": "3370100112", "name": "USPS COLLECTION BOX - BLUE BOX", "address": {"city": "ST PETERSBURG", "state": "FL", "street": "700 CENTRAL AVE", "postcode": "33701"}}},
{"geometry": {"type": "Point", "coordinates": [-82.64070261, 27.7734966513]}, "type": "Feature", "properties": {"collection_times": [{"days": "Mon-Fri", "time": "4:50pm"}, {"days": "Sat", "time": "1:55pm"}, {"days": "Sun", "time": "Closed"}], "id": "3370100113", "name": "USPS COLLECTION BOX - BLUE BOX", "address": {"city": "ST PETERSBURG", "state": "FL", "street": "525 MIRROR LAKE DR N", "postcode": "33701"}}},
{"geometry": {"type": "Point", "coordinates": [-82.6374324939, 27.757929902]}, "type": "Feature", "properties": {"collection_times": [{"days": "Mon-Fri", "time": "4:40pm"}, {"days": "Sat-Sun", "time": "Closed"}], "id": "3370100114", "name": "USPS COLLECTION BOX - BLUE BOX", "address": {"city": "ST PETERSBURG", "state": "FL", "street": "263 13TH AVE S", "postcode": "33701"}}},
{"geometry": {"type": "Point", "coordinates": [-82.6386407125, 27.8444718233]}, "type": "Feature", "properties": {"collection_times": [{"days": "Mon-Fri", "time": "3:30pm"}, {"days": "Sat-Sun", "time": "Closed"}], "id": "3370200002", "name": "USPS COLLECTION BOX - BLUE BOX", "address": {"city": "ST PETERSBURG", "state": "FL", "street": "7901 4TH ST N", "postcode": "33702"}}},
{"geometry": {"type": "Point", "coordinates": [-82.6386785672, 27.8507320422]}, "type": "Feature", "properties": {"collection_times": [{"days": "Mon-Fri", "time": "3:30pm"}, {"days": "Sat-Sun", "time": "Closed"}], "id": "3370200003", "name": "USPS COLLECTION BOX - BLUE BOX", "address": {"city": "ST PETERSBURG", "state": "FL", "street": "8601 4TH ST N", "postcode": "33702"}}},
{"geometry": {"type": "Point", "coordinates": [-82.6421523302, 27.8430861063]}, "type": "Feature", "properties": {"collection_times": [{"days": "Mon-Fri", "time": "5:00pm"}, {"days": "Sat", "time": "1:20pm"}, {"days": "Sun", "time": "Closed"}], "id": "3370200010", "name": "USPS COLLECTION BOX - BLUE BOX", "address": {"city": "ST PETERSBURG", "state": "FL", "street": "701 77TH AVE N", "postcode": "33702"}}},
{"geometry": {"type": "Point", "coordinates": [-82.6421523302, 27.8430861063]}, "type": "Feature", "properties": {"collection_times": [{"days": "Mon-Fri", "time": "5:00pm"}, {"days": "Sat", "time": "1:20pm"}, {"days": "Sun", "time": "Closed"}], "id": "3370200012", "name": "USPS COLLECTION BOX - BLUE BOX", "address": {"city": "ST PETERSBURG", "state": "FL", "street": "701 77TH AVE N", "postcode": "33702"}}},
{"geometry": {"type": "Point", "coordinates": [-82.6387199707, 27.8610509932]}, "type": "Feature", "properties": {"collection_times": [{"days": "Mon-Fri", "time": "12:00pm"}, {"days": "Sat-Sun", "time": "Closed"}], "id": "3370200020", "name": "USPS COLLECTION BOX - BLUE BOX", "address": {"city": "ST PETERSBURG", "state": "FL", "street": "9887 4TH ST N", "postcode": "33702"}}},
{"geometry": {"type": "Point", "coordinates": [-82.6413627011, 27.8581882325]}, "type": "Feature", "properties": {"collection_times": [{"days": "Mon-Fri", "time": "3:00pm"}, {"days": "Sat-Sun", "time": "Closed"}], "id": "3370200023", "name": "USPS COLLECTION BOX - BLUE BOX", "address": {"city": "ST PETERSBURG", "state": "FL", "street": "9450 KOGER BLVD N", "postcode": "33702"}}},
{"geometry": {"type": "Point", "coordinates": [-82.6405086047, 27.8589323137]}, "type": "Feature", "properties": {"collection_times": [{"days": "Mon-Fri", "time": "12:30pm"}, {"days": "Sat-Sun", "time": "Closed"}], "id": "3370200027", "name": "USPS COLLECTION BOX - BLUE BOX", "address": {"city": "ST PETERSBURG", "state": "FL", "street": "9500 KOGER BLVD N", "postcode": "33702"}}},
{"geometry": {"type": "Point", "coordinates": [-82.6415874633, 27.8593428005]}, "type": "Feature", "properties": {"collection_times": [{"days": "Mon-Fri", "time": "3:00pm"}, {"days": "Sat-Sun", "time": "Closed"}], "id": "3370200037", "name": "USPS COLLECTION BOX - BLUE BOX", "address": {"city": "ST PETERSBURG", "state": "FL", "street": "9720 EXECUTIVE CENTER DR N", "postcode": "33702"}}},
{"geometry": {"type": "Point", "coordinates": [-82.6404861285, 27.858953607]}, "type": "Feature", "properties": {"collection_times": [{"days": "Mon-Fri", "time": "3:00pm"}, {"days": "Sat-Sun", "time": "Closed"}], "id": "3370200063", "name": "USPS COLLECTION BOX - BLUE BOX", "address": {"city": "ST PETERSBURG", "state": "FL", "street": "9549 KOGER BLVD N", "postcode": "33702"}}},
{"geometry": {"type": "Point", "coordinates": [-82.6428508635, 27.8575316903]}, "type": "Feature", "properties": {"collection_times": [{"days": "Mon-Fri", "time": "3:00pm"}, {"days": "Sat-Sun", "time": "Closed"}], "id": "3370200071", "name": "USPS COLLECTION BOX - BLUE BOX", "address": {"city": "ST PETERSBURG", "state": "FL", "street": "701 94TH AVE N", "postcode": "33702"}}},
{"geometry": {"type": "Point", "coordinates": [-82.6421523302, 27.8430861063]}, "type": "Feature", "properties": {"collection_times": [{"days": "Mon-Fri", "time": "5:00pm"}, {"days": "Sat", "time": "1:20pm"}, {"days": "Sun", "time": "Closed"}], "id": "3370200092", "name": "USPS COLLECTION BOX - APC", "address": {"city": "ST PETERSBURG", "state": "FL", "street": "701 77TH AVE N", "postcode": "33702"}}},
{"geometry": {"type": "Point", "coordinates": [-82.6361659623, 27.8202684829]}, "type": "Feature", "properties": {"collection_times": [{"days": "Mon-Sat", "time": "1:00pm"}, {"days": "Sun", "time": "Closed"}], "id": "3370300002", "name": "USPS COLLECTION BOX - BLUE BOX", "address": {"city": "ST PETERSBURG", "state": "FL", "street": "370 53RD AVE N", "postcode": "33703"}}},
{"geometry": {"type": "Point", "coordinates": [-82.6464233995, 27.7201996181]}, "type": "Feature", "properties": {"collection_times": [{"days": "Mon-Sat", "time": "1:00pm"}, {"days": "Sun", "time": "Closed"}], "id": "3370300010", "name": "USPS COLLECTION BOX - BLUE BOX", "address": {"city": "ST PETERSBURG", "state": "FL", "street": "5300 9TH ST N", "postcode": "33703"}}},
{"geometry": {"type": "Point", "coordinates": [-82.63851177, 27.8053312601]}, "type": "Feature", "properties": {"collection_times": [{"days": "Mon-Fri", "time": "3:00pm"}, {"days": "Sat", "time": "1:25pm"}, {"days": "Sun", "time": "Closed"}], "id": "3370400002", "name": "USPS COLLECTION BOX - BLUE BOX", "address": {"city": "ST PETERSBURG", "state": "FL", "street": "3637 4TH ST N", "postcode": "33704"}}},
{"geometry": {"type": "Point", "coordinates": [-82.6473993407, 27.8029819036]}, "type": "Feature", "properties": {"collection_times": [{"days": "Mon-Fri", "time": "5:00pm"}, {"days": "Sat", "time": "12:20pm"}, {"days": "Sun", "time": "Closed"}], "id": "3370400011", "name": "USPS COLLECTION BOX - BLUE BOX", "address": {"city": "ST PETERSBURG", "state": "FL", "street": "901 34TH AVE N", "postcode": "33704"}}},
{"geometry": {"type": "Point", "coordinates": [-82.60989, 27.80191]}, "type": "Feature", "properties": {"collection_times": [{"days": "Mon-Fri", "time": "2:00pm"}, {"days": "Sat", "time": "1:30pm"}, {"days": "Sun", "time": "Closed"}], "id": "3370400019", "name": "USPS COLLECTION BOX - BLUE BOX", "address": {"city": "ST PETERSBURG", "state": "FL", "street": "1365 SNELL ISLE BLVD NE", "postcode": "33704"}}},
{"geometry": {"type": "Point", "coordinates": [-82.6467250541, 27.7963999199]}, "type": "Feature", "properties": {"collection_times": [{"days": "Mon-Fri", "time": "3:00pm"}, {"days": "Sat", "time": "1:45pm"}, {"days": "Sun", "time": "Closed"}], "id": "3370400024", "name": "USPS COLLECTION BOX - BLUE BOX", "address": {"city": "ST PETERSBURG", "state": "FL", "street": "2600 9TH ST N", "postcode": "33704"}}},
{"geometry": {"type": "Point", "coordinates": [-82.6378019946, 27.8067366153]}, "type": "Feature", "properties": {"collection_times": [{"days": "Mon-Fri", "time": "3:00pm"}, {"days": "Sat", "time": "1:20pm"}, {"days": "Sun", "time": "Closed"}], "id": "3370400033", "name": "USPS COLLECTION BOX - BLUE BOX", "address": {"city": "ST PETERSBURG", "state": "FL", "street": "300 38TH AVE N", "postcode": "33704"}}},
{"geometry": {"type": "Point", "coordinates": [-82.6378019946, 27.8067366153]}, "type": "Feature", "properties": {"collection_times": [{"days": "Mon-Fri", "time": "3:00pm"}, {"days": "Sat", "time": "1:20pm"}, {"days": "Sun", "time": "Closed"}], "id": "3370400034", "name": "USPS COLLECTION BOX - BLUE BOX", "address": {"city": "ST PETERSBURG", "state": "FL", "street": "300 38TH AVE N", "postcode": "33704"}}},
{"geometry": {"type": "Point", "coordinates": [-82.6547100271, 27.752981777]}, "type": "Feature", "properties": {"collection_times": [{"days": "Mon-Fri", "time": "5:00pm"}, {"days": "Sat", "time": "1:40pm"}, {"days": "Sun", "time": "Closed"}], "id": "3370500014", "name": "USPS COLLECTION BOX - BLUE BOX", "address": {"city": "ST PETERSBURG", "state": "FL", "street": "1750 16TH ST S", "postcode": "33705"}}},
{"geometry": {"type": "Point", "coordinates": [-82.6321876713, 27.7312318934]}, "type": "Feature", "properties": {"collection_times": [{"days": "Mon-Fri", "time": "2:00pm"}, {"days": "Sat-Sun", "time": "Closed"}], "id": "3370500024", "name": "USPS COLLECTION BOX - BLUE BOX", "address": {"city": "ST PETERSBURG", "state": "FL", "street": "4200 BLUEFISH DR SE", "postcode": "33705"}}},
{"geometry": {"type": "Point", "coordinates": [-82.6495192031, 27.7725195272]}, "type": "Feature", "properties": {"collection_times": [{"days": "Mon-Fri", "time": "2:00pm"}, {"days": "Sat-Sun", "time": "Closed"}], "id": "3370500032", "name": "USPS COLLECTION BOX - BLUE BOX", "address": {"city": "ST PETERSBURG", "state": "FL", "street": "1035 ARLINGTON AVE N", "postcode": "33705"}}},
{"geometry": {"type": "Point", "coordinates": [-82.6474855543, 27.7121945214]}, "type": "Feature", "properties": {"collection_times": [{"days": "Mon-Fri", "time": "2:00pm"}, {"days": "Sat", "time": "1:30pm"}, {"days": "Sun", "time": "Closed"}], "id": "3370500036", "name": "USPS COLLECTION BOX - BLUE BOX", "address": {"city": "ST PETERSBURG", "state": "FL", "street": "977 62ND AVE S", "postcode": "33705"}}},
{"geometry": {"type": "Point", "coordinates": [-82.6490602151, 27.7775400051]}, "type": "Feature", "properties": {"collection_times": [{"days": "Mon-Fri", "time": "4:00pm"}, {"days": "Sat-Sun", "time": "Closed"}], "id": "3370500039", "name": "USPS COLLECTION BOX - BLUE BOX", "address": {"city": "ST PETERSBURG", "state": "FL", "street": "560 JACKSON ST N", "postcode": "33705"}}},
{"geometry": {"type": "Point", "coordinates": [-82.7375378609, 27.6880728861]}, "type": "Feature", "properties": {"collection_times": [{"days": "Mon-Sat", "time": "1:30pm"}, {"days": "Sun", "time": "Closed"}], "id": "3370600002", "name": "USPS COLLECTION BOX - BLUE BOX", "address": {"city": "ST PETE BEACH", "state": "FL", "street": "130 8TH AVE", "postcode": "33706"}}},
{"geometry": {"type": "Point", "coordinates": [-82.7686739278, 27.7704564468]}, "type": "Feature", "properties": {"collection_times": [{"days": "Mon-Fri", "time": "3:00pm"}, {"days": "Sat", "time": "1:10pm"}, {"days": "Sun", "time": "Closed"}], "id": "3370600005", "name": "USPS COLLECTION BOX - BLUE BOX", "address": {"city": "ST PETE BEACH", "state": "FL", "street": "120 108TH AVE", "postcode": "33706"}}},
{"geometry": {"type": "Point", "coordinates": [-82.7484441466, 27.7429136132]}, "type": "Feature", "properties": {"collection_times": [{"days": "Mon-Fri", "time": "5:00pm"}, {"days": "Sat", "time": "1:45pm"}, {"days": "Sun", "time": "Closed"}], "id": "3370600010", "name": "USPS COLLECTION BOX - BLUE BOX", "address": {"city": "ST PETE BEACH", "state": "FL", "street": "250 COREY AVE", "postcode": "33706"}}},
{"geometry": {"type": "Point", "coordinates": [-82.7484441466, 27.7429136132]}, "type": "Feature", "properties": {"collection_times": [{"days": "Mon-Fri", "time": "5:00pm"}, {"days": "Sat", "time": "4:45pm"}, {"days": "Sun", "time": "Closed"}], "id": "3370600013", "name": "USPS COLLECTION BOX - BLUE BOX", "address": {"city": "ST PETE BEACH", "state": "FL", "street": "250 COREY AVE", "postcode": "33706"}}},
{"geometry": {"type": "Point", "coordinates": [-82.7399671032, 27.7213453103]}, "type": "Feature", "properties": {"collection_times": [{"days": "Mon-Fri", "time": "3:00pm"}, {"days": "Sat", "time": "1:20pm"}, {"days": "Sun", "time": "Closed"}], "id": "3370600015", "name": "USPS COLLECTION BOX - BLUE BOX", "address": {"city": "ST PETE BEACH", "state": "FL", "street": "4685 GULF BLVD", "postcode": "33706"}}},
{"geometry": {"type": "Point", "coordinates": [-82.7682541609, 27.7696326163]}, "type": "Feature", "properties": {"collection_times": [{"days": "Mon-Fri", "time": "5:00pm"}, {"days": "Sat", "time": "12:30pm"}, {"days": "Sun", "time": "Closed"}], "id": "3370600040", "name": "USPS COLLECTION BOX - BLUE BOX", "address": {"city": "ST PETE BEACH", "state": "FL", "street": "138 107TH AVE", "postcode": "33706"}}},
{"geometry": {"type": "Point", "coordinates": [-82.7051431166, 27.746321718]}, "type": "Feature", "properties": {"collection_times": [{"days": "Mon-Sat", "time": "12:00pm"}, {"days": "Sun", "time": "Closed"}], "id": "3370700008", "name": "USPS COLLECTION BOX - BLUE BOX", "address": {"city": "SOUTH PASADENA", "state": "FL", "street": "2401 53RD ST S", "postcode": "33707"}}},
{"geometry": {"type": "Point", "coordinates": [-82.7150137262, 27.7708503721]}, "type": "Feature", "properties": {"collection_times": [{"days": "Mon-Fri", "time": "12:00pm"}, {"days": "Sat-Sun", "time": "Closed"}], "id": "3370700016", "name": "USPS COLLECTION BOX - BLUE BOX", "address": {"city": "SOUTH PASADENA", "state": "FL", "street": "5960 CENTRAL AVE", "postcode": "33707"}}},
{"geometry": {"type": "Point", "coordinates": [-82.7363850629, 27.7586221253]}, "type": "Feature", "properties": {"collection_times": [{"days": "Mon-Fri", "time": "10:00am"}, {"days": "Sat-Sun", "time": "Closed"}], "id": "3370700021", "name": "USPS COLLECTION BOX - BLUE BOX", "address": {"city": "SOUTH PASADENA", "state": "FL", "street": "1135 PASADENA AVE S", "postcode": "33707"}}},
{"geometry": {"type": "Point", "coordinates": [-82.7306240527, 27.7699856291]}, "type": "Feature", "properties": {"collection_times": [{"days": "Mon-Sat", "time": "12:00pm"}, {"days": "Sun", "time": "Closed"}], "id": "3370700028", "name": "USPS COLLECTION BOX - BLUE BOX", "address": {"city": "SOUTH PASADENA", "state": "FL", "street": "6727 1ST AVE S", "postcode": "33707"}}},
{"geometry": {"type": "Point", "coordinates": [-82.7078272505, 27.7383048051]}, "type": "Feature", "properties": {"collection_times": [{"days": "Mon-Sat", "time": "12:00pm"}, {"days": "Sun", "time": "Closed"}], "id": "3370700039", "name": "USPS COLLECTION BOX - BLUE BOX", "address": {"city": "SOUTH PASADENA", "state": "FL", "street": "3115 BEACH BLVD S", "postcode": "33707"}}},
{"geometry": {"type": "Point", "coordinates": [-82.7343593126, 27.7585521922]}, "type": "Feature", "properties": {"collection_times": [{"days": "Mon-Sat", "time": "12:00pm"}, {"days": "Sun", "time": "Closed"}], "id": "3370700040", "name": "USPS COLLECTION BOX - BLUE BOX", "address": {"city": "SOUTH PASADENA", "state": "FL", "street": "6850 GULFPORT BLVD S", "postcode": "33707"}}},
{"geometry": {"type": "Point", "coordinates": [-82.7396703356, 27.7519778177]}, "type": "Feature", "properties": {"collection_times": [{"days": "Mon-Fri", "time": "11:00am"}, {"days": "Sat-Sun", "time": "Closed"}], "id": "3370700041", "name": "USPS COLLECTION BOX - BLUE BOX", "address": {"city": "SOUTH PASADENA", "state": "FL", "street": "1609 PASADENA AVE S", "postcode": "33707"}}},
{"geometry": {"type": "Point", "coordinates": [-82.795489273, 27.8187214262]}, "type": "Feature", "properties": {"collection_times": [{"days": "Mon-Fri", "time": "3:00pm"}, {"days": "Sat", "time": "12:55pm"}, {"days": "Sun", "time": "Closed"}], "id": "3370800005", "name": "USPS COLLECTION BOX - BLUE BOX", "address": {"city": "REDINGTN SHOR", "state": "FL", "street": "5150 DUHME RD", "postcode": "33708"}}},
{"geometry": {"type": "Point", "coordinates": [-82.7820957803, 27.7856905924]}, "type": "Feature", "properties": {"collection_times": [{"days": "Mon-Fri", "time": "3:00pm"}, {"days": "Sat", "time": "1:05pm"}, {"days": "Sun", "time": "Closed"}], "id": "3370800006", "name": "USPS COLLECTION BOX - BLUE BOX", "address": {"city": "REDINGTN SHOR", "state": "FL", "street": "12850 VILLAGE BLVD", "postcode": "33708"}}},
{"geometry": {"type": "Point", "coordinates": [-82.8273510584, 27.8227787218]}, "type": "Feature", "properties": {"collection_times": [{"days": "Mon-Fri", "time": "3:00pm"}, {"days": "Sat-Sun", "time": "Closed"}], "id": "3370800013", "name": "USPS COLLECTION BOX - BLUE BOX", "address": {"city": "REDINGTN SHOR", "state": "FL", "street": "17425 GULF BLVD", "postcode": "33708"}}},
{"geometry": {"type": "Point", "coordinates": [-82.8008563265, 27.80216093]}, "type": "Feature", "properties": {"collection_times": [{"days": "Mon-Fri", "time": "5:00pm"}, {"days": "Sat", "time": "12:30pm"}, {"days": "Sun", "time": "Closed"}], "id": "3370800015", "name": "USPS COLLECTION BOX - BLUE BOX", "address": {"city": "REDINGTN SHOR", "state": "FL", "street": "15019 MADEIRA WAY", "postcode": "33708"}}},
{"geometry": {"type": "Point", "coordinates": [-82.7929262747, 27.8089343689]}, "type": "Feature", "properties": {"collection_times": [{"days": "Mon-Fri", "time": "3:00pm"}, {"days": "Sat-Sun", "time": "Closed"}], "id": "3370800021", "name": "USPS COLLECTION BOX - BLUE BOX", "address": {"city": "REDINGTN SHOR", "state": "FL", "street": "662 WELCH CSWY", "postcode": "33708"}}},
{"geometry": {"type": "Point", "coordinates": [-82.8230469469, 27.8181209426]}, "type": "Feature", "properties": {"collection_times": [{"days": "Mon-Fri", "time": "4:30pm"}, {"days": "Sat", "time": "12:45pm"}, {"days": "Sun", "time": "Closed"}], "id": "3370800027", "name": "USPS COLLECTION BOX - BLUE BOX", "address": {"city": "REDINGTN SHOR", "state": "FL", "street": "16919 GULF BLVD", "postcode": "33708"}}},
{"geometry": {"type": "Point", "coordinates": [-82.77067, 27.81398]}, "type": "Feature", "properties": {"collection_times": [{"days": "Mon-Fri", "time": "3:00pm"}, {"days": "Sat-Sun", "time": "Closed"}], "id": "3370800032", "name": "USPS COLLECTION BOX - BLUE BOX", "address": {"city": "REDINGTN SHOR", "state": "FL", "street": "9501 BAY PINES BLVD", "postcode": "33708"}}},
{"geometry": {"type": "Point", "coordinates": [-82.7000627673, 27.825276854]}, "type": "Feature", "properties": {"collection_times": [{"days": "Mon-Fri", "time": "10:00am"}, {"days": "Sat-Sun", "time": "Closed"}], "id": "3370900007", "name": "USPS COLLECTION BOX - BLUE BOX", "address": {"city": "KENNETH CITY", "state": "FL", "street": "5880 49TH ST N", "postcode": "33709"}}},
{"geometry": {"type": "Point", "coordinates": [-82.7123468128, 27.8223995845]}, "type": "Feature", "properties": {"collection_times": [{"days": "Mon-Fri", "time": "4:30pm"}, {"days": "Sat", "time": "3:00pm"}, {"days": "Sun", "time": "Closed"}], "id": "3370900011", "name": "USPS COLLECTION BOX - BLUE BOX", "address": {"city": "KENNETH CITY", "state": "FL", "street": "5480 58TH ST N", "postcode": "33709"}}},
{"geometry": {"type": "Point", "coordinates": [-82.7283907691, 27.8181932915]}, "type": "Feature", "properties": {"collection_times": [{"days": "Mon-Fri", "time": "3:00pm"}, {"days": "Sat-Sun", "time": "Closed"}], "id": "3370900015", "name": "USPS COLLECTION BOX - BLUE BOX", "address": {"city": "KENNETH CITY", "state": "FL", "street": "5051 66TH ST N", "postcode": "33709"}}},
{"geometry": {"type": "Point", "coordinates": [-82.753708314, 27.8094313958]}, "type": "Feature", "properties": {"collection_times": [{"days": "Mon-Sat", "time": "3:00pm"}, {"days": "Sun", "time": "Closed"}], "id": "3370900021", "name": "USPS COLLECTION BOX - BLUE BOX", "address": {"city": "KENNETH CITY", "state": "FL", "street": "3993 TYRONE BLVD N", "postcode": "33709"}}},
{"geometry": {"type": "Point", "coordinates": [-82.712219636, 27.8083243555]}, "type": "Feature", "properties": {"collection_times": [{"days": "Mon-Sat", "time": "3:00pm"}, {"days": "Sun", "time": "Closed"}], "id": "3370900025", "name": "USPS COLLECTION BOX - BLUE BOX", "address": {"city": "KENNETH CITY", "state": "FL", "street": "3999 58TH ST N", "postcode": "33709"}}},
{"geometry": {"type": "Point", "coordinates": [-82.72962, 27.817251]}, "type": "Feature", "properties": {"collection_times": [{"days": "Mon-Sat", "time": "10:30am"}, {"days": "Sun", "time": "Closed"}], "id": "3370900034", "name": "USPS COLLECTION BOX - BLUE BOX", "address": {"city": "KENNETH CITY", "state": "FL", "street": "6449 38TH AVE N", "postcode": "33709"}}},
{"geometry": {"type": "Point", "coordinates": [-82.7537814969, 27.816049917]}, "type": "Feature", "properties": {"collection_times": [{"days": "Mon-Sat", "time": "12:00pm"}, {"days": "Sun", "time": "Closed"}], "id": "3370900036", "name": "USPS COLLECTION BOX - BLUE BOX", "address": {"city": "KENNETH CITY", "state": "FL", "street": "4859 PARK ST N", "postcode": "33709"}}},
{"geometry": {"type": "Point", "coordinates": [-82.7538060587, 27.8233365337]}, "type": "Feature", "properties": {"collection_times": [{"days": "Mon-Sat", "time": "3:00pm"}, {"days": "Sun", "time": "Closed"}], "id": "3370900037", "name": "USPS COLLECTION BOX - BLUE BOX", "address": {"city": "KENNETH CITY", "state": "FL", "street": "5669 PARK ST N", "postcode": "33709"}}},
{"geometry": {"type": "Point", "coordinates": [-82.7372969603, 27.7917316313]}, "type": "Feature", "properties": {"collection_times": [{"days": "Mon-Sat", "time": "3:00pm"}, {"days": "Sun", "time": "Closed"}], "id": "3371000015", "name": "USPS COLLECTION BOX - BLUE BOX", "address": {"city": "ST PETERSBURG", "state": "FL", "street": "7044 22ND AVE N", "postcode": "33710"}}},
{"geometry": {"type": "Point", "coordinates": [-82.7270337723, 27.8063048353]}, "type": "Feature", "properties": {"collection_times": [{"days": "Mon-Sat", "time": "3:00pm"}, {"days": "Sun", "time": "Closed"}], "id": "3371000026", "name": "USPS COLLECTION BOX - BLUE BOX", "address": {"city": "ST PETERSBURG", "state": "FL", "street": "6500 38TH AVE N", "postcode": "33710"}}},
{"geometry": {"type": "Point", "coordinates": [-82.7123655433, 27.780920446]}, "type": "Feature", "properties": {"collection_times": [{"days": "Mon-Sat", "time": "3:00pm"}, {"days": "Sun", "time": "Closed"}], "id": "3371000031", "name": "USPS COLLECTION BOX - BLUE BOX", "address": {"city": "ST PETERSBURG", "state": "FL", "street": "904 58TH ST N", "postcode": "33710"}}},
{"geometry": {"type": "Point", "coordinates": [-82.7123655433, 27.780920446]}, "type": "Feature", "properties": {"collection_times": [{"days": "Mon-Sat", "time": "3:00pm"}, {"days": "Sun", "time": "Closed"}], "id": "3371000032", "name": "USPS COLLECTION BOX - BLUE BOX", "address": {"city": "ST PETERSBURG", "state": "FL", "street": "904 58TH ST N", "postcode": "33710"}}},
{"geometry": {"type": "Point", "coordinates": [-82.7283480397, 27.7840036929]}, "type": "Feature", "properties": {"collection_times": [{"days": "Mon-Fri", "time": "5:00pm"}, {"days": "Sat", "time": "1:00pm"}, {"days": "Sun", "time": "Closed"}], "id": "3371000033", "name": "USPS COLLECTION BOX - BLUE BOX", "address": {"city": "ST PETERSBURG", "state": "FL", "street": "1275 66TH ST N", "postcode": "33710"}}},
{"geometry": {"type": "Point", "coordinates": [-82.7283480397, 27.7840036929]}, "type": "Feature", "properties": {"collection_times": [{"days": "Mon-Fri", "time": "5:00pm"}, {"days": "Sat", "time": "1:00pm"}, {"days": "Sun", "time": "Closed"}], "id": "3371000036", "name": "USPS COLLECTION BOX - BLUE BOX", "address": {"city": "ST PETERSBURG", "state": "FL", "street": "1275 66TH ST N", "postcode": "33710"}}},
{"geometry": {"type": "Point", "coordinates": [-82.7158311509, 27.7709367281]}, "type": "Feature", "properties": {"collection_times": [{"days": "Mon-Fri", "time": "3:00pm"}, {"days": "Sat-Sun", "time": "Closed"}], "id": "3371000043", "name": "USPS COLLECTION BOX - BLUE BOX", "address": {"city": "ST PETERSBURG", "state": "FL", "street": "5999 CENTRAL AVE", "postcode": "33710"}}},
{"geometry": {"type": "Point", "coordinates": [-82.718969541, 27.7709260815]}, "type": "Feature", "properties": {"collection_times": [{"days": "Mon-Fri", "time": "3:00pm"}, {"days": "Sat-Sun", "time": "Closed"}], "id": "3371000045", "name": "USPS COLLECTION BOX - BLUE BOX", "address": {"city": "ST PETERSBURG", "state": "FL", "street": "6133 CENTRAL AVE", "postcode": "33710"}}},
{"geometry": {"type": "Point", "coordinates": [-82.7284675185, 27.8007886976]}, "type": "Feature", "properties": {"collection_times": [{"days": "Mon-Sat", "time": "3:00pm"}, {"days": "Sun", "time": "Closed"}], "id": "3371000052", "name": "USPS COLLECTION BOX - BLUE BOX", "address": {"city": "ST PETERSBURG", "state": "FL", "street": "3131 66TH ST N", "postcode": "33710"}}},
{"geometry": {"type": "Point", "coordinates": [-82.7538999533, 27.8088363675]}, "type": "Feature", "properties": {"collection_times": [{"days": "Mon-Fri", "time": "3:00pm"}, {"days": "Sat-Sun", "time": "Closed"}], "id": "3371000054", "name": "USPS COLLECTION BOX - BLUE BOX", "address": {"city": "ST PETERSBURG", "state": "FL", "street": "4020 PARK ST N", "postcode": "33710"}}},
{"geometry": {"type": "Point", "coordinates": [-82.730012463, 27.7844733276]}, "type": "Feature", "properties": {"collection_times": [{"days": "Mon-Fri", "time": "3:00pm"}, {"days": "Sat-Sun", "time": "Closed"}], "id": "3371000059", "name": "USPS COLLECTION BOX - BLUE BOX", "address": {"city": "ST PETERSBURG", "state": "FL", "street": "6671 13TH AVE N", "postcode": "33710"}}},
{"geometry": {"type": "Point", "coordinates": [-82.7420171305, 27.7993123648]}, "type": "Feature", "properties": {"collection_times": [{"days": "Mon-Fri", "time": "3:00pm"}, {"days": "Sat-Sun", "time": "Closed"}], "id": "3371000063", "name": "USPS COLLECTION BOX - BLUE BOX", "address": {"city": "ST PETERSBURG", "state": "FL", "street": "3100 75TH ST N", "postcode": "33710"}}},
{"geometry": {"type": "Point", "coordinates": [-82.7327569278, 27.7903833906]}, "type": "Feature", "properties": {"collection_times": [{"days": "Mon-Fri", "time": "3:00pm"}, {"days": "Sat-Sun", "time": "Closed"}], "id": "3371000079", "name": "USPS COLLECTION BOX - BLUE BOX", "address": {"city": "ST PETERSBURG", "state": "FL", "street": "6775 CROSSWINDS DR N", "postcode": "33710"}}},
{"geometry": {"type": "Point", "coordinates": [-82.7257053094, 27.8063261285]}, "type": "Feature", "properties": {"collection_times": [{"days": "Mon-Sat", "time": "3:00pm"}, {"days": "Sun", "time": "Closed"}], "id": "3371000080", "name": "USPS COLLECTION BOX - BLUE BOX", "address": {"city": "ST PETERSBURG", "state": "FL", "street": "6450 38TH AVE N", "postcode": "33710"}}},
{"geometry": {"type": "Point", "coordinates": [-82.7283480397, 27.7840036929]}, "type": "Feature", "properties": {"collection_times": [{"days": "Mon-Fri", "time": "5:00pm"}, {"days": "Sat", "time": "3:15pm"}, {"days": "Sun", "time": "Closed"}], "id": "3371000086", "name": "USPS COLLECTION BOX - APC", "address": {"city": "ST PETERSBURG", "state": "FL", "street": "1275 66TH ST N", "postcode": "33710"}}},
{"geometry": {"type": "Point", "coordinates": [-82.6939144701, 27.821071712]}, "type": "Feature", "properties": {"collection_times": [{"days": "Mon-Sat", "time": "3:00pm"}, {"days": "Sun", "time": "Closed"}], "id": "3371100014", "name": "USPS COLLECTION BOX - BLUE BOX", "address": {"city": "ST PETERSBURG", "state": "FL", "street": "4500 54TH AVE S", "postcode": "33711"}}},
{"geometry": {"type": "Point", "coordinates": [-82.6910150377, 27.7483244675]}, "type": "Feature", "properties": {"collection_times": [{"days": "Mon-Fri", "time": "5:00pm"}, {"days": "Sat", "time": "1:30pm"}, {"days": "Sun", "time": "Closed"}], "id": "3371100023", "name": "USPS COLLECTION BOX - BLUE BOX", "address": {"city": "ST PETERSBURG", "state": "FL", "street": "4222 22ND AVE S", "postcode": "33711"}}},
{"geometry": {"type": "Point", "coordinates": [-82.6801684147, 27.8174034491]}, "type": "Feature", "properties": {"collection_times": [{"days": "Mon-Sat", "time": "12:00pm"}, {"days": "Sun", "time": "Closed"}], "id": "3371100030", "name": "USPS COLLECTION BOX - BLUE BOX", "address": {"city": "ST PETERSBURG", "state": "FL", "street": "3440 50TH AVE S", "postcode": "33711"}}},
{"geometry": {"type": "Point", "coordinates": [-82.6956262118, 27.8063923742]}, "type": "Feature", "properties": {"collection_times": [{"days": "Mon-Fri", "time": "4:00pm"}, {"days": "Sat", "time": "12:20pm"}, {"days": "Sun", "time": "Closed"}], "id": "3371300014", "name": "USPS COLLECTION BOX - BLUE BOX", "address": {"city": "ST PETERSBURG", "state": "FL", "street": "4584 38TH AVE N", "postcode": "33713"}}},
{"geometry": {"type": "Point", "coordinates": [-82.6760955592, 27.7718830953]}, "type": "Feature", "properties": {"collection_times": [{"days": "Mon-Sat", "time": "5:00pm"}, {"days": "Sun", "time": "Closed"}], "id": "3371300027", "name": "USPS COLLECTION BOX - BLUE BOX", "address": {"city": "ST PETERSBURG", "state": "FL", "street": "3135 1ST AVE N", "postcode": "33713"}}},
{"geometry": {"type": "Point", "coordinates": [-82.6760955592, 27.7718830953]}, "type": "Feature", "properties": {"collection_times": [{"days": "Mon-Sat", "time": "5:00pm"}, {"days": "Sun", "time": "Closed"}], "id": "3371300028", "name": "USPS COLLECTION BOX - BLUE BOX", "address": {"city": "ST PETERSBURG", "state": "FL", "street": "3135 1ST AVE N", "postcode": "33713"}}},
{"geometry": {"type": "Point", "coordinates": [-82.6893652002, 27.7771765967]}, "type": "Feature", "properties": {"collection_times": [{"days": "Mon-Fri", "time": "3:45pm"}, {"days": "Sat-Sun", "time": "Closed"}], "id": "3371300036", "name": "USPS COLLECTION BOX - BLUE BOX", "address": {"city": "ST PETERSBURG", "state": "FL", "street": "4130 5TH AVE N", "postcode": "33713"}}},
{"geometry": {"type": "Point", "coordinates": [-82.6769389864, 27.7810231047]}, "type": "Feature", "properties": {"collection_times": [{"days": "Mon-Fri", "time": "4:00pm"}, {"days": "Sat-Sun", "time": "Closed"}], "id": "3371300038", "name": "USPS COLLECTION BOX - BLUE BOX", "address": {"city": "ST PETERSBURG", "state": "FL", "street": "3201 9TH AVE N", "postcode": "33713"}}},
{"geometry": {"type": "Point", "coordinates": [-82.6959550743, 27.7709544725]}, "type": "Feature", "properties": {"collection_times": [{"days": "Mon-Fri", "time": "4:00pm"}, {"days": "Sat-Sun", "time": "Closed"}], "id": "3371300055", "name": "USPS COLLECTION BOX - BLUE BOX", "address": {"city": "ST PETERSBURG", "state": "FL", "street": "4601 CENTRAL AVE", "postcode": "33713"}}},
{"geometry": {"type": "Point", "coordinates": [-82.6709390411, 27.7718961079]}, "type": "Feature", "properties": {"collection_times": [{"days": "Mon-Fri", "time": "4:00pm"}, {"days": "Sat", "time": "1:40pm"}, {"days": "Sun", "time": "Closed"}], "id": "3371300070", "name": "USPS COLLECTION BOX - BLUE BOX", "address": {"city": "ST PETERSBURG", "state": "FL", "street": "2763 1ST AVE N", "postcode": "33713"}}},
{"geometry": {"type": "Point", "coordinates": [-82.6999197858, 27.8058456965]}, "type": "Feature", "properties": {"collection_times": [{"days": "Mon-Sat", "time": "3:00pm"}, {"days": "Sun", "time": "Closed"}], "id": "3371300075", "name": "USPS COLLECTION BOX - BLUE BOX", "address": {"city": "ST PETERSBURG", "state": "FL", "street": "3725 49TH ST N", "postcode": "33713"}}},
{"geometry": {"type": "Point", "coordinates": [-82.6760955592, 27.7718830953]}, "type": "Feature", "properties": {"collection_times": [{"days": "Mon-Sat", "time": "5:00pm"}, {"days": "Sun", "time": "Closed"}], "id": "3371300077", "name": "USPS COLLECTION BOX - APC", "address": {"city": "ST PETERSBURG", "state": "FL", "street": "3135 1ST AVE N", "postcode": "33713"}}},
{"geometry": {"type": "Point", "coordinates": [-82.679634867, 27.7969624803]}, "type": "Feature", "properties": {"collection_times": [{"days": "Mon-Fri", "time": "4:00pm"}, {"days": "Sat", "time": "1:15pm"}, {"days": "Sun", "time": "Closed"}], "id": "3371300080", "name": "USPS COLLECTION BOX - BLUE BOX", "address": {"city": "ST PETERSBURG", "state": "FL", "street": "2850 34TH ST N", "postcode": "33713"}}},
{"geometry": {"type": "Point", "coordinates": [-82.6796574487, 27.8261513378]}, "type": "Feature", "properties": {"collection_times": [{"days": "Mon-Fri", "time": "4:00pm"}, {"days": "Sat-Sun", "time": "Closed"}], "id": "3371400016", "name": "USPS COLLECTION BOX - BLUE BOX", "address": {"city": "ST PETERSBURG", "state": "FL", "street": "5944 34TH ST N", "postcode": "33714"}}},
{"geometry": {"type": "Point", "coordinates": [-82.715163962, 27.7134106166]}, "type": "Feature", "properties": {"collection_times": [{"days": "Mon-Fri", "time": "2:00pm"}, {"days": "Sat", "time": "1:15pm"}, {"days": "Sun", "time": "Closed"}], "id": "3371500002", "name": "USPS COLLECTION BOX - BLUE BOX", "address": {"city": "ST PETERSBURG", "state": "FL", "street": "5901 SUN BLVD", "postcode": "33715"}}},
{"geometry": {"type": "Point", "coordinates": [-82.71896, 27.692005]}, "type": "Feature", "properties": {"collection_times": [{"days": "Mon-Fri", "time": "2:00pm"}, {"days": "Sat", "time": "1:00pm"}, {"days": "Sun", "time": "Closed"}], "id": "3371500004", "name": "USPS COLLECTION BOX - BLUE BOX", "address": {"city": "ST PETERSBURG", "state": "FL", "street": "104 PINELLAS BAY WAY", "postcode": "33715"}}},
{"geometry": {"type": "Point", "coordinates": [-82.72596, 27.67568]}, "type": "Feature", "properties": {"collection_times": [{"days": "Mon-Fri", "time": "2:00pm"}, {"days": "Sat", "time": "1:10pm"}, {"days": "Sun", "time": "Closed"}], "id": "3371500005", "name": "USPS COLLECTION BOX - BLUE BOX", "address": {"city": "ST PETERSBURG", "state": "FL", "street": "1110 PINELLAS BAY WAY", "postcode": "33715"}}},
{"geometry": {"type": "Point", "coordinates": [-82.715163962, 27.7134106166]}, "type": "Feature", "properties": {"collection_times": [{"days": "Mon-Fri", "time": "2:00pm"}, {"days": "Sat", "time": "1:15pm"}, {"days": "Sun", "time": "Closed"}], "id": "3371500008", "name": "USPS COLLECTION BOX - BLUE BOX", "address": {"city": "ST PETERSBURG", "state": "FL", "street": "5901 SUN BLVD", "postcode": "33715"}}},
{"geometry": {"type": "Point", "coordinates": [-82.670652765, 27.8844771296]}, "type": "Feature", "properties": {"collection_times": [{"days": "Mon-Fri", "time": "3:30pm"}, {"days": "Sat-Sun", "time": "Closed"}], "id": "3371600004", "name": "USPS COLLECTION BOX - BLUE BOX", "address": {"city": "ST PETERSBURG", "state": "FL", "street": "12425 28TH ST N", "postcode": "33716"}}},
{"geometry": {"type": "Point", "coordinates": [-82.6448078436, 27.8772972395]}, "type": "Feature", "properties": {"collection_times": [{"days": "Mon-Fri", "time": "3:30pm"}, {"days": "Sat-Sun", "time": "Closed"}], "id": "3371600008", "name": "USPS COLLECTION BOX - BLUE BOX", "address": {"city": "ST PETERSBURG", "state": "FL", "street": "776 116TH AVE N", "postcode": "33716"}}},
{"geometry": {"type": "Point", "coordinates": [-82.6714888408, 27.8792689613]}, "type": "Feature", "properties": {"collection_times": [{"days": "Mon-Fri", "time": "3:30pm"}, {"days": "Sat-Sun", "time": "Closed"}], "id": "3371600009", "name": "USPS COLLECTION BOX - BLUE BOX", "address": {"city": "ST PETERSBURG", "state": "FL", "street": "11801 28TH ST N", "postcode": "33716"}}},
{"geometry": {"type": "Point", "coordinates": [-82.6506205379, 27.8726972242]}, "type": "Feature", "properties": {"collection_times": [{"days": "Mon-Fri", "time": "3:30pm"}, {"days": "Sat-Sun", "time": "Closed"}], "id": "3371600013", "name": "USPS COLLECTION BOX - BLUE BOX", "address": {"city": "ST PETERSBURG", "state": "FL", "street": "11001 ROOSEVELT BLVD N", "postcode": "33716"}}},
{"geometry": {"type": "Point", "coordinates": [-82.6682832982, 27.879275659]}, "type": "Feature", "properties": {"collection_times": [{"days": "Mon-Fri", "time": "3:00pm"}, {"days": "Sat-Sun", "time": "Closed"}], "id": "3371600031", "name": "USPS COLLECTION BOX - BLUE BOX", "address": {"city": "ST PETERSBURG", "state": "FL", "street": "2505 118TH AVE N", "postcode": "33716"}}},
{"geometry": {"type": "Point", "coordinates": [-82.663852314, 27.8827352361]}, "type": "Feature", "properties": {"collection_times": [{"days": "Mon-Fri", "time": "4:00pm"}, {"days": "Sat-Sun", "time": "Closed"}], "id": "3371600035", "name": "USPS COLLECTION BOX - BLUE BOX", "address": {"city": "ST PETERSBURG", "state": "FL", "street": "11601 ROOSEVELT BLVD N", "postcode": "33716"}}},
{"geometry": {"type": "Point", "coordinates": [-82.6491746405, 27.8608280077]}, "type": "Feature", "properties": {"collection_times": [{"days": "Mon-Fri", "time": "5:00pm"}, {"days": "Sat", "time": "1:05pm"}, {"days": "Sun", "time": "Closed"}], "id": "3371600040", "name": "USPS COLLECTION BOX - BLUE BOX", "address": {"city": "ST PETERSBURG", "state": "FL", "street": "1201 GANDY BLVD N", "postcode": "33716"}}},
{"geometry": {"type": "Point", "coordinates": [-82.6444066887, 27.86778728]}, "type": "Feature", "properties": {"collection_times": [{"days": "Mon-Fri", "time": "3:30pm"}, {"days": "Sat", "time": "2:10pm"}, {"days": "Sun", "time": "Closed"}], "id": "3371600044", "name": "USPS COLLECTION BOX - BLUE BOX", "address": {"city": "ST PETERSBURG", "state": "FL", "street": "10496 ROOSEVELT BLVD N", "postcode": "33716"}}},
{"geometry": {"type": "Point", "coordinates": [-82.6621822726, 27.8858419811]}, "type": "Feature", "properties": {"collection_times": [{"days": "Mon-Fri", "time": "4:00pm"}, {"days": "Sat-Sun", "time": "Closed"}], "id": "3371600045", "name": "USPS COLLECTION BOX - BLUE BOX", "address": {"city": "ST PETERSBURG", "state": "FL", "street": "450 CARILLON PKWY", "postcode": "33716"}}},
{"geometry": {"type": "Point", "coordinates": [-82.7801284761, 27.8112691375]}, "type": "Feature", "properties": {"collection_times": [{"days": "Mon-Fri", "time": "4:00pm"}, {"days": "Sat-Sun", "time": "Closed"}], "id": "3374400000", "name": "USPS COLLECTION BOX - BLUE BOX", "address": {"city": "BAY PINES", "state": "FL", "street": "10000 BAY PINES BLVD", "postcode": "33744"}}},
{"geometry": {"type": "Point", "coordinates": [-82.7968087518, 27.9657110605]}, "type": "Feature", "properties": {"collection_times": [{"days": "Mon-Fri", "time": "5:00pm"}, {"days": "Sat", "time": "4:00pm"}, {"days": "Sun", "time": "Closed"}], "id": "3375500011", "name": "USPS COLLECTION BOX - BLUE BOX", "address": {"city": "CLEARWATER", "state": "FL", "street": "650 CLEVELAND ST", "postcode": "33755"}}},
{"geometry": {"type": "Point", "coordinates": [-82.7968087518, 27.9657110605]}, "type": "Feature", "properties": {"collection_times": [{"days": "Mon-Fri", "time": "5:00pm"}, {"days": "Sat", "time": "4:00pm"}, {"days": "Sun", "time": "Closed"}], "id": "3375500012", "name": "USPS COLLECTION BOX - BLUE BOX", "address": {"city": "CLEARWATER", "state": "FL", "street": "650 CLEVELAND ST", "postcode": "33755"}}},
{"geometry": {"type": "Point", "coordinates": [-82.7968087518, 27.9657110605]}, "type": "Feature", "properties": {"collection_times": [{"days": "Mon-Fri", "time": "5:00pm"}, {"days": "Sat", "time": "4:00pm"}, {"days": "Sun", "time": "Closed"}], "id": "3375500021", "name": "USPS COLLECTION BOX - BLUE BOX", "address": {"city": "CLEARWATER", "state": "FL", "street": "650 CLEVELAND ST", "postcode": "33755"}}},
{"geometry": {"type": "Point", "coordinates": [-82.8008326673, 27.9623489524]}, "type": "Feature", "properties": {"collection_times": [{"days": "Mon-Fri", "time": "2:30pm"}, {"days": "Sat-Sun", "time": "Closed"}], "id": "3375600001", "name": "USPS COLLECTION BOX - BLUE BOX", "address": {"city": "CLEARWATER", "state": "FL", "street": "315 COURT ST", "postcode": "33756"}}},
{"geometry": {"type": "Point", "coordinates": [-82.7977025579, 27.9572776073]}, "type": "Feature", "properties": {"collection_times": [{"days": "Mon-Fri", "time": "2:30pm"}, {"days": "Sat-Sun", "time": "Closed"}], "id": "3375600003", "name": "USPS COLLECTION BOX - BLUE BOX", "address": {"city": "CLEARWATER", "state": "FL", "street": "611 DRUID RD E", "postcode": "33756"}}},
{"geometry": {"type": "Point", "coordinates": [-82.7999123252, 27.9428632523]}, "type": "Feature", "properties": {"collection_times": [{"days": "Mon-Fri", "time": "3:00pm"}, {"days": "Sat", "time": "11:30am"}, {"days": "Sun", "time": "Closed"}], "id": "3375600007", "name": "USPS COLLECTION BOX - BLUE BOX", "address": {"city": "CLEARWATER", "state": "FL", "street": "1487 S FORT HARRISON AVE", "postcode": "33756"}}},
{"geometry": {"type": "Point", "coordinates": [-82.7752266302, 27.9518925297]}, "type": "Feature", "properties": {"collection_times": [{"days": "Mon-Fri", "time": "4:00pm"}, {"days": "Sat", "time": "12:00pm"}, {"days": "Sun", "time": "Closed"}], "id": "3375600011", "name": "USPS COLLECTION BOX - BLUE BOX", "address": {"city": "CLEARWATER", "state": "FL", "street": "1240 S HIGHLAND AVE", "postcode": "33756"}}},
{"geometry": {"type": "Point", "coordinates": [-82.80407, 27.93561]}, "type": "Feature", "properties": {"collection_times": [{"days": "Mon-Fri", "time": "2:30pm"}, {"days": "Sat-Sun", "time": "Closed"}], "id": "3375600021", "name": "USPS COLLECTION BOX - BLUE BOX", "address": {"city": "CLEARWATER", "state": "FL", "street": "1105 THE MALL", "postcode": "33756"}}},
{"geometry": {"type": "Point", "coordinates": [-82.7971590394, 27.9526610733]}, "type": "Feature", "properties": {"collection_times": [{"days": "Mon-Fri", "time": "2:30pm"}, {"days": "Sat-Sun", "time": "Closed"}], "id": "3375600030", "name": "USPS COLLECTION BOX - BLUE BOX", "address": {"city": "CLEARWATER", "state": "FL", "street": "711 GRAND CENTRAL ST", "postcode": "33756"}}},
{"geometry": {"type": "Point", "coordinates": [-82.7461480232, 27.9632941366]}, "type": "Feature", "properties": {"collection_times": [{"days": "Mon-Fri", "time": "5:00pm"}, {"days": "Sat", "time": "4:00pm"}, {"days": "Sun", "time": "Closed"}], "id": "3375800001", "name": "USPS COLLECTION BOX - BLUE BOX", "address": {"city": "CLEARWATER", "state": "FL", "street": "100 S BELCHER RD", "postcode": "33758"}}},
{"geometry": {"type": "Point", "coordinates": [-82.7461480232, 27.9632941366]}, "type": "Feature", "properties": {"collection_times": [{"days": "Mon-Fri", "time": "5:00pm"}, {"days": "Sat", "time": "4:00pm"}, {"days": "Sun", "time": "Closed"}], "id": "3375800002", "name": "USPS COLLECTION BOX - BLUE BOX", "address": {"city": "CLEARWATER", "state": "FL", "street": "100 S BELCHER RD", "postcode": "33758"}}},
{"geometry": {"type": "Point", "coordinates": [-82.7461480232, 27.9632941366]}, "type": "Feature", "properties": {"collection_times": [{"days": "Mon-Fri", "time": "5:00pm"}, {"days": "Sat", "time": "4:00pm"}, {"days": "Sun", "time": "Closed"}], "id": "3375800007", "name": "USPS COLLECTION BOX - APC", "address": {"city": "CLEARWATER", "state": "FL", "street": "100 S BELCHER RD", "postcode": "33758"}}},
{"geometry": {"type": "Point", "coordinates": [-82.7146824977, 27.9606892609]}, "type": "Feature", "properties": {"collection_times": [{"days": "Mon-Fri", "time": "2:30pm"}, {"days": "Sat-Sun", "time": "Closed"}], "id": "3375900010", "name": "USPS COLLECTION BOX - BLUE BOX", "address": {"city": "CLEARWATER", "state": "FL", "street": "2963 GULF TO BAY BLVD", "postcode": "33759"}}},
{"geometry": {"type": "Point", "coordinates": [-82.7262281772, 27.9987485997]}, "type": "Feature", "properties": {"collection_times": [{"days": "Mon-Fri", "time": "2:30pm"}, {"days": "Sat-Sun", "time": "Closed"}], "id": "3375900011", "name": "USPS COLLECTION BOX - BLUE BOX", "address": {"city": "CLEARWATER", "state": "FL", "street": "2635 MCCORMICK DR", "postcode": "33759"}}},
{"geometry": {"type": "Point", "coordinates": [-82.7214916095, 27.9627215844]}, "type": "Feature", "properties": {"collection_times": [{"days": "Mon-Fri", "time": "2:30pm"}, {"days": "Sat-Sun", "time": "Closed"}], "id": "3375900021", "name": "USPS COLLECTION BOX - BLUE BOX", "address": {"city": "CLEARWATER", "state": "FL", "street": "107 HAMPTON RD", "postcode": "33759"}}},
{"geometry": {"type": "Point", "coordinates": [-82.7268740728, 27.9632172442]}, "type": "Feature", "properties": {"collection_times": [{"days": "Mon-Fri", "time": "2:30pm"}, {"days": "Sat-Sun", "time": "Closed"}], "id": "3375900024", "name": "USPS COLLECTION BOX - BLUE BOX", "address": {"city": "CLEARWATER", "state": "FL", "street": "380 PARK PLACE BLVD", "postcode": "33759"}}},
{"geometry": {"type": "Point", "coordinates": [-82.7091555408, 27.9845844595]}, "type": "Feature", "properties": {"collection_times": [{"days": "Mon-Fri", "time": "3:00pm"}, {"days": "Sat-Sun", "time": "Closed"}], "id": "3375900025", "name": "USPS COLLECTION BOX - BLUE BOX", "address": {"city": "CLEARWATER", "state": "FL", "street": "1700 N MCMULLEN BOOTH RD", "postcode": "33759"}}},
{"geometry": {"type": "Point", "coordinates": [-82.7267841679, 27.9987639782]}, "type": "Feature", "properties": {"collection_times": [{"days": "Mon-Fri", "time": "2:30pm"}, {"days": "Sat-Sun", "time": "Closed"}], "id": "3375900026", "name": "USPS COLLECTION BOX - BLUE BOX", "address": {"city": "CLEARWATER", "state": "FL", "street": "2650 MCCORMICK DR", "postcode": "33759"}}},
{"geometry": {"type": "Point", "coordinates": [-82.7154485658, 27.8988509118]}, "type": "Feature", "properties": {"collection_times": [{"days": "Mon-Fri", "time": "1:30pm"}, {"days": "Sat-Sun", "time": "Closed"}], "id": "3376000021", "name": "USPS COLLECTION BOX - BLUE BOX", "address": {"city": "CLEARWATER", "state": "FL", "street": "13825 ICOT BLVD", "postcode": "33760"}}},
{"geometry": {"type": "Point", "coordinates": [-82.7101933841, 27.8932742798]}, "type": "Feature", "properties": {"collection_times": [{"days": "Mon-Fri", "time": "12:00pm"}, {"days": "Sat-Sun", "time": "Closed"}], "id": "3376000026", "name": "USPS COLLECTION BOX - BLUE BOX", "address": {"city": "CLEARWATER", "state": "FL", "street": "13191 56TH CT", "postcode": "33760"}}},
{"geometry": {"type": "Point", "coordinates": [-82.7135721083, 28.0145817854]}, "type": "Feature", "properties": {"collection_times": [{"days": "Mon-Fri", "time": "3:25pm"}, {"days": "Sat-Sun", "time": "Closed"}], "id": "3376100002", "name": "USPS COLLECTION BOX - BLUE BOX", "address": {"city": "CLEARWATER", "state": "FL", "street": "3000 EASTLAND BLVD", "postcode": "33761"}}},
{"geometry": {"type": "Point", "coordinates": [-82.7381547695, 28.0411316535]}, "type": "Feature", "properties": {"collection_times": [{"days": "Mon-Fri", "time": "3:45pm"}, {"days": "Sat-Sun", "time": "Closed"}], "id": "3376100004", "name": "USPS COLLECTION BOX - BLUE BOX", "address": {"city": "CLEARWATER", "state": "FL", "street": "29605 US HIGHWAY 19 N", "postcode": "33761"}}},
{"geometry": {"type": "Point", "coordinates": [-82.7382813461, 28.0280623229]}, "type": "Feature", "properties": {"collection_times": [{"days": "Mon-Fri", "time": "4:00pm"}, {"days": "Sat-Sun", "time": "Closed"}], "id": "3376100006", "name": "USPS COLLECTION BOX - BLUE BOX", "address": {"city": "CLEARWATER", "state": "FL", "street": "28100 US HIGHWAY 19 N", "postcode": "33761"}}},
{"geometry": {"type": "Point", "coordinates": [-82.7380139974, 28.0273052291]}, "type": "Feature", "properties": {"collection_times": [{"days": "Mon-Fri", "time": "3:30pm"}, {"days": "Sat-Sun", "time": "Closed"}], "id": "3376100012", "name": "USPS COLLECTION BOX - BLUE BOX", "address": {"city": "CLEARWATER", "state": "FL", "street": "28059 US HIGHWAY 19 N", "postcode": "33761"}}},
{"geometry": {"type": "Point", "coordinates": [-82.7383283851, 28.0273467355]}, "type": "Feature", "properties": {"collection_times": [{"days": "Mon-Fri", "time": "4:05pm"}, {"days": "Sat-Sun", "time": "Closed"}], "id": "3376100015", "name": "USPS COLLECTION BOX - BLUE BOX", "address": {"city": "CLEARWATER", "state": "FL", "street": "28050 US HIGHWAY 19 N", "postcode": "33761"}}},
{"geometry": {"type": "Point", "coordinates": [-82.7382338994, 28.0450198957]}, "type": "Feature", "properties": {"collection_times": [{"days": "Mon-Fri", "time": "3:45pm"}, {"days": "Sat", "time": "12:00pm"}, {"days": "Sun", "time": "Closed"}], "id": "3376100019", "name": "USPS COLLECTION BOX - BLUE BOX", "address": {"city": "CLEARWATER", "state": "FL", "street": "30043 US HIGHWAY 19 N", "postcode": "33761"}}},
{"geometry": {"type": "Point", "coordinates": [-82.7088280338, 28.0132280174]}, "type": "Feature", "properties": {"collection_times": [{"days": "Mon-Fri", "time": "3:10pm"}, {"days": "Sat", "time": "11:00am"}, {"days": "Sun", "time": "Closed"}], "id": "3376100020", "name": "USPS COLLECTION BOX - BLUE BOX", "address": {"city": "CLEARWATER", "state": "FL", "street": "2519 N MCMULLEN BOOTH RD", "postcode": "33761"}}},
{"geometry": {"type": "Point", "coordinates": [-82.7380660476, 28.028289451]}, "type": "Feature", "properties": {"collection_times": [{"days": "Mon-Fri", "time": "3:35pm"}, {"days": "Sat-Sun", "time": "Closed"}], "id": "3376100021", "name": "USPS COLLECTION BOX - BLUE BOX", "address": {"city": "CLEARWATER", "state": "FL", "street": "28163 US HIGHWAY 19 N", "postcode": "33761"}}},
{"geometry": {"type": "Point", "coordinates": [-82.7376153402, 28.0157264268]}, "type": "Feature", "properties": {"collection_times": [{"days": "Mon-Fri", "time": "4:10pm"}, {"days": "Sat-Sun", "time": "Closed"}], "id": "3376100033", "name": "USPS COLLECTION BOX - BLUE BOX", "address": {"city": "CLEARWATER", "state": "FL", "street": "26750 US HIGHWAY 19 N", "postcode": "33761"}}},
{"geometry": {"type": "Point", "coordinates": [-82.7135721083, 28.0145817854]}, "type": "Feature", "properties": {"collection_times": [{"days": "Mon-Fri", "time": "3:25pm"}, {"days": "Sat-Sun", "time": "Closed"}], "id": "3376100038", "name": "USPS COLLECTION BOX - BLUE BOX", "address": {"city": "CLEARWATER", "state": "FL", "street": "3000 EASTLAND BLVD", "postcode": "33761"}}},
{"geometry": {"type": "Point", "coordinates": [-82.7376153402, 28.0157264268]}, "type": "Feature", "properties": {"collection_times": [{"days": "Mon-Fri", "time": "4:10pm"}, {"days": "Sat-Sun", "time": "Closed"}], "id": "3376100039", "name": "USPS COLLECTION BOX - BLUE BOX", "address": {"city": "CLEARWATER", "state": "FL", "street": "26750 US HIGHWAY 19 N", "postcode": "33761"}}},
{"geometry": {"type": "Point", "coordinates": [-82.6962188742, 27.8985661709]}, "type": "Feature", "properties": {"collection_times": [{"days": "Mon-Fri", "time": "4:30pm"}, {"days": "Sat", "time": "3:00pm"}, {"days": "Sun", "time": "Closed"}], "id": "3376200000", "name": "USPS COLLECTION BOX - BLUE BOX", "address": {"city": "CLEARWATER", "state": "FL", "street": "4600 140TH AVE N", "postcode": "33762"}}},
{"geometry": {"type": "Point", "coordinates": [-82.6962188742, 27.8985661709]}, "type": "Feature", "properties": {"collection_times": [{"days": "Mon-Fri", "time": "4:30pm"}, {"days": "Sat", "time": "3:00pm"}, {"days": "Sun", "time": "Closed"}], "id": "3376200001", "name": "USPS COLLECTION BOX - BLUE BOX", "address": {"city": "CLEARWATER", "state": "FL", "street": "4600 140TH AVE N", "postcode": "33762"}}},
{"geometry": {"type": "Point", "coordinates": [-82.6624595913, 27.8953591691]}, "type": "Feature", "properties": {"collection_times": [{"days": "Mon-Fri", "time": "12:30pm"}, {"days": "Sat-Sun", "time": "Closed"}], "id": "3376200007", "name": "USPS COLLECTION BOX - BLUE BOX", "address": {"city": "CLEARWATER", "state": "FL", "street": "13535 FEATHER SOUND DR", "postcode": "33762"}}},
{"geometry": {"type": "Point", "coordinates": [-82.7006760438, 27.901900739]}, "type": "Feature", "properties": {"collection_times": [{"days": "Mon-Fri", "time": "12:30pm"}, {"days": "Sat-Sun", "time": "Closed"}], "id": "3376200022", "name": "USPS COLLECTION BOX - BLUE BOX", "address": {"city": "CLEARWATER", "state": "FL", "street": "14250 49TH ST N", "postcode": "33762"}}},
{"geometry": {"type": "Point", "coordinates": [-82.7296386479, 28.0039985716]}, "type": "Feature", "properties": {"collection_times": [{"days": "Mon-Fri", "time": "4:20pm"}, {"days": "Sat-Sun", "time": "Closed"}], "id": "3376300001", "name": "USPS COLLECTION BOX - BLUE BOX", "address": {"city": "CLEARWATER", "state": "FL", "street": "25400 US HIGHWAY 19 N", "postcode": "33763"}}},
{"geometry": {"type": "Point", "coordinates": [-82.7302157222, 28.0079892967]}, "type": "Feature", "properties": {"collection_times": [{"days": "Mon-Fri", "time": "5:00pm"}, {"days": "Sat", "time": "1:00pm"}, {"days": "Sun", "time": "Closed"}], "id": "3376300009", "name": "USPS COLLECTION BOX - BLUE BOX", "address": {"city": "CLEARWATER", "state": "FL", "street": "25941 US HIGHWAY 19 N", "postcode": "33763"}}},
{"geometry": {"type": "Point", "coordinates": [-81.6886459372, 28.566047978]}, "type": "Feature", "properties": {"collection_times": [{"days": "Mon-Fri", "time": "2:00pm"}, {"days": "Sat-Sun", "time": "Closed"}], "id": "3376400013", "name": "USPS COLLECTION BOX - BLUE BOX", "address": {"city": "CLEARWATER", "state": "FL", "street": "18167 US HIGHWAY 19 N", "postcode": "33764"}}},
{"geometry": {"type": "Point", "coordinates": [-82.7386561199, 27.9357733961]}, "type": "Feature", "properties": {"collection_times": [{"days": "Mon-Sat", "time": "3:00pm"}, {"days": "Sun", "time": "Closed"}], "id": "3376400015", "name": "USPS COLLECTION BOX - BLUE BOX", "address": {"city": "CLEARWATER", "state": "FL", "street": "5000 E BAY DR", "postcode": "33764"}}},
{"geometry": {"type": "Point", "coordinates": [-82.7299784187, 27.9481434293]}, "type": "Feature", "properties": {"collection_times": [{"days": "Mon-Fri", "time": "2:30pm"}, {"days": "Sat-Sun", "time": "Closed"}], "id": "3376400022", "name": "USPS COLLECTION BOX - BLUE BOX", "address": {"city": "CLEARWATER", "state": "FL", "street": "19361 US HIGHWAY 19 N", "postcode": "33764"}}},
{"geometry": {"type": "Point", "coordinates": [-82.7299784187, 27.9481434293]}, "type": "Feature", "properties": {"collection_times": [{"days": "Mon-Fri", "time": "2:30pm"}, {"days": "Sat-Sun", "time": "Closed"}], "id": "3376400040", "name": "USPS COLLECTION BOX - BLUE BOX", "address": {"city": "CLEARWATER", "state": "FL", "street": "19361 US HIGHWAY 19 N", "postcode": "33764"}}},
{"geometry": {"type": "Point", "coordinates": [-82.8253259443, 27.9739702933]}, "type": "Feature", "properties": {"collection_times": [{"days": "Mon-Sat", "time": "1:00pm"}, {"days": "Sun", "time": "Closed"}], "id": "3376700014", "name": "USPS COLLECTION BOX - BLUE BOX", "address": {"city": "CLEARWATER", "state": "FL", "street": "601 MANDALAY AVE", "postcode": "33767"}}},
{"geometry": {"type": "Point", "coordinates": [-82.81672, 27.977196]}, "type": "Feature", "properties": {"collection_times": [{"days": "Mon-Fri", "time": "4:30pm"}, {"days": "Sat", "time": "12:00pm"}, {"days": "Sun", "time": "Closed"}], "id": "3376700015", "name": "USPS COLLECTION BOX - BLUE BOX", "address": {"city": "CLEARWATER", "state": "FL", "street": "294 WINDWARD PASSAGE", "postcode": "33767"}}},
{"geometry": {"type": "Point", "coordinates": [-82.8253259443, 27.9739702933]}, "type": "Feature", "properties": {"collection_times": [{"days": "Mon-Fri", "time": "1:00pm"}, {"days": "Sat-Sun", "time": "Closed"}], "id": "3376700016", "name": "USPS COLLECTION BOX - BLUE BOX", "address": {"city": "CLEARWATER", "state": "FL", "street": "45 CAUSEWAY BLVD", "postcode": "33767"}}},
{"geometry": {"type": "Point", "coordinates": [-82.81645, 27.91679]}, "type": "Feature", "properties": {"collection_times": [{"days": "Mon-Fri", "time": "3:30pm"}, {"days": "Sat-Sun", "time": "Closed"}], "id": "3377000011", "name": "USPS COLLECTION BOX - BLUE BOX", "address": {"city": "LARGO", "state": "FL", "street": "2770 WEST BAY DR", "postcode": "33770"}}},
{"geometry": {"type": "Point", "coordinates": [-82.818184, 27.9168]}, "type": "Feature", "properties": {"collection_times": [{"days": "Mon-Fri", "time": "3:20pm"}, {"days": "Sat", "time": "3:00pm"}, {"days": "Sun", "time": "Closed"}], "id": "3377000019", "name": "USPS COLLECTION BOX - BLUE BOX", "address": {"city": "LARGO", "state": "FL", "street": "2819 WEST BAY DR", "postcode": "33770"}}},
{"geometry": {"type": "Point", "coordinates": [-82.81722, 27.9168]}, "type": "Feature", "properties": {"collection_times": [{"days": "Mon-Fri", "time": "3:30pm"}, {"days": "Sat", "time": "3:10pm"}, {"days": "Sun", "time": "Closed"}], "id": "3377000022", "name": "USPS COLLECTION BOX - BLUE BOX", "address": {"city": "LARGO", "state": "FL", "street": "2840 WEST BAY DR", "postcode": "33770"}}},
{"geometry": {"type": "Point", "coordinates": [-82.8003682327, 27.9166901321]}, "type": "Feature", "properties": {"collection_times": [{"days": "Mon-Fri", "time": "3:30pm"}, {"days": "Sat-Sun", "time": "Closed"}], "id": "3377000035", "name": "USPS COLLECTION BOX - BLUE BOX", "address": {"city": "LARGO", "state": "FL", "street": "2401 WEST BAY DR", "postcode": "33770"}}},
{"geometry": {"type": "Point", "coordinates": [-82.7874158397, 27.9317481679]}, "type": "Feature", "properties": {"collection_times": [{"days": "Mon-Fri", "time": "3:30pm"}, {"days": "Sat", "time": "3:25pm"}, {"days": "Sun", "time": "Closed"}], "id": "3377000037", "name": "USPS COLLECTION BOX - BLUE BOX", "address": {"city": "LARGO", "state": "FL", "street": "1662 MISSOURI AVE N", "postcode": "33770"}}},
{"geometry": {"type": "Point", "coordinates": [-82.7885050519, 27.9093464759]}, "type": "Feature", "properties": {"collection_times": [{"days": "Mon-Fri", "time": "5:00pm"}, {"days": "Sat", "time": "4:00pm"}, {"days": "Sun", "time": "Closed"}], "id": "3377000042", "name": "USPS COLLECTION BOX - BLUE BOX", "address": {"city": "LARGO", "state": "FL", "street": "50 8TH AVE SW", "postcode": "33770"}}},
{"geometry": {"type": "Point", "coordinates": [-82.8129863877, 27.9167861049]}, "type": "Feature", "properties": {"collection_times": [{"days": "Mon-Fri", "time": "3:30pm"}, {"days": "Sat-Sun", "time": "Closed"}], "id": "3377000048", "name": "USPS COLLECTION BOX - BLUE BOX", "address": {"city": "LARGO", "state": "FL", "street": "2401 WEST BAY DR", "postcode": "33770"}}},
{"geometry": {"type": "Point", "coordinates": [-82.7885050519, 27.9093464759]}, "type": "Feature", "properties": {"collection_times": [{"days": "Mon-Fri", "time": "5:00pm"}, {"days": "Sat", "time": "4:00pm"}, {"days": "Sun", "time": "Closed"}], "id": "3377000050", "name": "USPS COLLECTION BOX - APC", "address": {"city": "LARGO", "state": "FL", "street": "50 8TH AVE SW", "postcode": "33770"}}},
{"geometry": {"type": "Point", "coordinates": [-82.7971477501, 27.9166831874]}, "type": "Feature", "properties": {"collection_times": [{"days": "Mon-Fri", "time": "3:45pm"}, {"days": "Sat-Sun", "time": "Closed"}], "id": "3377000053", "name": "USPS COLLECTION BOX - BLUE BOX", "address": {"city": "LARGO", "state": "FL", "street": "801 WEST BAY DR", "postcode": "33770"}}},
{"geometry": {"type": "Point", "coordinates": [-82.7479390231, 27.9163519589]}, "type": "Feature", "properties": {"collection_times": [{"days": "Mon-Fri", "time": "2:30pm"}, {"days": "Sat-Sun", "time": "Closed"}], "id": "3377100002", "name": "USPS COLLECTION BOX - BLUE BOX", "address": {"city": "LARGO", "state": "FL", "street": "3825 E BAY DR", "postcode": "33771"}}},
{"geometry": {"type": "Point", "coordinates": [-82.7411358261, 27.8940922201]}, "type": "Feature", "properties": {"collection_times": [{"days": "Mon-Fri", "time": "2:50pm"}, {"days": "Sat-Sun", "time": "Closed"}], "id": "3377100018", "name": "USPS COLLECTION BOX - BLUE BOX", "address": {"city": "LARGO", "state": "FL", "street": "7500 ULMERTON RD", "postcode": "33771"}}},
{"geometry": {"type": "Point", "coordinates": [-82.7457659275, 27.9074087891]}, "type": "Feature", "properties": {"collection_times": [{"days": "Mon-Fri", "time": "2:30pm"}, {"days": "Sat-Sun", "time": "Closed"}], "id": "3377100026", "name": "USPS COLLECTION BOX - BLUE BOX", "address": {"city": "LARGO", "state": "FL", "street": "1101 BELCHER RD S", "postcode": "33771"}}},
{"geometry": {"type": "Point", "coordinates": [-82.7564362174, 27.8987625421]}, "type": "Feature", "properties": {"collection_times": [{"days": "Mon-Fri", "time": "3:05pm"}, {"days": "Sat-Sun", "time": "Closed"}], "id": "3377100029", "name": "USPS COLLECTION BOX - BLUE BOX", "address": {"city": "LARGO", "state": "FL", "street": "1901 TALL PINES DR", "postcode": "33771"}}},
{"geometry": {"type": "Point", "coordinates": [-82.7804810413, 27.8947345668]}, "type": "Feature", "properties": {"collection_times": [{"days": "Mon-Fri", "time": "3:15pm"}, {"days": "Sat-Sun", "time": "Closed"}], "id": "3377100031", "name": "USPS COLLECTION BOX - BLUE BOX", "address": {"city": "LARGO", "state": "FL", "street": "10225 ULMERTON RD", "postcode": "33771"}}},
{"geometry": {"type": "Point", "coordinates": [-82.7623521951, 27.8971229609]}, "type": "Feature", "properties": {"collection_times": [{"days": "Mon-Fri", "time": "3:10pm"}, {"days": "Sat-Sun", "time": "Closed"}], "id": "3377100033", "name": "USPS COLLECTION BOX - BLUE BOX", "address": {"city": "LARGO", "state": "FL", "street": "2101 STARKEY RD", "postcode": "33771"}}},
{"geometry": {"type": "Point", "coordinates": [-82.7832609948, 27.8945630377]}, "type": "Feature", "properties": {"collection_times": [{"days": "Mon-Fri", "time": "3:00pm"}, {"days": "Sat-Sun", "time": "Closed"}], "id": "3377100035", "name": "USPS COLLECTION BOX - BLUE BOX", "address": {"city": "LARGO", "state": "FL", "street": "10500 ULMERTON RD", "postcode": "33771"}}},
{"geometry": {"type": "Point", "coordinates": [-82.758088811, 27.8944045212]}, "type": "Feature", "properties": {"collection_times": [{"days": "Mon-Fri", "time": "3:15pm"}, {"days": "Sat-Sun", "time": "Closed"}], "id": "3377100036", "name": "USPS COLLECTION BOX - BLUE BOX", "address": {"city": "LARGO", "state": "FL", "street": "8550 ULMERTON RD", "postcode": "33771"}}},
{"geometry": {"type": "Point", "coordinates": [-82.7565769895, 27.8972258784]}, "type": "Feature", "properties": {"collection_times": [{"days": "Mon-Fri", "time": "3:10pm"}, {"days": "Sat-Sun", "time": "Closed"}], "id": "3377100042", "name": "USPS COLLECTION BOX - BLUE BOX", "address": {"city": "LARGO", "state": "FL", "street": "2200 TALL PINES DR", "postcode": "33771"}}},
{"geometry": {"type": "Point", "coordinates": [-82.7954262701, 27.8441485262]}, "type": "Feature", "properties": {"collection_times": [{"days": "Mon-Sat", "time": "3:00pm"}, {"days": "Sun", "time": "Closed"}], "id": "3377200001", "name": "USPS COLLECTION BOX - BLUE BOX", "address": {"city": "SEMINOLE", "state": "FL", "street": "7880 113TH ST", "postcode": "33772"}}},
{"geometry": {"type": "Point", "coordinates": [-82.7951886262, 27.8580816824]}, "type": "Feature", "properties": {"collection_times": [{"days": "Mon-Fri", "time": "5:00pm"}, {"days": "Sat", "time": "4:00pm"}, {"days": "Sun", "time": "Closed"}], "id": "3377200003", "name": "USPS COLLECTION BOX - BLUE BOX", "address": {"city": "SEMINOLE", "state": "FL", "street": "9355 113TH ST", "postcode": "33772"}}},
{"geometry": {"type": "Point", "coordinates": [-82.7942542561, 27.8411750733]}, "type": "Feature", "properties": {"collection_times": [{"days": "Mon-Sat", "time": "3:00pm"}, {"days": "Sun", "time": "Closed"}], "id": "3377200013", "name": "USPS COLLECTION BOX - BLUE BOX", "address": {"city": "SEMINOLE", "state": "FL", "street": "11212 PARK BLVD", "postcode": "33772"}}},
{"geometry": {"type": "Point", "coordinates": [-82.7869577416, 27.8345089429]}, "type": "Feature", "properties": {"collection_times": [{"days": "Mon-Sat", "time": "1:30pm"}, {"days": "Sun", "time": "Closed"}], "id": "3377200021", "name": "USPS COLLECTION BOX - BLUE BOX", "address": {"city": "SEMINOLE", "state": "FL", "street": "6801 SEMINOLE BLVD", "postcode": "33772"}}},
{"geometry": {"type": "Point", "coordinates": [-82.7872454314, 27.8531370833]}, "type": "Feature", "properties": {"collection_times": [{"days": "Mon-Sat", "time": "3:30pm"}, {"days": "Sun", "time": "Closed"}], "id": "3377200024", "name": "USPS COLLECTION BOX - BLUE BOX", "address": {"city": "SEMINOLE", "state": "FL", "street": "8900 SEMINOLE BLVD", "postcode": "33772"}}},
{"geometry": {"type": "Point", "coordinates": [-82.7871855433, 27.8371242068]}, "type": "Feature", "properties": {"collection_times": [{"days": "Mon-Sat", "time": "1:30pm"}, {"days": "Sun", "time": "Closed"}], "id": "3377200029", "name": "USPS COLLECTION BOX - BLUE BOX", "address": {"city": "SEMINOLE", "state": "FL", "street": "7122 SEMINOLE BLVD", "postcode": "33772"}}},
{"geometry": {"type": "Point", "coordinates": [-82.7951886262, 27.8580816824]}, "type": "Feature", "properties": {"collection_times": [{"days": "Mon-Fri", "time": "5:00pm"}, {"days": "Sat", "time": "1:00pm"}, {"days": "Sun", "time": "Closed"}], "id": "3377200033", "name": "USPS COLLECTION BOX - APC", "address": {"city": "SEMINOLE", "state": "FL", "street": "9355 113TH ST", "postcode": "33772"}}},
{"geometry": {"type": "Point", "coordinates": [-82.7419960678, 27.875941999]}, "type": "Feature", "properties": {"collection_times": [{"days": "Mon-Fri", "time": "3:30pm"}, {"days": "Sat-Sun", "time": "Closed"}], "id": "3377300001", "name": "USPS COLLECTION BOX - BLUE BOX", "address": {"city": "LARGO", "state": "FL", "street": "7441 114TH AVE", "postcode": "33773"}}},
{"geometry": {"type": "Point", "coordinates": [-82.7416512949, 27.8850324313]}, "type": "Feature", "properties": {"collection_times": [{"days": "Mon-Fri", "time": "3:40pm"}, {"days": "Sat-Sun", "time": "Closed"}], "id": "3377300007", "name": "USPS COLLECTION BOX - BLUE BOX", "address": {"city": "LARGO", "state": "FL", "street": "7425 124TH AVE", "postcode": "33773"}}},
{"geometry": {"type": "Point", "coordinates": [-82.7622212846, 27.8753192612]}, "type": "Feature", "properties": {"collection_times": [{"days": "Mon-Fri", "time": "3:15pm"}, {"days": "Sat", "time": "2:00pm"}, {"days": "Sun", "time": "Closed"}], "id": "3377300016", "name": "USPS COLLECTION BOX - BLUE BOX", "address": {"city": "LARGO", "state": "FL", "street": "11321 STARKEY RD", "postcode": "33773"}}},
{"geometry": {"type": "Point", "coordinates": [-82.7622460234, 27.8847716479]}, "type": "Feature", "properties": {"collection_times": [{"days": "Mon-Fri", "time": "3:30pm"}, {"days": "Sat-Sun", "time": "Closed"}], "id": "3377300021", "name": "USPS COLLECTION BOX - BLUE BOX", "address": {"city": "LARGO", "state": "FL", "street": "12345 STARKEY RD", "postcode": "33773"}}},
{"geometry": {"type": "Point", "coordinates": [-82.7623178893, 27.8926359976]}, "type": "Feature", "properties": {"collection_times": [{"days": "Mon-Fri", "time": "3:40pm"}, {"days": "Sat-Sun", "time": "Closed"}], "id": "3377300022", "name": "USPS COLLECTION BOX - BLUE BOX", "address": {"city": "LARGO", "state": "FL", "street": "13191 STARKEY RD", "postcode": "33773"}}},
{"geometry": {"type": "Point", "coordinates": [-82.7639507352, 27.8908746241]}, "type": "Feature", "properties": {"collection_times": [{"days": "Mon-Fri", "time": "3:15pm"}, {"days": "Sat-Sun", "time": "Closed"}], "id": "3377300024", "name": "USPS COLLECTION BOX - BLUE BOX", "address": {"city": "LARGO", "state": "FL", "street": "9003 130TH AVE", "postcode": "33773"}}},
{"geometry": {"type": "Point", "coordinates": [-82.7590276987, 27.877867431]}, "type": "Feature", "properties": {"collection_times": [{"days": "Mon-Fri", "time": "3:30pm"}, {"days": "Sat-Sun", "time": "Closed"}], "id": "3377300025", "name": "USPS COLLECTION BOX - BLUE BOX", "address": {"city": "LARGO", "state": "FL", "street": "8656 115TH AVE", "postcode": "33773"}}},
{"geometry": {"type": "Point", "coordinates": [-82.7622212846, 27.8753192612]}, "type": "Feature", "properties": {"collection_times": [{"days": "Mon-Fri", "time": "3:15pm"}, {"days": "Sat", "time": "2:00pm"}, {"days": "Sun", "time": "Closed"}], "id": "3377300026", "name": "USPS COLLECTION BOX - BLUE BOX", "address": {"city": "LARGO", "state": "FL", "street": "11321 STARKEY RD", "postcode": "33773"}}},
{"geometry": {"type": "Point", "coordinates": [-82.8305154519, 27.8802795229]}, "type": "Feature", "properties": {"collection_times": [{"days": "Mon-Fri", "time": "4:45pm"}, {"days": "Sat", "time": "12:00pm"}, {"days": "Sun", "time": "Closed"}], "id": "3377400005", "name": "USPS COLLECTION BOX - BLUE BOX", "address": {"city": "LARGO", "state": "FL", "street": "13870 WALSINGHAM RD", "postcode": "33774"}}},
{"geometry": {"type": "Point", "coordinates": [-82.8179473858, 27.8804512929]}, "type": "Feature", "properties": {"collection_times": [{"days": "Mon-Sat", "time": "3:30pm"}, {"days": "Sun", "time": "Closed"}], "id": "3377400008", "name": "USPS COLLECTION BOX - BLUE BOX", "address": {"city": "LARGO", "state": "FL", "street": "12935 WALSINGHAM RD", "postcode": "33774"}}},
{"geometry": {"type": "Point", "coordinates": [-82.8298474159, 27.880532495]}, "type": "Feature", "properties": {"collection_times": [{"days": "Mon-Sat", "time": "12:00pm"}, {"days": "Sun", "time": "Closed"}], "id": "3377400009", "name": "USPS COLLECTION BOX - BLUE BOX", "address": {"city": "LARGO", "state": "FL", "street": "13819 WALSINGHAM RD", "postcode": "33774"}}},
{"geometry": {"type": "Point", "coordinates": [-82.8347031484, 27.8803568835]}, "type": "Feature", "properties": {"collection_times": [{"days": "Mon-Sat", "time": "3:30pm"}, {"days": "Sun", "time": "Closed"}], "id": "3377400010", "name": "USPS COLLECTION BOX - BLUE BOX", "address": {"city": "LARGO", "state": "FL", "street": "14100 WALSINGHAM RD", "postcode": "33774"}}},
{"geometry": {"type": "Point", "coordinates": [-82.8323300497, 27.8829490308]}, "type": "Feature", "properties": {"collection_times": [{"days": "Mon-Sat", "time": "3:30pm"}, {"days": "Sun", "time": "Closed"}], "id": "3377400011", "name": "USPS COLLECTION BOX - BLUE BOX", "address": {"city": "LARGO", "state": "FL", "street": "12071 INDIAN ROCKS RD", "postcode": "33774"}}},
{"geometry": {"type": "Point", "coordinates": [-82.8118621169, 27.8847022833]}, "type": "Feature", "properties": {"collection_times": [{"days": "Mon-Sat", "time": "11:00am"}, {"days": "Sun", "time": "Closed"}], "id": "3377400013", "name": "USPS COLLECTION BOX - BLUE BOX", "address": {"city": "LARGO", "state": "FL", "street": "12490 ULMERTON RD", "postcode": "33774"}}},
{"geometry": {"type": "Point", "coordinates": [-82.8319827146, 27.8577968599]}, "type": "Feature", "properties": {"collection_times": [{"days": "Mon-Sat", "time": "3:00pm"}, {"days": "Sun", "time": "Closed"}], "id": "3377600003", "name": "USPS COLLECTION BOX - BLUE BOX", "address": {"city": "LARGO", "state": "FL", "street": "9330 OAKHURST RD", "postcode": "33776"}}},
{"geometry": {"type": "Point", "coordinates": [-82.8195600907, 27.8437786094]}, "type": "Feature", "properties": {"collection_times": [{"days": "Mon-Sat", "time": "3:00pm"}, {"days": "Sun", "time": "Closed"}], "id": "3377600005", "name": "USPS COLLECTION BOX - BLUE BOX", "address": {"city": "LARGO", "state": "FL", "street": "13099 PARK BLVD", "postcode": "33776"}}},
{"geometry": {"type": "Point", "coordinates": [-82.7384493263, 27.8705667151]}, "type": "Feature", "properties": {"collection_times": [{"days": "Mon-Fri", "time": "2:30pm"}, {"days": "Sat-Sun", "time": "Closed"}], "id": "3377700000", "name": "USPS COLLECTION BOX - BLUE BOX", "address": {"city": "LARGO", "state": "FL", "street": "10810 72ND ST", "postcode": "33777"}}},
{"geometry": {"type": "Point", "coordinates": [-82.7622800346, 27.8708269661]}, "type": "Feature", "properties": {"collection_times": [{"days": "Mon-Fri", "time": "1:30pm"}, {"days": "Sat-Sun", "time": "Closed"}], "id": "3377700006", "name": "USPS COLLECTION BOX - BLUE BOX", "address": {"city": "LARGO", "state": "FL", "street": "10801 STARKEY RD", "postcode": "33777"}}},
{"geometry": {"type": "Point", "coordinates": [-82.7599567032, 27.8392490595]}, "type": "Feature", "properties": {"collection_times": [{"days": "Mon-Sat", "time": "2:00pm"}, {"days": "Sun", "time": "Closed"}], "id": "3377700008", "name": "USPS COLLECTION BOX - BLUE BOX", "address": {"city": "LARGO", "state": "FL", "street": "8740 PARK BLVD", "postcode": "33777"}}},
{"geometry": {"type": "Point", "coordinates": [-82.7870204384, 27.8860161592]}, "type": "Feature", "properties": {"collection_times": [{"days": "Mon-Fri", "time": "5:00pm"}, {"days": "Sat", "time": "12:00pm"}, {"days": "Sun", "time": "Closed"}], "id": "3377800003", "name": "USPS COLLECTION BOX - BLUE BOX", "address": {"city": "LARGO", "state": "FL", "street": "12487 SEMINOLE BLVD", "postcode": "33778"}}},
{"geometry": {"type": "Point", "coordinates": [-82.7968035091, 27.8947097247]}, "type": "Feature", "properties": {"collection_times": [{"days": "Mon-Fri", "time": "4:20pm"}, {"days": "Sat", "time": "2:35pm"}, {"days": "Sun", "time": "Closed"}], "id": "3377800006", "name": "USPS COLLECTION BOX - BLUE BOX", "address": {"city": "LARGO", "state": "FL", "street": "11351 ULMERTON RD", "postcode": "33778"}}},
{"geometry": {"type": "Point", "coordinates": [-82.687716336, 27.8466174448]}, "type": "Feature", "properties": {"collection_times": [{"days": "Mon-Sat", "time": "10:00am"}, {"days": "Sun", "time": "Closed"}], "id": "3378100000", "name": "USPS COLLECTION BOX - BLUE BOX", "address": {"city": "PINELLAS PARK", "state": "FL", "street": "8201 40TH ST N", "postcode": "33781"}}},
{"geometry": {"type": "Point", "coordinates": [-82.6958184242, 27.8302501396]}, "type": "Feature", "properties": {"collection_times": [{"days": "Mon-Fri", "time": "3:15pm"}, {"days": "Sat-Sun", "time": "Closed"}], "id": "3378100001", "name": "USPS COLLECTION BOX - BLUE BOX", "address": {"city": "PINELLAS PARK", "state": "FL", "street": "6401 46TH ST N", "postcode": "33781"}}},
{"geometry": {"type": "Point", "coordinates": [-82.7001478762, 27.8424554836]}, "type": "Feature", "properties": {"collection_times": [{"days": "Mon-Sat", "time": "3:05pm"}, {"days": "Sun", "time": "Closed"}], "id": "3378100002", "name": "USPS COLLECTION BOX - BLUE BOX", "address": {"city": "PINELLAS PARK", "state": "FL", "street": "7520 49TH ST N", "postcode": "33781"}}},
{"geometry": {"type": "Point", "coordinates": [-82.7283835285, 27.8316710244]}, "type": "Feature", "properties": {"collection_times": [{"days": "Mon-Sat", "time": "3:15pm"}, {"days": "Sun", "time": "Closed"}], "id": "3378100011", "name": "USPS COLLECTION BOX - BLUE BOX", "address": {"city": "PINELLAS PARK", "state": "FL", "street": "6595 66TH ST N", "postcode": "33781"}}},
{"geometry": {"type": "Point", "coordinates": [-82.7029598854, 27.8382439535]}, "type": "Feature", "properties": {"collection_times": [{"days": "Mon-Sat", "time": "3:15pm"}, {"days": "Sun", "time": "Closed"}], "id": "3378100013", "name": "USPS COLLECTION BOX - BLUE BOX", "address": {"city": "PINELLAS PARK", "state": "FL", "street": "5100 73RD AVE N", "postcode": "33781"}}},
{"geometry": {"type": "Point", "coordinates": [-82.7029593744, 27.8428724628]}, "type": "Feature", "properties": {"collection_times": [{"days": "Mon-Sat", "time": "3:15pm"}, {"days": "Sun", "time": "Closed"}], "id": "3378100014", "name": "USPS COLLECTION BOX - BLUE BOX", "address": {"city": "PINELLAS PARK", "state": "FL", "street": "5141 78TH AVE N", "postcode": "33781"}}},
{"geometry": {"type": "Point", "coordinates": [-82.6789993213, 27.8436069392]}, "type": "Feature", "properties": {"collection_times": [{"days": "Mon-Sat", "time": "10:00am"}, {"days": "Sun", "time": "Closed"}], "id": "3378100016", "name": "USPS COLLECTION BOX - BLUE BOX", "address": {"city": "PINELLAS PARK", "state": "FL", "street": "3401 GANDY BLVD", "postcode": "33781"}}},
{"geometry": {"type": "Point", "coordinates": [-82.6803459308, 27.842347229]}, "type": "Feature", "properties": {"collection_times": [{"days": "Mon-Sat", "time": "10:00am"}, {"days": "Sun", "time": "Closed"}], "id": "3378100017", "name": "USPS COLLECTION BOX - BLUE BOX", "address": {"city": "PINELLAS PARK", "state": "FL", "street": "3491 GANDY BLVD N", "postcode": "33781"}}},
{"geometry": {"type": "Point", "coordinates": [-82.7054838088, 27.8428653651]}, "type": "Feature", "properties": {"collection_times": [{"days": "Mon-Fri", "time": "5:00pm"}, {"days": "Sat", "time": "3:00pm"}, {"days": "Sun", "time": "Closed"}], "id": "3378100018", "name": "USPS COLLECTION BOX - APC", "address": {"city": "PINELLAS PARK", "state": "FL", "street": "5260 78TH AVE N", "postcode": "33781"}}},
{"geometry": {"type": "Point", "coordinates": [-82.7287821856, 27.8681747721]}, "type": "Feature", "properties": {"collection_times": [{"days": "Mon-Sat", "time": "3:05pm"}, {"days": "Sun", "time": "Closed"}], "id": "3378100019", "name": "USPS COLLECTION BOX - BLUE BOX", "address": {"city": "PINELLAS PARK", "state": "FL", "street": "10595 66 STREET NORTH", "postcode": "33781"}}},
{"geometry": {"type": "Point", "coordinates": [-82.7054838088, 27.8428653651]}, "type": "Feature", "properties": {"collection_times": [{"days": "Mon-Fri", "time": "5:00pm"}, {"days": "Sat", "time": "3:00pm"}, {"days": "Sun", "time": "Closed"}], "id": "3378100020", "name": "USPS COLLECTION BOX - BLUE BOX", "address": {"city": "PINELLAS PARK", "state": "FL", "street": "5260 78TH AVE N", "postcode": "33781"}}},
{"geometry": {"type": "Point", "coordinates": [-82.7269154764, 27.86463181]}, "type": "Feature", "properties": {"collection_times": [{"days": "Mon-Sat", "time": "3:05pm"}, {"days": "Sun", "time": "Closed"}], "id": "3378200000", "name": "USPS COLLECTION BOX - BLUE BOX", "address": {"city": "PINELLAS PARK", "state": "FL", "street": "6501 102ND AVE N", "postcode": "33782"}}},
{"geometry": {"type": "Point", "coordinates": [-82.7002113607, 27.8524899192]}, "type": "Feature", "properties": {"collection_times": [{"days": "Mon-Fri", "time": "3:15pm"}, {"days": "Sat-Sun", "time": "Closed"}], "id": "3378200002", "name": "USPS COLLECTION BOX - BLUE BOX", "address": {"city": "PINELLAS PARK", "state": "FL", "street": "8800 49TH ST N", "postcode": "33782"}}},
{"geometry": {"type": "Point", "coordinates": [-82.6957326781, 27.8562682901]}, "type": "Feature", "properties": {"collection_times": [{"days": "Mon-Fri", "time": "3:15pm"}, {"days": "Sat-Sun", "time": "Closed"}], "id": "3378200008", "name": "USPS COLLECTION BOX - BLUE BOX", "address": {"city": "PINELLAS PARK", "state": "FL", "street": "9375 US HIGHWAY 19 N", "postcode": "33782"}}},
{"geometry": {"type": "Point", "coordinates": [-82.6924307599, 27.8562431524]}, "type": "Feature", "properties": {"collection_times": [{"days": "Mon-Fri", "time": "3:15pm"}, {"days": "Sat", "time": "1:00pm"}, {"days": "Sun", "time": "Closed"}], "id": "3378200012", "name": "USPS COLLECTION BOX - BLUE BOX", "address": {"city": "PINELLAS PARK", "state": "FL", "street": "4451A MAINLANDS BLVD W", "postcode": "33782"}}},
{"geometry": {"type": "Point", "coordinates": [-82.849415609, 27.8826021396]}, "type": "Feature", "properties": {"collection_times": [{"days": "Mon-Fri", "time": "5:00pm"}, {"days": "Sat", "time": "12:00pm"}, {"days": "Sun", "time": "Closed"}], "id": "3378500000", "name": "USPS COLLECTION BOX - BLUE BOX", "address": {"city": "INDIAN RK BCH", "state": "FL", "street": "204 4TH AVE", "postcode": "33785"}}},
{"geometry": {"type": "Point", "coordinates": [-82.849415609, 27.8826021396]}, "type": "Feature", "properties": {"collection_times": [{"days": "Mon-Fri", "time": "5:00pm"}, {"days": "Sat", "time": "12:00pm"}, {"days": "Sun", "time": "Closed"}], "id": "3378500001", "name": "USPS COLLECTION BOX - BLUE BOX", "address": {"city": "INDIAN RK BCH", "state": "FL", "street": "204 4TH AVE", "postcode": "33785"}}},
{"geometry": {"type": "Point", "coordinates": [-82.8487957385, 27.895652543]}, "type": "Feature", "properties": {"collection_times": [{"days": "Mon-Sat", "time": "10:00am"}, {"days": "Sun", "time": "Closed"}], "id": "3378500004", "name": "USPS COLLECTION BOX - BLUE BOX", "address": {"city": "INDIAN RK BCH", "state": "FL", "street": "1211 GULF BLVD", "postcode": "33785"}}},
{"geometry": {"type": "Point", "coordinates": [-82.8443277025, 27.8505995508]}, "type": "Feature", "properties": {"collection_times": [{"days": "Mon-Sat", "time": "1:00pm"}, {"days": "Sun", "time": "Closed"}], "id": "3378500006", "name": "USPS COLLECTION BOX - BLUE BOX", "address": {"city": "INDIAN RK BCH", "state": "FL", "street": "19455 GULF BLVD", "postcode": "33785"}}},
{"geometry": {"type": "Point", "coordinates": [-82.8447381893, 27.8870406017]}, "type": "Feature", "properties": {"collection_times": [{"days": "Mon-Sat", "time": "10:00am"}, {"days": "Sun", "time": "Closed"}], "id": "3378500009", "name": "USPS COLLECTION BOX - BLUE BOX", "address": {"city": "INDIAN RK BCH", "state": "FL", "street": "1 WINDRUSH BLVD", "postcode": "33785"}}}
]}
