{"type": "FeatureCollection", "features": [
{"geometry": {"type": "Point", "coordinates": [-81.9201067776, 28.0324341839]}, "type": "Feature", "properties": {"collection_times": [{"days": "Mon-Fri", "time": "3:30pm"}, {"days": "Sat", "time": "1:05pm"}, {"days": "Sun", "time": "Closed"}], "id": "3380100019", "name": "USPS COLLECTION BOX - BLUE BOX", "address": {"city": "LAKELAND", "state": "FL", "street": "1000 LONGFELLOW BLVD", "postcode": "33801"}}},
{"geometry": {"type": "Point", "coordinates": [-81.9538529985, 28.0416611084]}, "type": "Feature", "properties": {"collection_times": [{"days": "Mon-Fri", "time": "3:30pm"}, {"days": "Sat-Sun", "time": "Closed"}], "id": "3380100036", "name": "USPS COLLECTION BOX - BLUE BOX", "address": {"city": "LAKELAND", "state": "FL", "street": "425 E ORANGE ST", "postcode": "33801"}}},
{"geometry": {"type": "Point", "coordinates": [-81.950143134, 28.0375511648]}, "type": "Feature", "properties": {"collection_times": [{"days": "Mon-Fri", "time": "3:30pm"}, {"days": "Sat-Sun", "time": "Closed"}], "id": "3380100040", "name": "USPS COLLECTION BOX - BLUE BOX", "address": {"city": "LAKELAND", "state": "FL", "street": "100 LAKE MORTON DR", "postcode": "33801"}}},
{"geometry": {"type": "Point", "coordinates": [-81.8912513179, 28.0241986155]}, "type": "Feature", "properties": {"collection_times": [{"days": "Mon-Sat", "time": "10:00am"}, {"days": "Sun", "time": "Closed"}], "id": "3380100041", "name": "USPS COLLECTION BOX - BLUE BOX", "address": {"city": "LAKELAND", "state": "FL", "street": "1610 REYNOLDS RD", "postcode": "33801"}}},
{"geometry": {"type": "Point", "coordinates": [-81.956262276, 28.0452585929]}, "type": "Feature", "properties": {"collection_times": [{"days": "Mon-Fri", "time": "3:30pm"}, {"days": "Sat-Sun", "time": "Closed"}], "id": "3380100043", "name": "USPS COLLECTION BOX - BLUE BOX", "address": {"city": "LAKELAND", "state": "FL", "street": "124 S TENNESSEE AVE", "postcode": "33801"}}},
{"geometry": {"type": "Point", "coordinates": [-81.955245693, 28.045411254]}, "type": "Feature", "properties": {"collection_times": [{"days": "Mon-Fri", "time": "3:30pm"}, {"days": "Sat-Sun", "time": "Closed"}], "id": "3380100056", "name": "USPS COLLECTION BOX - BLUE BOX", "address": {"city": "LAKELAND", "state": "FL", "street": "200 N KENTUCKY AVE", "postcode": "33801"}}},
{"geometry": {"type": "Point", "coordinates": [-81.9571011401, 28.0387960111]}, "type": "Feature", "properties": {"collection_times": [{"days": "Mon-Fri", "time": "3:30pm"}, {"days": "Sat-Sun", "time": "Closed"}], "id": "3380100065", "name": "USPS COLLECTION BOX - BLUE BOX", "address": {"city": "LAKELAND", "state": "FL", "street": "500 S FLORIDA AVE", "postcode": "33801"}}},
{"geometry": {"type": "Point", "coordinates": [-81.9531388822, 28.039993571]}, "type": "Feature", "properties": {"collection_times": [{"days": "Mon-Fri", "time": "3:30pm"}, {"days": "Sat-Sun", "time": "Closed"}], "id": "3380100068", "name": "USPS COLLECTION BOX - BLUE BOX", "address": {"city": "LAKELAND", "state": "FL", "street": "39 LAKE MORTON DR", "postcode": "33801"}}},
{"geometry": {"type": "Point", "coordinates": [-81.95708, 28.01382]}, "type": "Feature", "properties": {"collection_times": [{"days": "Mon-Sat", "time": "10:00am"}, {"days": "Sun", "time": "Closed"}], "id": "3380300002", "name": "USPS COLLECTION BOX - BLUE BOX", "address": {"city": "LAKELAND", "state": "FL", "street": "2603 S FLORIDA AVE", "postcode": "33803"}}},
{"geometry": {"type": "Point", "coordinates": [-81.9747834378, 28.0006341077]}, "type": "Feature", "properties": {"collection_times": [{"days": "Mon-Fri", "time": "3:00pm"}, {"days": "Sat", "time": "2:00pm"}, {"days": "Sun", "time": "Closed"}], "id": "3380300003", "name": "USPS COLLECTION BOX - BLUE BOX", "address": {"city": "LAKELAND", "state": "FL", "street": "3636 HARDEN BLVD", "postcode": "33803"}}},
{"geometry": {"type": "Point", "coordinates": [-81.9803435064, 28.0258295636]}, "type": "Feature", "properties": {"collection_times": [{"days": "Mon-Sat", "time": "10:30am"}, {"days": "Sun", "time": "Closed"}], "id": "3380300006", "name": "USPS COLLECTION BOX - BLUE BOX", "address": {"city": "LAKELAND", "state": "FL", "street": "1510 ARIANA ST", "postcode": "33803"}}},
{"geometry": {"type": "Point", "coordinates": [-81.9803435064, 28.0258295636]}, "type": "Feature", "properties": {"collection_times": [{"days": "Mon-Sat", "time": "10:30am"}, {"days": "Sun", "time": "Closed"}], "id": "3380300007", "name": "USPS COLLECTION BOX - BLUE BOX", "address": {"city": "LAKELAND", "state": "FL", "street": "1510 ARIANA ST", "postcode": "33803"}}},
{"geometry": {"type": "Point", "coordinates": [-81.9831781089, 28.0259388599]}, "type": "Feature", "properties": {"collection_times": [{"days": "Mon-Sat", "time": "10:30am"}, {"days": "Sun", "time": "Closed"}], "id": "3380300008", "name": "USPS COLLECTION BOX - BLUE BOX", "address": {"city": "LAKELAND", "state": "FL", "street": "1625 ARIANA ST", "postcode": "33803"}}},
{"geometry": {"type": "Point", "coordinates": [-81.9488824439, 28.0008446488]}, "type": "Feature", "properties": {"collection_times": [{"days": "Mon-Fri", "time": "3:00pm"}, {"days": "Sat-Sun", "time": "Closed"}], "id": "3380300014", "name": "USPS COLLECTION BOX - BLUE BOX", "address": {"city": "LAKELAND", "state": "FL", "street": "3501 CLEVELAND HEIGHTS BLVD", "postcode": "33803"}}},
{"geometry": {"type": "Point", "coordinates": [-81.9571749149, 28.029416813]}, "type": "Feature", "properties": {"collection_times": [{"days": "Mon-Fri", "time": "5:00pm"}, {"days": "Sat", "time": "3:00pm"}, {"days": "Sun", "time": "Closed"}], "id": "3380300025", "name": "USPS COLLECTION BOX - BLUE BOX", "address": {"city": "LAKELAND", "state": "FL", "street": "1057 S FLORIDA AVE", "postcode": "33803"}}},
{"geometry": {"type": "Point", "coordinates": [-81.973761658, 28.0185179673]}, "type": "Feature", "properties": {"collection_times": [{"days": "Mon-Sat", "time": "10:00am"}, {"days": "Sun", "time": "Closed"}], "id": "3380300030", "name": "USPS COLLECTION BOX - BLUE BOX", "address": {"city": "LAKELAND", "state": "FL", "street": "1925 HARDEN BLVD", "postcode": "33803"}}},
{"geometry": {"type": "Point", "coordinates": [-81.9745312365, 28.0164791437]}, "type": "Feature", "properties": {"collection_times": [{"days": "Mon-Sat", "time": "9:30am"}, {"days": "Sun", "time": "Closed"}], "id": "3380300031", "name": "USPS COLLECTION BOX - BLUE BOX", "address": {"city": "LAKELAND", "state": "FL", "street": "2425 HARDEN BLVD", "postcode": "33803"}}},
{"geometry": {"type": "Point", "coordinates": [-81.9242145501, 28.0100931904]}, "type": "Feature", "properties": {"collection_times": [{"days": "Mon-Fri", "time": "3:00pm"}, {"days": "Sat", "time": "1:20pm"}, {"days": "Sun", "time": "Closed"}], "id": "3380300035", "name": "USPS COLLECTION BOX - BLUE BOX", "address": {"city": "LAKELAND", "state": "FL", "street": "2838 LAKELAND HIGHLANDS RD", "postcode": "33803"}}},
{"geometry": {"type": "Point", "coordinates": [-81.9758981733, 28.0259525869]}, "type": "Feature", "properties": {"collection_times": [{"days": "Mon-Fri", "time": "3:00pm"}, {"days": "Sat", "time": "2:10pm"}, {"days": "Sun", "time": "Closed"}], "id": "3380300037", "name": "USPS COLLECTION BOX - BLUE BOX", "address": {"city": "LAKELAND", "state": "FL", "street": "1311 ARIANA ST", "postcode": "33803"}}},
{"geometry": {"type": "Point", "coordinates": [-81.8898167965, 27.9967685463]}, "type": "Feature", "properties": {"collection_times": [{"days": "Mon-Fri", "time": "10:00am"}, {"days": "Sat-Sun", "time": "Closed"}], "id": "3380300039", "name": "USPS COLLECTION BOX - BLUE BOX", "address": {"city": "LAKELAND", "state": "FL", "street": "3433 WINTER LAKE RD", "postcode": "33803"}}},
{"geometry": {"type": "Point", "coordinates": [-81.9715988633, 28.0185596338]}, "type": "Feature", "properties": {"collection_times": [{"days": "Mon-Sat", "time": "10:00am"}, {"days": "Sun", "time": "Closed"}], "id": "3380300042", "name": "USPS COLLECTION BOX - BLUE BOX", "address": {"city": "LAKELAND", "state": "FL", "street": "1112 W BEACON RD", "postcode": "33803"}}},
{"geometry": {"type": "Point", "coordinates": [-81.9624468115, 28.0320552048]}, "type": "Feature", "properties": {"collection_times": [{"days": "Mon-Sat", "time": "9:30am"}, {"days": "Sun", "time": "Closed"}], "id": "3380300044", "name": "USPS COLLECTION BOX - BLUE BOX", "address": {"city": "LAKELAND", "state": "FL", "street": "16 LAKE HUNTER DR", "postcode": "33803"}}},
{"geometry": {"type": "Point", "coordinates": [-81.9533015138, 28.0612266996]}, "type": "Feature", "properties": {"collection_times": [{"days": "Mon-Fri", "time": "12:00pm"}, {"days": "Sat-Sun", "time": "Closed"}], "id": "3380500008", "name": "USPS COLLECTION BOX - BLUE BOX", "address": {"city": "LAKELAND", "state": "FL", "street": "1324 LAKELAND HILLS BLVD", "postcode": "33805"}}},
{"geometry": {"type": "Point", "coordinates": [-81.9441761522, 28.1034913667]}, "type": "Feature", "properties": {"collection_times": [{"days": "Mon-Sat", "time": "12:00pm"}, {"days": "Sun", "time": "Closed"}], "id": "3380500011", "name": "USPS COLLECTION BOX - BLUE BOX", "address": {"city": "LAKELAND", "state": "FL", "street": "4747 STATE ROAD 33 N", "postcode": "33805"}}},
{"geometry": {"type": "Point", "coordinates": [-81.9533412183, 28.0777822004]}, "type": "Feature", "properties": {"collection_times": [{"days": "Mon-Sat", "time": "5:00pm"}, {"days": "Sun", "time": "Closed"}], "id": "3380500022", "name": "USPS COLLECTION BOX - BLUE BOX", "address": {"city": "LAKELAND", "state": "FL", "street": "2800 LAKELAND HILLS BLVD", "postcode": "33805"}}},
{"geometry": {"type": "Point", "coordinates": [-81.9533412183, 28.0777822004]}, "type": "Feature", "properties": {"collection_times": [{"days": "Mon-Sat", "time": "5:00pm"}, {"days": "Sun", "time": "Closed"}], "id": "3380500023", "name": "USPS COLLECTION BOX - BLUE BOX", "address": {"city": "LAKELAND", "state": "FL", "street": "2800 LAKELAND HILLS BLVD", "postcode": "33805"}}},
{"geometry": {"type": "Point", "coordinates": [-81.9533412183, 28.0777822004]}, "type": "Feature", "properties": {"collection_times": [{"days": "Mon-Sat", "time": "5:00pm"}, {"days": "Sun", "time": "Closed"}], "id": "3380500027", "name": "USPS COLLECTION BOX - APC", "address": {"city": "LAKELAND", "state": "FL", "street": "2800 LAKELAND HILLS BLVD", "postcode": "33805"}}},
{"geometry": {"type": "Point", "coordinates": [-81.8928, 27.987232]}, "type": "Feature", "properties": {"collection_times": [{"days": "Mon-Sat", "time": "10:30am"}, {"days": "Sun", "time": "Closed"}], "id": "3380900005", "name": "USPS COLLECTION BOX - BLUE BOX", "address": {"city": "LAKELAND", "state": "FL", "street": "4444 US HIGHWAY 98 S", "postcode": "33809"}}},
{"geometry": {"type": "Point", "coordinates": [-81.9735392199, 28.1063399596]}, "type": "Feature", "properties": {"collection_times": [{"days": "Mon-Sat", "time": "12:00pm"}, {"days": "Sun", "time": "Closed"}], "id": "3380900007", "name": "USPS COLLECTION BOX - BLUE BOX", "address": {"city": "LAKELAND", "state": "FL", "street": "4969 US HIGHWAY 98 N", "postcode": "33809"}}},
{"geometry": {"type": "Point", "coordinates": [-81.9734354757, 28.1281176294]}, "type": "Feature", "properties": {"collection_times": [{"days": "Mon-Fri", "time": "2:30pm"}, {"days": "Sat", "time": "12:35pm"}, {"days": "Sun", "time": "Closed"}], "id": "3380900008", "name": "USPS COLLECTION BOX - BLUE BOX", "address": {"city": "LAKELAND", "state": "FL", "street": "6701 US HIGHWAY 98 N", "postcode": "33809"}}},
{"geometry": {"type": "Point", "coordinates": [-81.9563858992, 28.1363650492]}, "type": "Feature", "properties": {"collection_times": [{"days": "Mon-Sat", "time": "10:00am"}, {"days": "Sun", "time": "Closed"}], "id": "3380900009", "name": "USPS COLLECTION BOX - BLUE BOX", "address": {"city": "LAKELAND", "state": "FL", "street": "7405 N SOCRUM LOOP RD", "postcode": "33809"}}},
{"geometry": {"type": "Point", "coordinates": [-81.9955083045, 28.1833044545]}, "type": "Feature", "properties": {"collection_times": [{"days": "Mon-Sat", "time": "10:30am"}, {"days": "Sun", "time": "Closed"}], "id": "3380900013", "name": "USPS COLLECTION BOX - BLUE BOX", "address": {"city": "LAKELAND", "state": "FL", "street": "10000 US HIGHWAY 98 N", "postcode": "33809"}}},
{"geometry": {"type": "Point", "coordinates": [-81.9464468461, 28.1117870703]}, "type": "Feature", "properties": {"collection_times": [{"days": "Mon-Fri", "time": "3:00pm"}, {"days": "Sat", "time": "12:45pm"}, {"days": "Sun", "time": "Closed"}], "id": "3380900014", "name": "USPS COLLECTION BOX - BLUE BOX", "address": {"city": "LAKELAND", "state": "FL", "street": "5375 N SOCRUM LOOP RD", "postcode": "33809"}}},
{"geometry": {"type": "Point", "coordinates": [-81.9976872138, 28.1864816614]}, "type": "Feature", "properties": {"collection_times": [{"days": "Mon-Sat", "time": "10:00am"}, {"days": "Sun", "time": "Closed"}], "id": "3380900016", "name": "USPS COLLECTION BOX - BLUE BOX", "address": {"city": "LAKELAND", "state": "FL", "street": "10300 US HIGHWAY 98 N", "postcode": "33809"}}},
{"geometry": {"type": "Point", "coordinates": [-81.9737982951, 28.1369430947]}, "type": "Feature", "properties": {"collection_times": [{"days": "Mon-Sat", "time": "12:00pm"}, {"days": "Sun", "time": "Closed"}], "id": "3380900017", "name": "USPS COLLECTION BOX - BLUE BOX", "address": {"city": "LAKELAND", "state": "FL", "street": "4444 US HWY 98 N", "postcode": "33809"}}},
{"geometry": {"type": "Point", "coordinates": [-81.990814, 28.08307]}, "type": "Feature", "properties": {"collection_times": [{"days": "Mon-Sat", "time": "11:00am"}, {"days": "Sun", "time": "Closed"}], "id": "3381000000", "name": "USPS COLLECTION BOX - BLUE BOX", "address": {"city": "LAKELAND", "state": "FL", "street": "3173 SAND TRAP CT", "postcode": "33810"}}},
{"geometry": {"type": "Point", "coordinates": [-81.9823847806, 28.0999648118]}, "type": "Feature", "properties": {"collection_times": [{"days": "Mon-Sat", "time": "10:00am"}, {"days": "Sun", "time": "Closed"}], "id": "3381000001", "name": "USPS COLLECTION BOX - BLUE BOX", "address": {"city": "LAKELAND", "state": "FL", "street": "4500 WILLIAMSTOWN BLVD", "postcode": "33810"}}},
{"geometry": {"type": "Point", "coordinates": [-81.9926831588, 28.0804261587]}, "type": "Feature", "properties": {"collection_times": [{"days": "Mon-Sat", "time": "11:30am"}, {"days": "Sun", "time": "Closed"}], "id": "3381000002", "name": "USPS COLLECTION BOX - BLUE BOX", "address": {"city": "LAKELAND", "state": "FL", "street": "2300 GRIFFIN RD", "postcode": "33810"}}},
{"geometry": {"type": "Point", "coordinates": [-81.9806021199, 27.9749104703]}, "type": "Feature", "properties": {"collection_times": [{"days": "Mon-Sat", "time": "11:00am"}, {"days": "Sun", "time": "Closed"}], "id": "3381100005", "name": "USPS COLLECTION BOX - BLUE BOX", "address": {"city": "LAKELAND", "state": "FL", "street": "1501 W PIPKIN RD", "postcode": "33811"}}},
{"geometry": {"type": "Point", "coordinates": [-82.0028427764, 27.9965907884]}, "type": "Feature", "properties": {"collection_times": [{"days": "Mon-Fri", "time": "4:30pm"}, {"days": "Sat-Sun", "time": "Closed"}], "id": "3381100009", "name": "USPS COLLECTION BOX - BLUE BOX", "address": {"city": "LAKELAND", "state": "FL", "street": "3816 INDUSTRY BLVD", "postcode": "33811"}}},
{"geometry": {"type": "Point", "coordinates": [-82.01267, 27.9816]}, "type": "Feature", "properties": {"collection_times": [{"days": "Mon-Sat", "time": "10:00am"}, {"days": "Sun", "time": "Closed"}], "id": "3381100010", "name": "USPS COLLECTION BOX - BLUE BOX", "address": {"city": "LAKELAND", "state": "FL", "street": "3200 FLIGHTLINE DR", "postcode": "33811"}}},
{"geometry": {"type": "Point", "coordinates": [-81.9672156032, 27.9573470186]}, "type": "Feature", "properties": {"collection_times": [{"days": "Mon-Fri", "time": "5:00pm"}, {"days": "Sat", "time": "2:30pm"}, {"days": "Sun", "time": "Closed"}], "id": "3381300006", "name": "USPS COLLECTION BOX - BLUE BOX", "address": {"city": "LAKELAND", "state": "FL", "street": "6000 S FLORIDA AVE", "postcode": "33813"}}},
{"geometry": {"type": "Point", "coordinates": [-81.9609223094, 27.973965703]}, "type": "Feature", "properties": {"collection_times": [{"days": "Mon-Fri", "time": "4:30pm"}, {"days": "Sat-Sun", "time": "Closed"}], "id": "3381300017", "name": "USPS COLLECTION BOX - BLUE BOX", "address": {"city": "LAKELAND", "state": "FL", "street": "5015 S FLORIDA AVE", "postcode": "33813"}}},
{"geometry": {"type": "Point", "coordinates": [-81.956672284, 27.9857027419]}, "type": "Feature", "properties": {"collection_times": [{"days": "Mon-Fri", "time": "5:00pm"}, {"days": "Sat-Sun", "time": "Closed"}], "id": "3381300021", "name": "USPS COLLECTION BOX - BLUE BOX", "address": {"city": "LAKELAND", "state": "FL", "street": "4404 S FLORIDA AVE", "postcode": "33813"}}},
{"geometry": {"type": "Point", "coordinates": [-81.9610518315, 27.9926505762]}, "type": "Feature", "properties": {"collection_times": [{"days": "Mon-Sat", "time": "11:00am"}, {"days": "Sun", "time": "Closed"}], "id": "3381300022", "name": "USPS COLLECTION BOX - BLUE BOX", "address": {"city": "LAKELAND", "state": "FL", "street": "3929 OLD ROAD 37", "postcode": "33813"}}},
{"geometry": {"type": "Point", "coordinates": [-81.9244184144, 27.9527499382]}, "type": "Feature", "properties": {"collection_times": [{"days": "Mon-Fri", "time": "3:30pm"}, {"days": "Sat", "time": "1:35pm"}, {"days": "Sun", "time": "Closed"}], "id": "3381300025", "name": "USPS COLLECTION BOX - BLUE BOX", "address": {"city": "LAKELAND", "state": "FL", "street": "2161 E COUNTY ROAD 540A", "postcode": "33813"}}},
{"geometry": {"type": "Point", "coordinates": [-81.9672156032, 27.9573470186]}, "type": "Feature", "properties": {"collection_times": [{"days": "Mon-Fri", "time": "5:00pm"}, {"days": "Sat", "time": "4:10pm"}, {"days": "Sun", "time": "Closed"}], "id": "3381300029", "name": "USPS COLLECTION BOX - APC", "address": {"city": "LAKELAND", "state": "FL", "street": "6000 S FLORIDA AVE", "postcode": "33813"}}},
{"geometry": {"type": "Point", "coordinates": [-82.0132039249, 28.0366784857]}, "type": "Feature", "properties": {"collection_times": [{"days": "Mon-Sat", "time": "10:00am"}, {"days": "Sun", "time": "Closed"}], "id": "3381500015", "name": "USPS COLLECTION BOX - BLUE BOX", "address": {"city": "LAKELAND", "state": "FL", "street": "3801 NEW TAMPA HWY", "postcode": "33815"}}},
{"geometry": {"type": "Point", "coordinates": [-81.9583104409, 28.0449175481]}, "type": "Feature", "properties": {"collection_times": [{"days": "Mon-Fri", "time": "5:00pm"}, {"days": "Sat", "time": "1:00pm"}, {"days": "Sun", "time": "Closed"}], "id": "3381500018", "name": "USPS COLLECTION BOX - BLUE BOX", "address": {"city": "LAKELAND", "state": "FL", "street": "210 N MISSOURI AVE", "postcode": "33815"}}},
{"geometry": {"type": "Point", "coordinates": [-81.9583104409, 28.0449175481]}, "type": "Feature", "properties": {"collection_times": [{"days": "Mon-Fri", "time": "5:00pm"}, {"days": "Sat", "time": "1:00pm"}, {"days": "Sun", "time": "Closed"}], "id": "3381500019", "name": "USPS COLLECTION BOX - BLUE BOX", "address": {"city": "LAKELAND", "state": "FL", "street": "210 N MISSOURI AVE", "postcode": "33815"}}},
{"geometry": {"type": "Point", "coordinates": [-81.7874932439, 28.0653292715]}, "type": "Feature", "properties": {"collection_times": [{"days": "Mon-Fri", "time": "5:00pm"}, {"days": "Sat", "time": "3:00pm"}, {"days": "Sun", "time": "Closed"}], "id": "3382300015", "name": "USPS COLLECTION BOX - BLUE BOX", "address": {"city": "AUBURNDALE", "state": "FL", "street": "307 PONTOTOC ST", "postcode": "33823"}}},
{"geometry": {"type": "Point", "coordinates": [-81.7874932439, 28.0653292715]}, "type": "Feature", "properties": {"collection_times": [{"days": "Mon-Fri", "time": "5:00pm"}, {"days": "Sat", "time": "3:00pm"}, {"days": "Sun", "time": "Closed"}], "id": "3382300016", "name": "USPS COLLECTION BOX - BLUE BOX", "address": {"city": "AUBURNDALE", "state": "FL", "street": "307 PONTOTOC ST", "postcode": "33823"}}},
{"geometry": {"type": "Point", "coordinates": [-81.500394109, 27.5955408921]}, "type": "Feature", "properties": {"collection_times": [{"days": "Mon-Sat", "time": "1:30pm"}, {"days": "Sun", "time": "Closed"}], "id": "3382500008", "name": "USPS COLLECTION BOX - BLUE BOX", "address": {"city": "AVON PARK", "state": "FL", "street": "60 E MAIN ST", "postcode": "33825"}}},
{"geometry": {"type": "Point", "coordinates": [-81.5001641344, 27.5946460912]}, "type": "Feature", "properties": {"collection_times": [{"days": "Mon-Fri", "time": "5:00pm"}, {"days": "Sat", "time": "4:00pm"}, {"days": "Sun", "time": "Closed"}], "id": "3382500012", "name": "USPS COLLECTION BOX - BLUE BOX", "address": {"city": "AVON PARK", "state": "FL", "street": "100 S VERONA AVE", "postcode": "33825"}}},
{"geometry": {"type": "Point", "coordinates": [-81.532725941, 27.8414574569]}, "type": "Feature", "properties": {"collection_times": [{"days": "Mon-Fri", "time": "3:45pm"}, {"days": "Sat", "time": "12:00pm"}, {"days": "Sun", "time": "Closed"}], "id": "3382700003", "name": "USPS COLLECTION BOX - BLUE BOX", "address": {"city": "BABSON PARK", "state": "FL", "street": "1200 N SCENIC HWY", "postcode": "33827"}}},
{"geometry": {"type": "Point", "coordinates": [-81.8423243579, 27.8954809748]}, "type": "Feature", "properties": {"collection_times": [{"days": "Mon-Fri", "time": "5:00pm"}, {"days": "Sat", "time": "4:00pm"}, {"days": "Sun", "time": "Closed"}], "id": "3383000004", "name": "USPS COLLECTION BOX - BLUE BOX", "address": {"city": "BARTOW", "state": "FL", "street": "220 S CENTRAL AVE", "postcode": "33830"}}},
{"geometry": {"type": "Point", "coordinates": [-81.845734199, 27.8980323248]}, "type": "Feature", "properties": {"collection_times": [{"days": "Mon-Fri", "time": "4:15pm"}, {"days": "Sat-Sun", "time": "Closed"}], "id": "3383000014", "name": "USPS COLLECTION BOX - BLUE BOX", "address": {"city": "BARTOW", "state": "FL", "street": "330 W CHURCH ST", "postcode": "33830"}}},
{"geometry": {"type": "Point", "coordinates": [-81.8223412862, 27.888718875]}, "type": "Feature", "properties": {"collection_times": [{"days": "Mon-Fri", "time": "4:35pm"}, {"days": "Sat-Sun", "time": "Closed"}], "id": "3383000015", "name": "USPS COLLECTION BOX - BLUE BOX", "address": {"city": "BARTOW", "state": "FL", "street": "1290 GOLFVIEW AVE", "postcode": "33830"}}},
{"geometry": {"type": "Point", "coordinates": [-81.7882583968, 27.9516289579]}, "type": "Feature", "properties": {"collection_times": [{"days": "Mon-Fri", "time": "4:30pm"}, {"days": "Sat-Sun", "time": "Closed"}], "id": "3383000016", "name": "USPS COLLECTION BOX - BLUE BOX", "address": {"city": "BARTOW", "state": "FL", "street": "4000 US HWY 17 N", "postcode": "33830"}}},
{"geometry": {"type": "Point", "coordinates": [-81.8467391923, 27.919016606]}, "type": "Feature", "properties": {"collection_times": [{"days": "Mon-Fri", "time": "4:10pm"}, {"days": "Sat-Sun", "time": "Closed"}], "id": "3383000017", "name": "USPS COLLECTION BOX - BLUE BOX", "address": {"city": "BARTOW", "state": "FL", "street": "2200 OSPREY BLVD", "postcode": "33830"}}},
{"geometry": {"type": "Point", "coordinates": [-81.8333577297, 27.8968966385]}, "type": "Feature", "properties": {"collection_times": [{"days": "Mon-Fri", "time": "4:55pm"}, {"days": "Sat-Sun", "time": "Closed"}], "id": "3383000018", "name": "USPS COLLECTION BOX - BLUE BOX", "address": {"city": "BARTOW", "state": "FL", "street": "970 E MAIN ST", "postcode": "33830"}}},
{"geometry": {"type": "Point", "coordinates": [-81.828495974, 27.8786529381]}, "type": "Feature", "properties": {"collection_times": [{"days": "Mon-Fri", "time": "4:30pm"}, {"days": "Sat-Sun", "time": "Closed"}], "id": "3383000032", "name": "USPS COLLECTION BOX - BLUE BOX", "address": {"city": "BARTOW", "state": "FL", "street": "1702 US HIGHWAY 17 S", "postcode": "33830"}}},
{"geometry": {"type": "Point", "coordinates": [-81.8287250652, 27.867212876]}, "type": "Feature", "properties": {"collection_times": [{"days": "Mon-Fri", "time": "4:30pm"}, {"days": "Sat-Sun", "time": "Closed"}], "id": "3383000035", "name": "USPS COLLECTION BOX - BLUE BOX", "address": {"city": "BARTOW", "state": "FL", "street": "2455 US HIGHWAY 17 S", "postcode": "33830"}}},
{"geometry": {"type": "Point", "coordinates": [-81.8433638276, 27.8976723349]}, "type": "Feature", "properties": {"collection_times": [{"days": "Mon-Fri", "time": "4:15pm"}, {"days": "Sat-Sun", "time": "Closed"}], "id": "3383000038", "name": "USPS COLLECTION BOX - BLUE BOX", "address": {"city": "BARTOW", "state": "FL", "street": "255 N BROADWAY AVE", "postcode": "33830"}}},
{"geometry": {"type": "Point", "coordinates": [-81.7408794384, 27.9157392022]}, "type": "Feature", "properties": {"collection_times": [{"days": "Mon-Sat", "time": "9:30am"}, {"days": "Sun", "time": "Closed"}], "id": "3383000039", "name": "USPS COLLECTION BOX - BLUE BOX", "address": {"city": "BARTOW", "state": "FL", "street": "6815 STATE ROAD 60 E", "postcode": "33830"}}},
{"geometry": {"type": "Point", "coordinates": [-81.8452902811, 27.874384484]}, "type": "Feature", "properties": {"collection_times": [{"days": "Mon-Sat", "time": "2:00pm"}, {"days": "Sun", "time": "Closed"}], "id": "3383000040", "name": "USPS COLLECTION BOX - BLUE BOX", "address": {"city": "BARTOW", "state": "FL", "street": "2055 FLORAL LAKES BLVD", "postcode": "33830"}}},
{"geometry": {"type": "Point", "coordinates": [-81.8430494189, 27.9038964574]}, "type": "Feature", "properties": {"collection_times": [{"days": "Mon-Fri", "time": "4:10pm"}, {"days": "Sat-Sun", "time": "Closed"}], "id": "3383000041", "name": "USPS COLLECTION BOX - BLUE BOX", "address": {"city": "BARTOW", "state": "FL", "street": "115 E VAN FLEET DR", "postcode": "33830"}}},
{"geometry": {"type": "Point", "coordinates": [-81.8297693757, 27.8969535803]}, "type": "Feature", "properties": {"collection_times": [{"days": "Mon-Fri", "time": "4:55pm"}, {"days": "Sat-Sun", "time": "Closed"}], "id": "3383000042", "name": "USPS COLLECTION BOX - BLUE BOX", "address": {"city": "BARTOW", "state": "FL", "street": "1350 E MAIN ST", "postcode": "33830"}}},
{"geometry": {"type": "Point", "coordinates": [-81.8223528912, 27.6383341259]}, "type": "Feature", "properties": {"collection_times": [{"days": "Mon-Fri", "time": "4:30pm"}, {"days": "Sat", "time": "11:45am"}, {"days": "Sun", "time": "Closed"}], "id": "3383400001", "name": "USPS COLLECTION BOX - BLUE BOX", "address": {"city": "BOWLING GREEN", "state": "FL", "street": "4702 CENTRAL AVE", "postcode": "33834"}}},
{"geometry": {"type": "Point", "coordinates": [-81.5996297251, 28.1539663542]}, "type": "Feature", "properties": {"collection_times": [{"days": "Mon-Fri", "time": "5:00pm"}, {"days": "Sat", "time": "3:00pm"}, {"days": "Sun", "time": "Closed"}], "id": "3383700003", "name": "USPS COLLECTION BOX - BLUE BOX", "address": {"city": "DAVENPORT", "state": "FL", "street": "1 SOUTH BLVD E", "postcode": "33837"}}},
{"geometry": {"type": "Point", "coordinates": [-81.6404216271, 28.2166110443]}, "type": "Feature", "properties": {"collection_times": [{"days": "Mon-Sat", "time": "11:00am"}, {"days": "Sun", "time": "Closed"}], "id": "3383700005", "name": "USPS COLLECTION BOX - BLUE BOX", "address": {"city": "DAVENPORT", "state": "FL", "street": "42621 HIGHWAY 27", "postcode": "33837"}}},
{"geometry": {"type": "Point", "coordinates": [-81.6694380536, 28.3102741392]}, "type": "Feature", "properties": {"collection_times": [{"days": "Mon-Sat", "time": "11:00am"}, {"days": "Sun", "time": "Closed"}], "id": "3383700008", "name": "USPS COLLECTION BOX - BLUE BOX", "address": {"city": "DAVENPORT", "state": "FL", "street": "2424 SAND MINE RD", "postcode": "33837"}}},
{"geometry": {"type": "Point", "coordinates": [-81.6092112406, 28.1910875949]}, "type": "Feature", "properties": {"collection_times": [{"days": "Mon-Sat", "time": "11:00am"}, {"days": "Sun", "time": "Closed"}], "id": "3383700011", "name": "USPS COLLECTION BOX - BLUE BOX", "address": {"city": "DAVENPORT", "state": "FL", "street": "5700 RONALD REAGAN PKWY", "postcode": "33837"}}},
{"geometry": {"type": "Point", "coordinates": [-81.6228631728, 28.0209593763]}, "type": "Feature", "properties": {"collection_times": [{"days": "Mon-Fri", "time": "4:15pm"}, {"days": "Sat", "time": "12:00pm"}, {"days": "Sun", "time": "Closed"}], "id": "3383800001", "name": "USPS COLLECTION BOX - BLUE BOX", "address": {"city": "DUNDEE", "state": "FL", "street": "103 ATLANTIC AVE", "postcode": "33838"}}},
{"geometry": {"type": "Point", "coordinates": [-81.7559527583, 27.9782113765]}, "type": "Feature", "properties": {"collection_times": [{"days": "Mon-Fri", "time": "4:30pm"}, {"days": "Sat", "time": "8:45am"}, {"days": "Sun", "time": "Closed"}], "id": "3383900000", "name": "USPS COLLECTION BOX - BLUE BOX", "address": {"city": "EAGLE LAKE", "state": "FL", "street": "665 N US HIGHWAY 17", "postcode": "33839"}}},
{"geometry": {"type": "Point", "coordinates": [-81.9072620997, 28.0104703002]}, "type": "Feature", "properties": {"collection_times": [{"days": "Mon-Fri", "time": "4:30pm"}, {"days": "Sat", "time": "9:00am"}, {"days": "Sun", "time": "Closed"}], "id": "3384000001", "name": "USPS COLLECTION BOX - BLUE BOX", "address": {"city": "EATON PARK", "state": "FL", "street": "2615 ELLIS AVE", "postcode": "33840"}}},
{"geometry": {"type": "Point", "coordinates": [-81.8031066779, 27.7520608524]}, "type": "Feature", "properties": {"collection_times": [{"days": "Mon-Fri", "time": "5:00pm"}, {"days": "Sat", "time": "12:00pm"}, {"days": "Sun", "time": "Closed"}], "id": "3384100001", "name": "USPS COLLECTION BOX - BLUE BOX", "address": {"city": "FORT MEADE", "state": "FL", "street": "21 N SEMINOLE AVE", "postcode": "33841"}}},
{"geometry": {"type": "Point", "coordinates": [-81.3982502404, 27.7155750045]}, "type": "Feature", "properties": {"collection_times": [{"days": "Mon-Sat", "time": "9:30am"}, {"days": "Sun", "time": "Closed"}], "id": "3384300001", "name": "USPS COLLECTION BOX - BLUE BOX", "address": {"city": "FROSTPROOF", "state": "FL", "street": "10400 HWY 27", "postcode": "33843"}}},
{"geometry": {"type": "Point", "coordinates": [-81.5305674937, 27.7447753253]}, "type": "Feature", "properties": {"collection_times": [{"days": "Mon-Fri", "time": "5:00pm"}, {"days": "Sat", "time": "12:00pm"}, {"days": "Sun", "time": "Closed"}], "id": "3384300004", "name": "USPS COLLECTION BOX - BLUE BOX", "address": {"city": "FROSTPROOF", "state": "FL", "street": "1 W 1ST ST", "postcode": "33843"}}},
{"geometry": {"type": "Point", "coordinates": [-81.5778005255, 28.0696474167]}, "type": "Feature", "properties": {"collection_times": [{"days": "Mon-Fri", "time": "9:15am"}, {"days": "Sat", "time": "9:00am"}, {"days": "Sun", "time": "Closed"}], "id": "3384400002", "name": "USPS COLLECTION BOX - BLUE BOX", "address": {"city": "HAINES CITY", "state": "FL", "street": "36205 HWY 27", "postcode": "33844"}}},
{"geometry": {"type": "Point", "coordinates": [-81.6355429026, 28.1432048505]}, "type": "Feature", "properties": {"collection_times": [{"days": "Mon-Sat", "time": "9:00am"}, {"days": "Sun", "time": "Closed"}], "id": "3384400006", "name": "USPS COLLECTION BOX - BLUE BOX", "address": {"city": "HAINES CITY", "state": "FL", "street": "251 PATTERSON RD", "postcode": "33844"}}},
{"geometry": {"type": "Point", "coordinates": [-81.623778277, 28.0845517627]}, "type": "Feature", "properties": {"collection_times": [{"days": "Mon-Fri", "time": "5:00pm"}, {"days": "Sat", "time": "3:00pm"}, {"days": "Sun", "time": "Closed"}], "id": "3384400018", "name": "USPS COLLECTION BOX - BLUE BOX", "address": {"city": "HAINES CITY", "state": "FL", "street": "1051 SR 544 E", "postcode": "33844"}}},
{"geometry": {"type": "Point", "coordinates": [-81.623778277, 28.0845517627]}, "type": "Feature", "properties": {"collection_times": [{"days": "Mon-Fri", "time": "5:00pm"}, {"days": "Sat", "time": "3:00pm"}, {"days": "Sun", "time": "Closed"}], "id": "3384400019", "name": "USPS COLLECTION BOX - BLUE BOX", "address": {"city": "HAINES CITY", "state": "FL", "street": "1051 SR 544 E", "postcode": "33844"}}},
{"geometry": {"type": "Point", "coordinates": [-81.7309346401, 28.0918835785]}, "type": "Feature", "properties": {"collection_times": [{"days": "Mon-Fri", "time": "5:00pm"}, {"days": "Sat", "time": "11:00am"}, {"days": "Sun", "time": "Closed"}], "id": "3385000002", "name": "USPS COLLECTION BOX - BLUE BOX", "address": {"city": "LAKE ALFRED", "state": "FL", "street": "195 W HAINES BLVD", "postcode": "33850"}}},
{"geometry": {"type": "Point", "coordinates": [-81.7191419711, 28.1097721045]}, "type": "Feature", "properties": {"collection_times": [{"days": "Mon-Sat", "time": "8:30am"}, {"days": "Sun", "time": "Closed"}], "id": "3385000004", "name": "USPS COLLECTION BOX - BLUE BOX", "address": {"city": "LAKE ALFRED", "state": "FL", "street": "1000 CYPRESS CREEK BLVD", "postcode": "33850"}}},
{"geometry": {"type": "Point", "coordinates": [-81.6222874347, 28.0441613295]}, "type": "Feature", "properties": {"collection_times": [{"days": "Mon-Fri", "time": "3:45pm"}, {"days": "Sat", "time": "10:15am"}, {"days": "Sun", "time": "Closed"}], "id": "3385100001", "name": "USPS COLLECTION BOX - BLUE BOX", "address": {"city": "LAKE HAMILTON", "state": "FL", "street": "201 MAIN ST", "postcode": "33851"}}},
{"geometry": {"type": "Point", "coordinates": [-81.3284117598, 27.2084492349]}, "type": "Feature", "properties": {"collection_times": [{"days": "Mon-Sat", "time": "10:00am"}, {"days": "Sun", "time": "Closed"}], "id": "3385200005", "name": "USPS COLLECTION BOX - BLUE BOX", "address": {"city": "LAKE PLACID", "state": "FL", "street": "303 SR 70 E", "postcode": "33852"}}},
{"geometry": {"type": "Point", "coordinates": [-81.3628017244, 27.3038773207]}, "type": "Feature", "properties": {"collection_times": [{"days": "Mon-Fri", "time": "5:00pm"}, {"days": "Sat", "time": "4:00pm"}, {"days": "Sun", "time": "Closed"}], "id": "3385200006", "name": "USPS COLLECTION BOX - BLUE BOX", "address": {"city": "LAKE PLACID", "state": "FL", "street": "901 HILLCREST AVE", "postcode": "33852"}}},
{"geometry": {"type": "Point", "coordinates": [-81.3628017244, 27.3038773207]}, "type": "Feature", "properties": {"collection_times": [{"days": "Mon-Fri", "time": "5:00pm"}, {"days": "Sat", "time": "4:00pm"}, {"days": "Sun", "time": "Closed"}], "id": "3385200007", "name": "USPS COLLECTION BOX - BLUE BOX", "address": {"city": "LAKE PLACID", "state": "FL", "street": "901 HILLCREST AVE", "postcode": "33852"}}},
{"geometry": {"type": "Point", "coordinates": [-81.58702035, 27.8931591176]}, "type": "Feature", "properties": {"collection_times": [{"days": "Mon-Fri", "time": "2:50pm"}, {"days": "Sat", "time": "11:50am"}, {"days": "Sun", "time": "Closed"}], "id": "3385300003", "name": "USPS COLLECTION BOX - BLUE BOX", "address": {"city": "LAKE WALES", "state": "FL", "street": "223 DOMARIS AVE", "postcode": "33853"}}},
{"geometry": {"type": "Point", "coordinates": [-81.588108066, 27.9020165608]}, "type": "Feature", "properties": {"collection_times": [{"days": "Mon-Fri", "time": "2:55pm"}, {"days": "Sat", "time": "11:55am"}, {"days": "Sun", "time": "Closed"}], "id": "3385300006", "name": "USPS COLLECTION BOX - BLUE BOX", "address": {"city": "LAKE WALES", "state": "FL", "street": "201 E STUART AVE", "postcode": "33853"}}},
{"geometry": {"type": "Point", "coordinates": [-81.5899931417, 27.9026067477]}, "type": "Feature", "properties": {"collection_times": [{"days": "Mon-Fri", "time": "5:00pm"}, {"days": "Sat", "time": "4:00pm"}, {"days": "Sun", "time": "Closed"}], "id": "3385300021", "name": "USPS COLLECTION BOX - BLUE BOX", "address": {"city": "LAKE WALES", "state": "FL", "street": "19 W PARK AVE", "postcode": "33853"}}},
{"geometry": {"type": "Point", "coordinates": [-81.5651659643, 27.9065515261]}, "type": "Feature", "properties": {"collection_times": [{"days": "Mon-Fri", "time": "12:00pm"}, {"days": "Sat", "time": "11:30am"}, {"days": "Sun", "time": "Closed"}], "id": "3385300033", "name": "USPS COLLECTION BOX - BLUE BOX", "address": {"city": "LAKE WALES", "state": "FL", "street": "1080 N LAKESHORE BLVD", "postcode": "33853"}}},
{"geometry": {"type": "Point", "coordinates": [-81.5561204181, 27.8940449652]}, "type": "Feature", "properties": {"collection_times": [{"days": "Mon-Fri", "time": "11:00am"}, {"days": "Sat", "time": "10:30am"}, {"days": "Sun", "time": "Closed"}], "id": "3385300035", "name": "USPS COLLECTION BOX - BLUE BOX", "address": {"city": "LAKE WALES", "state": "FL", "street": "1960 STATE ROAD 60 E", "postcode": "33853"}}},
{"geometry": {"type": "Point", "coordinates": [-81.5937406008, 27.9012422132]}, "type": "Feature", "properties": {"collection_times": [{"days": "Mon-Fri", "time": "3:00pm"}, {"days": "Sat", "time": "12:00pm"}, {"days": "Sun", "time": "Closed"}], "id": "3385300045", "name": "USPS COLLECTION BOX - BLUE BOX", "address": {"city": "LAKE WALES", "state": "FL", "street": "201 W CENTRAL AVE", "postcode": "33853"}}},
{"geometry": {"type": "Point", "coordinates": [-81.5647297067, 27.8962930705]}, "type": "Feature", "properties": {"collection_times": [{"days": "Mon-Fri", "time": "2:40pm"}, {"days": "Sat", "time": "11:40am"}, {"days": "Sun", "time": "Closed"}], "id": "3385300046", "name": "USPS COLLECTION BOX - BLUE BOX", "address": {"city": "LAKE WALES", "state": "FL", "street": "414 S 11TH ST", "postcode": "33853"}}},
{"geometry": {"type": "Point", "coordinates": [-81.2545107502, 27.4441213569]}, "type": "Feature", "properties": {"collection_times": [{"days": "Mon-Fri", "time": "3:45pm"}, {"days": "Sat", "time": "12:15pm"}, {"days": "Sun", "time": "Closed"}], "id": "3385700001", "name": "USPS COLLECTION BOX - BLUE BOX", "address": {"city": "LORIDA", "state": "FL", "street": "1665 US HIGHWAY 98", "postcode": "33857"}}},
{"geometry": {"type": "Point", "coordinates": [-81.9739687707, 27.9113676168]}, "type": "Feature", "properties": {"collection_times": [{"days": "Mon-Fri", "time": "5:00pm"}, {"days": "Sat", "time": "2:30pm"}, {"days": "Sun", "time": "Closed"}], "id": "3386000006", "name": "USPS COLLECTION BOX - BLUE BOX", "address": {"city": "MULBERRY", "state": "FL", "street": "2000 MULFORD RD", "postcode": "33860"}}},
{"geometry": {"type": "Point", "coordinates": [-81.8300699799, 28.1782205055]}, "type": "Feature", "properties": {"collection_times": [{"days": "Mon-Fri", "time": "4:30pm"}, {"days": "Sat", "time": "9:00am"}, {"days": "Sun", "time": "Closed"}], "id": "3386800001", "name": "USPS COLLECTION BOX - BLUE BOX", "address": {"city": "POLK CITY", "state": "FL", "street": "112 CARTER BLVD", "postcode": "33868"}}},
{"geometry": {"type": "Point", "coordinates": [-81.4870084101, 27.4790932607]}, "type": "Feature", "properties": {"collection_times": [{"days": "Mon-Sat", "time": "10:00am"}, {"days": "Sun", "time": "Closed"}], "id": "3387000002", "name": "USPS COLLECTION BOX - BLUE BOX", "address": {"city": "SEBRING", "state": "FL", "street": "2122 JACARANDA WAY", "postcode": "33870"}}},
{"geometry": {"type": "Point", "coordinates": [-81.4492849921, 27.4723824215]}, "type": "Feature", "properties": {"collection_times": [{"days": "Mon-Fri", "time": "3:30pm"}, {"days": "Sat-Sun", "time": "Closed"}], "id": "3387000005", "name": "USPS COLLECTION BOX - BLUE BOX", "address": {"city": "SEBRING", "state": "FL", "street": "2617 US HIGHWAY 27 S", "postcode": "33870"}}},
{"geometry": {"type": "Point", "coordinates": [-81.4480539069, 27.472751215]}, "type": "Feature", "properties": {"collection_times": [{"days": "Mon-Fri", "time": "4:30pm"}, {"days": "Sat", "time": "12:30pm"}, {"days": "Sun", "time": "Closed"}], "id": "3387000006", "name": "USPS COLLECTION BOX - BLUE BOX", "address": {"city": "SEBRING", "state": "FL", "street": "2838 US HIGHWAY 27 S", "postcode": "33870"}}},
{"geometry": {"type": "Point", "coordinates": [-81.441673334, 27.4939541123]}, "type": "Feature", "properties": {"collection_times": [{"days": "Mon-Fri", "time": "3:30pm"}, {"days": "Sat-Sun", "time": "Closed"}], "id": "3387000007", "name": "USPS COLLECTION BOX - BLUE BOX", "address": {"city": "SEBRING", "state": "FL", "street": "231 S RIDGEWOOD DR", "postcode": "33870"}}},
{"geometry": {"type": "Point", "coordinates": [-81.4354228795, 27.49103841]}, "type": "Feature", "properties": {"collection_times": [{"days": "Mon-Fri", "time": "3:30pm"}, {"days": "Sat-Sun", "time": "Closed"}], "id": "3387000009", "name": "USPS COLLECTION BOX - BLUE BOX", "address": {"city": "SEBRING", "state": "FL", "street": "600 S COMMERCE AVE", "postcode": "33870"}}},
{"geometry": {"type": "Point", "coordinates": [-81.4379211419, 27.4931937734]}, "type": "Feature", "properties": {"collection_times": [{"days": "Mon-Fri", "time": "3:30pm"}, {"days": "Sat-Sun", "time": "Closed"}], "id": "3387000012", "name": "USPS COLLECTION BOX - BLUE BOX", "address": {"city": "SEBRING", "state": "FL", "street": "368 S COMMERCE AVE", "postcode": "33870"}}},
{"geometry": {"type": "Point", "coordinates": [-81.4367851917, 27.4663425948]}, "type": "Feature", "properties": {"collection_times": [{"days": "Mon-Sat", "time": "10:00am"}, {"days": "Sun", "time": "Closed"}], "id": "3387000015", "name": "USPS COLLECTION BOX - BLUE BOX", "address": {"city": "SEBRING", "state": "FL", "street": "3651 US HIGHWAY 27 S", "postcode": "33870"}}},
{"geometry": {"type": "Point", "coordinates": [-81.4336519358, 27.4651940329]}, "type": "Feature", "properties": {"collection_times": [{"days": "Mon-Fri", "time": "3:30pm"}, {"days": "Sat", "time": "1:00pm"}, {"days": "Sun", "time": "Closed"}], "id": "3387000016", "name": "USPS COLLECTION BOX - BLUE BOX", "address": {"city": "SEBRING", "state": "FL", "street": "3600 S HIGHLANDS AVE", "postcode": "33870"}}},
{"geometry": {"type": "Point", "coordinates": [-81.5081066897, 27.5145371955]}, "type": "Feature", "properties": {"collection_times": [{"days": "Mon-Sat", "time": "11:00am"}, {"days": "Sun", "time": "Closed"}], "id": "3387000023", "name": "USPS COLLECTION BOX - BLUE BOX", "address": {"city": "SEBRING", "state": "FL", "street": "4343 SCHUMACHER RD", "postcode": "33870"}}},
{"geometry": {"type": "Point", "coordinates": [-81.506910815, 27.5468823658]}, "type": "Feature", "properties": {"collection_times": [{"days": "Mon-Fri", "time": "3:30pm"}, {"days": "Sat-Sun", "time": "Closed"}], "id": "3387000025", "name": "USPS COLLECTION BOX - BLUE BOX", "address": {"city": "SEBRING", "state": "FL", "street": "6801 US HIGHWAY 27 N", "postcode": "33870"}}},
{"geometry": {"type": "Point", "coordinates": [-81.4395167474, 27.4999923457]}, "type": "Feature", "properties": {"collection_times": [{"days": "Mon-Fri", "time": "5:00pm"}, {"days": "Sat", "time": "4:00pm"}, {"days": "Sun", "time": "Closed"}], "id": "3387000028", "name": "USPS COLLECTION BOX - BLUE BOX", "address": {"city": "SEBRING", "state": "FL", "street": "518 N RIDGEWOOD DR", "postcode": "33870"}}},
{"geometry": {"type": "Point", "coordinates": [-81.5061768008, 27.5457977171]}, "type": "Feature", "properties": {"collection_times": [{"days": "Mon-Sat", "time": "10:00am"}, {"days": "Sun", "time": "Closed"}], "id": "3387000032", "name": "USPS COLLECTION BOX - BLUE BOX", "address": {"city": "SEBRING", "state": "FL", "street": "6750 US HIGHWAY 27 N", "postcode": "33870"}}},
{"geometry": {"type": "Point", "coordinates": [-81.4952961508, 27.5160962035]}, "type": "Feature", "properties": {"collection_times": [{"days": "Mon-Fri", "time": "3:30pm"}, {"days": "Sat", "time": "12:20pm"}, {"days": "Sun", "time": "Closed"}], "id": "3387000033", "name": "USPS COLLECTION BOX - BLUE BOX", "address": {"city": "SEBRING", "state": "FL", "street": "3750 US HIGHWAY 27 N", "postcode": "33870"}}},
{"geometry": {"type": "Point", "coordinates": [-81.4925181517, 27.5134024661]}, "type": "Feature", "properties": {"collection_times": [{"days": "Mon-Fri", "time": "3:30pm"}, {"days": "Sat", "time": "12:15pm"}, {"days": "Sun", "time": "Closed"}], "id": "3387000037", "name": "USPS COLLECTION BOX - BLUE BOX", "address": {"city": "SEBRING", "state": "FL", "street": "800 SEBRING SQ", "postcode": "33870"}}},
{"geometry": {"type": "Point", "coordinates": [-81.3848522377, 27.4973410058]}, "type": "Feature", "properties": {"collection_times": [{"days": "Mon-Sat", "time": "11:00am"}, {"days": "Sun", "time": "Closed"}], "id": "3387000038", "name": "USPS COLLECTION BOX - BLUE BOX", "address": {"city": "SEBRING", "state": "FL", "street": "10000 ASH LN", "postcode": "33870"}}},
{"geometry": {"type": "Point", "coordinates": [-81.5073628907, 27.5145977563]}, "type": "Feature", "properties": {"collection_times": [{"days": "Mon-Sat", "time": "11:00am"}, {"days": "Sun", "time": "Closed"}], "id": "3387000044", "name": "USPS COLLECTION BOX - BLUE BOX", "address": {"city": "SEBRING", "state": "FL", "street": "3000 TANGLEWOOD PKWY", "postcode": "33870"}}},
{"geometry": {"type": "Point", "coordinates": [-81.4845745657, 27.4881229608]}, "type": "Feature", "properties": {"collection_times": [{"days": "Mon-Fri", "time": "5:00pm"}, {"days": "Sat", "time": "4:30pm"}, {"days": "Sun", "time": "Closed"}], "id": "3387000046", "name": "USPS COLLECTION BOX - BLUE BOX", "address": {"city": "SEBRING", "state": "FL", "street": "829 MALL RING RD", "postcode": "33870"}}},
{"geometry": {"type": "Point", "coordinates": [-81.808810377, 27.5481477004]}, "type": "Feature", "properties": {"collection_times": [{"days": "Mon-Fri", "time": "5:00pm"}, {"days": "Sat", "time": "3:15pm"}, {"days": "Sun", "time": "Closed"}], "id": "3387300005", "name": "USPS COLLECTION BOX - BLUE BOX", "address": {"city": "WAUCHULA", "state": "FL", "street": "300 E MAIN ST", "postcode": "33873"}}},
{"geometry": {"type": "Point", "coordinates": [-81.7356397134, 27.9920379703]}, "type": "Feature", "properties": {"collection_times": [{"days": "Mon-Sat", "time": "1:00pm"}, {"days": "Sun", "time": "Closed"}], "id": "3388000009", "name": "USPS COLLECTION BOX - BLUE BOX", "address": {"city": "WINTER HAVEN", "state": "FL", "street": "506 SNIVELY AVE", "postcode": "33880"}}},
{"geometry": {"type": "Point", "coordinates": [-81.7258848417, 28.0222688988]}, "type": "Feature", "properties": {"collection_times": [{"days": "Mon-Fri", "time": "3:00pm"}, {"days": "Sat-Sun", "time": "Closed"}], "id": "3388000039", "name": "USPS COLLECTION BOX - BLUE BOX", "address": {"city": "WINTER HAVEN", "state": "FL", "street": "141 E CENTRAL AVE", "postcode": "33880"}}},
{"geometry": {"type": "Point", "coordinates": [-81.7271393525, 28.0220556815]}, "type": "Feature", "properties": {"collection_times": [{"days": "Mon-Fri", "time": "5:00pm"}, {"days": "Sat", "time": "4:30pm"}, {"days": "Sun", "time": "Closed"}], "id": "3388000044", "name": "USPS COLLECTION BOX - BLUE BOX", "address": {"city": "WINTER HAVEN", "state": "FL", "street": "111 W CENTRAL AVE", "postcode": "33880"}}},
{"geometry": {"type": "Point", "coordinates": [-81.7271393525, 28.0220556815]}, "type": "Feature", "properties": {"collection_times": [{"days": "Mon-Fri", "time": "5:00pm"}, {"days": "Sat", "time": "4:30pm"}, {"days": "Sun", "time": "Closed"}], "id": "3388000045", "name": "USPS COLLECTION BOX - BLUE BOX", "address": {"city": "WINTER HAVEN", "state": "FL", "street": "111 W CENTRAL AVE", "postcode": "33880"}}},
{"geometry": {"type": "Point", "coordinates": [-81.7205291326, 28.0112388549]}, "type": "Feature", "properties": {"collection_times": [{"days": "Mon-Fri", "time": "3:00pm"}, {"days": "Sat", "time": "2:00pm"}, {"days": "Sun", "time": "Closed"}], "id": "3388000059", "name": "USPS COLLECTION BOX - BLUE BOX", "address": {"city": "WINTER HAVEN", "state": "FL", "street": "501 AVENUE K SE", "postcode": "33880"}}},
{"geometry": {"type": "Point", "coordinates": [-81.7271393525, 28.0220556815]}, "type": "Feature", "properties": {"collection_times": [{"days": "Mon-Fri", "time": "5:00pm"}, {"days": "Sat", "time": "4:30pm"}, {"days": "Sun", "time": "Closed"}], "id": "3388000070", "name": "USPS COLLECTION BOX - APC", "address": {"city": "WINTER HAVEN", "state": "FL", "street": "111 W CENTRAL AVE", "postcode": "33880"}}},
{"geometry": {"type": "Point", "coordinates": [-81.7267379027, 28.0277262984]}, "type": "Feature", "properties": {"collection_times": [{"days": "Mon-Fri", "time": "3:00pm"}, {"days": "Sat", "time": "2:00pm"}, {"days": "Sun", "time": "Closed"}], "id": "3388100002", "name": "USPS COLLECTION BOX - BLUE BOX", "address": {"city": "WINTER HAVEN", "state": "FL", "street": "200 AVENUE F NE", "postcode": "33881"}}},
{"geometry": {"type": "Point", "coordinates": [-81.7379892003, 28.0441320981]}, "type": "Feature", "properties": {"collection_times": [{"days": "Mon-Fri", "time": "3:00pm"}, {"days": "Sat", "time": "2:00pm"}, {"days": "Sun", "time": "Closed"}], "id": "3388100007", "name": "USPS COLLECTION BOX - BLUE BOX", "address": {"city": "WINTER HAVEN", "state": "FL", "street": "1080 HAVENDALE BLVD NW", "postcode": "33881"}}},
{"geometry": {"type": "Point", "coordinates": [-81.7269535866, 28.0365007278]}, "type": "Feature", "properties": {"collection_times": [{"days": "Mon-Fri", "time": "5:00pm"}, {"days": "Sat", "time": "4:30pm"}, {"days": "Sun", "time": "Closed"}], "id": "3388100015", "name": "USPS COLLECTION BOX - BLUE BOX", "address": {"city": "WINTER HAVEN", "state": "FL", "street": "1401 1ST ST N", "postcode": "33881"}}},
{"geometry": {"type": "Point", "coordinates": [-81.7302763795, 28.0268412104]}, "type": "Feature", "properties": {"collection_times": [{"days": "Mon-Fri", "time": "3:00pm"}, {"days": "Sat-Sun", "time": "Closed"}], "id": "3388100030", "name": "USPS COLLECTION BOX - BLUE BOX", "address": {"city": "WINTER HAVEN", "state": "FL", "street": "500 3RD ST NW", "postcode": "33881"}}},
{"geometry": {"type": "Point", "coordinates": [-81.6856690176, 27.9967177022]}, "type": "Feature", "properties": {"collection_times": [{"days": "Mon-Fri", "time": "3:00pm"}, {"days": "Sat", "time": "2:00pm"}, {"days": "Sun", "time": "Closed"}], "id": "3388400005", "name": "USPS COLLECTION BOX - BLUE BOX", "address": {"city": "WINTER HAVEN", "state": "FL", "street": "3019 CYPRESS GARDENS RD", "postcode": "33884"}}},
{"geometry": {"type": "Point", "coordinates": [-81.6591489787, 27.9785684578]}, "type": "Feature", "properties": {"collection_times": [{"days": "Mon-Fri", "time": "3:00pm"}, {"days": "Sat", "time": "2:00pm"}, {"days": "Sun", "time": "Closed"}], "id": "3388400015", "name": "USPS COLLECTION BOX - BLUE BOX", "address": {"city": "WINTER HAVEN", "state": "FL", "street": "5660 CYPRESS GARDENS BLVD", "postcode": "33884"}}},
{"geometry": {"type": "Point", "coordinates": [-81.7963230622, 27.4960324431]}, "type": "Feature", "properties": {"collection_times": [{"days": "Mon-Fri", "time": "4:15pm"}, {"days": "Sat", "time": "12:00pm"}, {"days": "Sun", "time": "Closed"}], "id": "3389000001", "name": "USPS COLLECTION BOX - BLUE BOX", "address": {"city": "ZOLFO SPRINGS", "state": "FL", "street": "3141 US HIGHWAY 17 S", "postcode": "33890"}}}
]}
