{"type": "FeatureCollection", "features": [
{"geometry": {"type": "Point", "coordinates": [-81.8698723529, 26.6418307871]}, "type": "Feature", "properties": {"collection_times": [{"days": "Mon-Fri", "time": "3:00pm"}, {"days": "Sat", "time": "1:00pm"}, {"days": "Sun", "time": "Closed"}], "id": "3390100010", "name": "USPS COLLECTION BOX - BLUE BOX", "address": {"city": "FORT MYERS", "state": "FL", "street": "2115 2ND ST", "postcode": "33901"}}},
{"geometry": {"type": "Point", "coordinates": [-81.8678483101, 26.6454459097]}, "type": "Feature", "properties": {"collection_times": [{"days": "Mon-Fri", "time": "3:00pm"}, {"days": "Sat", "time": "1:00pm"}, {"days": "Sun", "time": "Closed"}], "id": "3390100011", "name": "USPS COLLECTION BOX - BLUE BOX", "address": {"city": "FORT MYERS", "state": "FL", "street": "2400 E FIRST ST", "postcode": "33901"}}},
{"geometry": {"type": "Point", "coordinates": [-81.8678483101, 26.6454459097]}, "type": "Feature", "properties": {"collection_times": [{"days": "Mon-Fri", "time": "3:00pm"}, {"days": "Sat", "time": "1:00pm"}, {"days": "Sun", "time": "Closed"}], "id": "3390100012", "name": "USPS COLLECTION BOX - BLUE BOX", "address": {"city": "FORT MYERS", "state": "FL", "street": "2400 E FIRST ST", "postcode": "33901"}}},
{"geometry": {"type": "Point", "coordinates": [-81.8719185633, 26.641590206]}, "type": "Feature", "properties": {"collection_times": [{"days": "Mon-Fri", "time": "3:00pm"}, {"days": "Sat", "time": "1:00pm"}, {"days": "Sun", "time": "Closed"}], "id": "3390100013", "name": "USPS COLLECTION BOX - BLUE BOX", "address": {"city": "FORT MYERS", "state": "FL", "street": "2000 MAIN ST", "postcode": "33901"}}},
{"geometry": {"type": "Point", "coordinates": [-81.8725691667, 26.6442613206]}, "type": "Feature", "properties": {"collection_times": [{"days": "Mon-Fri", "time": "5:00pm"}, {"days": "Sat", "time": "2:00pm"}, {"days": "Sun", "time": "Closed"}], "id": "3390100039", "name": "USPS COLLECTION BOX - BLUE BOX", "address": {"city": "FORT MYERS", "state": "FL", "street": "1350 MONROE ST", "postcode": "33901"}}},
{"geometry": {"type": "Point", "coordinates": [-81.8634666301, 26.6419798399]}, "type": "Feature", "properties": {"collection_times": [{"days": "Mon-Fri", "time": "3:00pm"}, {"days": "Sat", "time": "1:00pm"}, {"days": "Sun", "time": "Closed"}], "id": "3390100052", "name": "USPS COLLECTION BOX - BLUE BOX", "address": {"city": "FORT MYERS", "state": "FL", "street": "2480 THOMPSON ST", "postcode": "33901"}}},
{"geometry": {"type": "Point", "coordinates": [-81.8670379832, 26.6371521844]}, "type": "Feature", "properties": {"collection_times": [{"days": "Mon-Fri", "time": "3:00pm"}, {"days": "Sat", "time": "1:00pm"}, {"days": "Sun", "time": "Closed"}], "id": "3390100058", "name": "USPS COLLECTION BOX - BLUE BOX", "address": {"city": "FORT MYERS", "state": "FL", "street": "2295 VICTORIA AVE", "postcode": "33901"}}},
{"geometry": {"type": "Point", "coordinates": [-81.8670379832, 26.6371521844]}, "type": "Feature", "properties": {"collection_times": [{"days": "Mon-Fri", "time": "3:00pm"}, {"days": "Sat", "time": "1:00pm"}, {"days": "Sun", "time": "Closed"}], "id": "3390100059", "name": "USPS COLLECTION BOX - BLUE BOX", "address": {"city": "FORT MYERS", "state": "FL", "street": "2295 VICTORIA AVE", "postcode": "33901"}}},
{"geometry": {"type": "Point", "coordinates": [-81.8634666301, 26.6419798399]}, "type": "Feature", "properties": {"collection_times": [{"days": "Mon-Fri", "time": "3:00pm"}, {"days": "Sat", "time": "1:00pm"}, {"days": "Sun", "time": "Closed"}], "id": "3390100061", "name": "USPS COLLECTION BOX - BLUE BOX", "address": {"city": "FORT MYERS", "state": "FL", "street": "2480 THOMPSON ST", "postcode": "33901"}}},
{"geometry": {"type": "Point", "coordinates": [-81.8698723529, 26.6418307871]}, "type": "Feature", "properties": {"collection_times": [{"days": "Mon-Fri", "time": "3:00pm"}, {"days": "Sat", "time": "1:00pm"}, {"days": "Sun", "time": "Closed"}], "id": "3390100069", "name": "USPS COLLECTION BOX - BLUE BOX", "address": {"city": "FORT MYERS", "state": "FL", "street": "2115 2ND ST", "postcode": "33901"}}},
{"geometry": {"type": "Point", "coordinates": [-81.8719185633, 26.641590206]}, "type": "Feature", "properties": {"collection_times": [{"days": "Mon-Fri", "time": "3:00pm"}, {"days": "Sat", "time": "1:00pm"}, {"days": "Sun", "time": "Closed"}], "id": "3390100070", "name": "USPS COLLECTION BOX - BLUE BOX", "address": {"city": "FORT MYERS", "state": "FL", "street": "2000 MAIN ST", "postcode": "33901"}}},
{"geometry": {"type": "Point", "coordinates": [-81.857213509, 26.6336423451]}, "type": "Feature", "properties": {"collection_times": [{"days": "Mon-Sat", "time": "1:00pm"}, {"days": "Sun", "time": "Closed"}], "id": "3390100077", "name": "USPS COLLECTION BOX - BLUE BOX", "address": {"city": "FORT MYERS", "state": "FL", "street": "2736 EDISON AVE", "postcode": "33901"}}},
{"geometry": {"type": "Point", "coordinates": [-81.8843621042, 26.6850215442]}, "type": "Feature", "properties": {"collection_times": [{"days": "Mon-Fri", "time": "5:00pm"}, {"days": "Sat", "time": "3:00pm"}, {"days": "Sun", "time": "Closed"}], "id": "3390300007", "name": "USPS COLLECTION BOX - BLUE BOX", "address": {"city": "N FT MYERS", "state": "FL", "street": "1882 N TAMIAMI TRL", "postcode": "33903"}}},
{"geometry": {"type": "Point", "coordinates": [-81.8910201103, 26.6606126266]}, "type": "Feature", "properties": {"collection_times": [{"days": "Mon-Fri", "time": "3:00pm"}, {"days": "Sat", "time": "1:00pm"}, {"days": "Sun", "time": "Closed"}], "id": "3390300016", "name": "USPS COLLECTION BOX - BLUE BOX", "address": {"city": "N FT MYERS", "state": "FL", "street": "3434 HANCOCK BRIDGE PKWY", "postcode": "33903"}}},
{"geometry": {"type": "Point", "coordinates": [-81.9480718552, 26.5646249702]}, "type": "Feature", "properties": {"collection_times": [{"days": "Mon-Sat", "time": "1:00pm"}, {"days": "Sun", "time": "Closed"}], "id": "3390400001", "name": "USPS COLLECTION BOX - BLUE BOX", "address": {"city": "CAPE CORAL", "state": "FL", "street": "1320 SE 47TH TER", "postcode": "33904"}}},
{"geometry": {"type": "Point", "coordinates": [-81.9417619521, 26.5634526579]}, "type": "Feature", "properties": {"collection_times": [{"days": "Mon-Fri", "time": "5:00pm"}, {"days": "Sat", "time": "1:00pm"}, {"days": "Sun", "time": "Closed"}], "id": "3390400006", "name": "USPS COLLECTION BOX - BLUE BOX", "address": {"city": "CAPE CORAL", "state": "FL", "street": "4722 SE 17TH AVE", "postcode": "33904"}}},
{"geometry": {"type": "Point", "coordinates": [-81.9417619521, 26.5634526579]}, "type": "Feature", "properties": {"collection_times": [{"days": "Mon-Fri", "time": "5:00pm"}, {"days": "Sat", "time": "1:00pm"}, {"days": "Sun", "time": "Closed"}], "id": "3390400007", "name": "USPS COLLECTION BOX - BLUE BOX", "address": {"city": "CAPE CORAL", "state": "FL", "street": "4722 SE 17TH AVE", "postcode": "33904"}}},
{"geometry": {"type": "Point", "coordinates": [-81.9417619521, 26.5634526579]}, "type": "Feature", "properties": {"collection_times": [{"days": "Mon-Fri", "time": "5:00pm"}, {"days": "Sat", "time": "1:00pm"}, {"days": "Sun", "time": "Closed"}], "id": "3390400008", "name": "USPS COLLECTION BOX - BLUE BOX", "address": {"city": "CAPE CORAL", "state": "FL", "street": "4722 SE 17TH AVE", "postcode": "33904"}}},
{"geometry": {"type": "Point", "coordinates": [-81.9411752045, 26.6060391806]}, "type": "Feature", "properties": {"collection_times": [{"days": "Mon-Sat", "time": "1:00pm"}, {"days": "Sun", "time": "Closed"}], "id": "3390400013", "name": "USPS COLLECTION BOX - BLUE BOX", "address": {"city": "CAPE CORAL", "state": "FL", "street": "2503 DEL PRADO BLVD S", "postcode": "33904"}}},
{"geometry": {"type": "Point", "coordinates": [-81.8185768862, 26.6729993899]}, "type": "Feature", "properties": {"collection_times": [{"days": "Mon-Fri", "time": "5:00pm"}, {"days": "Sat", "time": "12:00pm"}, {"days": "Sun", "time": "Closed"}], "id": "3390500002", "name": "USPS COLLECTION BOX - BLUE BOX", "address": {"city": "FORT MYERS", "state": "FL", "street": "4585 PALM BEACH BLVD", "postcode": "33905"}}},
{"geometry": {"type": "Point", "coordinates": [-81.7211519347, 26.7098461957]}, "type": "Feature", "properties": {"collection_times": [{"days": "Mon-Sat", "time": "10:00am"}, {"days": "Sun", "time": "Closed"}], "id": "3390500008", "name": "USPS COLLECTION BOX - BLUE BOX", "address": {"city": "FORT MYERS", "state": "FL", "street": "14362 PALM BEACH BLVD", "postcode": "33905"}}},
{"geometry": {"type": "Point", "coordinates": [-81.8045032234, 26.6562368613]}, "type": "Feature", "properties": {"collection_times": [{"days": "Mon-Fri", "time": "1:00pm"}, {"days": "Sat", "time": "12:00pm"}, {"days": "Sun", "time": "Closed"}], "id": "3390500013", "name": "USPS COLLECTION BOX - BLUE BOX", "address": {"city": "FORT MYERS", "state": "FL", "street": "5100 LUCKETT RD", "postcode": "33905"}}},
{"geometry": {"type": "Point", "coordinates": [-81.7211519347, 26.7098461957]}, "type": "Feature", "properties": {"collection_times": [{"days": "Mon-Sat", "time": "10:00am"}, {"days": "Sun", "time": "Closed"}], "id": "3390500021", "name": "USPS COLLECTION BOX - BLUE BOX", "address": {"city": "FORT MYERS", "state": "FL", "street": "14362 PALM BEACH BLVD", "postcode": "33905"}}},
{"geometry": {"type": "Point", "coordinates": [-81.8750584196, 26.5554546806]}, "type": "Feature", "properties": {"collection_times": [{"days": "Mon-Fri", "time": "3:00pm"}, {"days": "Sat", "time": "1:00pm"}, {"days": "Sun", "time": "Closed"}], "id": "3390700001", "name": "USPS COLLECTION BOX - BLUE BOX", "address": {"city": "FORT MYERS", "state": "FL", "street": "12734 KENWOOD LN", "postcode": "33907"}}},
{"geometry": {"type": "Point", "coordinates": [-81.8826528659, 26.58961191]}, "type": "Feature", "properties": {"collection_times": [{"days": "Mon-Fri", "time": "3:00pm"}, {"days": "Sat", "time": "1:00pm"}, {"days": "Sun", "time": "Closed"}], "id": "3390700002", "name": "USPS COLLECTION BOX - BLUE BOX", "address": {"city": "FORT MYERS", "state": "FL", "street": "23 BARKLEY CIR", "postcode": "33907"}}},
{"geometry": {"type": "Point", "coordinates": [-81.8587016714, 26.5934915349]}, "type": "Feature", "properties": {"collection_times": [{"days": "Mon-Fri", "time": "5:00pm"}, {"days": "Sat", "time": "2:00pm"}, {"days": "Sun", "time": "Closed"}], "id": "3390700017", "name": "USPS COLLECTION BOX - BLUE BOX", "address": {"city": "FORT MYERS", "state": "FL", "street": "2655 N AIRPORT RD", "postcode": "33907"}}},
{"geometry": {"type": "Point", "coordinates": [-81.8587016714, 26.5934915349]}, "type": "Feature", "properties": {"collection_times": [{"days": "Mon-Fri", "time": "5:00pm"}, {"days": "Sat", "time": "2:00pm"}, {"days": "Sun", "time": "Closed"}], "id": "3390700018", "name": "USPS COLLECTION BOX - BLUE BOX", "address": {"city": "FORT MYERS", "state": "FL", "street": "2655 N AIRPORT RD", "postcode": "33907"}}},
{"geometry": {"type": "Point", "coordinates": [-81.8714886822, 26.5514112218]}, "type": "Feature", "properties": {"collection_times": [{"days": "Mon-Fri", "time": "3:00pm"}, {"days": "Sat", "time": "1:00pm"}, {"days": "Sun", "time": "Closed"}], "id": "3390700022", "name": "USPS COLLECTION BOX - BLUE BOX", "address": {"city": "FORT MYERS", "state": "FL", "street": "13099 S CLEVELAND AVE", "postcode": "33907"}}},
{"geometry": {"type": "Point", "coordinates": [-81.8714886822, 26.5514112218]}, "type": "Feature", "properties": {"collection_times": [{"days": "Mon-Fri", "time": "3:00pm"}, {"days": "Sat", "time": "1:00pm"}, {"days": "Sun", "time": "Closed"}], "id": "3390700023", "name": "USPS COLLECTION BOX - BLUE BOX", "address": {"city": "FORT MYERS", "state": "FL", "street": "13099 S CLEVELAND AVE", "postcode": "33907"}}},
{"geometry": {"type": "Point", "coordinates": [-81.8714886822, 26.5514112218]}, "type": "Feature", "properties": {"collection_times": [{"days": "Mon-Fri", "time": "3:00pm"}, {"days": "Sat", "time": "1:00pm"}, {"days": "Sun", "time": "Closed"}], "id": "3390700024", "name": "USPS COLLECTION BOX - BLUE BOX", "address": {"city": "FORT MYERS", "state": "FL", "street": "13099 S CLEVELAND AVE", "postcode": "33907"}}},
{"geometry": {"type": "Point", "coordinates": [-81.8885767163, 26.5963645704]}, "type": "Feature", "properties": {"collection_times": [{"days": "Mon-Fri", "time": "3:00pm"}, {"days": "Sat", "time": "1:00pm"}, {"days": "Sun", "time": "Closed"}], "id": "3390700026", "name": "USPS COLLECTION BOX - BLUE BOX", "address": {"city": "FORT MYERS", "state": "FL", "street": "1400 COLONIAL BLVD", "postcode": "33907"}}},
{"geometry": {"type": "Point", "coordinates": [-81.8885767163, 26.5963645704]}, "type": "Feature", "properties": {"collection_times": [{"days": "Mon-Fri", "time": "3:00pm"}, {"days": "Sat", "time": "1:00pm"}, {"days": "Sun", "time": "Closed"}], "id": "3390700027", "name": "USPS COLLECTION BOX - BLUE BOX", "address": {"city": "FORT MYERS", "state": "FL", "street": "1400 COLONIAL BLVD", "postcode": "33907"}}},
{"geometry": {"type": "Point", "coordinates": [-81.8885767163, 26.5963645704]}, "type": "Feature", "properties": {"collection_times": [{"days": "Mon-Fri", "time": "3:00pm"}, {"days": "Sat", "time": "1:00pm"}, {"days": "Sun", "time": "Closed"}], "id": "3390700028", "name": "USPS COLLECTION BOX - BLUE BOX", "address": {"city": "FORT MYERS", "state": "FL", "street": "1400 COLONIAL BLVD", "postcode": "33907"}}},
{"geometry": {"type": "Point", "coordinates": [-81.8750584196, 26.5554546806]}, "type": "Feature", "properties": {"collection_times": [{"days": "Mon-Fri", "time": "3:00pm"}, {"days": "Sat", "time": "1:00pm"}, {"days": "Sun", "time": "Closed"}], "id": "3390700031", "name": "USPS COLLECTION BOX - BLUE BOX", "address": {"city": "FORT MYERS", "state": "FL", "street": "12734 KENWOOD LN", "postcode": "33907"}}},
{"geometry": {"type": "Point", "coordinates": [-81.8807502733, 26.5583389784]}, "type": "Feature", "properties": {"collection_times": [{"days": "Mon-Fri", "time": "3:00pm"}, {"days": "Sat", "time": "1:00pm"}, {"days": "Sun", "time": "Closed"}], "id": "3390700036", "name": "USPS COLLECTION BOX - BLUE BOX", "address": {"city": "FORT MYERS", "state": "FL", "street": "12681 NEW BRITTANY BLVD", "postcode": "33907"}}},
{"geometry": {"type": "Point", "coordinates": [-81.8807502733, 26.5583389784]}, "type": "Feature", "properties": {"collection_times": [{"days": "Mon-Fri", "time": "3:00pm"}, {"days": "Sat", "time": "1:00pm"}, {"days": "Sun", "time": "Closed"}], "id": "3390700037", "name": "USPS COLLECTION BOX - BLUE BOX", "address": {"city": "FORT MYERS", "state": "FL", "street": "12681 NEW BRITTANY BLVD", "postcode": "33907"}}},
{"geometry": {"type": "Point", "coordinates": [-81.8587016714, 26.5934915349]}, "type": "Feature", "properties": {"collection_times": [{"days": "Mon-Fri", "time": "5:00pm"}, {"days": "Sat", "time": "2:00pm"}, {"days": "Sun", "time": "Closed"}], "id": "3390700068", "name": "USPS COLLECTION BOX - APC", "address": {"city": "FORT MYERS", "state": "FL", "street": "2655 N AIRPORT RD", "postcode": "33907"}}},
{"geometry": {"type": "Point", "coordinates": [-81.837831026, 26.477751142]}, "type": "Feature", "properties": {"collection_times": [{"days": "Mon-Fri", "time": "5:00pm"}, {"days": "Sat", "time": "1:45pm"}, {"days": "Sun", "time": "Closed"}], "id": "3390800013", "name": "USPS COLLECTION BOX - BLUE BOX", "address": {"city": "FORT MYERS", "state": "FL", "street": "18011 US HIGHWAY 41 S", "postcode": "33908"}}},
{"geometry": {"type": "Point", "coordinates": [-81.9141859827, 26.5034326016]}, "type": "Feature", "properties": {"collection_times": [{"days": "Mon-Fri", "time": "5:00pm"}, {"days": "Sat", "time": "2:30pm"}, {"days": "Sun", "time": "Closed"}], "id": "3390800020", "name": "USPS COLLECTION BOX - BLUE BOX", "address": {"city": "FORT MYERS", "state": "FL", "street": "9981 S HEALTHPARK DR", "postcode": "33908"}}},
{"geometry": {"type": "Point", "coordinates": [-81.9421842685, 26.5160656877]}, "type": "Feature", "properties": {"collection_times": [{"days": "Mon-Fri", "time": "5:00pm"}, {"days": "Sat", "time": "2:30pm"}, {"days": "Sun", "time": "Closed"}], "id": "3390800026", "name": "USPS COLLECTION BOX - BLUE BOX", "address": {"city": "FORT MYERS", "state": "FL", "street": "11600 GLADIOLUS DR", "postcode": "33908"}}},
{"geometry": {"type": "Point", "coordinates": [-81.8559643043, 26.5017258591]}, "type": "Feature", "properties": {"collection_times": [{"days": "Mon-Fri", "time": "1:00pm"}, {"days": "Sat", "time": "10:00am"}, {"days": "Sun", "time": "Closed"}], "id": "3390800029", "name": "USPS COLLECTION BOX - BLUE BOX", "address": {"city": "FORT MYERS", "state": "FL", "street": "16520 S TAMIAMI TRL", "postcode": "33908"}}},
{"geometry": {"type": "Point", "coordinates": [-81.8420550728, 26.5465611868]}, "type": "Feature", "properties": {"collection_times": [{"days": "Mon-Fri", "time": "3:00pm"}, {"days": "Sat", "time": "2:00pm"}, {"days": "Sun", "time": "Closed"}], "id": "3391200028", "name": "USPS COLLECTION BOX - BLUE BOX", "address": {"city": "FT MYERS", "state": "FL", "street": "6900 DANIELS PKWY #23A", "postcode": "33912"}}},
{"geometry": {"type": "Point", "coordinates": [-81.8241504389, 26.5358261694]}, "type": "Feature", "properties": {"collection_times": [{"days": "Mon-Fri", "time": "4:00pm"}, {"days": "Sat", "time": "3:00pm"}, {"days": "Sun", "time": "Closed"}], "id": "3391200032", "name": "USPS COLLECTION BOX - BLUE BOX", "address": {"city": "FT MYERS", "state": "FL", "street": "14651 SIX MILE CYPRESS PARKWAY", "postcode": "33912"}}},
{"geometry": {"type": "Point", "coordinates": [-81.7929159866, 26.5339825805]}, "type": "Feature", "properties": {"collection_times": [{"days": "Mon-Fri", "time": "7:30pm"}, {"days": "Sat", "time": "6:00pm"}, {"days": "Sun", "time": "Closed"}], "id": "3391300002", "name": "USPS COLLECTION BOX - BLUE BOX", "address": {"city": "FORT MYERS", "state": "FL", "street": "14080 JETPORT LOOP", "postcode": "33913"}}},
{"geometry": {"type": "Point", "coordinates": [-81.7929159866, 26.5339825805]}, "type": "Feature", "properties": {"collection_times": [{"days": "Mon-Fri", "time": "7:30pm"}, {"days": "Sat", "time": "6:00pm"}, {"days": "Sun", "time": "Closed"}], "id": "3391300003", "name": "USPS COLLECTION BOX - BLUE BOX", "address": {"city": "FORT MYERS", "state": "FL", "street": "14080 JETPORT LOOP", "postcode": "33913"}}},
{"geometry": {"type": "Point", "coordinates": [-81.7495015463, 26.571810263]}, "type": "Feature", "properties": {"collection_times": [{"days": "Mon-Sat", "time": "10:00am"}, {"days": "Sun", "time": "Closed"}], "id": "3391300006", "name": "USPS COLLECTION BOX - BLUE BOX", "address": {"city": "FORT MYERS", "state": "FL", "street": "11900 FAIRWAY LAKES DR", "postcode": "33913"}}},
{"geometry": {"type": "Point", "coordinates": [-82.006944308, 26.5626042999]}, "type": "Feature", "properties": {"collection_times": [{"days": "Mon-Sat", "time": "1:00pm"}, {"days": "Sun", "time": "Closed"}], "id": "3391400001", "name": "USPS COLLECTION BOX - BLUE BOX", "address": {"city": "CAPE CORAL", "state": "FL", "street": "1616 CAPE CORAL PKWY W", "postcode": "33914"}}},
{"geometry": {"type": "Point", "coordinates": [-82.006944308, 26.5626042999]}, "type": "Feature", "properties": {"collection_times": [{"days": "Mon-Sat", "time": "1:00pm"}, {"days": "Sun", "time": "Closed"}], "id": "3391400002", "name": "USPS COLLECTION BOX - BLUE BOX", "address": {"city": "CAPE CORAL", "state": "FL", "street": "1616 CAPE CORAL PKWY W", "postcode": "33914"}}},
{"geometry": {"type": "Point", "coordinates": [-82.00677, 26.5643]}, "type": "Feature", "properties": {"collection_times": [{"days": "Mon-Fri", "time": "2:00pm"}, {"days": "Sat", "time": "1:00pm"}, {"days": "Sun", "time": "Closed"}], "id": "3391400003", "name": "USPS COLLECTION BOX - BLUE BOX", "address": {"city": "CAPE CORAL", "state": "FL", "street": "4706 CHIQUITA BLVD S", "postcode": "33914"}}},
{"geometry": {"type": "Point", "coordinates": [-81.8887086085, 26.5573308452]}, "type": "Feature", "properties": {"collection_times": [{"days": "Mon-Fri", "time": "3:00pm"}, {"days": "Sat", "time": "1:00pm"}, {"days": "Sun", "time": "Closed"}], "id": "3391900013", "name": "USPS COLLECTION BOX - BLUE BOX", "address": {"city": "FORT MYERS", "state": "FL", "street": "6360 WHISKEY CREEK DR", "postcode": "33919"}}},
{"geometry": {"type": "Point", "coordinates": [-81.8887086085, 26.5573308452]}, "type": "Feature", "properties": {"collection_times": [{"days": "Mon-Fri", "time": "3:00pm"}, {"days": "Sat", "time": "1:00pm"}, {"days": "Sun", "time": "Closed"}], "id": "3391900014", "name": "USPS COLLECTION BOX - BLUE BOX", "address": {"city": "FORT MYERS", "state": "FL", "street": "6360 WHISKEY CREEK DR", "postcode": "33919"}}},
{"geometry": {"type": "Point", "coordinates": [-81.8897092553, 26.5570525803]}, "type": "Feature", "properties": {"collection_times": [{"days": "Mon-Fri", "time": "3:00pm"}, {"days": "Sat", "time": "1:00pm"}, {"days": "Sun", "time": "Closed"}], "id": "3391900025", "name": "USPS COLLECTION BOX - BLUE BOX", "address": {"city": "FORT MYERS", "state": "FL", "street": "8250 COLLEGE PKWY", "postcode": "33919"}}},
{"geometry": {"type": "Point", "coordinates": [-81.6100221964, 26.7139204001]}, "type": "Feature", "properties": {"collection_times": [{"days": "Mon-Sat", "time": "4:30pm"}, {"days": "Sun", "time": "Closed"}], "id": "3392000001", "name": "USPS COLLECTION BOX - BLUE BOX", "address": {"city": "ALVA", "state": "FL", "street": "17301 BROADWAY ST", "postcode": "33920"}}},
{"geometry": {"type": "Point", "coordinates": [-82.2616982298, 26.7504802062]}, "type": "Feature", "properties": {"collection_times": [{"days": "Mon-Fri", "time": "4:00pm"}, {"days": "Sat", "time": "12:00pm"}, {"days": "Sun", "time": "Closed"}], "id": "3392100003", "name": "USPS COLLECTION BOX - BLUE BOX", "address": {"city": "BOCA GRANDE", "state": "FL", "street": "434 4TH ST", "postcode": "33921"}}},
{"geometry": {"type": "Point", "coordinates": [-82.2518564551, 26.6865075239]}, "type": "Feature", "properties": {"collection_times": [{"days": "Mon-Fri", "time": "4:00pm"}, {"days": "Sat", "time": "12:00pm"}, {"days": "Sun", "time": "Closed"}], "id": "3392100006", "name": "USPS COLLECTION BOX - BLUE BOX", "address": {"city": "BOCA GRANDE", "state": "FL", "street": "5800 GASPARILLA RD", "postcode": "33921"}}},
{"geometry": {"type": "Point", "coordinates": [-82.150652395, 26.6932102438]}, "type": "Feature", "properties": {"collection_times": [{"days": "Mon-Sat", "time": "4:15pm"}, {"days": "Sun", "time": "Closed"}], "id": "3392200001", "name": "USPS COLLECTION BOX - BLUE BOX", "address": {"city": "BOKEELIA", "state": "FL", "street": "15980 STRINGFELLOW RD", "postcode": "33922"}}},
{"geometry": {"type": "Point", "coordinates": [-82.1165169312, 26.6170572604]}, "type": "Feature", "properties": {"collection_times": [{"days": "Mon-Sat", "time": "5:00pm"}, {"days": "Sun", "time": "Closed"}], "id": "3392200004", "name": "USPS COLLECTION BOX - BLUE BOX", "address": {"city": "BOKEELIA", "state": "FL", "street": "5460 AVE \"A\"", "postcode": "33922"}}},
{"geometry": {"type": "Point", "coordinates": [-82.1895258705, 26.5245755317]}, "type": "Feature", "properties": {"collection_times": [{"days": "Mon-Fri", "time": "4:15pm"}, {"days": "Sat", "time": "10:30am"}, {"days": "Sun", "time": "Closed"}], "id": "3392400001", "name": "USPS COLLECTION BOX - BLUE BOX", "address": {"city": "CAPTIVA", "state": "FL", "street": "14812 CAPTIVA DR SW", "postcode": "33924"}}},
{"geometry": {"type": "Point", "coordinates": [-81.7956291609, 26.4335137683]}, "type": "Feature", "properties": {"collection_times": [{"days": "Mon-Fri", "time": "4:30pm"}, {"days": "Sat", "time": "12:00pm"}, {"days": "Sun", "time": "Closed"}], "id": "3392800001", "name": "USPS COLLECTION BOX - BLUE BOX", "address": {"city": "ESTERO", "state": "FL", "street": "20791 THREE OAKS PKWY", "postcode": "33928"}}},
{"geometry": {"type": "Point", "coordinates": [-81.8102890824, 26.4420098309]}, "type": "Feature", "properties": {"collection_times": [{"days": "Mon-Fri", "time": "3:00pm"}, {"days": "Sat", "time": "12:00pm"}, {"days": "Sun", "time": "Closed"}], "id": "3392800016", "name": "USPS COLLECTION BOX - BLUE BOX", "address": {"city": "ESTERO", "state": "FL", "street": "8111 BROADWAY AVE E", "postcode": "33928"}}},
{"geometry": {"type": "Point", "coordinates": [-81.8105765347, 26.4303638595]}, "type": "Feature", "properties": {"collection_times": [{"days": "Mon-Sat", "time": "10:00am"}, {"days": "Sun", "time": "Closed"}], "id": "3392800018", "name": "USPS COLLECTION BOX - BLUE BOX", "address": {"city": "ESTERO", "state": "FL", "street": "21301 S TAMIAMI TRL STE 320", "postcode": "33928"}}},
{"geometry": {"type": "Point", "coordinates": [-81.7956291609, 26.4335137683]}, "type": "Feature", "properties": {"collection_times": [{"days": "Mon-Fri", "time": "4:30pm"}, {"days": "Sat", "time": "12:00pm"}, {"days": "Sun", "time": "Closed"}], "id": "3392800021", "name": "USPS COLLECTION BOX - PO LOBBY", "address": {"city": "ESTERO", "state": "FL", "street": "20791 THREE OAKS PKWY", "postcode": "33928"}}},
{"geometry": {"type": "Point", "coordinates": [-81.7956291609, 26.4335137683]}, "type": "Feature", "properties": {"collection_times": [{"days": "Mon-Fri", "time": "4:30pm"}, {"days": "Sat", "time": "12:00pm"}, {"days": "Sun", "time": "Closed"}], "id": "3392800022", "name": "USPS COLLECTION BOX - BLUE BOX", "address": {"city": "ESTERO", "state": "FL", "street": "20791 THREE OAKS PKWY", "postcode": "33928"}}},
{"geometry": {"type": "Point", "coordinates": [-81.9432716093, 26.4908948928]}, "type": "Feature", "properties": {"collection_times": [{"days": "Mon-Fri", "time": "3:00pm"}, {"days": "Sat", "time": "2:00pm"}, {"days": "Sun", "time": "Closed"}], "id": "3393100002", "name": "USPS COLLECTION BOX - BLUE BOX", "address": {"city": "FT MYERS BCH", "state": "FL", "street": "17264 SAN CARLOS BLVD", "postcode": "33931"}}},
{"geometry": {"type": "Point", "coordinates": [-81.943207528, 26.4905196888]}, "type": "Feature", "properties": {"collection_times": [{"days": "Mon-Fri", "time": "3:00pm"}, {"days": "Sat", "time": "2:00pm"}, {"days": "Sun", "time": "Closed"}], "id": "3393100004", "name": "USPS COLLECTION BOX - BLUE BOX", "address": {"city": "FT MYERS BCH", "state": "FL", "street": "17340 SAN CARLOS BLVD", "postcode": "33931"}}},
{"geometry": {"type": "Point", "coordinates": [-81.9003997919, 26.4140733316]}, "type": "Feature", "properties": {"collection_times": [{"days": "Mon-Fri", "time": "3:00pm"}, {"days": "Sat", "time": "2:00pm"}, {"days": "Sun", "time": "Closed"}], "id": "3393100006", "name": "USPS COLLECTION BOX - BLUE BOX", "address": {"city": "FT MYERS BCH", "state": "FL", "street": "7205 ESTERO BLVD", "postcode": "33931"}}},
{"geometry": {"type": "Point", "coordinates": [-81.9003997919, 26.4140733316]}, "type": "Feature", "properties": {"collection_times": [{"days": "Mon-Fri", "time": "3:00pm"}, {"days": "Sat", "time": "2:00pm"}, {"days": "Sun", "time": "Closed"}], "id": "3393100007", "name": "USPS COLLECTION BOX - BLUE BOX", "address": {"city": "FT MYERS BCH", "state": "FL", "street": "7205 ESTERO BLVD", "postcode": "33931"}}},
{"geometry": {"type": "Point", "coordinates": [-81.9365084314, 26.4455211127]}, "type": "Feature", "properties": {"collection_times": [{"days": "Mon-Fri", "time": "3:00pm"}, {"days": "Sat", "time": "2:00pm"}, {"days": "Sun", "time": "Closed"}], "id": "3393100010", "name": "USPS COLLECTION BOX - BLUE BOX", "address": {"city": "FT MYERS BCH", "state": "FL", "street": "3001 ESTERO BLVD", "postcode": "33931"}}},
{"geometry": {"type": "Point", "coordinates": [-81.9386696974, 26.4471949997]}, "type": "Feature", "properties": {"collection_times": [{"days": "Mon-Fri", "time": "3:00pm"}, {"days": "Sat", "time": "2:00pm"}, {"days": "Sun", "time": "Closed"}], "id": "3393100011", "name": "USPS COLLECTION BOX - BLUE BOX", "address": {"city": "FT MYERS BCH", "state": "FL", "street": "2801 ESTERO BLVD", "postcode": "33931"}}},
{"geometry": {"type": "Point", "coordinates": [-81.9417808795, 26.4483306403]}, "type": "Feature", "properties": {"collection_times": [{"days": "Mon-Fri", "time": "3:00pm"}, {"days": "Sat", "time": "2:00pm"}, {"days": "Sun", "time": "Closed"}], "id": "3393100012", "name": "USPS COLLECTION BOX - BLUE BOX", "address": {"city": "FT MYERS BCH", "state": "FL", "street": "2555 ESTERO BLVD", "postcode": "33931"}}},
{"geometry": {"type": "Point", "coordinates": [-81.9496167997, 26.4525419742]}, "type": "Feature", "properties": {"collection_times": [{"days": "Mon-Fri", "time": "5:00pm"}, {"days": "Sat", "time": "3:00pm"}, {"days": "Sun", "time": "Closed"}], "id": "3393100013", "name": "USPS COLLECTION BOX - BLUE BOX", "address": {"city": "FT MYERS BCH", "state": "FL", "street": "200 CAROLINA AVE", "postcode": "33931"}}},
{"geometry": {"type": "Point", "coordinates": [-81.4377783941, 26.7648653258]}, "type": "Feature", "properties": {"collection_times": [{"days": "Mon-Fri", "time": "5:00pm"}, {"days": "Sat", "time": "1:00pm"}, {"days": "Sun", "time": "Closed"}], "id": "3393500001", "name": "USPS COLLECTION BOX - BLUE BOX", "address": {"city": "LABELLE", "state": "FL", "street": "35 W WASHINGTON AVE", "postcode": "33935"}}},
{"geometry": {"type": "Point", "coordinates": [-81.4377783941, 26.7648653258]}, "type": "Feature", "properties": {"collection_times": [{"days": "Mon-Fri", "time": "5:00pm"}, {"days": "Sat", "time": "1:00pm"}, {"days": "Sun", "time": "Closed"}], "id": "3393500002", "name": "USPS COLLECTION BOX - BLUE BOX", "address": {"city": "LABELLE", "state": "FL", "street": "35 W WASHINGTON AVE", "postcode": "33935"}}},
{"geometry": {"type": "Point", "coordinates": [-81.3556394771, 26.6312205167]}, "type": "Feature", "properties": {"collection_times": [{"days": "Mon-Sat", "time": "9:00am"}, {"days": "Sun", "time": "Closed"}], "id": "3393500011", "name": "USPS COLLECTION BOX - BLUE BOX", "address": {"city": "LABELLE", "state": "FL", "street": "900 AQUA ISLES BLVD", "postcode": "33935"}}},
{"geometry": {"type": "Point", "coordinates": [-81.6448155927, 26.6022619926]}, "type": "Feature", "properties": {"collection_times": [{"days": "Mon-Sat", "time": "2:30pm"}, {"days": "Sun", "time": "Closed"}], "id": "3393600001", "name": "USPS COLLECTION BOX - BLUE BOX", "address": {"city": "LEHIGH ACRES", "state": "FL", "street": "25 HOMESTEAD RD N", "postcode": "33936"}}},
{"geometry": {"type": "Point", "coordinates": [-81.646924149, 26.6041142672]}, "type": "Feature", "properties": {"collection_times": [{"days": "Mon-Sat", "time": "2:30pm"}, {"days": "Sun", "time": "Closed"}], "id": "3393600002", "name": "USPS COLLECTION BOX - BLUE BOX", "address": {"city": "LEHIGH ACRES", "state": "FL", "street": "1145 HOMESTEAD RD N", "postcode": "33936"}}},
{"geometry": {"type": "Point", "coordinates": [-81.6513497928, 26.6082299399]}, "type": "Feature", "properties": {"collection_times": [{"days": "Mon-Sat", "time": "11:00am"}, {"days": "Sun", "time": "Closed"}], "id": "3393600010", "name": "USPS COLLECTION BOX - BLUE BOX", "address": {"city": "LEHIGH ACRES", "state": "FL", "street": "1324 HOMESTEAD RD N", "postcode": "33936"}}},
{"geometry": {"type": "Point", "coordinates": [-81.6513195011, 26.6047923419]}, "type": "Feature", "properties": {"collection_times": [{"days": "Mon-Fri", "time": "5:00pm"}, {"days": "Sat", "time": "1:00pm"}, {"days": "Sun", "time": "Closed"}], "id": "3393600013", "name": "USPS COLLECTION BOX - BLUE BOX", "address": {"city": "LEHIGH ACRES", "state": "FL", "street": "1201 BUSINESS WAY", "postcode": "33936"}}},
{"geometry": {"type": "Point", "coordinates": [-81.6601644853, 26.6142796728]}, "type": "Feature", "properties": {"collection_times": [{"days": "Mon-Sat", "time": "9:00am"}, {"days": "Sun", "time": "Closed"}], "id": "3393600018", "name": "USPS COLLECTION BOX - BLUE BOX", "address": {"city": "LEHIGH ACRES", "state": "FL", "street": "1530 LEE BLVD", "postcode": "33936"}}},
{"geometry": {"type": "Point", "coordinates": [-81.6513195011, 26.6047923419]}, "type": "Feature", "properties": {"collection_times": [{"days": "Mon-Fri", "time": "5:00pm"}, {"days": "Sat", "time": "1:00pm"}, {"days": "Sun", "time": "Closed"}], "id": "3393600019", "name": "USPS COLLECTION BOX - APC", "address": {"city": "LEHIGH ACRES", "state": "FL", "street": "1201 BUSINESS WAY", "postcode": "33936"}}},
{"geometry": {"type": "Point", "coordinates": [-82.1526824851, 26.6592802726]}, "type": "Feature", "properties": {"collection_times": [{"days": "Mon-Fri", "time": "4:30pm"}, {"days": "Sat", "time": "12:00pm"}, {"days": "Sun", "time": "Closed"}], "id": "3394500001", "name": "USPS COLLECTION BOX - BLUE BOX", "address": {"city": "PINELAND", "state": "FL", "street": "7450 PINELAND RD", "postcode": "33945"}}},
{"geometry": {"type": "Point", "coordinates": [-82.2931942185, 26.8548604034]}, "type": "Feature", "properties": {"collection_times": [{"days": "Mon-Fri", "time": "4:00pm"}, {"days": "Sat", "time": "12:00pm"}, {"days": "Sun", "time": "Closed"}], "id": "3394600004", "name": "USPS COLLECTION BOX - BLUE BOX", "address": {"city": "PLACIDA", "state": "FL", "street": "8601 PLACIDA RD", "postcode": "33946"}}},
{"geometry": {"type": "Point", "coordinates": [-82.2931942185, 26.8548604034]}, "type": "Feature", "properties": {"collection_times": [{"days": "Mon-Fri", "time": "4:00pm"}, {"days": "Sat", "time": "12:00pm"}, {"days": "Sun", "time": "Closed"}], "id": "3394600005", "name": "USPS COLLECTION BOX - BLUE BOX", "address": {"city": "PLACIDA", "state": "FL", "street": "8601 PLACIDA RD", "postcode": "33946"}}},
{"geometry": {"type": "Point", "coordinates": [-82.1250448823, 27.0012208184]}, "type": "Feature", "properties": {"collection_times": [{"days": "Mon-Fri", "time": "1:00pm"}, {"days": "Sat", "time": "12:00pm"}, {"days": "Sun", "time": "Closed"}], "id": "3395000011", "name": "USPS COLLECTION BOX - BLUE BOX", "address": {"city": "PORT CHARLOTTE", "state": "FL", "street": "2150 TAMIAMI TRL", "postcode": "33950"}}},
{"geometry": {"type": "Point", "coordinates": [-82.1004014812, 26.9930631334]}, "type": "Feature", "properties": {"collection_times": [{"days": "Mon-Fri", "time": "3:00pm"}, {"days": "Sat", "time": "1:00pm"}, {"days": "Sun", "time": "Closed"}], "id": "3395000019", "name": "USPS COLLECTION BOX - BLUE BOX", "address": {"city": "PORT CHARLOTTE", "state": "FL", "street": "2280 AARON ST", "postcode": "33950"}}},
{"geometry": {"type": "Point", "coordinates": [-82.0994243571, 26.9834693362]}, "type": "Feature", "properties": {"collection_times": [{"days": "Mon-Fri", "time": "3:00pm"}, {"days": "Sat", "time": "1:00pm"}, {"days": "Sun", "time": "Closed"}], "id": "3395000024", "name": "USPS COLLECTION BOX - BLUE BOX", "address": {"city": "PORT CHARLOTTE", "state": "FL", "street": "3280 TAMIAMI TRL", "postcode": "33950"}}},
{"geometry": {"type": "Point", "coordinates": [-82.0553031195, 27.0173226322]}, "type": "Feature", "properties": {"collection_times": [{"days": "Mon-Fri", "time": "3:00pm"}, {"days": "Sat", "time": "12:00pm"}, {"days": "Sun", "time": "Closed"}], "id": "3395000028", "name": "USPS COLLECTION BOX - BLUE BOX", "address": {"city": "PORT CHARLOTTE", "state": "FL", "street": "24123 PEACHLAND", "postcode": "33950"}}},
{"geometry": {"type": "Point", "coordinates": [-82.1350077627, 27.005785857]}, "type": "Feature", "properties": {"collection_times": [{"days": "Mon-Fri", "time": "5:00pm"}, {"days": "Sat", "time": "1:00pm"}, {"days": "Sun", "time": "Closed"}], "id": "3395000029", "name": "USPS COLLECTION BOX - BLUE BOX", "address": {"city": "PORT CHARLOTTE", "state": "FL", "street": "19190 COCHRAN BLVD", "postcode": "33950"}}},
{"geometry": {"type": "Point", "coordinates": [-82.049121393, 26.9366620158]}, "type": "Feature", "properties": {"collection_times": [{"days": "Mon-Sat", "time": "5:00pm"}, {"days": "Sun", "time": "Closed"}], "id": "3395000038", "name": "USPS COLLECTION BOX - BLUE BOX", "address": {"city": "PORT CHARLOTTE", "state": "FL", "street": "130 E MARION AVE", "postcode": "33950"}}},
{"geometry": {"type": "Point", "coordinates": [-82.049121393, 26.9366620158]}, "type": "Feature", "properties": {"collection_times": [{"days": "Mon-Sat", "time": "5:00pm"}, {"days": "Sun", "time": "Closed"}], "id": "3395000041", "name": "USPS COLLECTION BOX - BLUE BOX", "address": {"city": "PORT CHARLOTTE", "state": "FL", "street": "130 E MARION AVE", "postcode": "33950"}}},
{"geometry": {"type": "Point", "coordinates": [-82.0530878544, 26.9337140821]}, "type": "Feature", "properties": {"collection_times": [{"days": "Mon-Fri", "time": "3:00pm"}, {"days": "Sat", "time": "1:00pm"}, {"days": "Sun", "time": "Closed"}], "id": "3395000054", "name": "USPS COLLECTION BOX - BLUE BOX", "address": {"city": "PORT CHARLOTTE", "state": "FL", "street": "326 W MARION AVE", "postcode": "33950"}}},
{"geometry": {"type": "Point", "coordinates": [-82.063261087, 26.9273579241]}, "type": "Feature", "properties": {"collection_times": [{"days": "Mon-Fri", "time": "3:00pm"}, {"days": "Sat", "time": "1:00pm"}, {"days": "Sun", "time": "Closed"}], "id": "3395000055", "name": "USPS COLLECTION BOX - BLUE BOX", "address": {"city": "PORT CHARLOTTE", "state": "FL", "street": "1200 W RETTA ESPLANADE", "postcode": "33950"}}},
{"geometry": {"type": "Point", "coordinates": [-82.070800299, 26.9089358236]}, "type": "Feature", "properties": {"collection_times": [{"days": "Mon-Fri", "time": "3:00pm"}, {"days": "Sat", "time": "1:00pm"}, {"days": "Sun", "time": "Closed"}], "id": "3395000070", "name": "USPS COLLECTION BOX - BLUE BOX", "address": {"city": "PORT CHARLOTTE", "state": "FL", "street": "1133 BAL HARBOR BLVD", "postcode": "33950"}}},
{"geometry": {"type": "Point", "coordinates": [-82.2093330745, 26.9654292119]}, "type": "Feature", "properties": {"collection_times": [{"days": "Mon-Fri", "time": "3:00pm"}, {"days": "Sat", "time": "12:00pm"}, {"days": "Sun", "time": "Closed"}], "id": "3395000073", "name": "USPS COLLECTION BOX - BLUE BOX", "address": {"city": "PORT CHARLOTTE", "state": "FL", "street": "14410 PAMBAR AVE", "postcode": "33950"}}},
{"geometry": {"type": "Point", "coordinates": [-82.0887079318, 26.9753968242]}, "type": "Feature", "properties": {"collection_times": [{"days": "Mon-Fri", "time": "5:00pm"}, {"days": "Sat", "time": "1:00pm"}, {"days": "Sun", "time": "Closed"}], "id": "3395000078", "name": "USPS COLLECTION BOX - BLUE BOX", "address": {"city": "PORT CHARLOTTE", "state": "FL", "street": "3740 TAMIAMI TRL", "postcode": "33950"}}},
{"geometry": {"type": "Point", "coordinates": [-82.099057441, 26.9876282241]}, "type": "Feature", "properties": {"collection_times": [{"days": "Mon-Fri", "time": "3:00pm"}, {"days": "Sat", "time": "1:00pm"}, {"days": "Sun", "time": "Closed"}], "id": "3395000080", "name": "USPS COLLECTION BOX - BLUE BOX", "address": {"city": "PORT CHARLOTTE", "state": "FL", "street": "21216 OLEAN BLVD", "postcode": "33950"}}},
{"geometry": {"type": "Point", "coordinates": [-82.2244051547, 26.9330681865]}, "type": "Feature", "properties": {"collection_times": [{"days": "Mon-Fri", "time": "3:00pm"}, {"days": "Sat", "time": "12:00pm"}, {"days": "Sun", "time": "Closed"}], "id": "3395000081", "name": "USPS COLLECTION BOX - BLUE BOX", "address": {"city": "PORT CHARLOTTE", "state": "FL", "street": "13435 MCCALL RD", "postcode": "33950"}}},
{"geometry": {"type": "Point", "coordinates": [-82.0968182985, 26.9889961204]}, "type": "Feature", "properties": {"collection_times": [{"days": "Mon-Fri", "time": "3:00pm"}, {"days": "Sat", "time": "1:00pm"}, {"days": "Sun", "time": "Closed"}], "id": "3395000093", "name": "USPS COLLECTION BOX - BLUE BOX", "address": {"city": "PORT CHARLOTTE", "state": "FL", "street": "2525 HARBOR BLVD", "postcode": "33950"}}},
{"geometry": {"type": "Point", "coordinates": [-82.0887079318, 26.9753968242]}, "type": "Feature", "properties": {"collection_times": [{"days": "Mon-Fri", "time": "5:00pm"}, {"days": "Sat", "time": "1:00pm"}, {"days": "Sun", "time": "Closed"}], "id": "3395000105", "name": "USPS COLLECTION BOX - APC", "address": {"city": "PORT CHARLOTTE", "state": "FL", "street": "3740 TAMIAMI TRL", "postcode": "33950"}}},
{"geometry": {"type": "Point", "coordinates": [-82.048469376, 26.9154705141]}, "type": "Feature", "properties": {"collection_times": [{"days": "Mon-Fri", "time": "3:00pm"}, {"days": "Sat", "time": "1:00pm"}, {"days": "Sun", "time": "Closed"}], "id": "3395000106", "name": "USPS COLLECTION BOX - BLUE BOX", "address": {"city": "PORT CHARLOTTE", "state": "FL", "street": "3390 TAMIAMI TRL", "postcode": "33950"}}},
{"geometry": {"type": "Point", "coordinates": [-82.0472960873, 26.9184160568]}, "type": "Feature", "properties": {"collection_times": [{"days": "Mon-Fri", "time": "3:00pm"}, {"days": "Sat", "time": "1:00pm"}, {"days": "Sun", "time": "Closed"}], "id": "3395000108", "name": "USPS COLLECTION BOX - BLUE BOX", "address": {"city": "PORT CHARLOTTE", "state": "FL", "street": "2310 TAMIAMI TRL", "postcode": "33950"}}},
{"geometry": {"type": "Point", "coordinates": [-82.048469376, 26.9154730528]}, "type": "Feature", "properties": {"collection_times": [{"days": "Mon-Fri", "time": "3:00pm"}, {"days": "Sat", "time": "1:00pm"}, {"days": "Sun", "time": "Closed"}], "id": "3395000109", "name": "USPS COLLECTION BOX - BLUE BOX", "address": {"city": "PORT CHARLOTTE", "state": "FL", "street": "2001 RIO DE JANERO AVE", "postcode": "33950"}}},
{"geometry": {"type": "Point", "coordinates": [-82.0553031195, 27.0173226322]}, "type": "Feature", "properties": {"collection_times": [{"days": "Mon-Fri", "time": "3:00pm"}, {"days": "Sat", "time": "12:00pm"}, {"days": "Sun", "time": "Closed"}], "id": "3395000110", "name": "USPS COLLECTION BOX - BLUE BOX", "address": {"city": "PORT CHARLOTTE", "state": "FL", "street": "24123 PEACHLAND BLVD", "postcode": "33950"}}},
{"geometry": {"type": "Point", "coordinates": [-82.1350077627, 27.005785857]}, "type": "Feature", "properties": {"collection_times": [{"days": "Mon-Fri", "time": "5:00pm"}, {"days": "Sat", "time": "1:00pm"}, {"days": "Sun", "time": "Closed"}], "id": "3395000114", "name": "USPS COLLECTION BOX - APC", "address": {"city": "PORT CHARLOTTE", "state": "FL", "street": "19190 COCHRAN BLVD", "postcode": "33950"}}},
{"geometry": {"type": "Point", "coordinates": [-82.0484693759, 26.9154835034]}, "type": "Feature", "properties": {"collection_times": [{"days": "Mon-Sat", "time": "1:00pm"}, {"days": "Sun", "time": "Closed"}], "id": "3395000116", "name": "USPS COLLECTION BOX - BLUE BOX", "address": {"city": "PORT CHARLOTTE", "state": "FL", "street": "3941 TAMIAMI TRL", "postcode": "33950"}}},
{"geometry": {"type": "Point", "coordinates": [-82.0864745053, 26.5256251791]}, "type": "Feature", "properties": {"collection_times": [{"days": "Mon-Fri", "time": "3:30pm"}, {"days": "Sat", "time": "11:00am"}, {"days": "Sun", "time": "Closed"}], "id": "3395600001", "name": "USPS COLLECTION BOX - BLUE BOX", "address": {"city": "ST JAMES CITY", "state": "FL", "street": "4480 STRINGFELLOW RD", "postcode": "33956"}}},
{"geometry": {"type": "Point", "coordinates": [-82.0432976386, 26.4455336919]}, "type": "Feature", "properties": {"collection_times": [{"days": "Mon-Sat", "time": "9:00am"}, {"days": "Sun", "time": "Closed"}], "id": "3395700002", "name": "USPS COLLECTION BOX - BLUE BOX", "address": {"city": "SANIBEL", "state": "FL", "street": "1119 PERIWINKLE WAY", "postcode": "33957"}}},
{"geometry": {"type": "Point", "coordinates": [-82.0579687431, 26.4417013382]}, "type": "Feature", "properties": {"collection_times": [{"days": "Mon-Sat", "time": "10:00am"}, {"days": "Sun", "time": "Closed"}], "id": "3395700003", "name": "USPS COLLECTION BOX - BLUE BOX", "address": {"city": "SANIBEL", "state": "FL", "street": "1699 PERIWINKLE WAY", "postcode": "33957"}}},
{"geometry": {"type": "Point", "coordinates": [-82.0756386953, 26.4396228461]}, "type": "Feature", "properties": {"collection_times": [{"days": "Mon-Fri", "time": "5:00pm"}, {"days": "Sat", "time": "2:00pm"}, {"days": "Sun", "time": "Closed"}], "id": "3395700006", "name": "USPS COLLECTION BOX - BLUE BOX", "address": {"city": "SANIBEL", "state": "FL", "street": "888 SEXTANT DR", "postcode": "33957"}}},
{"geometry": {"type": "Point", "coordinates": [-82.0245055579, 26.4507035889]}, "type": "Feature", "properties": {"collection_times": [{"days": "Mon-Sat", "time": "11:00am"}, {"days": "Sun", "time": "Closed"}], "id": "3395700007", "name": "USPS COLLECTION BOX - BLUE BOX", "address": {"city": "SANIBEL", "state": "FL", "street": "362 PERIWINKLE WAY", "postcode": "33957"}}},
{"geometry": {"type": "Point", "coordinates": [-82.056750204, 26.4420875845]}, "type": "Feature", "properties": {"collection_times": [{"days": "Mon-Sat", "time": "10:45am"}, {"days": "Sun", "time": "Closed"}], "id": "3395700012", "name": "USPS COLLECTION BOX - BLUE BOX", "address": {"city": "SANIBEL", "state": "FL", "street": "1626 PERIWINKLE WAY", "postcode": "33957"}}},
{"geometry": {"type": "Point", "coordinates": [-82.0794820348, 26.435596087]}, "type": "Feature", "properties": {"collection_times": [{"days": "Mon-Sat", "time": "9:30am"}, {"days": "Sun", "time": "Closed"}], "id": "3395700018", "name": "USPS COLLECTION BOX - BLUE BOX", "address": {"city": "SANIBEL", "state": "FL", "street": "2477 PERIWINKLE WAY", "postcode": "33957"}}},
{"geometry": {"type": "Point", "coordinates": [-82.0756386953, 26.4396228461]}, "type": "Feature", "properties": {"collection_times": [{"days": "Mon-Fri", "time": "5:00pm"}, {"days": "Sat", "time": "2:00pm"}, {"days": "Sun", "time": "Closed"}], "id": "3395700022", "name": "USPS COLLECTION BOX - BLUE BOX", "address": {"city": "SANIBEL", "state": "FL", "street": "888 SEXTANT DR", "postcode": "33957"}}},
{"geometry": {"type": "Point", "coordinates": [-82.0801953591, 26.4364785744]}, "type": "Feature", "properties": {"collection_times": [{"days": "Mon-Fri", "time": "5:00pm"}, {"days": "Sat", "time": "2:00pm"}, {"days": "Sun", "time": "Closed"}], "id": "3395700023", "name": "USPS COLLECTION BOX - BLUE BOX", "address": {"city": "SANIBEL", "state": "FL", "street": "650 TARPON BAY RD", "postcode": "33957"}}},
{"geometry": {"type": "Point", "coordinates": [-81.853337194, 26.582700546]}, "type": "Feature", "properties": {"collection_times": [{"days": "Mon-Sat", "time": "12:30pm"}, {"days": "Sun", "time": "Closed"}], "id": "3396600001", "name": "USPS COLLECTION BOX - BLUE BOX", "address": {"city": "FORT MYERS", "state": "FL", "street": "11000 METRO PKWY", "postcode": "33966"}}},
{"geometry": {"type": "Point", "coordinates": [-81.7485457155, 26.6208924134]}, "type": "Feature", "properties": {"collection_times": [{"days": "Mon-Sat", "time": "11:00am"}, {"days": "Sun", "time": "Closed"}], "id": "3397100000", "name": "USPS COLLECTION BOX - BLUE BOX", "address": {"city": "LEHIGH ACRES", "state": "FL", "street": "5551 LEE BLVD", "postcode": "33971"}}},
{"geometry": {"type": "Point", "coordinates": [-81.666371471, 26.6163817909]}, "type": "Feature", "properties": {"collection_times": [{"days": "Mon-Sat", "time": "11:00am"}, {"days": "Sun", "time": "Closed"}], "id": "3397100001", "name": "USPS COLLECTION BOX - BLUE BOX", "address": {"city": "LEHIGH ACRES", "state": "FL", "street": "2523 LEE BLVD", "postcode": "33971"}}},
{"geometry": {"type": "Point", "coordinates": [-81.5978260967, 26.6194397398]}, "type": "Feature", "properties": {"collection_times": [{"days": "Mon-Sat", "time": "12:00pm"}, {"days": "Sun", "time": "Closed"}], "id": "3397200001", "name": "USPS COLLECTION BOX - BLUE BOX", "address": {"city": "LEHIGH ACRES", "state": "FL", "street": "510 JOEL BLVD", "postcode": "33972"}}},
{"geometry": {"type": "Point", "coordinates": [-81.9410183561, 26.6093277292]}, "type": "Feature", "properties": {"collection_times": [{"days": "Mon-Sat", "time": "1:00pm"}, {"days": "Sun", "time": "Closed"}], "id": "3399000001", "name": "USPS COLLECTION BOX - BLUE BOX", "address": {"city": "CAPE CORAL", "state": "FL", "street": "2301 DEL PRADO BLVD S", "postcode": "33990"}}},
{"geometry": {"type": "Point", "coordinates": [-81.9409492593, 26.6395039068]}, "type": "Feature", "properties": {"collection_times": [{"days": "Mon-Sat", "time": "1:00pm"}, {"days": "Sun", "time": "Closed"}], "id": "3399000004", "name": "USPS COLLECTION BOX - BLUE BOX", "address": {"city": "CAPE CORAL", "state": "FL", "street": "636 DEL PRADO BLVD S", "postcode": "33990"}}},
{"geometry": {"type": "Point", "coordinates": [-81.9564377411, 26.632638013]}, "type": "Feature", "properties": {"collection_times": [{"days": "Mon-Fri", "time": "5:00pm"}, {"days": "Sat", "time": "2:00pm"}, {"days": "Sun", "time": "Closed"}], "id": "3399000006", "name": "USPS COLLECTION BOX - BLUE BOX", "address": {"city": "CAPE CORAL", "state": "FL", "street": "1030 SE 9TH AVE", "postcode": "33990"}}},
{"geometry": {"type": "Point", "coordinates": [-81.9407588029, 26.6353505379]}, "type": "Feature", "properties": {"collection_times": [{"days": "Mon-Sat", "time": "1:00pm"}, {"days": "Sun", "time": "Closed"}], "id": "3399000012", "name": "USPS COLLECTION BOX - BLUE BOX", "address": {"city": "CAPE CORAL", "state": "FL", "street": "909 DEL PRADO BLVD S", "postcode": "33990"}}},
{"geometry": {"type": "Point", "coordinates": [-81.9564377411, 26.632638013]}, "type": "Feature", "properties": {"collection_times": [{"days": "Mon-Fri", "time": "5:00pm"}, {"days": "Sat", "time": "2:00pm"}, {"days": "Sun", "time": "Closed"}], "id": "3399000021", "name": "USPS COLLECTION BOX - APC", "address": {"city": "CAPE CORAL", "state": "FL", "street": "1030 SE 9TH AVE", "postcode": "33990"}}},
{"geometry": {"type": "Point", "coordinates": [-81.9761150606, 26.6499244502]}, "type": "Feature", "properties": {"collection_times": [{"days": "Mon-Sat", "time": "1:00pm"}, {"days": "Sun", "time": "Closed"}], "id": "3399100004", "name": "USPS COLLECTION BOX - BLUE BOX", "address": {"city": "FT MYERS", "state": "FL", "street": "106 HANCOCK BRIDGE PKWY", "postcode": "33991"}}},
{"geometry": {"type": "Point", "coordinates": [-82.0699195802, 26.6304116339]}, "type": "Feature", "properties": {"collection_times": [{"days": "Mon-Sat", "time": "5:00pm"}, {"days": "Sun", "time": "Closed"}], "id": "3399300003", "name": "USPS COLLECTION BOX - BLUE BOX", "address": {"city": "FT MYERS", "state": "FL", "street": "4547 PINE ISLAND RD", "postcode": "33993"}}}
]}
