{"type": "FeatureCollection", "features": [
{"geometry": {"type": "Point", "coordinates": [-81.7948425419, 26.1328003828]}, "type": "Feature", "properties": {"collection_times": [{"days": "Mon-Sat", "time": "3:50pm"}, {"days": "Sun", "time": "Closed"}], "id": "3410200002", "name": "USPS COLLECTION BOX - BLUE BOX", "address": {"city": "NAPLES", "state": "FL", "street": "801 12TH AVE S", "postcode": "34102"}}},
{"geometry": {"type": "Point", "coordinates": [-81.8024155421, 26.1309648909]}, "type": "Feature", "properties": {"collection_times": [{"days": "Mon-Sat", "time": "3:55pm"}, {"days": "Sun", "time": "Closed"}], "id": "3410200004", "name": "USPS COLLECTION BOX - BLUE BOX", "address": {"city": "NAPLES", "state": "FL", "street": "255 13TH AVE S", "postcode": "34102"}}},
{"geometry": {"type": "Point", "coordinates": [-81.8030778351, 26.1408685063]}, "type": "Feature", "properties": {"collection_times": [{"days": "Mon-Sat", "time": "4:05pm"}, {"days": "Sun", "time": "Closed"}], "id": "3410200010", "name": "USPS COLLECTION BOX - BLUE BOX", "address": {"city": "NAPLES", "state": "FL", "street": "300 5TH AVE S", "postcode": "34102"}}},
{"geometry": {"type": "Point", "coordinates": [-81.8003118691, 26.1411878934]}, "type": "Feature", "properties": {"collection_times": [{"days": "Mon-Sat", "time": "4:10pm"}, {"days": "Sun", "time": "Closed"}], "id": "3410200013", "name": "USPS COLLECTION BOX - BLUE BOX", "address": {"city": "NAPLES", "state": "FL", "street": "550 5TH AVE S", "postcode": "34102"}}},
{"geometry": {"type": "Point", "coordinates": [-81.8012098657, 26.1333133997]}, "type": "Feature", "properties": {"collection_times": [{"days": "Mon-Sat", "time": "4:00pm"}, {"days": "Sun", "time": "Closed"}], "id": "3410200022", "name": "USPS COLLECTION BOX - BLUE BOX", "address": {"city": "NAPLES", "state": "FL", "street": "359 BROAD AVE S", "postcode": "34102"}}},
{"geometry": {"type": "Point", "coordinates": [-81.7952513014, 26.1407246377]}, "type": "Feature", "properties": {"collection_times": [{"days": "Mon-Fri", "time": "5:00pm"}, {"days": "Sat", "time": "4:15pm"}, {"days": "Sun", "time": "Closed"}], "id": "3410200041", "name": "USPS COLLECTION BOX - BLUE BOX", "address": {"city": "NAPLES", "state": "FL", "street": "860 6TH AVE S", "postcode": "34102"}}},
{"geometry": {"type": "Point", "coordinates": [-81.7998790025, 26.1729815997]}, "type": "Feature", "properties": {"collection_times": [{"days": "Mon-Sat", "time": "4:15pm"}, {"days": "Sun", "time": "Closed"}], "id": "3410200044", "name": "USPS COLLECTION BOX - BLUE BOX", "address": {"city": "NAPLES", "state": "FL", "street": "2095 TAMIAMI TRL N", "postcode": "34102"}}},
{"geometry": {"type": "Point", "coordinates": [-81.7910458822, 26.1632067728]}, "type": "Feature", "properties": {"collection_times": [{"days": "Mon-Sat", "time": "5:00pm"}, {"days": "Sun", "time": "Closed"}], "id": "3410200046", "name": "USPS COLLECTION BOX - BLUE BOX", "address": {"city": "NAPLES", "state": "FL", "street": "1200 GOODLETTE RD N", "postcode": "34102"}}},
{"geometry": {"type": "Point", "coordinates": [-81.7910458822, 26.1632067728]}, "type": "Feature", "properties": {"collection_times": [{"days": "Mon-Sat", "time": "5:00pm"}, {"days": "Sun", "time": "Closed"}], "id": "3410200049", "name": "USPS COLLECTION BOX - APC", "address": {"city": "NAPLES", "state": "FL", "street": "1200 GOODLETTE RD N", "postcode": "34102"}}},
{"geometry": {"type": "Point", "coordinates": [-81.7977934802, 26.2081249076]}, "type": "Feature", "properties": {"collection_times": [{"days": "Mon-Sat", "time": "3:50pm"}, {"days": "Sun", "time": "Closed"}], "id": "3410300000", "name": "USPS COLLECTION BOX - BLUE BOX", "address": {"city": "NAPLES", "state": "FL", "street": "5051 CASTELLO DR", "postcode": "34103"}}},
{"geometry": {"type": "Point", "coordinates": [-81.8019226068, 26.2028827062]}, "type": "Feature", "properties": {"collection_times": [{"days": "Mon-Sat", "time": "4:00pm"}, {"days": "Sun", "time": "Closed"}], "id": "3410300003", "name": "USPS COLLECTION BOX - BLUE BOX", "address": {"city": "NAPLES", "state": "FL", "street": "838 NEAPOLITAN WAY", "postcode": "34103"}}},
{"geometry": {"type": "Point", "coordinates": [-81.8001735936, 26.1931782211]}, "type": "Feature", "properties": {"collection_times": [{"days": "Mon-Sat", "time": "4:15pm"}, {"days": "Sun", "time": "Closed"}], "id": "3410300007", "name": "USPS COLLECTION BOX - BLUE BOX", "address": {"city": "NAPLES", "state": "FL", "street": "4001 TAMIAMI TRL N", "postcode": "34103"}}},
{"geometry": {"type": "Point", "coordinates": [-81.8000153601, 26.1816844367]}, "type": "Feature", "properties": {"collection_times": [{"days": "Mon-Sat", "time": "4:10pm"}, {"days": "Sun", "time": "Closed"}], "id": "3410300009", "name": "USPS COLLECTION BOX - BLUE BOX", "address": {"city": "NAPLES", "state": "FL", "street": "3003 TAMIAMI TRL N", "postcode": "34103"}}},
{"geometry": {"type": "Point", "coordinates": [-81.7998707561, 26.1759555216]}, "type": "Feature", "properties": {"collection_times": [{"days": "Mon-Sat", "time": "4:15pm"}, {"days": "Sun", "time": "Closed"}], "id": "3410300012", "name": "USPS COLLECTION BOX - BLUE BOX", "address": {"city": "NAPLES", "state": "FL", "street": "2335 TAMIAMI TRL N", "postcode": "34103"}}},
{"geometry": {"type": "Point", "coordinates": [-81.8000848717, 26.1880358985]}, "type": "Feature", "properties": {"collection_times": [{"days": "Mon-Sat", "time": "4:05pm"}, {"days": "Sun", "time": "Closed"}], "id": "3410300015", "name": "USPS COLLECTION BOX - BLUE BOX", "address": {"city": "NAPLES", "state": "FL", "street": "3391 TAMIAMI TRL N", "postcode": "34103"}}},
{"geometry": {"type": "Point", "coordinates": [-81.8003534034, 26.2015074352]}, "type": "Feature", "properties": {"collection_times": [{"days": "Mon-Sat", "time": "4:05pm"}, {"days": "Sun", "time": "Closed"}], "id": "3410300023", "name": "USPS COLLECTION BOX - BLUE BOX", "address": {"city": "NAPLES", "state": "FL", "street": "4501 TAMIAMI TRL N", "postcode": "34103"}}},
{"geometry": {"type": "Point", "coordinates": [-81.8002351075, 26.207048415]}, "type": "Feature", "properties": {"collection_times": [{"days": "Mon-Sat", "time": "3:45pm"}, {"days": "Sun", "time": "Closed"}], "id": "3410300027", "name": "USPS COLLECTION BOX - BLUE BOX", "address": {"city": "NAPLES", "state": "FL", "street": "4910 TAMIAMI TRL N", "postcode": "34103"}}},
{"geometry": {"type": "Point", "coordinates": [-81.8004267468, 26.2057992103]}, "type": "Feature", "properties": {"collection_times": [{"days": "Mon-Sat", "time": "3:55pm"}, {"days": "Sun", "time": "Closed"}], "id": "3410300028", "name": "USPS COLLECTION BOX - BLUE BOX", "address": {"city": "NAPLES", "state": "FL", "street": "4851 TAMIAMI TRL N", "postcode": "34103"}}},
{"geometry": {"type": "Point", "coordinates": [-81.7995951267, 26.1768971569]}, "type": "Feature", "properties": {"collection_times": [{"days": "Mon-Sat", "time": "4:00pm"}, {"days": "Sun", "time": "Closed"}], "id": "3410300031", "name": "USPS COLLECTION BOX - BLUE BOX", "address": {"city": "NAPLES", "state": "FL", "street": "2500 TAMIAMI TRL N", "postcode": "34103"}}},
{"geometry": {"type": "Point", "coordinates": [-81.8002540348, 26.1971624269]}, "type": "Feature", "properties": {"collection_times": [{"days": "Mon-Sat", "time": "4:10pm"}, {"days": "Sun", "time": "Closed"}], "id": "3410300032", "name": "USPS COLLECTION BOX - BLUE BOX", "address": {"city": "NAPLES", "state": "FL", "street": "4099 TAMIAMI TRL N", "postcode": "34103"}}},
{"geometry": {"type": "Point", "coordinates": [-81.7667763444, 26.1555563362]}, "type": "Feature", "properties": {"collection_times": [{"days": "Mon-Sat", "time": "4:30pm"}, {"days": "Sun", "time": "Closed"}], "id": "3410400001", "name": "USPS COLLECTION BOX - BLUE BOX", "address": {"city": "NAPLES", "state": "FL", "street": "333 AIRPORT RD N", "postcode": "34104"}}},
{"geometry": {"type": "Point", "coordinates": [-81.7493158218, 26.1385893967]}, "type": "Feature", "properties": {"collection_times": [{"days": "Mon-Sat", "time": "4:10pm"}, {"days": "Sun", "time": "Closed"}], "id": "3410400005", "name": "USPS COLLECTION BOX - BLUE BOX", "address": {"city": "NAPLES", "state": "FL", "street": "4840 DAVIS BLVD", "postcode": "34104"}}},
{"geometry": {"type": "Point", "coordinates": [-81.7683011302, 26.1612312313]}, "type": "Feature", "properties": {"collection_times": [{"days": "Mon-Sat", "time": "4:00pm"}, {"days": "Sun", "time": "Closed"}], "id": "3410400007", "name": "USPS COLLECTION BOX - BLUE BOX", "address": {"city": "NAPLES", "state": "FL", "street": "3170 HORSESHOE DR S", "postcode": "34104"}}},
{"geometry": {"type": "Point", "coordinates": [-81.721402722, 26.1543180191]}, "type": "Feature", "properties": {"collection_times": [{"days": "Mon-Sat", "time": "4:20pm"}, {"days": "Sun", "time": "Closed"}], "id": "3410400014", "name": "USPS COLLECTION BOX - BLUE BOX", "address": {"city": "NAPLES", "state": "FL", "street": "7231 RADIO RD", "postcode": "34104"}}},
{"geometry": {"type": "Point", "coordinates": [-81.7667372585, 26.1528381375]}, "type": "Feature", "properties": {"collection_times": [{"days": "Mon-Sat", "time": "4:05pm"}, {"days": "Sun", "time": "Closed"}], "id": "3410400015", "name": "USPS COLLECTION BOX - BLUE BOX", "address": {"city": "NAPLES", "state": "FL", "street": "151 AIRPORT RD S", "postcode": "34104"}}},
{"geometry": {"type": "Point", "coordinates": [-81.764831938, 26.1642863489]}, "type": "Feature", "properties": {"collection_times": [{"days": "Mon-Fri", "time": "5:00pm"}, {"days": "Sat", "time": "4:35pm"}, {"days": "Sun", "time": "Closed"}], "id": "3410400021", "name": "USPS COLLECTION BOX - BLUE BOX", "address": {"city": "NAPLES", "state": "FL", "street": "3573 PROGRESS AVE", "postcode": "34104"}}},
{"geometry": {"type": "Point", "coordinates": [-81.7687589353, 26.1915989709]}, "type": "Feature", "properties": {"collection_times": [{"days": "Mon-Sat", "time": "3:50pm"}, {"days": "Sun", "time": "Closed"}], "id": "3410500003", "name": "USPS COLLECTION BOX - BLUE BOX", "address": {"city": "NAPLES", "state": "FL", "street": "3200 BAILEY LN", "postcode": "34105"}}},
{"geometry": {"type": "Point", "coordinates": [-81.8015434601, 26.2151374884]}, "type": "Feature", "properties": {"collection_times": [{"days": "Mon-Sat", "time": "3:40pm"}, {"days": "Sun", "time": "Closed"}], "id": "3410800001", "name": "USPS COLLECTION BOX - BLUE BOX", "address": {"city": "NAPLES", "state": "FL", "street": "801 LAUREL OAK DR", "postcode": "34108"}}},
{"geometry": {"type": "Point", "coordinates": [-81.802556073, 26.2477954365]}, "type": "Feature", "properties": {"collection_times": [{"days": "Mon-Sat", "time": "3:30pm"}, {"days": "Sun", "time": "Closed"}], "id": "3410800010", "name": "USPS COLLECTION BOX - BLUE BOX", "address": {"city": "NAPLES", "state": "FL", "street": "8805 TAMIAMI TRL N", "postcode": "34108"}}},
{"geometry": {"type": "Point", "coordinates": [-81.8031396503, 26.2508964596]}, "type": "Feature", "properties": {"collection_times": [{"days": "Mon-Fri", "time": "3:00pm"}, {"days": "Sat", "time": "12:00pm"}, {"days": "Sun", "time": "Closed"}], "id": "3410800017", "name": "USPS COLLECTION BOX - BLUE BOX", "address": {"city": "NAPLES", "state": "FL", "street": "851 VANDERBILT BEACH RD", "postcode": "34108"}}},
{"geometry": {"type": "Point", "coordinates": [-81.7953579053, 26.2715411784]}, "type": "Feature", "properties": {"collection_times": [{"days": "Mon-Fri", "time": "5:00pm"}, {"days": "Sat", "time": "12:00pm"}, {"days": "Sun", "time": "Closed"}], "id": "3410800020", "name": "USPS COLLECTION BOX - BLUE BOX", "address": {"city": "NAPLES", "state": "FL", "street": "1130 CREEKSIDE WAY", "postcode": "34108"}}},
{"geometry": {"type": "Point", "coordinates": [-81.7953579053, 26.2715411784]}, "type": "Feature", "properties": {"collection_times": [{"days": "Mon-Fri", "time": "5:00pm"}, {"days": "Sat", "time": "2:00pm"}, {"days": "Sun", "time": "Closed"}], "id": "3410800024", "name": "USPS COLLECTION BOX - APC", "address": {"city": "NAPLES", "state": "FL", "street": "1130 CREEKSIDE WAY", "postcode": "34108"}}},
{"geometry": {"type": "Point", "coordinates": [-81.8015434601, 26.2151374884]}, "type": "Feature", "properties": {"collection_times": [{"days": "Mon-Sat", "time": "3:40pm"}, {"days": "Sun", "time": "Closed"}], "id": "3410800026", "name": "USPS COLLECTION BOX - BLUE BOX", "address": {"city": "NAPLES", "state": "FL", "street": "801 LAUREL OAK DR", "postcode": "34108"}}},
{"geometry": {"type": "Point", "coordinates": [-81.7943421547, 26.2711427347]}, "type": "Feature", "properties": {"collection_times": [{"days": "Mon-Fri", "time": "5:00pm"}, {"days": "Sat", "time": "12:00pm"}, {"days": "Sun", "time": "Closed"}], "id": "3410800028", "name": "USPS COLLECTION BOX - BLUE BOX", "address": {"city": "NAPLES", "state": "FL", "street": "1130 CREEKSIDE PKWY", "postcode": "34108"}}},
{"geometry": {"type": "Point", "coordinates": [-81.7685674911, 26.213730876]}, "type": "Feature", "properties": {"collection_times": [{"days": "Mon-Sat", "time": "3:35pm"}, {"days": "Sun", "time": "Closed"}], "id": "3410900000", "name": "USPS COLLECTION BOX - BLUE BOX", "address": {"city": "NAPLES", "state": "FL", "street": "5401 AIRPORT RD N", "postcode": "34109"}}},
{"geometry": {"type": "Point", "coordinates": [-81.78416, 26.223656]}, "type": "Feature", "properties": {"collection_times": [{"days": "Mon-Sat", "time": "3:40pm"}, {"days": "Sun", "time": "Closed"}], "id": "3410900005", "name": "USPS COLLECTION BOX - BLUE BOX", "address": {"city": "NAPLES", "state": "FL", "street": "1718 J AND C BLVD", "postcode": "34109"}}},
{"geometry": {"type": "Point", "coordinates": [-81.7695112972, 26.2115791478]}, "type": "Feature", "properties": {"collection_times": [{"days": "Mon-Sat", "time": "3:30pm"}, {"days": "Sun", "time": "Closed"}], "id": "3410900008", "name": "USPS COLLECTION BOX - BLUE BOX", "address": {"city": "NAPLES", "state": "FL", "street": "2368 PINE RIDGE RD", "postcode": "34109"}}},
{"geometry": {"type": "Point", "coordinates": [-81.7636178934, 26.2407717459]}, "type": "Feature", "properties": {"collection_times": [{"days": "Mon-Sat", "time": "3:50pm"}, {"days": "Sun", "time": "Closed"}], "id": "3410900009", "name": "USPS COLLECTION BOX - BLUE BOX", "address": {"city": "NAPLES", "state": "FL", "street": "8950 VANDERBILT BEACH RD", "postcode": "34109"}}},
{"geometry": {"type": "Point", "coordinates": [-81.7665762291, 26.1308955186]}, "type": "Feature", "properties": {"collection_times": [{"days": "Mon-Sat", "time": "3:45pm"}, {"days": "Sun", "time": "Closed"}], "id": "3410900010", "name": "USPS COLLECTION BOX - BLUE BOX", "address": {"city": "NAPLES", "state": "FL", "street": "2430 VANDERBILT BEACH RD", "postcode": "34109"}}},
{"geometry": {"type": "Point", "coordinates": [-81.8002812429, 26.2892096469]}, "type": "Feature", "properties": {"collection_times": [{"days": "Mon-Sat", "time": "3:50pm"}, {"days": "Sun", "time": "Closed"}], "id": "3411000002", "name": "USPS COLLECTION BOX - BLUE BOX", "address": {"city": "NAPLES", "state": "FL", "street": "975 IMPERIAL GOLF COURSE BLVD", "postcode": "34110"}}},
{"geometry": {"type": "Point", "coordinates": [-81.7713247733, 26.2732621771]}, "type": "Feature", "properties": {"collection_times": [{"days": "Mon-Sat", "time": "4:00pm"}, {"days": "Sun", "time": "Closed"}], "id": "3411000007", "name": "USPS COLLECTION BOX - BLUE BOX", "address": {"city": "NAPLES", "state": "FL", "street": "90 CYPRESS WAY E", "postcode": "34110"}}},
{"geometry": {"type": "Point", "coordinates": [-81.7731690064, 26.2723512987]}, "type": "Feature", "properties": {"collection_times": [{"days": "Mon-Sat", "time": "3:55pm"}, {"days": "Sun", "time": "Closed"}], "id": "3411000010", "name": "USPS COLLECTION BOX - BLUE BOX", "address": {"city": "NAPLES", "state": "FL", "street": "2344 IMMOKALEE RD", "postcode": "34110"}}},
{"geometry": {"type": "Point", "coordinates": [-81.8018616143, 26.2937880915]}, "type": "Feature", "properties": {"collection_times": [{"days": "Mon-Sat", "time": "3:55pm"}, {"days": "Sun", "time": "Closed"}], "id": "3411000012", "name": "USPS COLLECTION BOX - BLUE BOX", "address": {"city": "NAPLES", "state": "FL", "street": "13500 TAMIAMI TRL N", "postcode": "34110"}}},
{"geometry": {"type": "Point", "coordinates": [-81.765712816, 26.1265788144]}, "type": "Feature", "properties": {"collection_times": [{"days": "Mon-Sat", "time": "4:10pm"}, {"days": "Sun", "time": "Closed"}], "id": "3411200006", "name": "USPS COLLECTION BOX - BLUE BOX", "address": {"city": "NAPLES", "state": "FL", "street": "3301 TAMIAMI TRL E", "postcode": "34112"}}},
{"geometry": {"type": "Point", "coordinates": [-81.7610614213, 26.1217547077]}, "type": "Feature", "properties": {"collection_times": [{"days": "Mon-Sat", "time": "4:05pm"}, {"days": "Sun", "time": "Closed"}], "id": "3411200011", "name": "USPS COLLECTION BOX - BLUE BOX", "address": {"city": "NAPLES", "state": "FL", "street": "3701 TAMIAMI TRL E", "postcode": "34112"}}},
{"geometry": {"type": "Point", "coordinates": [-81.7469868243, 26.1245404272]}, "type": "Feature", "properties": {"collection_times": [{"days": "Mon-Sat", "time": "4:10pm"}, {"days": "Sun", "time": "Closed"}], "id": "3411200016", "name": "USPS COLLECTION BOX - BLUE BOX", "address": {"city": "NAPLES", "state": "FL", "street": "3301 TAMIAMI TRL E", "postcode": "34112"}}},
{"geometry": {"type": "Point", "coordinates": [-81.7403797498, 26.0990111386]}, "type": "Feature", "properties": {"collection_times": [{"days": "Mon-Sat", "time": "3:55pm"}, {"days": "Sun", "time": "Closed"}], "id": "3411300005", "name": "USPS COLLECTION BOX - BLUE BOX", "address": {"city": "NAPLES", "state": "FL", "street": "8793 TAMIAMI TRL E", "postcode": "34113"}}},
{"geometry": {"type": "Point", "coordinates": [-81.7470232473, 26.1063064466]}, "type": "Feature", "properties": {"collection_times": [{"days": "Mon-Sat", "time": "4:00pm"}, {"days": "Sun", "time": "Closed"}], "id": "3411300007", "name": "USPS COLLECTION BOX - BLUE BOX", "address": {"city": "NAPLES", "state": "FL", "street": "5091 TAMIAMI TRL E", "postcode": "34113"}}},
{"geometry": {"type": "Point", "coordinates": [-81.7372993246, 26.1093170771]}, "type": "Feature", "properties": {"collection_times": [{"days": "Mon-Sat", "time": "3:50pm"}, {"days": "Sun", "time": "Closed"}], "id": "3411300010", "name": "USPS COLLECTION BOX - BLUE BOX", "address": {"city": "NAPLES", "state": "FL", "street": "5482 RATTLESNAKE HAMMOCK RD", "postcode": "34113"}}},
{"geometry": {"type": "Point", "coordinates": [-81.6872153149, 26.1852233106]}, "type": "Feature", "properties": {"collection_times": [{"days": "Mon-Sat", "time": "3:00pm"}, {"days": "Sun", "time": "Closed"}], "id": "3411600003", "name": "USPS COLLECTION BOX - BLUE BOX", "address": {"city": "NAPLES", "state": "FL", "street": "11665 COLLIER BLVD", "postcode": "34116"}}},
{"geometry": {"type": "Point", "coordinates": [-81.7062461167, 26.1807357053]}, "type": "Feature", "properties": {"collection_times": [{"days": "Mon-Sat", "time": "3:00pm"}, {"days": "Sun", "time": "Closed"}], "id": "3411600006", "name": "USPS COLLECTION BOX - BLUE BOX", "address": {"city": "NAPLES", "state": "FL", "street": "4875 GOLDEN GATE PKWY", "postcode": "34116"}}},
{"geometry": {"type": "Point", "coordinates": [-81.6890570751, 26.201426994]}, "type": "Feature", "properties": {"collection_times": [{"days": "Mon-Sat", "time": "3:00pm"}, {"days": "Sun", "time": "Closed"}], "id": "3411600009", "name": "USPS COLLECTION BOX - BLUE BOX", "address": {"city": "NAPLES", "state": "FL", "street": "4080 15TH AVE SW", "postcode": "34116"}}},
{"geometry": {"type": "Point", "coordinates": [-81.8081420052, 26.3820849382]}, "type": "Feature", "properties": {"collection_times": [{"days": "Mon-Sat", "time": "10:30am"}, {"days": "Sun", "time": "Closed"}], "id": "3413400012", "name": "USPS COLLECTION BOX - BLUE BOX", "address": {"city": "BONITA SPRINGS", "state": "FL", "street": "24600 TAMIAMI TRL", "postcode": "34134"}}},
{"geometry": {"type": "Point", "coordinates": [-81.8015044224, 26.3305860027]}, "type": "Feature", "properties": {"collection_times": [{"days": "Mon-Fri", "time": "5:00pm"}, {"days": "Sat", "time": "1:00pm"}, {"days": "Sun", "time": "Closed"}], "id": "3413500002", "name": "USPS COLLECTION BOX - BLUE BOX", "address": {"city": "BONITA SPRINGS", "state": "FL", "street": "9071 BONITA BEACH RD SE", "postcode": "34135"}}},
{"geometry": {"type": "Point", "coordinates": [-81.7983284336, 26.3308845257]}, "type": "Feature", "properties": {"collection_times": [{"days": "Mon-Sat", "time": "9:30am"}, {"days": "Sun", "time": "Closed"}], "id": "3413500005", "name": "USPS COLLECTION BOX - BLUE BOX", "address": {"city": "BONITA SPRINGS", "state": "FL", "street": "9200 BONITA BEACH RD SE", "postcode": "34135"}}},
{"geometry": {"type": "Point", "coordinates": [-81.7874106493, 26.3594442866]}, "type": "Feature", "properties": {"collection_times": [{"days": "Mon-Fri", "time": "5:00pm"}, {"days": "Sat", "time": "3:00pm"}, {"days": "Sun", "time": "Closed"}], "id": "3413500018", "name": "USPS COLLECTION BOX - BLUE BOX", "address": {"city": "BONITA SPRINGS", "state": "FL", "street": "26150 OLD 41 RD", "postcode": "34135"}}},
{"geometry": {"type": "Point", "coordinates": [-81.7874106493, 26.3594442866]}, "type": "Feature", "properties": {"collection_times": [{"days": "Mon-Fri", "time": "5:00pm"}, {"days": "Sat", "time": "12:00pm"}, {"days": "Sun", "time": "Closed"}], "id": "3413500021", "name": "USPS COLLECTION BOX - APC", "address": {"city": "BONITA SPRINGS", "state": "FL", "street": "26150 OLD 41 RD", "postcode": "34135"}}},
{"geometry": {"type": "Point", "coordinates": [-81.3593665362, 25.8150401522]}, "type": "Feature", "properties": {"collection_times": [{"days": "Mon-Fri", "time": "4:00pm"}, {"days": "Sat", "time": "3:30pm"}, {"days": "Sun", "time": "Closed"}], "id": "3413800000", "name": "USPS COLLECTION BOX - BLUE BOX", "address": {"city": "CHOKOLOSKEE", "state": "FL", "street": "195 SMALLWOOD DR", "postcode": "34138"}}},
{"geometry": {"type": "Point", "coordinates": [-81.3829782223, 25.8573899597]}, "type": "Feature", "properties": {"collection_times": [{"days": "Mon-Fri", "time": "4:30pm"}, {"days": "Sat", "time": "3:45pm"}, {"days": "Sun", "time": "Closed"}], "id": "3413900000", "name": "USPS COLLECTION BOX - BLUE BOX", "address": {"city": "EVERGLADES CITY", "state": "FL", "street": "601 COLLIER AVE", "postcode": "34139"}}},
{"geometry": {"type": "Point", "coordinates": [-81.6471027015, 25.9256510076]}, "type": "Feature", "properties": {"collection_times": [{"days": "Mon-Sat", "time": "3:15pm"}, {"days": "Sun", "time": "Closed"}], "id": "3414000000", "name": "USPS COLLECTION BOX - BLUE BOX", "address": {"city": "GOODLAND", "state": "FL", "street": "427 PAPAYA ST", "postcode": "34140"}}},
{"geometry": {"type": "Point", "coordinates": [-81.6471027015, 25.9256510076]}, "type": "Feature", "properties": {"collection_times": [{"days": "Mon-Fri", "time": "3:15pm"}, {"days": "Sat-Sun", "time": "Closed"}], "id": "3414000003", "name": "USPS COLLECTION BOX - PO LOBBY", "address": {"city": "GOODLAND", "state": "FL", "street": "427 PAPAYA ST", "postcode": "34140"}}},
{"geometry": {"type": "Point", "coordinates": [-81.2972669807, 25.9015409816]}, "type": "Feature", "properties": {"collection_times": [{"days": "Mon-Fri", "time": "5:00pm"}, {"days": "Sat", "time": "4:00pm"}, {"days": "Sun", "time": "Closed"}], "id": "3414100000", "name": "USPS COLLECTION BOX - BLUE BOX", "address": {"city": "OCHOPEE", "state": "FL", "street": "38000 TAMIAMI TRL E", "postcode": "34141"}}},
{"geometry": {"type": "Point", "coordinates": [-81.4337496883, 26.4288484891]}, "type": "Feature", "properties": {"collection_times": [{"days": "Mon-Fri", "time": "5:00pm"}, {"days": "Sat", "time": "3:00pm"}, {"days": "Sun", "time": "Closed"}], "id": "3414200015", "name": "USPS COLLECTION BOX - BLUE BOX", "address": {"city": "IMMOKALEE", "state": "FL", "street": "810 N 15TH ST", "postcode": "34142"}}},
{"geometry": {"type": "Point", "coordinates": [-81.4337496883, 26.4288484891]}, "type": "Feature", "properties": {"collection_times": [{"days": "Mon-Fri", "time": "5:00pm"}, {"days": "Sat", "time": "3:00pm"}, {"days": "Sun", "time": "Closed"}], "id": "3414200016", "name": "USPS COLLECTION BOX - BLUE BOX", "address": {"city": "IMMOKALEE", "state": "FL", "street": "810 N 15TH ST", "postcode": "34142"}}},
{"geometry": {"type": "Point", "coordinates": [-81.7245879957, 25.9538382251]}, "type": "Feature", "properties": {"collection_times": [{"days": "Mon-Sat", "time": "12:00pm"}, {"days": "Sun", "time": "Closed"}], "id": "3414500001", "name": "USPS COLLECTION BOX - BLUE BOX", "address": {"city": "MARCO ISLAND", "state": "FL", "street": "670 BALD EAGLE DR", "postcode": "34145"}}},
{"geometry": {"type": "Point", "coordinates": [-81.6997081565, 25.9334197088]}, "type": "Feature", "properties": {"collection_times": [{"days": "Mon-Fri", "time": "4:00pm"}, {"days": "Sat", "time": "12:00pm"}, {"days": "Sun", "time": "Closed"}], "id": "3414500003", "name": "USPS COLLECTION BOX - BLUE BOX", "address": {"city": "MARCO ISLAND", "state": "FL", "street": "135 S BARFIELD DR", "postcode": "34145"}}},
{"geometry": {"type": "Point", "coordinates": [-81.7207154229, 25.9554969229]}, "type": "Feature", "properties": {"collection_times": [{"days": "Mon-Fri", "time": "4:00pm"}, {"days": "Sat", "time": "12:00pm"}, {"days": "Sun", "time": "Closed"}], "id": "3414500006", "name": "USPS COLLECTION BOX - BLUE BOX", "address": {"city": "MARCO ISLAND", "state": "FL", "street": "1102 N COLLIER BLVD", "postcode": "34145"}}},
{"geometry": {"type": "Point", "coordinates": [-81.7220829235, 25.9526507236]}, "type": "Feature", "properties": {"collection_times": [{"days": "Mon-Fri", "time": "5:00pm"}, {"days": "Sat", "time": "3:45pm"}, {"days": "Sun", "time": "Closed"}], "id": "3414500009", "name": "USPS COLLECTION BOX - BLUE BOX", "address": {"city": "MARCO ISLAND", "state": "FL", "street": "600 E ELKCAM CIR", "postcode": "34145"}}},
{"geometry": {"type": "Point", "coordinates": [-81.7220829235, 25.9526507236]}, "type": "Feature", "properties": {"collection_times": [{"days": "Mon-Fri", "time": "5:00pm"}, {"days": "Sat", "time": "3:45pm"}, {"days": "Sun", "time": "Closed"}], "id": "3414500010", "name": "USPS COLLECTION BOX - BLUE BOX", "address": {"city": "MARCO ISLAND", "state": "FL", "street": "600 E ELKCAM CIR", "postcode": "34145"}}},
{"geometry": {"type": "Point", "coordinates": [-81.7263258517, 25.9125598384]}, "type": "Feature", "properties": {"collection_times": [{"days": "Mon-Sat", "time": "12:00pm"}, {"days": "Sun", "time": "Closed"}], "id": "3414500014", "name": "USPS COLLECTION BOX - BLUE BOX", "address": {"city": "MARCO ISLAND", "state": "FL", "street": "921 SWALLOW AVE", "postcode": "34145"}}},
{"geometry": {"type": "Point", "coordinates": [-81.7224685681, 25.9218476552]}, "type": "Feature", "properties": {"collection_times": [{"days": "Mon-Fri", "time": "4:00pm"}, {"days": "Sat", "time": "12:00pm"}, {"days": "Sun", "time": "Closed"}], "id": "3414500015", "name": "USPS COLLECTION BOX - BLUE BOX", "address": {"city": "MARCO ISLAND", "state": "FL", "street": "1040 WINTERBERRY DR", "postcode": "34145"}}},
{"geometry": {"type": "Point", "coordinates": [-81.7261513252, 25.9199116292]}, "type": "Feature", "properties": {"collection_times": [{"days": "Mon-Fri", "time": "4:00pm"}, {"days": "Sat", "time": "12:00pm"}, {"days": "Sun", "time": "Closed"}], "id": "3414500016", "name": "USPS COLLECTION BOX - BLUE BOX", "address": {"city": "MARCO ISLAND", "state": "FL", "street": "677 S COLLIER BLVD", "postcode": "34145"}}},
{"geometry": {"type": "Point", "coordinates": [-81.7005010201, 25.9342994812]}, "type": "Feature", "properties": {"collection_times": [{"days": "Mon-Sat", "time": "12:00pm"}, {"days": "Sun", "time": "Closed"}], "id": "3414500019", "name": "USPS COLLECTION BOX - BLUE BOX", "address": {"city": "MARCO ISLAND", "state": "FL", "street": "1770 SAN MARCO RD", "postcode": "34145"}}},
{"geometry": {"type": "Point", "coordinates": [-81.7220829235, 25.9526507236]}, "type": "Feature", "properties": {"collection_times": [{"days": "Mon-Fri", "time": "5:00pm"}, {"days": "Sat", "time": "3:45pm"}, {"days": "Sun", "time": "Closed"}], "id": "3414500020", "name": "USPS COLLECTION BOX - BLUE BOX", "address": {"city": "MARCO ISLAND", "state": "FL", "street": "600 E ELKCAM CIR", "postcode": "34145"}}}
]}
