{"type": "FeatureCollection", "features": [
{"geometry": {"type": "Point", "coordinates": [-82.4419689043, 27.3901364779]}, "type": "Feature", "properties": {"collection_times": [{"days": "Mon-Sat", "time": "12:00pm"}, {"days": "Sun", "time": "Closed"}], "id": "3420200002", "name": "USPS COLLECTION BOX - BLUE BOX", "address": {"city": "LAKEWOOD RANCH", "state": "FL", "street": "8306 MARKET ST", "postcode": "34202"}}},
{"geometry": {"type": "Point", "coordinates": [-82.3915338297, 27.4071353654]}, "type": "Feature", "properties": {"collection_times": [{"days": "Mon-Sat", "time": "12:00pm"}, {"days": "Sun", "time": "Closed"}], "id": "3420200003", "name": "USPS COLLECTION BOX - BLUE BOX", "address": {"city": "LAKEWOOD RANCH", "state": "FL", "street": "6700 CLUBHOUSE DR", "postcode": "34202"}}},
{"geometry": {"type": "Point", "coordinates": [-82.3915338297, 27.4071353654]}, "type": "Feature", "properties": {"collection_times": [{"days": "Mon-Sat", "time": "12:00pm"}, {"days": "Sun", "time": "Closed"}], "id": "3420200004", "name": "USPS COLLECTION BOX - BLUE BOX", "address": {"city": "LAKEWOOD RANCH", "state": "FL", "street": "5300 BRADEN RUN", "postcode": "34202"}}},
{"geometry": {"type": "Point", "coordinates": [-82.5104636558, 27.4464825466]}, "type": "Feature", "properties": {"collection_times": [{"days": "Mon-Fri", "time": "5:00pm"}, {"days": "Sat", "time": "4:30pm"}, {"days": "Sun", "time": "Closed"}], "id": "3420300001", "name": "USPS COLLECTION BOX - BLUE BOX", "address": {"city": "UNIVERSITY PARK", "state": "FL", "street": "4112 53RD AVE E", "postcode": "34203"}}},
{"geometry": {"type": "Point", "coordinates": [-82.5104636558, 27.4464825466]}, "type": "Feature", "properties": {"collection_times": [{"days": "Mon-Fri", "time": "5:00pm"}, {"days": "Sat", "time": "4:30pm"}, {"days": "Sun", "time": "Closed"}], "id": "3420300003", "name": "USPS COLLECTION BOX - APC", "address": {"city": "UNIVERSITY PARK", "state": "FL", "street": "4112 53RD AVE E", "postcode": "34203"}}},
{"geometry": {"type": "Point", "coordinates": [-82.5269171123, 27.4291738722]}, "type": "Feature", "properties": {"collection_times": [{"days": "Mon-Sat", "time": "12:00pm"}, {"days": "Sun", "time": "Closed"}], "id": "3420300005", "name": "USPS COLLECTION BOX - BLUE BOX", "address": {"city": "UNIVERSITY PARK", "state": "FL", "street": "2901 63RD AVE E", "postcode": "34203"}}},
{"geometry": {"type": "Point", "coordinates": [-82.4640103708, 27.441963895]}, "type": "Feature", "properties": {"collection_times": [{"days": "Mon-Sat", "time": "12:00pm"}, {"days": "Sun", "time": "Closed"}], "id": "3420300010", "name": "USPS COLLECTION BOX - BLUE BOX", "address": {"city": "UNIVERSITY PARK", "state": "FL", "street": "7254 55TH AVE E", "postcode": "34203"}}},
{"geometry": {"type": "Point", "coordinates": [-82.5081007152, 27.4432417749]}, "type": "Feature", "properties": {"collection_times": [{"days": "Mon-Sat", "time": "12:00pm"}, {"days": "Sun", "time": "Closed"}], "id": "3420300012", "name": "USPS COLLECTION BOX - BLUE BOX", "address": {"city": "UNIVERSITY PARK", "state": "FL", "street": "8441 COOPER CREEK BLVD", "postcode": "34203"}}},
{"geometry": {"type": "Point", "coordinates": [-82.4828786961, 27.4459027645]}, "type": "Feature", "properties": {"collection_times": [{"days": "Mon-Sat", "time": "12:00pm"}, {"days": "Sun", "time": "Closed"}], "id": "3420300017", "name": "USPS COLLECTION BOX - BLUE BOX", "address": {"city": "UNIVERSITY PARK", "state": "FL", "street": "6156 SR 70 EAST", "postcode": "34203"}}},
{"geometry": {"type": "Point", "coordinates": [-82.5061541522, 27.4498151706]}, "type": "Feature", "properties": {"collection_times": [{"days": "Mon-Sat", "time": "12:00pm"}, {"days": "Sun", "time": "Closed"}], "id": "3420300019", "name": "USPS COLLECTION BOX - BLUE BOX", "address": {"city": "UNIVERSITY PARK", "state": "FL", "street": "4478 PRO AM AVE E", "postcode": "34203"}}},
{"geometry": {"type": "Point", "coordinates": [-82.5081007152, 27.4432417749]}, "type": "Feature", "properties": {"collection_times": [{"days": "Mon-Sat", "time": "12:00pm"}, {"days": "Sun", "time": "Closed"}], "id": "3420300026", "name": "USPS COLLECTION BOX - BLUE BOX", "address": {"city": "UNIVERSITY PARK", "state": "FL", "street": "8300 PARK BLVD", "postcode": "34203"}}},
{"geometry": {"type": "Point", "coordinates": [-82.5081007152, 27.4432417749]}, "type": "Feature", "properties": {"collection_times": [{"days": "Mon-Sat", "time": "12:00pm"}, {"days": "Sun", "time": "Closed"}], "id": "3420300027", "name": "USPS COLLECTION BOX - BLUE BOX", "address": {"city": "UNIVERSITY PARK", "state": "FL", "street": "8300 PARK BLVD", "postcode": "34203"}}},
{"geometry": {"type": "Point", "coordinates": [-82.6002829912, 27.4920922846]}, "type": "Feature", "properties": {"collection_times": [{"days": "Mon-Fri", "time": "2:30pm"}, {"days": "Sat", "time": "1:20pm"}, {"days": "Sun", "time": "Closed"}], "id": "3420500010", "name": "USPS COLLECTION BOX - BLUE BOX", "address": {"city": "BRADENTON", "state": "FL", "street": "3924 9TH AVE W", "postcode": "34205"}}},
{"geometry": {"type": "Point", "coordinates": [-82.5753994143, 27.48086465]}, "type": "Feature", "properties": {"collection_times": [{"days": "Mon-Fri", "time": "2:30pm"}, {"days": "Sat", "time": "1:45pm"}, {"days": "Sun", "time": "Closed"}], "id": "3420500014", "name": "USPS COLLECTION BOX - BLUE BOX", "address": {"city": "BRADENTON", "state": "FL", "street": "2100 14TH ST W", "postcode": "34205"}}},
{"geometry": {"type": "Point", "coordinates": [-82.5877732182, 27.4778500916]}, "type": "Feature", "properties": {"collection_times": [{"days": "Mon-Fri", "time": "2:30pm"}, {"days": "Sat", "time": "1:30pm"}, {"days": "Sun", "time": "Closed"}], "id": "3420500015", "name": "USPS COLLECTION BOX - BLUE BOX", "address": {"city": "BRADENTON", "state": "FL", "street": "2500 26TH ST W", "postcode": "34205"}}},
{"geometry": {"type": "Point", "coordinates": [-82.571951918, 27.4980782699]}, "type": "Feature", "properties": {"collection_times": [{"days": "Mon-Fri", "time": "2:30pm"}, {"days": "Sat", "time": "2:20pm"}, {"days": "Sun", "time": "Closed"}], "id": "3420500018", "name": "USPS COLLECTION BOX - BLUE BOX", "address": {"city": "BRADENTON", "state": "FL", "street": "222 10TH ST W", "postcode": "34205"}}},
{"geometry": {"type": "Point", "coordinates": [-82.5752511957, 27.4952797776]}, "type": "Feature", "properties": {"collection_times": [{"days": "Mon-Fri", "time": "2:30pm"}, {"days": "Sat", "time": "2:00pm"}, {"days": "Sun", "time": "Closed"}], "id": "3420500021", "name": "USPS COLLECTION BOX - BLUE BOX", "address": {"city": "BRADENTON", "state": "FL", "street": "514 14TH ST W", "postcode": "34205"}}},
{"geometry": {"type": "Point", "coordinates": [-82.5853742471, 27.4956581847]}, "type": "Feature", "properties": {"collection_times": [{"days": "Mon-Fri", "time": "2:15pm"}, {"days": "Sat", "time": "1:00pm"}, {"days": "Sun", "time": "Closed"}], "id": "3420500031", "name": "USPS COLLECTION BOX - BLUE BOX", "address": {"city": "BRADENTON", "state": "FL", "street": "2424 MANATEE AVE W", "postcode": "34205"}}},
{"geometry": {"type": "Point", "coordinates": [-82.5952925608, 27.495723914]}, "type": "Feature", "properties": {"collection_times": [{"days": "Mon-Fri", "time": "2:25pm"}, {"days": "Sat", "time": "1:10pm"}, {"days": "Sun", "time": "Closed"}], "id": "3420500035", "name": "USPS COLLECTION BOX - BLUE BOX", "address": {"city": "BRADENTON", "state": "FL", "street": "3332 MANATEE AVE W", "postcode": "34205"}}},
{"geometry": {"type": "Point", "coordinates": [-82.5997403873, 27.4956411645]}, "type": "Feature", "properties": {"collection_times": [{"days": "Mon-Fri", "time": "2:25pm"}, {"days": "Sat", "time": "1:10pm"}, {"days": "Sun", "time": "Closed"}], "id": "3420500038", "name": "USPS COLLECTION BOX - BLUE BOX", "address": {"city": "BRADENTON", "state": "FL", "street": "3901 MANATEE AVE W", "postcode": "34205"}}},
{"geometry": {"type": "Point", "coordinates": [-82.5702112209, 27.4954867295]}, "type": "Feature", "properties": {"collection_times": [{"days": "Mon-Fri", "time": "5:00pm"}, {"days": "Sat", "time": "2:15pm"}, {"days": "Sun", "time": "Closed"}], "id": "3420500040", "name": "USPS COLLECTION BOX - BLUE BOX", "address": {"city": "BRADENTON", "state": "FL", "street": "824 MANATEE AVE W", "postcode": "34205"}}},
{"geometry": {"type": "Point", "coordinates": [-82.5734342754, 27.4928901417]}, "type": "Feature", "properties": {"collection_times": [{"days": "Mon-Fri", "time": "2:30pm"}, {"days": "Sat", "time": "1:45pm"}, {"days": "Sun", "time": "Closed"}], "id": "3420500045", "name": "USPS COLLECTION BOX - BLUE BOX", "address": {"city": "BRADENTON", "state": "FL", "street": "801 12TH ST W", "postcode": "34205"}}},
{"geometry": {"type": "Point", "coordinates": [-82.5727904632, 27.4941971371]}, "type": "Feature", "properties": {"collection_times": [{"days": "Mon-Fri", "time": "2:30pm"}, {"days": "Sat", "time": "2:05pm"}, {"days": "Sun", "time": "Closed"}], "id": "3420500046", "name": "USPS COLLECTION BOX - BLUE BOX", "address": {"city": "BRADENTON", "state": "FL", "street": "1102 6TH AVE W", "postcode": "34205"}}},
{"geometry": {"type": "Point", "coordinates": [-82.5727863805, 27.4954046831]}, "type": "Feature", "properties": {"collection_times": [{"days": "Mon-Fri", "time": "2:30pm"}, {"days": "Sat", "time": "1:50pm"}, {"days": "Sun", "time": "Closed"}], "id": "3420500048", "name": "USPS COLLECTION BOX - BLUE BOX", "address": {"city": "BRADENTON", "state": "FL", "street": "1115 MANATEE AVE W", "postcode": "34205"}}},
{"geometry": {"type": "Point", "coordinates": [-82.5752511957, 27.4952797776]}, "type": "Feature", "properties": {"collection_times": [{"days": "Mon-Fri", "time": "2:30pm"}, {"days": "Sat", "time": "2:00pm"}, {"days": "Sun", "time": "Closed"}], "id": "3420500049", "name": "USPS COLLECTION BOX - BLUE BOX", "address": {"city": "BRADENTON", "state": "FL", "street": "514 14TH ST W", "postcode": "34205"}}},
{"geometry": {"type": "Point", "coordinates": [-82.5720771076, 27.4965852512]}, "type": "Feature", "properties": {"collection_times": [{"days": "Mon-Fri", "time": "2:30pm"}, {"days": "Sat", "time": "2:10pm"}, {"days": "Sun", "time": "Closed"}], "id": "3420500050", "name": "USPS COLLECTION BOX - BLUE BOX", "address": {"city": "BRADENTON", "state": "FL", "street": "1017 4TH AVE W", "postcode": "34205"}}},
{"geometry": {"type": "Point", "coordinates": [-82.571951918, 27.4980782699]}, "type": "Feature", "properties": {"collection_times": [{"days": "Mon-Fri", "time": "2:30pm"}, {"days": "Sat", "time": "2:20pm"}, {"days": "Sun", "time": "Closed"}], "id": "3420500051", "name": "USPS COLLECTION BOX - BLUE BOX", "address": {"city": "BRADENTON", "state": "FL", "street": "222 10TH ST W", "postcode": "34205"}}},
{"geometry": {"type": "Point", "coordinates": [-82.5752909477, 27.4593269999]}, "type": "Feature", "properties": {"collection_times": [{"days": "Mon-Fri", "time": "1:45pm"}, {"days": "Sat", "time": "12:30pm"}, {"days": "Sun", "time": "Closed"}], "id": "3420700002", "name": "USPS COLLECTION BOX - BLUE BOX", "address": {"city": "BRADENTON", "state": "FL", "street": "4533 14TH ST W", "postcode": "34207"}}},
{"geometry": {"type": "Point", "coordinates": [-82.575508497, 27.4348417885]}, "type": "Feature", "properties": {"collection_times": [{"days": "Mon-Fri", "time": "2:20pm"}, {"days": "Sat", "time": "12:30pm"}, {"days": "Sun", "time": "Closed"}], "id": "3420700007", "name": "USPS COLLECTION BOX - BLUE BOX", "address": {"city": "BRADENTON", "state": "FL", "street": "6000 14TH ST W", "postcode": "34207"}}},
{"geometry": {"type": "Point", "coordinates": [-82.5978383146, 27.4476453175]}, "type": "Feature", "properties": {"collection_times": [{"days": "Mon-Fri", "time": "2:05pm"}, {"days": "Sat", "time": "12:30pm"}, {"days": "Sun", "time": "Closed"}], "id": "3420700008", "name": "USPS COLLECTION BOX - BLUE BOX", "address": {"city": "BRADENTON", "state": "FL", "street": "3500 53RD AVE W", "postcode": "34207"}}},
{"geometry": {"type": "Point", "coordinates": [-82.5821281121, 27.440406097]}, "type": "Feature", "properties": {"collection_times": [{"days": "Mon-Fri", "time": "5:00pm"}, {"days": "Sat", "time": "4:00pm"}, {"days": "Sun", "time": "Closed"}], "id": "3420700010", "name": "USPS COLLECTION BOX - BLUE BOX", "address": {"city": "BRADENTON", "state": "FL", "street": "2005 57TH AVE W", "postcode": "34207"}}},
{"geometry": {"type": "Point", "coordinates": [-82.5806254798, 27.418882011]}, "type": "Feature", "properties": {"collection_times": [{"days": "Mon-Fri", "time": "2:15pm"}, {"days": "Sat", "time": "12:30pm"}, {"days": "Sun", "time": "Closed"}], "id": "3420700016", "name": "USPS COLLECTION BOX - BLUE BOX", "address": {"city": "BRADENTON", "state": "FL", "street": "6814 CANADA BLVD", "postcode": "34207"}}},
{"geometry": {"type": "Point", "coordinates": [-82.567993771, 27.462274205]}, "type": "Feature", "properties": {"collection_times": [{"days": "Mon-Fri", "time": "1:45pm"}, {"days": "Sat", "time": "12:30pm"}, {"days": "Sun", "time": "Closed"}], "id": "3420700019", "name": "USPS COLLECTION BOX - BLUE BOX", "address": {"city": "BRADENTON", "state": "FL", "street": "641 CORTEZ RD W", "postcode": "34207"}}},
{"geometry": {"type": "Point", "coordinates": [-82.5821281121, 27.440406097]}, "type": "Feature", "properties": {"collection_times": [{"days": "Mon-Fri", "time": "5:00pm"}, {"days": "Sat", "time": "4:00pm"}, {"days": "Sun", "time": "Closed"}], "id": "3420700021", "name": "USPS COLLECTION BOX - APC", "address": {"city": "BRADENTON", "state": "FL", "street": "2005 57TH AVE W", "postcode": "34207"}}},
{"geometry": {"type": "Point", "coordinates": [-82.5876688433, 27.4315591506]}, "type": "Feature", "properties": {"collection_times": [{"days": "Mon-Fri", "time": "2:30pm"}, {"days": "Sat", "time": "4:00pm"}, {"days": "Sun", "time": "Closed"}], "id": "3420700023", "name": "USPS COLLECTION BOX - BLUE BOX", "address": {"city": "BRADENTON", "state": "FL", "street": "6123 26TH ST W", "postcode": "34207"}}},
{"geometry": {"type": "Point", "coordinates": [-82.6072259161, 27.4623632306]}, "type": "Feature", "properties": {"collection_times": [{"days": "Mon-Fri", "time": "1:30pm"}, {"days": "Sat", "time": "12:30pm"}, {"days": "Sun", "time": "Closed"}], "id": "3420700024", "name": "USPS COLLECTION BOX - BLUE BOX", "address": {"city": "BRADENTON", "state": "FL", "street": "4651 CORTEZ RD W", "postcode": "34207"}}},
{"geometry": {"type": "Point", "coordinates": [-82.5604021981, 27.4974181762]}, "type": "Feature", "properties": {"collection_times": [{"days": "Mon-Fri", "time": "3:30pm"}, {"days": "Sat", "time": "2:10pm"}, {"days": "Sun", "time": "Closed"}], "id": "3420800011", "name": "USPS COLLECTION BOX - BLUE BOX", "address": {"city": "BRADENTON", "state": "FL", "street": "250 2ND AVE E", "postcode": "34208"}}},
{"geometry": {"type": "Point", "coordinates": [-82.5465335864, 27.4732143558]}, "type": "Feature", "properties": {"collection_times": [{"days": "Mon-Fri", "time": "2:55pm"}, {"days": "Sat", "time": "1:40pm"}, {"days": "Sun", "time": "Closed"}], "id": "3420800014", "name": "USPS COLLECTION BOX - BLUE BOX", "address": {"city": "BRADENTON", "state": "FL", "street": "3011 15TH ST E", "postcode": "34208"}}},
{"geometry": {"type": "Point", "coordinates": [-82.5158039978, 27.498989182]}, "type": "Feature", "properties": {"collection_times": [{"days": "Mon-Fri", "time": "3:20pm"}, {"days": "Sat", "time": "2:05pm"}, {"days": "Sun", "time": "Closed"}], "id": "3420800017", "name": "USPS COLLECTION BOX - BLUE BOX", "address": {"city": "BRADENTON", "state": "FL", "street": "1040 CARLTON ARMS BLVD", "postcode": "34208"}}},
{"geometry": {"type": "Point", "coordinates": [-82.5628663153, 27.4689690265]}, "type": "Feature", "properties": {"collection_times": [{"days": "Mon-Fri", "time": "2:45pm"}, {"days": "Sat", "time": "1:30pm"}, {"days": "Sun", "time": "Closed"}], "id": "3420800019", "name": "USPS COLLECTION BOX - BLUE BOX", "address": {"city": "BRADENTON", "state": "FL", "street": "3611 1ST ST", "postcode": "34208"}}},
{"geometry": {"type": "Point", "coordinates": [-82.5060094376, 27.4983042185]}, "type": "Feature", "properties": {"collection_times": [{"days": "Mon-Fri", "time": "3:10pm"}, {"days": "Sat", "time": "1:55pm"}, {"days": "Sun", "time": "Closed"}], "id": "3420800022", "name": "USPS COLLECTION BOX - BLUE BOX", "address": {"city": "BRADENTON", "state": "FL", "street": "4502 E STATE ROAD 64", "postcode": "34208"}}},
{"geometry": {"type": "Point", "coordinates": [-82.4996171284, 27.4967283221]}, "type": "Feature", "properties": {"collection_times": [{"days": "Mon-Fri", "time": "3:15pm"}, {"days": "Sat", "time": "2:00pm"}, {"days": "Sun", "time": "Closed"}], "id": "3420800025", "name": "USPS COLLECTION BOX - BLUE BOX", "address": {"city": "BRADENTON", "state": "FL", "street": "4949 SR 64 E", "postcode": "34208"}}},
{"geometry": {"type": "Point", "coordinates": [-82.5018610564, 27.497374002]}, "type": "Feature", "properties": {"collection_times": [{"days": "Mon-Fri", "time": "3:15pm"}, {"days": "Sat", "time": "2:00pm"}, {"days": "Sun", "time": "Closed"}], "id": "3420800026", "name": "USPS COLLECTION BOX - BLUE BOX", "address": {"city": "BRADENTON", "state": "FL", "street": "4800 SR 64 E", "postcode": "34208"}}},
{"geometry": {"type": "Point", "coordinates": [-82.6365683836, 27.4996481872]}, "type": "Feature", "properties": {"collection_times": [{"days": "Mon-Fri", "time": "5:00pm"}, {"days": "Sat", "time": "3:30pm"}, {"days": "Sun", "time": "Closed"}], "id": "3420900002", "name": "USPS COLLECTION BOX - BLUE BOX", "address": {"city": "BRADENTON", "state": "FL", "street": "115 75TH ST W", "postcode": "34209"}}},
{"geometry": {"type": "Point", "coordinates": [-82.6039338349, 27.4969728773]}, "type": "Feature", "properties": {"collection_times": [{"days": "Mon-Fri", "time": "3:10pm"}, {"days": "Sat", "time": "2:30pm"}, {"days": "Sun", "time": "Closed"}], "id": "3420900012", "name": "USPS COLLECTION BOX - BLUE BOX", "address": {"city": "BRADENTON", "state": "FL", "street": "406 43RD ST W", "postcode": "34209"}}},
{"geometry": {"type": "Point", "coordinates": [-82.6254532316, 27.4961135695]}, "type": "Feature", "properties": {"collection_times": [{"days": "Mon-Fri", "time": "3:15pm"}, {"days": "Sat", "time": "2:35pm"}, {"days": "Sun", "time": "Closed"}], "id": "3420900016", "name": "USPS COLLECTION BOX - BLUE BOX", "address": {"city": "BRADENTON", "state": "FL", "street": "6400 MANATEE AVE W", "postcode": "34209"}}},
{"geometry": {"type": "Point", "coordinates": [-82.6356639109, 27.495996855]}, "type": "Feature", "properties": {"collection_times": [{"days": "Mon-Fri", "time": "2:40pm"}, {"days": "Sat", "time": "2:10pm"}, {"days": "Sun", "time": "Closed"}], "id": "3420900017", "name": "USPS COLLECTION BOX - BLUE BOX", "address": {"city": "BRADENTON", "state": "FL", "street": "7415 MANATEE AVE W", "postcode": "34209"}}},
{"geometry": {"type": "Point", "coordinates": [-82.618620957, 27.4958133253]}, "type": "Feature", "properties": {"collection_times": [{"days": "Mon-Fri", "time": "2:55pm"}, {"days": "Sat", "time": "2:20pm"}, {"days": "Sun", "time": "Closed"}], "id": "3420900018", "name": "USPS COLLECTION BOX - BLUE BOX", "address": {"city": "BRADENTON", "state": "FL", "street": "5767 MANATEE AVE W", "postcode": "34209"}}},
{"geometry": {"type": "Point", "coordinates": [-82.612475075, 27.4957480463]}, "type": "Feature", "properties": {"collection_times": [{"days": "Mon-Fri", "time": "3:00pm"}, {"days": "Sat", "time": "2:25pm"}, {"days": "Sun", "time": "Closed"}], "id": "3420900020", "name": "USPS COLLECTION BOX - BLUE BOX", "address": {"city": "BRADENTON", "state": "FL", "street": "5139 MANATEE AVE W", "postcode": "34209"}}},
{"geometry": {"type": "Point", "coordinates": [-82.6250019905, 27.4899021572]}, "type": "Feature", "properties": {"collection_times": [{"days": "Mon-Fri", "time": "2:45pm"}, {"days": "Sat", "time": "2:10pm"}, {"days": "Sun", "time": "Closed"}], "id": "3420900029", "name": "USPS COLLECTION BOX - BLUE BOX", "address": {"city": "BRADENTON", "state": "FL", "street": "6300 11TH AVE W", "postcode": "34209"}}},
{"geometry": {"type": "Point", "coordinates": [-82.6204959764, 27.4689329174]}, "type": "Feature", "properties": {"collection_times": [{"days": "Mon-Fri", "time": "2:30pm"}, {"days": "Sat", "time": "2:00pm"}, {"days": "Sun", "time": "Closed"}], "id": "3420900030", "name": "USPS COLLECTION BOX - BLUE BOX", "address": {"city": "BRADENTON", "state": "FL", "street": "3700 59TH ST W", "postcode": "34209"}}},
{"geometry": {"type": "Point", "coordinates": [-82.6365683836, 27.4996481872]}, "type": "Feature", "properties": {"collection_times": [{"days": "Mon-Fri", "time": "5:00pm"}, {"days": "Sat", "time": "3:30pm"}, {"days": "Sun", "time": "Closed"}], "id": "3420900031", "name": "USPS COLLECTION BOX - APC", "address": {"city": "BRADENTON", "state": "FL", "street": "115 75TH ST W", "postcode": "34209"}}},
{"geometry": {"type": "Point", "coordinates": [-82.5960358234, 27.4294369687]}, "type": "Feature", "properties": {"collection_times": [{"days": "Mon-Fri", "time": "2:10pm"}, {"days": "Sat", "time": "12:30pm"}, {"days": "Sun", "time": "Closed"}], "id": "3421000005", "name": "USPS COLLECTION BOX - BLUE BOX", "address": {"city": "BRADENTON", "state": "FL", "street": "3400 EL CONQUISTADOR PKWY", "postcode": "34210"}}},
{"geometry": {"type": "Point", "coordinates": [-82.6182654018, 27.4626720886]}, "type": "Feature", "properties": {"collection_times": [{"days": "Mon-Fri", "time": "1:50pm"}, {"days": "Sat", "time": "12:30pm"}, {"days": "Sun", "time": "Closed"}], "id": "3421000007", "name": "USPS COLLECTION BOX - BLUE BOX", "address": {"city": "BRADENTON", "state": "FL", "street": "5602 CORTEZ RD W", "postcode": "34210"}}},
{"geometry": {"type": "Point", "coordinates": [-82.6416793552, 27.4622484044]}, "type": "Feature", "properties": {"collection_times": [{"days": "Mon-Fri", "time": "1:55pm"}, {"days": "Sat", "time": "12:30pm"}, {"days": "Sun", "time": "Closed"}], "id": "3421000010", "name": "USPS COLLECTION BOX - BLUE BOX", "address": {"city": "BRADENTON", "state": "FL", "street": "7826 CORTEZ RD W", "postcode": "34210"}}},
{"geometry": {"type": "Point", "coordinates": [-82.5999510657, 27.4623391178]}, "type": "Feature", "properties": {"collection_times": [{"days": "Mon-Fri", "time": "2:00pm"}, {"days": "Sat", "time": "12:30pm"}, {"days": "Sun", "time": "Closed"}], "id": "3421000013", "name": "USPS COLLECTION BOX - BLUE BOX", "address": {"city": "BRADENTON", "state": "FL", "street": "3639 CORTEZ RD W", "postcode": "34210"}}},
{"geometry": {"type": "Point", "coordinates": [-82.4338187218, 27.4834106829]}, "type": "Feature", "properties": {"collection_times": [{"days": "Mon-Sat", "time": "12:00pm"}, {"days": "Sun", "time": "Closed"}], "id": "3421100001", "name": "USPS COLLECTION BOX - BLUE BOX", "address": {"city": "BRADENTON", "state": "FL", "street": "1767 LAKEWOOD RANCH BLVD", "postcode": "34211"}}},
{"geometry": {"type": "Point", "coordinates": [-82.375182015, 27.4494307144]}, "type": "Feature", "properties": {"collection_times": [{"days": "Mon-Fri", "time": "5:00pm"}, {"days": "Sat", "time": "12:00pm"}, {"days": "Sun", "time": "Closed"}], "id": "3421100002", "name": "USPS COLLECTION BOX - BLUE BOX", "address": {"city": "BRADENTON", "state": "FL", "street": "5910 POST BLVD", "postcode": "34211"}}},
{"geometry": {"type": "Point", "coordinates": [-82.6834227674, 27.4692612553]}, "type": "Feature", "properties": {"collection_times": [{"days": "Mon-Fri", "time": "4:15pm"}, {"days": "Sat", "time": "1:00pm"}, {"days": "Sun", "time": "Closed"}], "id": "3421500001", "name": "USPS COLLECTION BOX - BLUE BOX", "address": {"city": "CORTEZ", "state": "FL", "street": "12112 44TH AVE W", "postcode": "34215"}}},
{"geometry": {"type": "Point", "coordinates": [-82.7362660012, 27.5259200964]}, "type": "Feature", "properties": {"collection_times": [{"days": "Mon-Fri", "time": "4:15pm"}, {"days": "Sat", "time": "12:00pm"}, {"days": "Sun", "time": "Closed"}], "id": "3421600003", "name": "USPS COLLECTION BOX - BLUE BOX", "address": {"city": "ANNA MARIA", "state": "FL", "street": "101B S BAY BLVD", "postcode": "34216"}}},
{"geometry": {"type": "Point", "coordinates": [-82.7362660012, 27.5259200964]}, "type": "Feature", "properties": {"collection_times": [{"days": "Mon-Fri", "time": "4:15pm"}, {"days": "Sat", "time": "12:00pm"}, {"days": "Sun", "time": "Closed"}], "id": "3421600004", "name": "USPS COLLECTION BOX - BLUE BOX", "address": {"city": "ANNA MARIA", "state": "FL", "street": "101B S BAY BLVD", "postcode": "34216"}}},
{"geometry": {"type": "Point", "coordinates": [-82.7073728032, 27.4915555467]}, "type": "Feature", "properties": {"collection_times": [{"days": "Mon-Fri", "time": "2:00pm"}, {"days": "Sat", "time": "1:30pm"}, {"days": "Sun", "time": "Closed"}], "id": "3421700002", "name": "USPS COLLECTION BOX - BLUE BOX", "address": {"city": "HOLMES BEACH", "state": "FL", "street": "3230 E BAY DR", "postcode": "34217"}}},
{"geometry": {"type": "Point", "coordinates": [-82.7168045235, 27.5058284376]}, "type": "Feature", "properties": {"collection_times": [{"days": "Mon-Fri", "time": "2:00pm"}, {"days": "Sat", "time": "12:00pm"}, {"days": "Sun", "time": "Closed"}], "id": "3421700003", "name": "USPS COLLECTION BOX - BLUE BOX", "address": {"city": "HOLMES BEACH", "state": "FL", "street": "5354 GULF DR", "postcode": "34217"}}},
{"geometry": {"type": "Point", "coordinates": [-82.6968082753, 27.4654816312]}, "type": "Feature", "properties": {"collection_times": [{"days": "Mon-Fri", "time": "5:00pm"}, {"days": "Sat", "time": "1:00pm"}, {"days": "Sun", "time": "Closed"}], "id": "3421700007", "name": "USPS COLLECTION BOX - BLUE BOX", "address": {"city": "HOLMES BEACH", "state": "FL", "street": "116 BRIDGE ST", "postcode": "34217"}}},
{"geometry": {"type": "Point", "coordinates": [-82.4253868272, 27.5736702543]}, "type": "Feature", "properties": {"collection_times": [{"days": "Mon-Fri", "time": "5:00pm"}, {"days": "Sat", "time": "1:00pm"}, {"days": "Sun", "time": "Closed"}], "id": "3421900001", "name": "USPS COLLECTION BOX - BLUE BOX", "address": {"city": "PARRISH", "state": "FL", "street": "12144 US HIGHWAY 301 N", "postcode": "34219"}}},
{"geometry": {"type": "Point", "coordinates": [-82.5728900982, 27.5153782312]}, "type": "Feature", "properties": {"collection_times": [{"days": "Mon-Sat", "time": "4:00pm"}, {"days": "Sun", "time": "Closed"}], "id": "3422100003", "name": "USPS COLLECTION BOX - BLUE BOX", "address": {"city": "PALMETTO", "state": "FL", "street": "516 8TH AVE W", "postcode": "34221"}}},
{"geometry": {"type": "Point", "coordinates": [-82.5755287757, 27.5122569194]}, "type": "Feature", "properties": {"collection_times": [{"days": "Mon-Fri", "time": "10:00am"}, {"days": "Sat-Sun", "time": "Closed"}], "id": "3422100007", "name": "USPS COLLECTION BOX - BLUE BOX", "address": {"city": "PALMETTO", "state": "FL", "street": "995 RIVERSIDE DR", "postcode": "34221"}}},
{"geometry": {"type": "Point", "coordinates": [-82.5346783705, 27.5908930736]}, "type": "Feature", "properties": {"collection_times": [{"days": "Mon-Sat", "time": "9:30am"}, {"days": "Sun", "time": "Closed"}], "id": "3422100009", "name": "USPS COLLECTION BOX - BLUE BOX", "address": {"city": "PALMETTO", "state": "FL", "street": "8600 29TH AVE E", "postcode": "34221"}}},
{"geometry": {"type": "Point", "coordinates": [-82.5974434788, 27.5218483871]}, "type": "Feature", "properties": {"collection_times": [{"days": "Mon-Sat", "time": "10:00am"}, {"days": "Sun", "time": "Closed"}], "id": "3422100012", "name": "USPS COLLECTION BOX - BLUE BOX", "address": {"city": "PALMETTO", "state": "FL", "street": "1003 28TH AVE W", "postcode": "34221"}}},
{"geometry": {"type": "Point", "coordinates": [-82.5772005114, 27.5212208247]}, "type": "Feature", "properties": {"collection_times": [{"days": "Mon-Sat", "time": "10:00am"}, {"days": "Sun", "time": "Closed"}], "id": "3422100016", "name": "USPS COLLECTION BOX - BLUE BOX", "address": {"city": "PALMETTO", "state": "FL", "street": "1115 10TH ST W", "postcode": "34221"}}},
{"geometry": {"type": "Point", "coordinates": [-82.5564920514, 27.5657639263]}, "type": "Feature", "properties": {"collection_times": [{"days": "Mon-Sat", "time": "10:00am"}, {"days": "Sun", "time": "Closed"}], "id": "3422100021", "name": "USPS COLLECTION BOX - BLUE BOX", "address": {"city": "PALMETTO", "state": "FL", "street": "5619 BAYSHORE RD", "postcode": "34221"}}},
{"geometry": {"type": "Point", "coordinates": [-82.5563641763, 27.56520716]}, "type": "Feature", "properties": {"collection_times": [{"days": "Mon-Sat", "time": "9:30am"}, {"days": "Sun", "time": "Closed"}], "id": "3422100022", "name": "USPS COLLECTION BOX - BLUE BOX", "address": {"city": "PALMETTO", "state": "FL", "street": "5700 BAYSHORE RD", "postcode": "34221"}}},
{"geometry": {"type": "Point", "coordinates": [-82.5342204269, 27.5811701631]}, "type": "Feature", "properties": {"collection_times": [{"days": "Mon-Sat", "time": "10:00am"}, {"days": "Sun", "time": "Closed"}], "id": "3422100023", "name": "USPS COLLECTION BOX - BLUE BOX", "address": {"city": "PALMETTO", "state": "FL", "street": "100 LAKESIDE DR", "postcode": "34221"}}},
{"geometry": {"type": "Point", "coordinates": [-82.5457048794, 27.5902930961]}, "type": "Feature", "properties": {"collection_times": [{"days": "Mon-Sat", "time": "9:30am"}, {"days": "Sun", "time": "Closed"}], "id": "3422100027", "name": "USPS COLLECTION BOX - BLUE BOX", "address": {"city": "PALMETTO", "state": "FL", "street": "8515 BAYSHORE RD", "postcode": "34221"}}},
{"geometry": {"type": "Point", "coordinates": [-82.5397455724, 27.5968172673]}, "type": "Feature", "properties": {"collection_times": [{"days": "Mon-Sat", "time": "9:00am"}, {"days": "Sun", "time": "Closed"}], "id": "3422100029", "name": "USPS COLLECTION BOX - BLUE BOX", "address": {"city": "PALMETTO", "state": "FL", "street": "9303 US HIGHWAY 41 N", "postcode": "34221"}}},
{"geometry": {"type": "Point", "coordinates": [-82.5700661232, 27.5175822635]}, "type": "Feature", "properties": {"collection_times": [{"days": "Mon-Fri", "time": "5:00pm"}, {"days": "Sat", "time": "4:00pm"}, {"days": "Sun", "time": "Closed"}], "id": "3422100033", "name": "USPS COLLECTION BOX - BLUE BOX", "address": {"city": "PALMETTO", "state": "FL", "street": "520 7TH ST W", "postcode": "34221"}}},
{"geometry": {"type": "Point", "coordinates": [-82.5431983045, 27.5710817086]}, "type": "Feature", "properties": {"collection_times": [{"days": "Mon-Sat", "time": "9:30am"}, {"days": "Sun", "time": "Closed"}], "id": "3422100037", "name": "USPS COLLECTION BOX - BLUE BOX", "address": {"city": "PALMETTO", "state": "FL", "street": "6201 US HIGHWAY 41 N", "postcode": "34221"}}},
{"geometry": {"type": "Point", "coordinates": [-82.524433097, 27.5216947953]}, "type": "Feature", "properties": {"collection_times": [{"days": "Mon-Sat", "time": "12:00pm"}, {"days": "Sun", "time": "Closed"}], "id": "3422200009", "name": "USPS COLLECTION BOX - BLUE BOX", "address": {"city": "ELLENTON", "state": "FL", "street": "3911 US HIGHWAY 301 N", "postcode": "34222"}}},
{"geometry": {"type": "Point", "coordinates": [-82.5007693925, 27.5319176478]}, "type": "Feature", "properties": {"collection_times": [{"days": "Mon-Sat", "time": "8:30am"}, {"days": "Sun", "time": "Closed"}], "id": "3422200010", "name": "USPS COLLECTION BOX - BLUE BOX", "address": {"city": "ELLENTON", "state": "FL", "street": "6202 US HIGHWAY 301 N", "postcode": "34222"}}},
{"geometry": {"type": "Point", "coordinates": [-82.4868530494, 27.5518557243]}, "type": "Feature", "properties": {"collection_times": [{"days": "Mon-Sat", "time": "1:00pm"}, {"days": "Sun", "time": "Closed"}], "id": "3422200015", "name": "USPS COLLECTION BOX - BLUE BOX", "address": {"city": "ELLENTON", "state": "FL", "street": "7613 WESTWOOD DR", "postcode": "34222"}}},
{"geometry": {"type": "Point", "coordinates": [-82.4918158293, 27.5354987039]}, "type": "Feature", "properties": {"collection_times": [{"days": "Mon-Fri", "time": "5:00pm"}, {"days": "Sat", "time": "4:00pm"}, {"days": "Sun", "time": "Closed"}], "id": "3422200016", "name": "USPS COLLECTION BOX - BLUE BOX", "address": {"city": "ELLENTON", "state": "FL", "street": "2605 72ND AVE E", "postcode": "34222"}}},
{"geometry": {"type": "Point", "coordinates": [-82.4918158293, 27.5354987039]}, "type": "Feature", "properties": {"collection_times": [{"days": "Mon-Fri", "time": "5:00pm"}, {"days": "Sat", "time": "4:00pm"}, {"days": "Sun", "time": "Closed"}], "id": "3422200017", "name": "USPS COLLECTION BOX - BLUE BOX", "address": {"city": "ELLENTON", "state": "FL", "street": "2605 72ND AVE E", "postcode": "34222"}}},
{"geometry": {"type": "Point", "coordinates": [-82.531209279, 27.5218537287]}, "type": "Feature", "properties": {"collection_times": [{"days": "Mon-Sat", "time": "9:30am"}, {"days": "Sun", "time": "Closed"}], "id": "3422200020", "name": "USPS COLLECTION BOX - BLUE BOX", "address": {"city": "ELLENTON", "state": "FL", "street": "3314 US HIGHWAY 301 N", "postcode": "34222"}}},
{"geometry": {"type": "Point", "coordinates": [-82.3721024967, 26.9949577686]}, "type": "Feature", "properties": {"collection_times": [{"days": "Mon-Sat", "time": "11:00am"}, {"days": "Sun", "time": "Closed"}], "id": "3422300001", "name": "USPS COLLECTION BOX - BLUE BOX", "address": {"city": "ENGLEWOOD", "state": "FL", "street": "1600 ENGLEWOOD RD", "postcode": "34223"}}},
{"geometry": {"type": "Point", "coordinates": [-82.3596183162, 26.9241374122]}, "type": "Feature", "properties": {"collection_times": [{"days": "Mon-Sat", "time": "11:00am"}, {"days": "Sun", "time": "Closed"}], "id": "3422300002", "name": "USPS COLLECTION BOX - BLUE BOX", "address": {"city": "ENGLEWOOD", "state": "FL", "street": "1962 BEACH RD", "postcode": "34223"}}},
{"geometry": {"type": "Point", "coordinates": [-82.376626128, 27.0005676528]}, "type": "Feature", "properties": {"collection_times": [{"days": "Mon-Sat", "time": "10:30am"}, {"days": "Sun", "time": "Closed"}], "id": "3422300005", "name": "USPS COLLECTION BOX - BLUE BOX", "address": {"city": "ENGLEWOOD", "state": "FL", "street": "1851 ENGLEWOOD RD", "postcode": "34223"}}},
{"geometry": {"type": "Point", "coordinates": [-82.3530222544, 26.9547443178]}, "type": "Feature", "properties": {"collection_times": [{"days": "Mon-Sat", "time": "11:30am"}, {"days": "Sun", "time": "Closed"}], "id": "3422300008", "name": "USPS COLLECTION BOX - BLUE BOX", "address": {"city": "ENGLEWOOD", "state": "FL", "street": "451 S INDIANA AVE", "postcode": "34223"}}},
{"geometry": {"type": "Point", "coordinates": [-82.3373363323, 26.9368903269]}, "type": "Feature", "properties": {"collection_times": [{"days": "Mon-Sat", "time": "1:00pm"}, {"days": "Sun", "time": "Closed"}], "id": "3422300014", "name": "USPS COLLECTION BOX - BLUE BOX", "address": {"city": "ENGLEWOOD", "state": "FL", "street": "1500 PLACIDA RD", "postcode": "34223"}}},
{"geometry": {"type": "Point", "coordinates": [-82.3373363323, 26.9368903269]}, "type": "Feature", "properties": {"collection_times": [{"days": "Mon-Sat", "time": "1:00pm"}, {"days": "Sun", "time": "Closed"}], "id": "3422300015", "name": "USPS COLLECTION BOX - BLUE BOX", "address": {"city": "ENGLEWOOD", "state": "FL", "street": "1500 PLACIDA RD", "postcode": "34223"}}},
{"geometry": {"type": "Point", "coordinates": [-82.3527562933, 26.9567194113]}, "type": "Feature", "properties": {"collection_times": [{"days": "Mon-Sat", "time": "1:00pm"}, {"days": "Sun", "time": "Closed"}], "id": "3422300017", "name": "USPS COLLECTION BOX - BLUE BOX", "address": {"city": "ENGLEWOOD", "state": "FL", "street": "315 QUAILS RUN BLVD", "postcode": "34223"}}},
{"geometry": {"type": "Point", "coordinates": [-82.3314525938, 26.9664814853]}, "type": "Feature", "properties": {"collection_times": [{"days": "Mon-Sat", "time": "5:00pm"}, {"days": "Sun", "time": "Closed"}], "id": "3422300018", "name": "USPS COLLECTION BOX - BLUE BOX", "address": {"city": "ENGLEWOOD", "state": "FL", "street": "950 S RIVER RD", "postcode": "34223"}}},
{"geometry": {"type": "Point", "coordinates": [-82.3314525938, 26.9664814853]}, "type": "Feature", "properties": {"collection_times": [{"days": "Mon-Sat", "time": "5:00pm"}, {"days": "Sun", "time": "Closed"}], "id": "3422300019", "name": "USPS COLLECTION BOX - BLUE BOX", "address": {"city": "ENGLEWOOD", "state": "FL", "street": "950 S RIVER RD", "postcode": "34223"}}},
{"geometry": {"type": "Point", "coordinates": [-82.3536321138, 26.9815792042]}, "type": "Feature", "properties": {"collection_times": [{"days": "Mon-Sat", "time": "10:30am"}, {"days": "Sun", "time": "Closed"}], "id": "3422300022", "name": "USPS COLLECTION BOX - BLUE BOX", "address": {"city": "ENGLEWOOD", "state": "FL", "street": "756 TANGERINE WOODS BLVD", "postcode": "34223"}}},
{"geometry": {"type": "Point", "coordinates": [-82.3314525938, 26.9664814853]}, "type": "Feature", "properties": {"collection_times": [{"days": "Mon-Sat", "time": "5:00pm"}, {"days": "Sun", "time": "Closed"}], "id": "3422300023", "name": "USPS COLLECTION BOX - APC", "address": {"city": "ENGLEWOOD", "state": "FL", "street": "950 S RIVER RD", "postcode": "34223"}}},
{"geometry": {"type": "Point", "coordinates": [-82.3128337032, 26.9346296923]}, "type": "Feature", "properties": {"collection_times": [{"days": "Mon-Sat", "time": "1:00pm"}, {"days": "Sun", "time": "Closed"}], "id": "3422400000", "name": "USPS COLLECTION BOX - BLUE BOX", "address": {"city": "ENGLEWOOD", "state": "FL", "street": "2828 S MCCALL RD", "postcode": "34224"}}},
{"geometry": {"type": "Point", "coordinates": [-82.28892365, 26.9339439843]}, "type": "Feature", "properties": {"collection_times": [{"days": "Mon-Sat", "time": "1:00pm"}, {"days": "Sun", "time": "Closed"}], "id": "3422400001", "name": "USPS COLLECTION BOX - BLUE BOX", "address": {"city": "ENGLEWOOD", "state": "FL", "street": "3578 S MCCALL RD", "postcode": "34224"}}},
{"geometry": {"type": "Point", "coordinates": [-82.3252867123, 26.9097922859]}, "type": "Feature", "properties": {"collection_times": [{"days": "Mon-Sat", "time": "12:00pm"}, {"days": "Sun", "time": "Closed"}], "id": "3422400002", "name": "USPS COLLECTION BOX - BLUE BOX", "address": {"city": "ENGLEWOOD", "state": "FL", "street": "3031 PLACIDA RD", "postcode": "34224"}}},
{"geometry": {"type": "Point", "coordinates": [-82.625567888, 27.3697325627]}, "type": "Feature", "properties": {"collection_times": [{"days": "Mon-Fri", "time": "5:00pm"}, {"days": "Sat", "time": "2:00pm"}, {"days": "Sun", "time": "Closed"}], "id": "3422800004", "name": "USPS COLLECTION BOX - BLUE BOX", "address": {"city": "LONGBOAT KEY", "state": "FL", "street": "560 BAY ISLES RD", "postcode": "34228"}}},
{"geometry": {"type": "Point", "coordinates": [-82.625567888, 27.3697325627]}, "type": "Feature", "properties": {"collection_times": [{"days": "Mon-Fri", "time": "5:00pm"}, {"days": "Sat", "time": "2:00pm"}, {"days": "Sun", "time": "Closed"}], "id": "3422800006", "name": "USPS COLLECTION BOX - BLUE BOX", "address": {"city": "LONGBOAT KEY", "state": "FL", "street": "560 BAY ISLES RD", "postcode": "34228"}}},
{"geometry": {"type": "Point", "coordinates": [-82.6571061674, 27.4105290045]}, "type": "Feature", "properties": {"collection_times": [{"days": "Mon-Fri", "time": "3:00pm"}, {"days": "Sat", "time": "2:00pm"}, {"days": "Sun", "time": "Closed"}], "id": "3422800011", "name": "USPS COLLECTION BOX - BLUE BOX", "address": {"city": "LONGBOAT KEY", "state": "FL", "street": "5380 GULF OF MEXICO DR", "postcode": "34228"}}},
{"geometry": {"type": "Point", "coordinates": [-82.4883225219, 27.1919564536]}, "type": "Feature", "properties": {"collection_times": [{"days": "Mon-Fri", "time": "5:00pm"}, {"days": "Sat", "time": "1:00pm"}, {"days": "Sun", "time": "Closed"}], "id": "3422900004", "name": "USPS COLLECTION BOX - APC", "address": {"city": "OSPREY", "state": "FL", "street": "333 S TAMIAMI TRL", "postcode": "34229"}}},
{"geometry": {"type": "Point", "coordinates": [-82.4883225219, 27.1919564536]}, "type": "Feature", "properties": {"collection_times": [{"days": "Mon-Fri", "time": "5:00pm"}, {"days": "Sat", "time": "1:00pm"}, {"days": "Sun", "time": "Closed"}], "id": "3422900005", "name": "USPS COLLECTION BOX - BLUE BOX", "address": {"city": "OSPREY", "state": "FL", "street": "333 S TAMIAMI TRL", "postcode": "34229"}}},
{"geometry": {"type": "Point", "coordinates": [-82.500749505, 27.2692709945]}, "type": "Feature", "properties": {"collection_times": [{"days": "Mon-Sat", "time": "1:45pm"}, {"days": "Sun", "time": "Closed"}], "id": "3423100000", "name": "USPS COLLECTION BOX - BLUE BOX", "address": {"city": "SARASOTA", "state": "FL", "street": "3428 CLARK RD", "postcode": "34231"}}},
{"geometry": {"type": "Point", "coordinates": [-82.5214323954, 27.2593896945]}, "type": "Feature", "properties": {"collection_times": [{"days": "Mon-Sat", "time": "2:15pm"}, {"days": "Sun", "time": "Closed"}], "id": "3423100008", "name": "USPS COLLECTION BOX - BLUE BOX", "address": {"city": "SARASOTA", "state": "FL", "street": "6525 S TAMIAMI TRL", "postcode": "34231"}}},
{"geometry": {"type": "Point", "coordinates": [-82.5313060413, 27.2803984776]}, "type": "Feature", "properties": {"collection_times": [{"days": "Mon-Sat", "time": "2:15pm"}, {"days": "Sun", "time": "Closed"}], "id": "3423100013", "name": "USPS COLLECTION BOX - BLUE BOX", "address": {"city": "SARASOTA", "state": "FL", "street": "1950 LANDINGS BLVD", "postcode": "34231"}}},
{"geometry": {"type": "Point", "coordinates": [-82.5125644114, 27.2767607204]}, "type": "Feature", "properties": {"collection_times": [{"days": "Mon-Sat", "time": "5:00pm"}, {"days": "Sun", "time": "Closed"}], "id": "3423100021", "name": "USPS COLLECTION BOX - BLUE BOX", "address": {"city": "SARASOTA", "state": "FL", "street": "2875 ASHTON RD", "postcode": "34231"}}},
{"geometry": {"type": "Point", "coordinates": [-82.5178886986, 27.2654994857]}, "type": "Feature", "properties": {"collection_times": [{"days": "Mon-Sat", "time": "2:30pm"}, {"days": "Sun", "time": "Closed"}], "id": "3423100036", "name": "USPS COLLECTION BOX - BLUE BOX", "address": {"city": "SARASOTA", "state": "FL", "street": "2477 STICKNEY POINT RD", "postcode": "34231"}}},
{"geometry": {"type": "Point", "coordinates": [-82.5313060413, 27.2803984776]}, "type": "Feature", "properties": {"collection_times": [{"days": "Mon-Sat", "time": "2:15pm"}, {"days": "Sun", "time": "Closed"}], "id": "3423100037", "name": "USPS COLLECTION BOX - BLUE BOX", "address": {"city": "SARASOTA", "state": "FL", "street": "1950 LANDINGS BLVD", "postcode": "34231"}}},
{"geometry": {"type": "Point", "coordinates": [-82.5154518569, 27.2690648987]}, "type": "Feature", "properties": {"collection_times": [{"days": "Mon-Sat", "time": "2:30pm"}, {"days": "Sun", "time": "Closed"}], "id": "3423100038", "name": "USPS COLLECTION BOX - BLUE BOX", "address": {"city": "SARASOTA", "state": "FL", "street": "2477 STICKNEY POINT RD", "postcode": "34231"}}},
{"geometry": {"type": "Point", "coordinates": [-82.5164739194, 27.2540434093]}, "type": "Feature", "properties": {"collection_times": [{"days": "Mon-Sat", "time": "2:15pm"}, {"days": "Sun", "time": "Closed"}], "id": "3423100039", "name": "USPS COLLECTION BOX - BLUE BOX", "address": {"city": "SARASOTA", "state": "FL", "street": "7045 S TAMIAMI TRL", "postcode": "34231"}}},
{"geometry": {"type": "Point", "coordinates": [-82.5125644114, 27.2767607204]}, "type": "Feature", "properties": {"collection_times": [{"days": "Mon-Sat", "time": "5:00pm"}, {"days": "Sun", "time": "Closed"}], "id": "3423100040", "name": "USPS COLLECTION BOX - APC", "address": {"city": "SARASOTA", "state": "FL", "street": "2875 ASHTON RD", "postcode": "34231"}}},
{"geometry": {"type": "Point", "coordinates": [-82.5125644114, 27.2767607204]}, "type": "Feature", "properties": {"collection_times": [{"days": "Mon-Sat", "time": "5:00pm"}, {"days": "Sun", "time": "Closed"}], "id": "3423100041", "name": "USPS COLLECTION BOX - APC", "address": {"city": "SARASOTA", "state": "FL", "street": "2875 ASHTON RD", "postcode": "34231"}}},
{"geometry": {"type": "Point", "coordinates": [-82.4725896146, 27.3256689736]}, "type": "Feature", "properties": {"collection_times": [{"days": "Mon-Sat", "time": "10:00am"}, {"days": "Sun", "time": "Closed"}], "id": "3423200012", "name": "USPS COLLECTION BOX - BLUE BOX", "address": {"city": "SARASOTA", "state": "FL", "street": "5900 COLONIAL OAKS BLVD", "postcode": "34232"}}},
{"geometry": {"type": "Point", "coordinates": [-82.4970848538, 27.3082271165]}, "type": "Feature", "properties": {"collection_times": [{"days": "Mon-Sat", "time": "10:00am"}, {"days": "Sun", "time": "Closed"}], "id": "3423200013", "name": "USPS COLLECTION BOX - BLUE BOX", "address": {"city": "SARASOTA", "state": "FL", "street": "3644 WEBBER ST", "postcode": "34232"}}},
{"geometry": {"type": "Point", "coordinates": [-82.458144459, 27.3378280941]}, "type": "Feature", "properties": {"collection_times": [{"days": "Mon-Sat", "time": "10:00am"}, {"days": "Sun", "time": "Closed"}], "id": "3423200018", "name": "USPS COLLECTION BOX - BLUE BOX", "address": {"city": "SARASOTA", "state": "FL", "street": "5550 FRUITVILLE RD", "postcode": "34232"}}},
{"geometry": {"type": "Point", "coordinates": [-82.497433582, 27.3430780594]}, "type": "Feature", "properties": {"collection_times": [{"days": "Mon-Fri", "time": "5:00pm"}, {"days": "Sat", "time": "3:30pm"}, {"days": "Sun", "time": "Closed"}], "id": "3423200022", "name": "USPS COLLECTION BOX - BLUE BOX", "address": {"city": "SARASOTA", "state": "FL", "street": "935 N BENEVA RD", "postcode": "34232"}}},
{"geometry": {"type": "Point", "coordinates": [-82.497433582, 27.3430780594]}, "type": "Feature", "properties": {"collection_times": [{"days": "Mon-Fri", "time": "5:00pm"}, {"days": "Sat", "time": "3:30pm"}, {"days": "Sun", "time": "Closed"}], "id": "3423200023", "name": "USPS COLLECTION BOX - APC", "address": {"city": "SARASOTA", "state": "FL", "street": "935 N BENEVA RD", "postcode": "34232"}}},
{"geometry": {"type": "Point", "coordinates": [-82.481008551, 27.2986979404]}, "type": "Feature", "properties": {"collection_times": [{"days": "Mon-Sat", "time": "10:00am"}, {"days": "Sun", "time": "Closed"}], "id": "3423300000", "name": "USPS COLLECTION BOX - BLUE BOX", "address": {"city": "SARASOTA", "state": "FL", "street": "4398 BEE RIDGE RD", "postcode": "34233"}}},
{"geometry": {"type": "Point", "coordinates": [-82.4585040213, 27.2986709158]}, "type": "Feature", "properties": {"collection_times": [{"days": "Mon-Sat", "time": "10:00am"}, {"days": "Sun", "time": "Closed"}], "id": "3423300001", "name": "USPS COLLECTION BOX - BLUE BOX", "address": {"city": "SARASOTA", "state": "FL", "street": "5580 BEE RIDGE RD", "postcode": "34233"}}},
{"geometry": {"type": "Point", "coordinates": [-82.454191015, 27.2990343389]}, "type": "Feature", "properties": {"collection_times": [{"days": "Mon-Sat", "time": "10:00am"}, {"days": "Sun", "time": "Closed"}], "id": "3423300004", "name": "USPS COLLECTION BOX - BLUE BOX", "address": {"city": "SARASOTA", "state": "FL", "street": "5741 BEE RIDGE RD", "postcode": "34233"}}},
{"geometry": {"type": "Point", "coordinates": [-82.4957965578, 27.2987616772]}, "type": "Feature", "properties": {"collection_times": [{"days": "Mon-Sat", "time": "10:00am"}, {"days": "Sun", "time": "Closed"}], "id": "3423300007", "name": "USPS COLLECTION BOX - BLUE BOX", "address": {"city": "SARASOTA", "state": "FL", "street": "3900 MACEACHEN BLVD", "postcode": "34233"}}},
{"geometry": {"type": "Point", "coordinates": [-82.4775099102, 27.2988231982]}, "type": "Feature", "properties": {"collection_times": [{"days": "Mon-Fri", "time": "2:00pm"}, {"days": "Sat", "time": "12:00pm"}, {"days": "Sun", "time": "Closed"}], "id": "3423300014", "name": "USPS COLLECTION BOX - BLUE BOX", "address": {"city": "SARASOTA", "state": "FL", "street": "4525 BEE RIDGE RD", "postcode": "34233"}}},
{"geometry": {"type": "Point", "coordinates": [-82.5310167281, 27.3722132522]}, "type": "Feature", "properties": {"collection_times": [{"days": "Mon-Fri", "time": "1:30pm"}, {"days": "Sat", "time": "1:00pm"}, {"days": "Sun", "time": "Closed"}], "id": "3423400009", "name": "USPS COLLECTION BOX - BLUE BOX", "address": {"city": "SARASOTA", "state": "FL", "street": "4405 US HWY 301", "postcode": "34234"}}},
{"geometry": {"type": "Point", "coordinates": [-82.5310167281, 27.3722132522]}, "type": "Feature", "properties": {"collection_times": [{"days": "Mon-Fri", "time": "1:30pm"}, {"days": "Sat", "time": "1:00pm"}, {"days": "Sun", "time": "Closed"}], "id": "3423400016", "name": "USPS COLLECTION BOX - BLUE BOX", "address": {"city": "SARASOTA", "state": "FL", "street": "4405 US HWY 301", "postcode": "34234"}}},
{"geometry": {"type": "Point", "coordinates": [-82.51389899, 27.3697858825]}, "type": "Feature", "properties": {"collection_times": [{"days": "Mon-Fri", "time": "1:30pm"}, {"days": "Sat", "time": "12:30pm"}, {"days": "Sun", "time": "Closed"}], "id": "3423400019", "name": "USPS COLLECTION BOX - BLUE BOX", "address": {"city": "SARASOTA", "state": "FL", "street": "4000 N TUTTLE AVE", "postcode": "34234"}}},
{"geometry": {"type": "Point", "coordinates": [-82.5512642395, 27.3664377341]}, "type": "Feature", "properties": {"collection_times": [{"days": "Mon-Fri", "time": "2:00pm"}, {"days": "Sat-Sun", "time": "Closed"}], "id": "3423400021", "name": "USPS COLLECTION BOX - BLUE BOX", "address": {"city": "SARASOTA", "state": "FL", "street": "3530 N TAMIAMI TRL", "postcode": "34234"}}},
{"geometry": {"type": "Point", "coordinates": [-82.4647935961, 27.3518743213]}, "type": "Feature", "properties": {"collection_times": [{"days": "Mon-Sat", "time": "10:00am"}, {"days": "Sun", "time": "Closed"}], "id": "3423500000", "name": "USPS COLLECTION BOX - BLUE BOX", "address": {"city": "SARASOTA", "state": "FL", "street": "5250 17TH ST", "postcode": "34235"}}},
{"geometry": {"type": "Point", "coordinates": [-82.5046487005, 27.3524322007]}, "type": "Feature", "properties": {"collection_times": [{"days": "Mon-Fri", "time": "4:15pm"}, {"days": "Sat", "time": "11:30am"}, {"days": "Sun", "time": "Closed"}], "id": "3423500005", "name": "USPS COLLECTION BOX - BLUE BOX", "address": {"city": "SARASOTA", "state": "FL", "street": "3251 17TH ST", "postcode": "34235"}}},
{"geometry": {"type": "Point", "coordinates": [-82.5344116174, 27.3380729641]}, "type": "Feature", "properties": {"collection_times": [{"days": "Mon-Fri", "time": "3:30pm"}, {"days": "Sat-Sun", "time": "Closed"}], "id": "3423600005", "name": "USPS COLLECTION BOX - BLUE BOX", "address": {"city": "SARASOTA", "state": "FL", "street": "1800 2ND ST", "postcode": "34236"}}},
{"geometry": {"type": "Point", "coordinates": [-82.5755960911, 27.3191243927]}, "type": "Feature", "properties": {"collection_times": [{"days": "Mon-Sat", "time": "3:00pm"}, {"days": "Sun", "time": "Closed"}], "id": "3423600007", "name": "USPS COLLECTION BOX - BLUE BOX", "address": {"city": "SARASOTA", "state": "FL", "street": "500 JOHN RINGLING BLVD", "postcode": "34236"}}},
{"geometry": {"type": "Point", "coordinates": [-82.5344116174, 27.3380729641]}, "type": "Feature", "properties": {"collection_times": [{"days": "Mon-Fri", "time": "3:30pm"}, {"days": "Sat-Sun", "time": "Closed"}], "id": "3423600016", "name": "USPS COLLECTION BOX - BLUE BOX", "address": {"city": "SARASOTA", "state": "FL", "street": "1800 2ND ST", "postcode": "34236"}}},
{"geometry": {"type": "Point", "coordinates": [-82.5372017198, 27.3348465644]}, "type": "Feature", "properties": {"collection_times": [{"days": "Mon-Fri", "time": "5:00pm"}, {"days": "Sat", "time": "4:30pm"}, {"days": "Sun", "time": "Closed"}], "id": "3423600019", "name": "USPS COLLECTION BOX - BLUE BOX", "address": {"city": "SARASOTA", "state": "FL", "street": "1661 RINGLING BLVD", "postcode": "34236"}}},
{"geometry": {"type": "Point", "coordinates": [-82.5372017198, 27.3348465644]}, "type": "Feature", "properties": {"collection_times": [{"days": "Mon-Fri", "time": "5:00pm"}, {"days": "Sat", "time": "4:30pm"}, {"days": "Sun", "time": "Closed"}], "id": "3423600020", "name": "USPS COLLECTION BOX - BLUE BOX", "address": {"city": "SARASOTA", "state": "FL", "street": "1661 RINGLING BLVD", "postcode": "34236"}}},
{"geometry": {"type": "Point", "coordinates": [-82.5384732183, 27.3365416009]}, "type": "Feature", "properties": {"collection_times": [{"days": "Mon-Fri", "time": "2:00pm"}, {"days": "Sat-Sun", "time": "Closed"}], "id": "3423600031", "name": "USPS COLLECTION BOX - BLUE BOX", "address": {"city": "SARASOTA", "state": "FL", "street": "1605 MAIN ST", "postcode": "34236"}}},
{"geometry": {"type": "Point", "coordinates": [-82.561960129, 27.3266250417]}, "type": "Feature", "properties": {"collection_times": [{"days": "Mon-Fri", "time": "3:00pm"}, {"days": "Sat", "time": "1:30pm"}, {"days": "Sun", "time": "Closed"}], "id": "3423600033", "name": "USPS COLLECTION BOX - BLUE BOX", "address": {"city": "SARASOTA", "state": "FL", "street": "100 BIRD KEY DR", "postcode": "34236"}}},
{"geometry": {"type": "Point", "coordinates": [-82.5384732183, 27.3365416009]}, "type": "Feature", "properties": {"collection_times": [{"days": "Mon-Fri", "time": "2:00pm"}, {"days": "Sat-Sun", "time": "Closed"}], "id": "3423600037", "name": "USPS COLLECTION BOX - BLUE BOX", "address": {"city": "SARASOTA", "state": "FL", "street": "1605 MAIN ST", "postcode": "34236"}}},
{"geometry": {"type": "Point", "coordinates": [-82.5372017198, 27.3348465644]}, "type": "Feature", "properties": {"collection_times": [{"days": "Mon-Fri", "time": "5:00pm"}, {"days": "Sat", "time": "4:30pm"}, {"days": "Sun", "time": "Closed"}], "id": "3423600047", "name": "USPS COLLECTION BOX - APC", "address": {"city": "SARASOTA", "state": "FL", "street": "1661 RINGLING BLVD", "postcode": "34236"}}},
{"geometry": {"type": "Point", "coordinates": [-82.5344116174, 27.3380729641]}, "type": "Feature", "properties": {"collection_times": [{"days": "Mon-Fri", "time": "3:30pm"}, {"days": "Sat-Sun", "time": "Closed"}], "id": "3423600051", "name": "USPS COLLECTION BOX - BLUE BOX", "address": {"city": "SARASOTA", "state": "FL", "street": "1800 2ND ST", "postcode": "34236"}}},
{"geometry": {"type": "Point", "coordinates": [-82.5341152937, 27.3365339435]}, "type": "Feature", "properties": {"collection_times": [{"days": "Mon-Fri", "time": "3:30pm"}, {"days": "Sat-Sun", "time": "Closed"}], "id": "3423600052", "name": "USPS COLLECTION BOX - BLUE BOX", "address": {"city": "SARASOTA", "state": "FL", "street": "1819 MAIN ST", "postcode": "34236"}}},
{"geometry": {"type": "Point", "coordinates": [-82.5287202234, 27.3365465562]}, "type": "Feature", "properties": {"collection_times": [{"days": "Mon-Fri", "time": "3:30pm"}, {"days": "Sat-Sun", "time": "Closed"}], "id": "3423700007", "name": "USPS COLLECTION BOX - BLUE BOX", "address": {"city": "SARASOTA", "state": "FL", "street": "2075 MAIN ST", "postcode": "34237"}}},
{"geometry": {"type": "Point", "coordinates": [-82.5241206193, 27.3355401027]}, "type": "Feature", "properties": {"collection_times": [{"days": "Mon-Sat", "time": "9:30am"}, {"days": "Sun", "time": "Closed"}], "id": "3423700017", "name": "USPS COLLECTION BOX - BLUE BOX", "address": {"city": "SARASOTA", "state": "FL", "street": "429 N LIME AVE", "postcode": "34237"}}},
{"geometry": {"type": "Point", "coordinates": [-82.5138941484, 27.3358345654]}, "type": "Feature", "properties": {"collection_times": [{"days": "Mon-Fri", "time": "4:00pm"}, {"days": "Sat", "time": "11:45am"}, {"days": "Sun", "time": "Closed"}], "id": "3423700019", "name": "USPS COLLECTION BOX - BLUE BOX", "address": {"city": "SARASOTA", "state": "FL", "street": "75 S TUTTLE AVE", "postcode": "34237"}}},
{"geometry": {"type": "Point", "coordinates": [-82.5138941484, 27.3358345654]}, "type": "Feature", "properties": {"collection_times": [{"days": "Mon-Fri", "time": "4:00pm"}, {"days": "Sat", "time": "11:45am"}, {"days": "Sun", "time": "Closed"}], "id": "3423700020", "name": "USPS COLLECTION BOX - BLUE BOX", "address": {"city": "SARASOTA", "state": "FL", "street": "75 S TUTTLE AVE", "postcode": "34237"}}},
{"geometry": {"type": "Point", "coordinates": [-82.5287202234, 27.3365465562]}, "type": "Feature", "properties": {"collection_times": [{"days": "Mon-Fri", "time": "3:30pm"}, {"days": "Sat-Sun", "time": "Closed"}], "id": "3423700022", "name": "USPS COLLECTION BOX - BLUE BOX", "address": {"city": "SARASOTA", "state": "FL", "street": "2075 MAIN ST", "postcode": "34237"}}},
{"geometry": {"type": "Point", "coordinates": [-82.5305879885, 27.3387479886]}, "type": "Feature", "properties": {"collection_times": [{"days": "Mon-Fri", "time": "3:30pm"}, {"days": "Sat-Sun", "time": "Closed"}], "id": "3423700024", "name": "USPS COLLECTION BOX - BLUE BOX", "address": {"city": "SARASOTA", "state": "FL", "street": "2010 FRUITVILLE RD", "postcode": "34237"}}},
{"geometry": {"type": "Point", "coordinates": [-82.5292306213, 27.328467577]}, "type": "Feature", "properties": {"collection_times": [{"days": "Mon-Fri", "time": "3:00pm"}, {"days": "Sat-Sun", "time": "Closed"}], "id": "3423700025", "name": "USPS COLLECTION BOX - BLUE BOX", "address": {"city": "SARASOTA", "state": "FL", "street": "2055 WOOD ST", "postcode": "34237"}}},
{"geometry": {"type": "Point", "coordinates": [-82.5283716707, 27.3478543008]}, "type": "Feature", "properties": {"collection_times": [{"days": "Mon-Fri", "time": "2:30pm"}, {"days": "Sat", "time": "12:30pm"}, {"days": "Sun", "time": "Closed"}], "id": "3423700026", "name": "USPS COLLECTION BOX - BLUE BOX", "address": {"city": "SARASOTA", "state": "FL", "street": "1197 N EAST AVE", "postcode": "34237"}}},
{"geometry": {"type": "Point", "coordinates": [-82.4955527782, 27.231383881]}, "type": "Feature", "properties": {"collection_times": [{"days": "Mon-Sat", "time": "2:00pm"}, {"days": "Sun", "time": "Closed"}], "id": "3423800004", "name": "USPS COLLECTION BOX - BLUE BOX", "address": {"city": "SARASOTA", "state": "FL", "street": "8201 S TAMIAMI TRL", "postcode": "34238"}}},
{"geometry": {"type": "Point", "coordinates": [-82.4974968331, 27.2512022341]}, "type": "Feature", "properties": {"collection_times": [{"days": "Mon-Sat", "time": "1:45pm"}, {"days": "Sun", "time": "Closed"}], "id": "3423800007", "name": "USPS COLLECTION BOX - BLUE BOX", "address": {"city": "SARASOTA", "state": "FL", "street": "3600 PALMER RANCH PKWY", "postcode": "34238"}}},
{"geometry": {"type": "Point", "coordinates": [-82.4936314427, 27.2273389476]}, "type": "Feature", "properties": {"collection_times": [{"days": "Mon-Sat", "time": "2:15pm"}, {"days": "Sun", "time": "Closed"}], "id": "3423800009", "name": "USPS COLLECTION BOX - BLUE BOX", "address": {"city": "SARASOTA", "state": "FL", "street": "8499 S TAMIAMI TRL", "postcode": "34238"}}},
{"geometry": {"type": "Point", "coordinates": [-82.4792676435, 27.2597466768]}, "type": "Feature", "properties": {"collection_times": [{"days": "Mon-Fri", "time": "5:00pm"}, {"days": "Sat", "time": "4:00pm"}, {"days": "Sun", "time": "Closed"}], "id": "3423800010", "name": "USPS COLLECTION BOX - BLUE BOX", "address": {"city": "SARASOTA", "state": "FL", "street": "6552 PALMER PARK CIR", "postcode": "34238"}}},
{"geometry": {"type": "Point", "coordinates": [-82.5305089475, 27.3005682598]}, "type": "Feature", "properties": {"collection_times": [{"days": "Mon-Sat", "time": "3:15pm"}, {"days": "Sun", "time": "Closed"}], "id": "3423900007", "name": "USPS COLLECTION BOX - BLUE BOX", "address": {"city": "SARASOTA", "state": "FL", "street": "3800 S TAMIAMI TRL", "postcode": "34239"}}},
{"geometry": {"type": "Point", "coordinates": [-82.5020631389, 27.3224416575]}, "type": "Feature", "properties": {"collection_times": [{"days": "Mon-Fri", "time": "4:00pm"}, {"days": "Sat", "time": "11:45am"}, {"days": "Sun", "time": "Closed"}], "id": "3423900024", "name": "USPS COLLECTION BOX - BLUE BOX", "address": {"city": "SARASOTA", "state": "FL", "street": "1240 YODER AVE", "postcode": "34239"}}},
{"geometry": {"type": "Point", "coordinates": [-82.5296567219, 27.3218739426]}, "type": "Feature", "properties": {"collection_times": [{"days": "Mon-Fri", "time": "4:30pm"}, {"days": "Sat", "time": "12:00pm"}, {"days": "Sun", "time": "Closed"}], "id": "3423900025", "name": "USPS COLLECTION BOX - BLUE BOX", "address": {"city": "SARASOTA", "state": "FL", "street": "1311 S TAMIAMI TRL", "postcode": "34239"}}},
{"geometry": {"type": "Point", "coordinates": [-82.5311509802, 27.3192475417]}, "type": "Feature", "properties": {"collection_times": [{"days": "Mon-Fri", "time": "4:00pm"}, {"days": "Sat-Sun", "time": "Closed"}], "id": "3423900026", "name": "USPS COLLECTION BOX - BLUE BOX", "address": {"city": "SARASOTA", "state": "FL", "street": "1921 WALDEMERE ST", "postcode": "34239"}}},
{"geometry": {"type": "Point", "coordinates": [-82.5311509802, 27.3192475417]}, "type": "Feature", "properties": {"collection_times": [{"days": "Mon-Fri", "time": "4:00pm"}, {"days": "Sat-Sun", "time": "Closed"}], "id": "3423900027", "name": "USPS COLLECTION BOX - BLUE BOX", "address": {"city": "SARASOTA", "state": "FL", "street": "1921 WALDEMERE ST", "postcode": "34239"}}},
{"geometry": {"type": "Point", "coordinates": [-82.5281189918, 27.3029232167]}, "type": "Feature", "properties": {"collection_times": [{"days": "Mon-Fri", "time": "5:00pm"}, {"days": "Sat", "time": "2:00pm"}, {"days": "Sun", "time": "Closed"}], "id": "3423900032", "name": "USPS COLLECTION BOX - BLUE BOX", "address": {"city": "SARASOTA", "state": "FL", "street": "2055 SIESTA DR", "postcode": "34239"}}},
{"geometry": {"type": "Point", "coordinates": [-82.5135522104, 27.305655597]}, "type": "Feature", "properties": {"collection_times": [{"days": "Mon-Fri", "time": "4:00pm"}, {"days": "Sat-Sun", "time": "Closed"}], "id": "3423900034", "name": "USPS COLLECTION BOX - BLUE BOX", "address": {"city": "SARASOTA", "state": "FL", "street": "3145 S TUTTLE AVE", "postcode": "34239"}}},
{"geometry": {"type": "Point", "coordinates": [-82.5281189918, 27.3029232167]}, "type": "Feature", "properties": {"collection_times": [{"days": "Mon-Fri", "time": "5:00pm"}, {"days": "Sat", "time": "2:00pm"}, {"days": "Sun", "time": "Closed"}], "id": "3423900038", "name": "USPS COLLECTION BOX - APC", "address": {"city": "SARASOTA", "state": "FL", "street": "2055 SIESTA DR", "postcode": "34239"}}},
{"geometry": {"type": "Point", "coordinates": [-82.4435699851, 27.3348495608]}, "type": "Feature", "properties": {"collection_times": [{"days": "Mon-Fri", "time": "1:30pm"}, {"days": "Sat-Sun", "time": "Closed"}], "id": "3424000006", "name": "USPS COLLECTION BOX - BLUE BOX", "address": {"city": "SARASOTA", "state": "FL", "street": "241 INTERSTATE BLVD", "postcode": "34240"}}},
{"geometry": {"type": "Point", "coordinates": [-82.442424446, 27.3204342935]}, "type": "Feature", "properties": {"collection_times": [{"days": "Mon-Fri", "time": "1:30pm"}, {"days": "Sat-Sun", "time": "Closed"}], "id": "3424000007", "name": "USPS COLLECTION BOX - BLUE BOX", "address": {"city": "SARASOTA", "state": "FL", "street": "1540 APEX RD", "postcode": "34240"}}},
{"geometry": {"type": "Point", "coordinates": [-82.4065415112, 27.3392231968]}, "type": "Feature", "properties": {"collection_times": [{"days": "Mon-Fri", "time": "1:30pm"}, {"days": "Sat-Sun", "time": "Closed"}], "id": "3424000008", "name": "USPS COLLECTION BOX - BLUE BOX", "address": {"city": "SARASOTA", "state": "FL", "street": "31 SARASOTA CENTER BLVD", "postcode": "34240"}}},
{"geometry": {"type": "Point", "coordinates": [-82.3496760824, 27.3396338694]}, "type": "Feature", "properties": {"collection_times": [{"days": "Mon-Sat", "time": "10:00am"}, {"days": "Sun", "time": "Closed"}], "id": "3424000010", "name": "USPS COLLECTION BOX - BLUE BOX", "address": {"city": "SARASOTA", "state": "FL", "street": "5799 LAKEWOOD RANCH BLVD N", "postcode": "34240"}}},
{"geometry": {"type": "Point", "coordinates": [-82.3496760824, 27.3396338694]}, "type": "Feature", "properties": {"collection_times": [{"days": "Mon-Sat", "time": "10:00am"}, {"days": "Sun", "time": "Closed"}], "id": "3424000011", "name": "USPS COLLECTION BOX - BLUE BOX", "address": {"city": "SARASOTA", "state": "FL", "street": "5799 LAKEWOOD RANCH BLVD N", "postcode": "34240"}}},
{"geometry": {"type": "Point", "coordinates": [-82.5342205754, 27.2504388558]}, "type": "Feature", "properties": {"collection_times": [{"days": "Mon-Fri", "time": "2:45pm"}, {"days": "Sat", "time": "12:15pm"}, {"days": "Sun", "time": "Closed"}], "id": "3424200002", "name": "USPS COLLECTION BOX - BLUE BOX", "address": {"city": "SARASOTA", "state": "FL", "street": "6595 MIDNIGHT PASS RD", "postcode": "34242"}}},
{"geometry": {"type": "Point", "coordinates": [-82.5342205754, 27.2504388558]}, "type": "Feature", "properties": {"collection_times": [{"days": "Mon-Fri", "time": "2:45pm"}, {"days": "Sat", "time": "12:15pm"}, {"days": "Sun", "time": "Closed"}], "id": "3424200003", "name": "USPS COLLECTION BOX - BLUE BOX", "address": {"city": "SARASOTA", "state": "FL", "street": "6595 MIDNIGHT PASS RD", "postcode": "34242"}}},
{"geometry": {"type": "Point", "coordinates": [-82.5643596579, 27.2770332632]}, "type": "Feature", "properties": {"collection_times": [{"days": "Mon-Fri", "time": "2:00pm"}, {"days": "Sat", "time": "12:15pm"}, {"days": "Sun", "time": "Closed"}], "id": "3424200006", "name": "USPS COLLECTION BOX - BLUE BOX", "address": {"city": "SARASOTA", "state": "FL", "street": "5124 OCEAN BLVD", "postcode": "34242"}}},
{"geometry": {"type": "Point", "coordinates": [-82.5643596579, 27.2770332632]}, "type": "Feature", "properties": {"collection_times": [{"days": "Mon-Fri", "time": "2:00pm"}, {"days": "Sat", "time": "12:15pm"}, {"days": "Sun", "time": "Closed"}], "id": "3424200007", "name": "USPS COLLECTION BOX - BLUE BOX", "address": {"city": "SARASOTA", "state": "FL", "street": "5124 OCEAN BLVD", "postcode": "34242"}}},
{"geometry": {"type": "Point", "coordinates": [-82.5055711679, 27.4045328757]}, "type": "Feature", "properties": {"collection_times": [{"days": "Mon-Fri", "time": "12:00pm"}, {"days": "Sat-Sun", "time": "Closed"}], "id": "3424300001", "name": "USPS COLLECTION BOX - BLUE BOX", "address": {"city": "SARASOTA", "state": "FL", "street": "7606 LOCKWOOD RIDGE RD", "postcode": "34243"}}},
{"geometry": {"type": "Point", "coordinates": [-82.487029752, 27.389717659]}, "type": "Feature", "properties": {"collection_times": [{"days": "Mon-Fri", "time": "12:00pm"}, {"days": "Sat-Sun", "time": "Closed"}], "id": "3424300002", "name": "USPS COLLECTION BOX - BLUE BOX", "address": {"city": "SARASOTA", "state": "FL", "street": "5897 WHITFIELD AVE", "postcode": "34243"}}},
{"geometry": {"type": "Point", "coordinates": [-82.5057590526, 27.3904212179]}, "type": "Feature", "properties": {"collection_times": [{"days": "Mon-Fri", "time": "12:00pm"}, {"days": "Sat-Sun", "time": "Closed"}], "id": "3424300006", "name": "USPS COLLECTION BOX - BLUE BOX", "address": {"city": "SARASOTA", "state": "FL", "street": "8440 LOCKWOOD RIDGE RD", "postcode": "34243"}}},
{"geometry": {"type": "Point", "coordinates": [-82.5330891175, 27.4288759684]}, "type": "Feature", "properties": {"collection_times": [{"days": "Mon-Fri", "time": "12:00pm"}, {"days": "Sat-Sun", "time": "Closed"}], "id": "3424300010", "name": "USPS COLLECTION BOX - BLUE BOX", "address": {"city": "SARASOTA", "state": "FL", "street": "6497 PARKLAND DR", "postcode": "34243"}}},
{"geometry": {"type": "Point", "coordinates": [-82.5055711679, 27.4045328757]}, "type": "Feature", "properties": {"collection_times": [{"days": "Mon-Fri", "time": "1:00pm"}, {"days": "Sat-Sun", "time": "Closed"}], "id": "3424300015", "name": "USPS COLLECTION BOX - BLUE BOX", "address": {"city": "SARASOTA", "state": "FL", "street": "7606 LOCKWOOD RIDGE RD", "postcode": "34243"}}},
{"geometry": {"type": "Point", "coordinates": [-82.5055053769, 27.3872867061]}, "type": "Feature", "properties": {"collection_times": [{"days": "Mon-Fri", "time": "1:00pm"}, {"days": "Sat", "time": "12:45pm"}, {"days": "Sun", "time": "Closed"}], "id": "3424300016", "name": "USPS COLLECTION BOX - BLUE BOX", "address": {"city": "SARASOTA", "state": "FL", "street": "6200 N LOCKWOOD RIDGE RD", "postcode": "34243"}}},
{"geometry": {"type": "Point", "coordinates": [-82.5809413696, 27.5789911003]}, "type": "Feature", "properties": {"collection_times": [{"days": "Mon-Fri", "time": "3:00pm"}, {"days": "Sat", "time": "9:00am"}, {"days": "Sun", "time": "Closed"}], "id": "3425000001", "name": "USPS COLLECTION BOX - BLUE BOX", "address": {"city": "TERRA CEIA", "state": "FL", "street": "1891 CENTER RD", "postcode": "34250"}}},
{"geometry": {"type": "Point", "coordinates": [-82.1645512835, 27.3502402454]}, "type": "Feature", "properties": {"collection_times": [{"days": "Mon-Fri", "time": "4:00pm"}, {"days": "Sat", "time": "12:00pm"}, {"days": "Sun", "time": "Closed"}], "id": "3425100003", "name": "USPS COLLECTION BOX - BLUE BOX", "address": {"city": "MYAKKA CITY", "state": "FL", "street": "10490 CARLTON AVE", "postcode": "34251"}}},
{"geometry": {"type": "Point", "coordinates": [-82.5595104001, 27.4065016953]}, "type": "Feature", "properties": {"collection_times": [{"days": "Mon-Sat", "time": "7:30pm"}, {"days": "Sun", "time": "Closed"}], "id": "3426000001", "name": "USPS COLLECTION BOX - BLUE BOX", "address": {"city": "MANASOTA", "state": "FL", "street": "850 TALLEVAST RD", "postcode": "34260"}}},
{"geometry": {"type": "Point", "coordinates": [-82.5595104001, 27.4065016953]}, "type": "Feature", "properties": {"collection_times": [{"days": "Mon-Sat", "time": "7:30pm"}, {"days": "Sun", "time": "Closed"}], "id": "3426000002", "name": "USPS COLLECTION BOX - BLUE BOX", "address": {"city": "MANASOTA", "state": "FL", "street": "850 TALLEVAST RD", "postcode": "34260"}}},
{"geometry": {"type": "Point", "coordinates": [-82.5443932476, 27.4477044606]}, "type": "Feature", "properties": {"collection_times": [{"days": "Mon-Fri", "time": "4:30pm"}, {"days": "Sat", "time": "11:30am"}, {"days": "Sun", "time": "Closed"}], "id": "3426400004", "name": "USPS COLLECTION BOX - BLUE BOX", "address": {"city": "ONECO", "state": "FL", "street": "2333 53RD  AVE E", "postcode": "34264"}}},
{"geometry": {"type": "Point", "coordinates": [-81.8615776544, 27.2078806485]}, "type": "Feature", "properties": {"collection_times": [{"days": "Mon-Fri", "time": "5:00pm"}, {"days": "Sat", "time": "1:00pm"}, {"days": "Sun", "time": "Closed"}], "id": "3426600009", "name": "USPS COLLECTION BOX - BLUE BOX", "address": {"city": "ARCADIA", "state": "FL", "street": "109 N POLK AVE", "postcode": "34266"}}},
{"geometry": {"type": "Point", "coordinates": [-81.8615776544, 27.2078806485]}, "type": "Feature", "properties": {"collection_times": [{"days": "Mon-Fri", "time": "5:00pm"}, {"days": "Sat", "time": "1:00pm"}, {"days": "Sun", "time": "Closed"}], "id": "3426600010", "name": "USPS COLLECTION BOX - BLUE BOX", "address": {"city": "ARCADIA", "state": "FL", "street": "109 N POLK AVE", "postcode": "34266"}}},
{"geometry": {"type": "Point", "coordinates": [-81.8615776544, 27.2078806485]}, "type": "Feature", "properties": {"collection_times": [{"days": "Mon-Fri", "time": "4:30pm"}, {"days": "Sat", "time": "12:00pm"}, {"days": "Sun", "time": "Closed"}], "id": "3426600022", "name": "USPS COLLECTION BOX - BLUE BOX", "address": {"city": "ARCADIA", "state": "FL", "street": "109 N POLK AVE", "postcode": "34266"}}},
{"geometry": {"type": "Point", "coordinates": [-81.8609913942, 27.2171622014]}, "type": "Feature", "properties": {"collection_times": [{"days": "Mon-Fri", "time": "4:00pm"}, {"days": "Sat", "time": "11:30am"}, {"days": "Sun", "time": "Closed"}], "id": "3426700000", "name": "USPS COLLECTION BOX - BLUE BOX", "address": {"city": "FT OGDEN", "state": "FL", "street": "9693 SW HWY 17", "postcode": "34267"}}},
{"geometry": {"type": "Point", "coordinates": [-81.8609913942, 27.2171622014]}, "type": "Feature", "properties": {"collection_times": [{"days": "Mon-Fri", "time": "3:45pm"}, {"days": "Sat", "time": "9:00am"}, {"days": "Sun", "time": "Closed"}], "id": "3426800000", "name": "USPS COLLECTION BOX - BLUE BOX", "address": {"city": "NOCATEE", "state": "FL", "street": "2509 SW COUNTY ROAD 760", "postcode": "34268"}}},
{"geometry": {"type": "Point", "coordinates": [-82.4534580476, 27.138316036]}, "type": "Feature", "properties": {"collection_times": [{"days": "Mon-Fri", "time": "4:45pm"}, {"days": "Sat", "time": "12:15pm"}, {"days": "Sun", "time": "Closed"}], "id": "3427200001", "name": "USPS COLLECTION BOX - BLUE BOX", "address": {"city": "LAUREL", "state": "FL", "street": "302 LAUREL RD E", "postcode": "34272"}}},
{"geometry": {"type": "Point", "coordinates": [-82.4534583608, 27.1384256812]}, "type": "Feature", "properties": {"collection_times": [{"days": "Mon-Fri", "time": "5:00pm"}, {"days": "Sat", "time": "1:00pm"}, {"days": "Sun", "time": "Closed"}], "id": "3427500003", "name": "USPS COLLECTION BOX - BLUE BOX", "address": {"city": "NOKOMIS", "state": "FL", "street": "303 LAUREL RD E", "postcode": "34275"}}},
{"geometry": {"type": "Point", "coordinates": [-82.4534583608, 27.1384256812]}, "type": "Feature", "properties": {"collection_times": [{"days": "Mon-Fri", "time": "5:00pm"}, {"days": "Sat", "time": "1:00pm"}, {"days": "Sun", "time": "Closed"}], "id": "3427500009", "name": "USPS COLLECTION BOX - BLUE BOX", "address": {"city": "NOKOMIS", "state": "FL", "street": "303 LAUREL RD E", "postcode": "34275"}}},
{"geometry": {"type": "Point", "coordinates": [-82.4385436417, 27.089415104]}, "type": "Feature", "properties": {"collection_times": [{"days": "Mon-Sat", "time": "11:00am"}, {"days": "Sun", "time": "Closed"}], "id": "3428500006", "name": "USPS COLLECTION BOX - BLUE BOX", "address": {"city": "VENICE", "state": "FL", "street": "700 N WATERWAY", "postcode": "34285"}}},
{"geometry": {"type": "Point", "coordinates": [-82.4501876883, 27.0997909603]}, "type": "Feature", "properties": {"collection_times": [{"days": "Mon-Fri", "time": "5:00pm"}, {"days": "Sat", "time": "4:45pm"}, {"days": "Sun", "time": "Closed"}], "id": "3428500007", "name": "USPS COLLECTION BOX - BLUE BOX", "address": {"city": "VENICE", "state": "FL", "street": "100 HARBOR DR S", "postcode": "34285"}}},
{"geometry": {"type": "Point", "coordinates": [-82.4501876883, 27.0997909603]}, "type": "Feature", "properties": {"collection_times": [{"days": "Mon-Fri", "time": "5:00pm"}, {"days": "Sat", "time": "4:45pm"}, {"days": "Sun", "time": "Closed"}], "id": "3428500008", "name": "USPS COLLECTION BOX - BLUE BOX", "address": {"city": "VENICE", "state": "FL", "street": "100 HARBOR DR S", "postcode": "34285"}}},
{"geometry": {"type": "Point", "coordinates": [-82.4501876883, 27.0997909603]}, "type": "Feature", "properties": {"collection_times": [{"days": "Mon-Fri", "time": "5:00pm"}, {"days": "Sat", "time": "4:45pm"}, {"days": "Sun", "time": "Closed"}], "id": "3428500009", "name": "USPS COLLECTION BOX - BLUE BOX", "address": {"city": "VENICE", "state": "FL", "street": "100 HARBOR DR S", "postcode": "34285"}}},
{"geometry": {"type": "Point", "coordinates": [-82.4501876883, 27.0997909603]}, "type": "Feature", "properties": {"collection_times": [{"days": "Mon-Fri", "time": "5:00pm"}, {"days": "Sat", "time": "4:45pm"}, {"days": "Sun", "time": "Closed"}], "id": "3428500010", "name": "USPS COLLECTION BOX - BLUE BOX", "address": {"city": "VENICE", "state": "FL", "street": "100 HARBOR DR S", "postcode": "34285"}}},
{"geometry": {"type": "Point", "coordinates": [-82.4430248144, 27.0883317728]}, "type": "Feature", "properties": {"collection_times": [{"days": "Mon-Sat", "time": "2:00pm"}, {"days": "Sun", "time": "Closed"}], "id": "3428500015", "name": "USPS COLLECTION BOX - BLUE BOX", "address": {"city": "VENICE", "state": "FL", "street": "650 TAMIAMI TRL S", "postcode": "34285"}}},
{"geometry": {"type": "Point", "coordinates": [-82.44014, 27.08607]}, "type": "Feature", "properties": {"collection_times": [{"days": "Mon-Sat", "time": "11:00am"}, {"days": "Sun", "time": "Closed"}], "id": "3428500022", "name": "USPS COLLECTION BOX - BLUE BOX", "address": {"city": "VENICE", "state": "FL", "street": "780 TAMIAMI TRL S", "postcode": "34285"}}},
{"geometry": {"type": "Point", "coordinates": [-82.4455175049, 27.0997571061]}, "type": "Feature", "properties": {"collection_times": [{"days": "Mon-Sat", "time": "2:00pm"}, {"days": "Sun", "time": "Closed"}], "id": "3428500023", "name": "USPS COLLECTION BOX - BLUE BOX", "address": {"city": "VENICE", "state": "FL", "street": "201 W VENICE AVE", "postcode": "34285"}}},
{"geometry": {"type": "Point", "coordinates": [-82.4488296585, 27.1000374755]}, "type": "Feature", "properties": {"collection_times": [{"days": "Mon-Fri", "time": "5:00pm"}, {"days": "Sat", "time": "4:45pm"}, {"days": "Sun", "time": "Closed"}], "id": "3428500029", "name": "USPS COLLECTION BOX - BLUE BOX", "address": {"city": "VENICE", "state": "FL", "street": "350 W VENICE AVE", "postcode": "34285"}}},
{"geometry": {"type": "Point", "coordinates": [-82.4442754855, 27.0918010594]}, "type": "Feature", "properties": {"collection_times": [{"days": "Mon-Sat", "time": "2:00pm"}, {"days": "Sun", "time": "Closed"}], "id": "3428500030", "name": "USPS COLLECTION BOX - BLUE BOX", "address": {"city": "VENICE", "state": "FL", "street": "515 TAMIAMI TRL S", "postcode": "34285"}}},
{"geometry": {"type": "Point", "coordinates": [-82.4442479026, 27.0954561661]}, "type": "Feature", "properties": {"collection_times": [{"days": "Mon-Sat", "time": "2:00pm"}, {"days": "Sun", "time": "Closed"}], "id": "3428500031", "name": "USPS COLLECTION BOX - BLUE BOX", "address": {"city": "VENICE", "state": "FL", "street": "333 TAMIAMI TRL S", "postcode": "34285"}}},
{"geometry": {"type": "Point", "coordinates": [-82.4435821974, 27.1110454661]}, "type": "Feature", "properties": {"collection_times": [{"days": "Mon-Sat", "time": "3:00pm"}, {"days": "Sun", "time": "Closed"}], "id": "3428500045", "name": "USPS COLLECTION BOX - BLUE BOX", "address": {"city": "VENICE", "state": "FL", "street": "901 VENETIA BAY BLVD", "postcode": "34285"}}},
{"geometry": {"type": "Point", "coordinates": [-82.4454084054, 27.0978699555]}, "type": "Feature", "properties": {"collection_times": [{"days": "Mon-Sat", "time": "2:00pm"}, {"days": "Sun", "time": "Closed"}], "id": "3428500047", "name": "USPS COLLECTION BOX - BLUE BOX", "address": {"city": "VENICE", "state": "FL", "street": "231 NOKOMIS AVE S", "postcode": "34285"}}},
{"geometry": {"type": "Point", "coordinates": [-82.433715035, 27.0949346779]}, "type": "Feature", "properties": {"collection_times": [{"days": "Mon-Sat", "time": "3:00pm"}, {"days": "Sun", "time": "Closed"}], "id": "3428500048", "name": "USPS COLLECTION BOX - BLUE BOX", "address": {"city": "VENICE", "state": "FL", "street": "450 N VENICE BYP", "postcode": "34285"}}},
{"geometry": {"type": "Point", "coordinates": [-81.6886459372, 28.566047978]}, "type": "Feature", "properties": {"collection_times": [{"days": "Mon-Sat", "time": "1:30pm"}, {"days": "Sun", "time": "Closed"}], "id": "3428500052", "name": "USPS COLLECTION BOX - BLUE BOX", "address": {"city": "VENICE", "state": "FL", "street": "800 PINEBROOK RD", "postcode": "34285"}}},
{"geometry": {"type": "Point", "coordinates": [-82.4297422231, 27.0786179105]}, "type": "Feature", "properties": {"collection_times": [{"days": "Mon-Fri", "time": "2:00pm"}, {"days": "Sat", "time": "12:00pm"}, {"days": "Sun", "time": "Closed"}], "id": "3428500053", "name": "USPS COLLECTION BOX - BLUE BOX", "address": {"city": "VENICE", "state": "FL", "street": "1515 TAMIAMI TRL S", "postcode": "34285"}}},
{"geometry": {"type": "Point", "coordinates": [-82.4488296585, 27.1000374755]}, "type": "Feature", "properties": {"collection_times": [{"days": "Mon-Sat", "time": "5:00pm"}, {"days": "Sun", "time": "Closed"}], "id": "3428500055", "name": "USPS COLLECTION BOX - APC", "address": {"city": "VENICE", "state": "FL", "street": "350 W VENICE AVE", "postcode": "34285"}}},
{"geometry": {"type": "Point", "coordinates": [-82.2075416447, 27.0750519875]}, "type": "Feature", "properties": {"collection_times": [{"days": "Mon-Fri", "time": "4:30pm"}, {"days": "Sat", "time": "12:00pm"}, {"days": "Sun", "time": "Closed"}], "id": "3428600001", "name": "USPS COLLECTION BOX - BLUE BOX", "address": {"city": "VENICE", "state": "FL", "street": "4975 CITY HALL BLVD", "postcode": "34286"}}},
{"geometry": {"type": "Point", "coordinates": [-82.2075416447, 27.0750519875]}, "type": "Feature", "properties": {"collection_times": [{"days": "Mon-Fri", "time": "4:30pm"}, {"days": "Sat", "time": "12:00pm"}, {"days": "Sun", "time": "Closed"}], "id": "3428600002", "name": "USPS COLLECTION BOX - BLUE BOX", "address": {"city": "VENICE", "state": "FL", "street": "4975 CITY HALL BLVD", "postcode": "34286"}}},
{"geometry": {"type": "Point", "coordinates": [-82.2075416447, 27.0750519875]}, "type": "Feature", "properties": {"collection_times": [{"days": "Mon-Fri", "time": "4:30pm"}, {"days": "Sat", "time": "12:00pm"}, {"days": "Sun", "time": "Closed"}], "id": "3428600004", "name": "USPS COLLECTION BOX - APC", "address": {"city": "VENICE", "state": "FL", "street": "4975 CITY HALL BLVD", "postcode": "34286"}}},
{"geometry": {"type": "Point", "coordinates": [-82.2363306399, 27.0439384069]}, "type": "Feature", "properties": {"collection_times": [{"days": "Mon-Sat", "time": "3:00pm"}, {"days": "Sun", "time": "Closed"}], "id": "3428700001", "name": "USPS COLLECTION BOX - BLUE BOX", "address": {"city": "NORTH PORT", "state": "FL", "street": "14283 TAMIAMI TRL", "postcode": "34287"}}},
{"geometry": {"type": "Point", "coordinates": [-82.247429289, 27.0559570923]}, "type": "Feature", "properties": {"collection_times": [{"days": "Mon-Sat", "time": "2:30pm"}, {"days": "Sun", "time": "Closed"}], "id": "3428700002", "name": "USPS COLLECTION BOX - BLUE BOX", "address": {"city": "NORTH PORT", "state": "FL", "street": "17179 TAMIAMI TRL", "postcode": "34287"}}},
{"geometry": {"type": "Point", "coordinates": [-82.2486616044, 27.0460497374]}, "type": "Feature", "properties": {"collection_times": [{"days": "Mon-Fri", "time": "5:00pm"}, {"days": "Sat", "time": "3:00pm"}, {"days": "Sun", "time": "Closed"}], "id": "3428700007", "name": "USPS COLLECTION BOX - BLUE BOX", "address": {"city": "NORTH PORT", "state": "FL", "street": "13611 TAMIAMI TRL", "postcode": "34287"}}},
{"geometry": {"type": "Point", "coordinates": [-82.1571799923, 27.0671027646]}, "type": "Feature", "properties": {"collection_times": [{"days": "Mon-Sat", "time": "12:30pm"}, {"days": "Sun", "time": "Closed"}], "id": "3428700009", "name": "USPS COLLECTION BOX - BLUE BOX", "address": {"city": "NORTH PORT", "state": "FL", "street": "1251 S TOLEDO BLADE BLVD", "postcode": "34287"}}},
{"geometry": {"type": "Point", "coordinates": [-82.2486616044, 27.0460497374]}, "type": "Feature", "properties": {"collection_times": [{"days": "Mon-Fri", "time": "5:00pm"}, {"days": "Sat", "time": "3:00pm"}, {"days": "Sun", "time": "Closed"}], "id": "3428700010", "name": "USPS COLLECTION BOX - BLUE BOX", "address": {"city": "NORTH PORT", "state": "FL", "street": "13611 TAMIAMI TRL", "postcode": "34287"}}},
{"geometry": {"type": "Point", "coordinates": [-82.3898999082, 27.1007806537]}, "type": "Feature", "properties": {"collection_times": [{"days": "Mon-Fri", "time": "2:00pm"}, {"days": "Sat", "time": "1:00pm"}, {"days": "Sun", "time": "Closed"}], "id": "3429200009", "name": "USPS COLLECTION BOX - BLUE BOX", "address": {"city": "VENICE", "state": "FL", "street": "1740 E VENICE AVE", "postcode": "34292"}}},
{"geometry": {"type": "Point", "coordinates": [-82.4001896116, 27.0739462295]}, "type": "Feature", "properties": {"collection_times": [{"days": "Mon-Sat", "time": "1:30pm"}, {"days": "Sun", "time": "Closed"}], "id": "3429300000", "name": "USPS COLLECTION BOX - BLUE BOX", "address": {"city": "VENICE", "state": "FL", "street": "742 SHAMROCK BLVD", "postcode": "34293"}}},
{"geometry": {"type": "Point", "coordinates": [-82.4251007617, 27.0776470367]}, "type": "Feature", "properties": {"collection_times": [{"days": "Mon-Fri", "time": "2:00pm"}, {"days": "Sat", "time": "12:00pm"}, {"days": "Sun", "time": "Closed"}], "id": "3429300003", "name": "USPS COLLECTION BOX - BLUE BOX", "address": {"city": "VENICE", "state": "FL", "street": "1532 US HIGHWAY 41 BYP S", "postcode": "34293"}}},
{"geometry": {"type": "Point", "coordinates": [-82.4127001626, 27.0572616991]}, "type": "Feature", "properties": {"collection_times": [{"days": "Mon-Fri", "time": "2:00pm"}, {"days": "Sat", "time": "12:30pm"}, {"days": "Sun", "time": "Closed"}], "id": "3429300004", "name": "USPS COLLECTION BOX - BLUE BOX", "address": {"city": "VENICE", "state": "FL", "street": "2065 TAMIAMI TRL S", "postcode": "34293"}}},
{"geometry": {"type": "Point", "coordinates": [-82.3964709833, 27.0496495308]}, "type": "Feature", "properties": {"collection_times": [{"days": "Mon-Sat", "time": "2:00pm"}, {"days": "Sun", "time": "Closed"}], "id": "3429300005", "name": "USPS COLLECTION BOX - BLUE BOX", "address": {"city": "VENICE", "state": "FL", "street": "4150 TAMIAMI TRL S", "postcode": "34293"}}},
{"geometry": {"type": "Point", "coordinates": [-82.4064104073, 27.0503209364]}, "type": "Feature", "properties": {"collection_times": [{"days": "Mon-Fri", "time": "2:00pm"}, {"days": "Sat", "time": "12:30pm"}, {"days": "Sun", "time": "Closed"}], "id": "3429300007", "name": "USPS COLLECTION BOX - BLUE BOX", "address": {"city": "VENICE", "state": "FL", "street": "2357 TAMIAMI TRL S", "postcode": "34293"}}},
{"geometry": {"type": "Point", "coordinates": [-82.3957893914, 27.0499129749]}, "type": "Feature", "properties": {"collection_times": [{"days": "Mon-Sat", "time": "2:00pm"}, {"days": "Sun", "time": "Closed"}], "id": "3429300008", "name": "USPS COLLECTION BOX - BLUE BOX", "address": {"city": "VENICE", "state": "FL", "street": "4145 TAMIAMI TRL S", "postcode": "34293"}}},
{"geometry": {"type": "Point", "coordinates": [-82.4246890628, 27.0740246881]}, "type": "Feature", "properties": {"collection_times": [{"days": "Mon-Sat", "time": "2:00pm"}, {"days": "Sun", "time": "Closed"}], "id": "3429300009", "name": "USPS COLLECTION BOX - BLUE BOX", "address": {"city": "VENICE", "state": "FL", "street": "1649 US HIGHWAY 41 BYP S", "postcode": "34293"}}},
{"geometry": {"type": "Point", "coordinates": [-82.3887560901, 27.0799873299]}, "type": "Feature", "properties": {"collection_times": [{"days": "Mon-Sat", "time": "2:00pm"}, {"days": "Sun", "time": "Closed"}], "id": "3429300010", "name": "USPS COLLECTION BOX - BLUE BOX", "address": {"city": "VENICE", "state": "FL", "street": "1276 JACARANDA BLVD", "postcode": "34293"}}}
]}
