{"type": "FeatureCollection", "features": [
{"geometry": {"type": "Point", "coordinates": [-82.071423344, 29.0715299336]}, "type": "Feature", "properties": {"collection_times": [{"days": "Mon-Sat", "time": "10:00am"}, {"days": "Sun", "time": "Closed"}], "id": "3442000001", "name": "USPS COLLECTION BOX - BLUE BOX", "address": {"city": "BELLEVIEW", "state": "FL", "street": "10369 SE US HIGHWAY 441", "postcode": "34420"}}},
{"geometry": {"type": "Point", "coordinates": [-81.9927238243, 29.0485962901]}, "type": "Feature", "properties": {"collection_times": [{"days": "Mon-Sat", "time": "10:30am"}, {"days": "Sun", "time": "Closed"}], "id": "3442000002", "name": "USPS COLLECTION BOX - BLUE BOX", "address": {"city": "BELLEVIEW", "state": "FL", "street": "9701 E HIGHWAY 25", "postcode": "34420"}}},
{"geometry": {"type": "Point", "coordinates": [-82.0274673291, 29.0591932365]}, "type": "Feature", "properties": {"collection_times": [{"days": "Mon-Sat", "time": "10:00am"}, {"days": "Sun", "time": "Closed"}], "id": "3442000007", "name": "USPS COLLECTION BOX - BLUE BOX", "address": {"city": "BELLEVIEW", "state": "FL", "street": "7590 E HIGHWAY 25", "postcode": "34420"}}},
{"geometry": {"type": "Point", "coordinates": [-82.0689075646, 29.0624865943]}, "type": "Feature", "properties": {"collection_times": [{"days": "Mon-Fri", "time": "5:00pm"}, {"days": "Sat", "time": "4:00pm"}, {"days": "Sun", "time": "Closed"}], "id": "3442000008", "name": "USPS COLLECTION BOX - BLUE BOX", "address": {"city": "BELLEVIEW", "state": "FL", "street": "4800 SE 110TH ST", "postcode": "34420"}}},
{"geometry": {"type": "Point", "coordinates": [-82.0689075646, 29.0624865943]}, "type": "Feature", "properties": {"collection_times": [{"days": "Mon-Fri", "time": "5:00pm"}, {"days": "Sat", "time": "4:00pm"}, {"days": "Sun", "time": "Closed"}], "id": "3442000009", "name": "USPS COLLECTION BOX - BLUE BOX", "address": {"city": "BELLEVIEW", "state": "FL", "street": "4800 SE 110TH ST", "postcode": "34420"}}},
{"geometry": {"type": "Point", "coordinates": [-82.0689075646, 29.0624865943]}, "type": "Feature", "properties": {"collection_times": [{"days": "Mon-Fri", "time": "5:00pm"}, {"days": "Sat", "time": "4:00pm"}, {"days": "Sun", "time": "Closed"}], "id": "3442000010", "name": "USPS COLLECTION BOX - PO LOBBY", "address": {"city": "BELLEVIEW", "state": "FL", "street": "4800 SE 110TH ST", "postcode": "34420"}}},
{"geometry": {"type": "Point", "coordinates": [-82.0689075646, 29.0624865943]}, "type": "Feature", "properties": {"collection_times": [{"days": "Mon-Fri", "time": "5:00pm"}, {"days": "Sat", "time": "4:00pm"}, {"days": "Sun", "time": "Closed"}], "id": "3442000011", "name": "USPS COLLECTION BOX - PO LOBBY", "address": {"city": "BELLEVIEW", "state": "FL", "street": "4800 SE 110TH ST", "postcode": "34420"}}},
{"geometry": {"type": "Point", "coordinates": [-82.0729071489, 29.0740074317]}, "type": "Feature", "properties": {"collection_times": [{"days": "Mon-Sat", "time": "10:00am"}, {"days": "Sun", "time": "Closed"}], "id": "3442000012", "name": "USPS COLLECTION BOX - BLUE BOX", "address": {"city": "BELLEVIEW", "state": "FL", "street": "10135 SE US HIGHWAY 441", "postcode": "34420"}}},
{"geometry": {"type": "Point", "coordinates": [-82.6620166369, 29.0108958127]}, "type": "Feature", "properties": {"collection_times": [{"days": "Mon-Sat", "time": "11:00am"}, {"days": "Sun", "time": "Closed"}], "id": "3442800001", "name": "USPS COLLECTION BOX - BLUE BOX", "address": {"city": "CRYSTAL RIVER", "state": "FL", "street": "10173 N SUNCOAST BLVD", "postcode": "34428"}}},
{"geometry": {"type": "Point", "coordinates": [-82.5874753713, 28.8950860712]}, "type": "Feature", "properties": {"collection_times": [{"days": "Mon-Fri", "time": "5:00pm"}, {"days": "Sat", "time": "4:45pm"}, {"days": "Sun", "time": "Closed"}], "id": "3442900001", "name": "USPS COLLECTION BOX - PO LOBBY", "address": {"city": "CRYSTAL RIVER", "state": "FL", "street": "18 NE 4TH AVE", "postcode": "34429"}}},
{"geometry": {"type": "Point", "coordinates": [-82.5874753713, 28.8950860712]}, "type": "Feature", "properties": {"collection_times": [{"days": "Mon-Fri", "time": "5:00pm"}, {"days": "Sat", "time": "4:45pm"}, {"days": "Sun", "time": "Closed"}], "id": "3442900002", "name": "USPS COLLECTION BOX - BLUE BOX", "address": {"city": "CRYSTAL RIVER", "state": "FL", "street": "18 NE 4TH AVE", "postcode": "34429"}}},
{"geometry": {"type": "Point", "coordinates": [-82.5620961697, 28.8966688703]}, "type": "Feature", "properties": {"collection_times": [{"days": "Mon-Sat", "time": "2:00pm"}, {"days": "Sun", "time": "Closed"}], "id": "3442900007", "name": "USPS COLLECTION BOX - BLUE BOX", "address": {"city": "CRYSTAL RIVER", "state": "FL", "street": "7647 W GULF TO LAKE HWY", "postcode": "34429"}}},
{"geometry": {"type": "Point", "coordinates": [-82.5417465622, 28.8829155812]}, "type": "Feature", "properties": {"collection_times": [{"days": "Mon-Sat", "time": "2:00pm"}, {"days": "Sun", "time": "Closed"}], "id": "3442900008", "name": "USPS COLLECTION BOX - BLUE BOX", "address": {"city": "CRYSTAL RIVER", "state": "FL", "street": "6405 W GULF TO LAKE HWY", "postcode": "34429"}}},
{"geometry": {"type": "Point", "coordinates": [-82.5355704799, 28.8788917954]}, "type": "Feature", "properties": {"collection_times": [{"days": "Mon-Sat", "time": "2:00pm"}, {"days": "Sun", "time": "Closed"}], "id": "3442900009", "name": "USPS COLLECTION BOX - BLUE BOX", "address": {"city": "CRYSTAL RIVER", "state": "FL", "street": "6000 W CORPORATE OAKS DR", "postcode": "34429"}}},
{"geometry": {"type": "Point", "coordinates": [-82.5795855919, 28.8718657141]}, "type": "Feature", "properties": {"collection_times": [{"days": "Mon-Sat", "time": "2:00pm"}, {"days": "Sun", "time": "Closed"}], "id": "3442900012", "name": "USPS COLLECTION BOX - BLUE BOX", "address": {"city": "CRYSTAL RIVER", "state": "FL", "street": "715 SE US HIGHWAY 19", "postcode": "34429"}}},
{"geometry": {"type": "Point", "coordinates": [-82.5686119077, 28.8977666562]}, "type": "Feature", "properties": {"collection_times": [{"days": "Mon-Sat", "time": "2:00pm"}, {"days": "Sun", "time": "Closed"}], "id": "3442900015", "name": "USPS COLLECTION BOX - BLUE BOX", "address": {"city": "CRYSTAL RIVER", "state": "FL", "street": "8030 W GULF TO LAKE HWY", "postcode": "34429"}}},
{"geometry": {"type": "Point", "coordinates": [-82.5866791323, 28.8799602806]}, "type": "Feature", "properties": {"collection_times": [{"days": "Mon-Sat", "time": "2:00pm"}, {"days": "Sun", "time": "Closed"}], "id": "3442900016", "name": "USPS COLLECTION BOX - BLUE BOX", "address": {"city": "CRYSTAL RIVER", "state": "FL", "street": "9030 W FORT ISLAND TRL", "postcode": "34429"}}},
{"geometry": {"type": "Point", "coordinates": [-82.5764005095, 28.8985568728]}, "type": "Feature", "properties": {"collection_times": [{"days": "Mon-Sat", "time": "2:00pm"}, {"days": "Sun", "time": "Closed"}], "id": "3442900019", "name": "USPS COLLECTION BOX - BLUE BOX", "address": {"city": "CRYSTAL RIVER", "state": "FL", "street": "1020 NE 5TH ST", "postcode": "34429"}}},
{"geometry": {"type": "Point", "coordinates": [-82.5921240615, 28.8996354491]}, "type": "Feature", "properties": {"collection_times": [{"days": "Mon-Sat", "time": "2:00pm"}, {"days": "Sun", "time": "Closed"}], "id": "3442900020", "name": "USPS COLLECTION BOX - BLUE BOX", "address": {"city": "CRYSTAL RIVER", "state": "FL", "street": "900 N SUNCOAST BLVD", "postcode": "34429"}}},
{"geometry": {"type": "Point", "coordinates": [-82.5874753713, 28.8950860712]}, "type": "Feature", "properties": {"collection_times": [{"days": "Mon-Fri", "time": "5:00pm"}, {"days": "Sat", "time": "4:45pm"}, {"days": "Sun", "time": "Closed"}], "id": "3442900021", "name": "USPS COLLECTION BOX - PO LOBBY", "address": {"city": "CRYSTAL RIVER", "state": "FL", "street": "18 NE 4TH AVE", "postcode": "34429"}}},
{"geometry": {"type": "Point", "coordinates": [-82.4557942942, 29.0572626475]}, "type": "Feature", "properties": {"collection_times": [{"days": "Mon-Fri", "time": "5:00pm"}, {"days": "Sat", "time": "3:00pm"}, {"days": "Sun", "time": "Closed"}], "id": "3443200001", "name": "USPS COLLECTION BOX - BLUE BOX", "address": {"city": "DUNNELLON", "state": "FL", "street": "11432 N WILLIAMS ST", "postcode": "34432"}}},
{"geometry": {"type": "Point", "coordinates": [-82.4538412289, 29.0642066166]}, "type": "Feature", "properties": {"collection_times": [{"days": "Mon-Sat", "time": "1:00pm"}, {"days": "Sun", "time": "Closed"}], "id": "3443200004", "name": "USPS COLLECTION BOX - BLUE BOX", "address": {"city": "DUNNELLON", "state": "FL", "street": "11012 N WILLIAMS ST", "postcode": "34432"}}},
{"geometry": {"type": "Point", "coordinates": [-82.4566105358, 29.0553261437]}, "type": "Feature", "properties": {"collection_times": [{"days": "Mon-Sat", "time": "1:00pm"}, {"days": "Sun", "time": "Closed"}], "id": "3443200006", "name": "USPS COLLECTION BOX - BLUE BOX", "address": {"city": "DUNNELLON", "state": "FL", "street": "11582 N WILLIAMS ST", "postcode": "34432"}}},
{"geometry": {"type": "Point", "coordinates": [-82.4557942942, 29.0572626475]}, "type": "Feature", "properties": {"collection_times": [{"days": "Mon-Fri", "time": "5:00pm"}, {"days": "Sat", "time": "3:00pm"}, {"days": "Sun", "time": "Closed"}], "id": "3443200009", "name": "USPS COLLECTION BOX - PO LOBBY", "address": {"city": "DUNNELLON", "state": "FL", "street": "11432 N WILLIAMS ST", "postcode": "34432"}}},
{"geometry": {"type": "Point", "coordinates": [-82.4557942942, 29.0572626475]}, "type": "Feature", "properties": {"collection_times": [{"days": "Mon-Fri", "time": "5:00pm"}, {"days": "Sat", "time": "3:00pm"}, {"days": "Sun", "time": "Closed"}], "id": "3443200010", "name": "USPS COLLECTION BOX - PO LOBBY", "address": {"city": "DUNNELLON", "state": "FL", "street": "11432 N WILLIAMS ST", "postcode": "34432"}}},
{"geometry": {"type": "Point", "coordinates": [-82.4543120466, 29.0605429927]}, "type": "Feature", "properties": {"collection_times": [{"days": "Mon-Sat", "time": "1:00pm"}, {"days": "Sun", "time": "Closed"}], "id": "3443200011", "name": "USPS COLLECTION BOX - BLUE BOX", "address": {"city": "DUNNELLON", "state": "FL", "street": "11223 N WILLIAMS ST", "postcode": "34432"}}},
{"geometry": {"type": "Point", "coordinates": [-82.4428136854, 29.1407937459]}, "type": "Feature", "properties": {"collection_times": [{"days": "Mon-Sat", "time": "1:30pm"}, {"days": "Sun", "time": "Closed"}], "id": "3443200013", "name": "USPS COLLECTION BOX - BLUE BOX", "address": {"city": "DUNNELLON", "state": "FL", "street": "4750 S US HIGHWAY 41", "postcode": "34432"}}},
{"geometry": {"type": "Point", "coordinates": [-82.4557942942, 29.0572626475]}, "type": "Feature", "properties": {"collection_times": [{"days": "Mon-Fri", "time": "5:00pm"}, {"days": "Sat", "time": "3:00pm"}, {"days": "Sun", "time": "Closed"}], "id": "3443200014", "name": "USPS COLLECTION BOX - BLUE BOX", "address": {"city": "DUNNELLON", "state": "FL", "street": "11432 N WILLIAMS ST", "postcode": "34432"}}},
{"geometry": {"type": "Point", "coordinates": [-82.5684427446, 29.0083236351]}, "type": "Feature", "properties": {"collection_times": [{"days": "Mon-Sat", "time": "12:00pm"}, {"days": "Sun", "time": "Closed"}], "id": "3443300001", "name": "USPS COLLECTION BOX - BLUE BOX", "address": {"city": "DUNNELLON", "state": "FL", "street": "7977 W DUNNELLON RD", "postcode": "34433"}}},
{"geometry": {"type": "Point", "coordinates": [-82.4666981193, 29.0023350634]}, "type": "Feature", "properties": {"collection_times": [{"days": "Mon-Sat", "time": "12:00pm"}, {"days": "Sun", "time": "Closed"}], "id": "3443400001", "name": "USPS COLLECTION BOX - BLUE BOX", "address": {"city": "CITRUS SPRINGS", "state": "FL", "street": "9500 N COLONIAL WAY", "postcode": "34434"}}},
{"geometry": {"type": "Point", "coordinates": [-82.2969256595, 28.7504904674]}, "type": "Feature", "properties": {"collection_times": [{"days": "Mon-Fri", "time": "4:30pm"}, {"days": "Sat", "time": "12:00pm"}, {"days": "Sun", "time": "Closed"}], "id": "3443600000", "name": "USPS COLLECTION BOX - BLUE BOX", "address": {"city": "FLORAL CITY", "state": "FL", "street": "7667 S FLORIDA AVE", "postcode": "34436"}}},
{"geometry": {"type": "Point", "coordinates": [-82.2969256595, 28.7504904674]}, "type": "Feature", "properties": {"collection_times": [{"days": "Mon-Fri", "time": "4:30pm"}, {"days": "Sat", "time": "12:00pm"}, {"days": "Sun", "time": "Closed"}], "id": "3443600001", "name": "USPS COLLECTION BOX - PO LOBBY", "address": {"city": "FLORAL CITY", "state": "FL", "street": "7667 S FLORIDA AVE", "postcode": "34436"}}},
{"geometry": {"type": "Point", "coordinates": [-82.3711382017, 28.8987934646]}, "type": "Feature", "properties": {"collection_times": [{"days": "Mon-Fri", "time": "4:30pm"}, {"days": "Sat", "time": "12:00pm"}, {"days": "Sun", "time": "Closed"}], "id": "3444200000", "name": "USPS COLLECTION BOX - BLUE BOX", "address": {"city": "HERNANDO", "state": "FL", "street": "3795 E PARSONS POINT RD", "postcode": "34442"}}},
{"geometry": {"type": "Point", "coordinates": [-82.434025776, 28.8990795594]}, "type": "Feature", "properties": {"collection_times": [{"days": "Mon-Fri", "time": "1:00pm"}, {"days": "Sat", "time": "12:30pm"}, {"days": "Sun", "time": "Closed"}], "id": "3444200001", "name": "USPS COLLECTION BOX - BLUE BOX", "address": {"city": "HERNANDO", "state": "FL", "street": "2450 N ESSEX AVE", "postcode": "34442"}}},
{"geometry": {"type": "Point", "coordinates": [-82.4468776807, 28.9014555043]}, "type": "Feature", "properties": {"collection_times": [{"days": "Mon-Fri", "time": "1:00pm"}, {"days": "Sat", "time": "12:30pm"}, {"days": "Sun", "time": "Closed"}], "id": "3444200002", "name": "USPS COLLECTION BOX - BLUE BOX", "address": {"city": "HERNANDO", "state": "FL", "street": "2685 N FOREST RIDGE BLVD", "postcode": "34442"}}},
{"geometry": {"type": "Point", "coordinates": [-82.3711382017, 28.8987934646]}, "type": "Feature", "properties": {"collection_times": [{"days": "Mon-Fri", "time": "4:30pm"}, {"days": "Sat", "time": "12:00pm"}, {"days": "Sun", "time": "Closed"}], "id": "3444200004", "name": "USPS COLLECTION BOX - PO LOBBY", "address": {"city": "HERNANDO", "state": "FL", "street": "3795 E PARSONS POINT RD", "postcode": "34442"}}},
{"geometry": {"type": "Point", "coordinates": [-82.3711382017, 28.8987934646]}, "type": "Feature", "properties": {"collection_times": [{"days": "Mon-Fri", "time": "4:30pm"}, {"days": "Sat", "time": "12:00pm"}, {"days": "Sun", "time": "Closed"}], "id": "3444200005", "name": "USPS COLLECTION BOX - PO LOBBY", "address": {"city": "HERNANDO", "state": "FL", "street": "3795 E PARSONS POINT RD", "postcode": "34442"}}},
{"geometry": {"type": "Point", "coordinates": [-82.4186580364, 28.9637602122]}, "type": "Feature", "properties": {"collection_times": [{"days": "Mon-Fri", "time": "4:00pm"}, {"days": "Sat", "time": "11:00am"}, {"days": "Sun", "time": "Closed"}], "id": "3444500000", "name": "USPS COLLECTION BOX - BLUE BOX", "address": {"city": "HOLDER", "state": "FL", "street": "6906 N FLORIDA AVE", "postcode": "34445"}}},
{"geometry": {"type": "Point", "coordinates": [-82.4186580364, 28.9637602122]}, "type": "Feature", "properties": {"collection_times": [{"days": "Mon-Fri", "time": "4:00pm"}, {"days": "Sat", "time": "11:00am"}, {"days": "Sun", "time": "Closed"}], "id": "3444500001", "name": "USPS COLLECTION BOX - PO LOBBY", "address": {"city": "HOLDER", "state": "FL", "street": "6906 N FLORIDA AVE", "postcode": "34445"}}},
{"geometry": {"type": "Point", "coordinates": [-82.5181350486, 28.7374627039]}, "type": "Feature", "properties": {"collection_times": [{"days": "Mon-Sat", "time": "11:30am"}, {"days": "Sun", "time": "Closed"}], "id": "3444600001", "name": "USPS COLLECTION BOX - BLUE BOX", "address": {"city": "HOMOSASSA SPG", "state": "FL", "street": "100 CYPRESS BLVD W", "postcode": "34446"}}},
{"geometry": {"type": "Point", "coordinates": [-82.5334531843, 28.7112081126]}, "type": "Feature", "properties": {"collection_times": [{"days": "Mon-Sat", "time": "11:00am"}, {"days": "Sun", "time": "Closed"}], "id": "3444600002", "name": "USPS COLLECTION BOX - BLUE BOX", "address": {"city": "HOMOSASSA SPG", "state": "FL", "street": "1 OAK VILLAGE BLVD", "postcode": "34446"}}},
{"geometry": {"type": "Point", "coordinates": [-82.5753535908, 28.7967147525]}, "type": "Feature", "properties": {"collection_times": [{"days": "Mon-Sat", "time": "12:00pm"}, {"days": "Sun", "time": "Closed"}], "id": "3444600003", "name": "USPS COLLECTION BOX - BLUE BOX", "address": {"city": "HOMOSASSA SPG", "state": "FL", "street": "4548 S SUNCOAST BLVD", "postcode": "34446"}}},
{"geometry": {"type": "Point", "coordinates": [-82.5606529598, 28.7839352468]}, "type": "Feature", "properties": {"collection_times": [{"days": "Mon-Sat", "time": "10:00am"}, {"days": "Sun", "time": "Closed"}], "id": "3444600004", "name": "USPS COLLECTION BOX - BLUE BOX", "address": {"city": "HOMOSASSA SPG", "state": "FL", "street": "5386 S SUNCOAST BLVD", "postcode": "34446"}}},
{"geometry": {"type": "Point", "coordinates": [-82.5734644054, 28.7950538781]}, "type": "Feature", "properties": {"collection_times": [{"days": "Mon-Fri", "time": "4:15pm"}, {"days": "Sat", "time": "3:15pm"}, {"days": "Sun", "time": "Closed"}], "id": "3444600007", "name": "USPS COLLECTION BOX - PO LOBBY", "address": {"city": "HOMOSASSA SPG", "state": "FL", "street": "4610 S SUNCOAST BLVD", "postcode": "34446"}}},
{"geometry": {"type": "Point", "coordinates": [-82.5734644054, 28.7950538781]}, "type": "Feature", "properties": {"collection_times": [{"days": "Mon-Fri", "time": "4:15pm"}, {"days": "Sat", "time": "3:15pm"}, {"days": "Sun", "time": "Closed"}], "id": "3444600008", "name": "USPS COLLECTION BOX - PO LOBBY", "address": {"city": "HOMOSASSA SPG", "state": "FL", "street": "4610 S SUNCOAST BLVD", "postcode": "34446"}}},
{"geometry": {"type": "Point", "coordinates": [-82.5734644054, 28.7950538781]}, "type": "Feature", "properties": {"collection_times": [{"days": "Mon-Fri", "time": "4:15pm"}, {"days": "Sat", "time": "3:15pm"}, {"days": "Sun", "time": "Closed"}], "id": "3444600010", "name": "USPS COLLECTION BOX - BLUE BOX", "address": {"city": "HOMOSASSA SPG", "state": "FL", "street": "4610 S SUNCOAST BLVD", "postcode": "34446"}}},
{"geometry": {"type": "Point", "coordinates": [-82.5764407301, 28.8072584658]}, "type": "Feature", "properties": {"collection_times": [{"days": "Mon-Sat", "time": "12:00pm"}, {"days": "Sun", "time": "Closed"}], "id": "3444800001", "name": "USPS COLLECTION BOX - BLUE BOX", "address": {"city": "HOMOSASSA SPG", "state": "FL", "street": "3792 S SUNCOAST BLVD", "postcode": "34448"}}},
{"geometry": {"type": "Point", "coordinates": [-82.6700332133, 29.0330608267]}, "type": "Feature", "properties": {"collection_times": [{"days": "Mon-Fri", "time": "3:45pm"}, {"days": "Sat", "time": "12:00pm"}, {"days": "Sun", "time": "Closed"}], "id": "3444900000", "name": "USPS COLLECTION BOX - BLUE BOX", "address": {"city": "INGLIS", "state": "FL", "street": "70 N INGLIS AVE", "postcode": "34449"}}},
{"geometry": {"type": "Point", "coordinates": [-82.6700332133, 29.0330608267]}, "type": "Feature", "properties": {"collection_times": [{"days": "Mon-Fri", "time": "3:45pm"}, {"days": "Sat", "time": "12:00pm"}, {"days": "Sun", "time": "Closed"}], "id": "3444900001", "name": "USPS COLLECTION BOX - PO LOBBY", "address": {"city": "INGLIS", "state": "FL", "street": "70 N INGLIS AVE", "postcode": "34449"}}},
{"geometry": {"type": "Point", "coordinates": [-82.3301995408, 28.8342760656]}, "type": "Feature", "properties": {"collection_times": [{"days": "Mon-Fri", "time": "3:15pm"}, {"days": "Sat", "time": "2:00pm"}, {"days": "Sun", "time": "Closed"}], "id": "3445000001", "name": "USPS COLLECTION BOX - BLUE BOX", "address": {"city": "INVERNESS", "state": "FL", "street": "105 N APOPKA AVE", "postcode": "34450"}}},
{"geometry": {"type": "Point", "coordinates": [-82.3648817786, 28.8432485828]}, "type": "Feature", "properties": {"collection_times": [{"days": "Mon-Sat", "time": "10:15am"}, {"days": "Sun", "time": "Closed"}], "id": "3445000002", "name": "USPS COLLECTION BOX - BLUE BOX", "address": {"city": "INVERNESS", "state": "FL", "street": "2617 E GULF TO LAKE HWY", "postcode": "34450"}}},
{"geometry": {"type": "Point", "coordinates": [-82.372067145, 28.8476260729]}, "type": "Feature", "properties": {"collection_times": [{"days": "Mon-Sat", "time": "11:45am"}, {"days": "Sun", "time": "Closed"}], "id": "3445000003", "name": "USPS COLLECTION BOX - BLUE BOX", "address": {"city": "INVERNESS", "state": "FL", "street": "3780 E GULF TO LAKE HWY", "postcode": "34450"}}},
{"geometry": {"type": "Point", "coordinates": [-82.3542477593, 28.8449117055]}, "type": "Feature", "properties": {"collection_times": [{"days": "Mon-Sat", "time": "12:30pm"}, {"days": "Sun", "time": "Closed"}], "id": "3445000004", "name": "USPS COLLECTION BOX - BLUE BOX", "address": {"city": "INVERNESS", "state": "FL", "street": "609 WHISPERING PINES BLVD", "postcode": "34450"}}},
{"geometry": {"type": "Point", "coordinates": [-82.3633598953, 28.8436719113]}, "type": "Feature", "properties": {"collection_times": [{"days": "Mon-Sat", "time": "1:00pm"}, {"days": "Sun", "time": "Closed"}], "id": "3445000005", "name": "USPS COLLECTION BOX - BLUE BOX", "address": {"city": "INVERNESS", "state": "FL", "street": "2400 FOREST DR", "postcode": "34450"}}},
{"geometry": {"type": "Point", "coordinates": [-82.359503655, 28.840023193]}, "type": "Feature", "properties": {"collection_times": [{"days": "Mon-Sat", "time": "11:00am"}, {"days": "Sun", "time": "Closed"}], "id": "3445000006", "name": "USPS COLLECTION BOX - BLUE BOX", "address": {"city": "INVERNESS", "state": "FL", "street": "2250 HIGHWAY 44 W", "postcode": "34450"}}},
{"geometry": {"type": "Point", "coordinates": [-82.3233928788, 28.830514848]}, "type": "Feature", "properties": {"collection_times": [{"days": "Mon-Sat", "time": "9:30am"}, {"days": "Sun", "time": "Closed"}], "id": "3445000007", "name": "USPS COLLECTION BOX - BLUE BOX", "address": {"city": "INVERNESS", "state": "FL", "street": "408 S US HIGHWAY 41", "postcode": "34450"}}},
{"geometry": {"type": "Point", "coordinates": [-82.2762867599, 28.8610293656]}, "type": "Feature", "properties": {"collection_times": [{"days": "Mon-Sat", "time": "11:15am"}, {"days": "Sun", "time": "Closed"}], "id": "3445000009", "name": "USPS COLLECTION BOX - BLUE BOX", "address": {"city": "INVERNESS", "state": "FL", "street": "9500 E PELICAN COVE CT", "postcode": "34450"}}},
{"geometry": {"type": "Point", "coordinates": [-82.352998709, 28.7923780249]}, "type": "Feature", "properties": {"collection_times": [{"days": "Mon-Sat", "time": "10:25am"}, {"days": "Sun", "time": "Closed"}], "id": "3445000014", "name": "USPS COLLECTION BOX - BLUE BOX", "address": {"city": "INVERNESS", "state": "FL", "street": "4811 S PLEASANT GROVE RD", "postcode": "34450"}}},
{"geometry": {"type": "Point", "coordinates": [-82.3444953012, 28.8404816671]}, "type": "Feature", "properties": {"collection_times": [{"days": "Mon-Sat", "time": "5:00pm"}, {"days": "Sun", "time": "Closed"}], "id": "3445000018", "name": "USPS COLLECTION BOX - BLUE BOX", "address": {"city": "INVERNESS", "state": "FL", "street": "1400 HIGHWAY 41 N", "postcode": "34450"}}},
{"geometry": {"type": "Point", "coordinates": [-82.3444953012, 28.8404816671]}, "type": "Feature", "properties": {"collection_times": [{"days": "Mon-Sat", "time": "5:00pm"}, {"days": "Sun", "time": "Closed"}], "id": "3445000019", "name": "USPS COLLECTION BOX - BLUE BOX", "address": {"city": "INVERNESS", "state": "FL", "street": "1400 HIGHWAY 41 N", "postcode": "34450"}}},
{"geometry": {"type": "Point", "coordinates": [-82.3782880057, 28.8506931701]}, "type": "Feature", "properties": {"collection_times": [{"days": "Mon-Sat", "time": "11:45am"}, {"days": "Sun", "time": "Closed"}], "id": "3445000020", "name": "USPS COLLECTION BOX - BLUE BOX", "address": {"city": "INVERNESS", "state": "FL", "street": "3354 E GULF TO LAKE HWY", "postcode": "34450"}}},
{"geometry": {"type": "Point", "coordinates": [-82.2953960386, 28.838483049]}, "type": "Feature", "properties": {"collection_times": [{"days": "Mon-Sat", "time": "5:00pm"}, {"days": "Sun", "time": "Closed"}], "id": "3445000024", "name": "USPS COLLECTION BOX - BLUE BOX", "address": {"city": "INVERNESS", "state": "FL", "street": "1400 HIGHWAY 41 N", "postcode": "34450"}}},
{"geometry": {"type": "Point", "coordinates": [-82.3444953012, 28.8404816671]}, "type": "Feature", "properties": {"collection_times": [{"days": "Mon-Sat", "time": "4:30pm"}, {"days": "Sun", "time": "Closed"}], "id": "3445000027", "name": "USPS COLLECTION BOX - PO LOBBY", "address": {"city": "INVERNESS", "state": "FL", "street": "1400 HIGHWAY 41 N", "postcode": "34450"}}},
{"geometry": {"type": "Point", "coordinates": [-82.3444953012, 28.8404816671]}, "type": "Feature", "properties": {"collection_times": [{"days": "Mon-Sat", "time": "4:30pm"}, {"days": "Sun", "time": "Closed"}], "id": "3445000028", "name": "USPS COLLECTION BOX - PO LOBBY", "address": {"city": "INVERNESS", "state": "FL", "street": "1400 HIGHWAY 41 N", "postcode": "34450"}}},
{"geometry": {"type": "Point", "coordinates": [-82.3444953012, 28.8404816671]}, "type": "Feature", "properties": {"collection_times": [{"days": "Mon-Sat", "time": "4:30pm"}, {"days": "Sun", "time": "Closed"}], "id": "3445000029", "name": "USPS COLLECTION BOX - PO LOBBY", "address": {"city": "INVERNESS", "state": "FL", "street": "1400 HIGHWAY 41 N", "postcode": "34450"}}},
{"geometry": {"type": "Point", "coordinates": [-82.2724936196, 28.8623677921]}, "type": "Feature", "properties": {"collection_times": [{"days": "Mon-Sat", "time": "11:00am"}, {"days": "Sun", "time": "Closed"}], "id": "3445000030", "name": "USPS COLLECTION BOX - BLUE BOX", "address": {"city": "INVERNESS", "state": "FL", "street": "9726 E PEBBLE CREEK CT", "postcode": "34450"}}},
{"geometry": {"type": "Point", "coordinates": [-82.3444953012, 28.8404816671]}, "type": "Feature", "properties": {"collection_times": [{"days": "Mon-Sat", "time": "4:30pm"}, {"days": "Sun", "time": "Closed"}], "id": "3445000035", "name": "USPS COLLECTION BOX - APC", "address": {"city": "INVERNESS", "state": "FL", "street": "1400 HIGHWAY 41 N", "postcode": "34450"}}},
{"geometry": {"type": "Point", "coordinates": [-82.3275019597, 28.8323129882]}, "type": "Feature", "properties": {"collection_times": [{"days": "Mon-Sat", "time": "9:45am"}, {"days": "Sun", "time": "Closed"}], "id": "3445200001", "name": "USPS COLLECTION BOX - BLUE BOX", "address": {"city": "INVERNESS", "state": "FL", "street": "333 E HIGHLAND BLVD", "postcode": "34452"}}},
{"geometry": {"type": "Point", "coordinates": [-82.3921960543, 28.8548027695]}, "type": "Feature", "properties": {"collection_times": [{"days": "Mon-Sat", "time": "10:25am"}, {"days": "Sun", "time": "Closed"}], "id": "3445300001", "name": "USPS COLLECTION BOX - BLUE BOX", "address": {"city": "INVERNESS", "state": "FL", "street": "2461 E GULF TO LAKE HWY", "postcode": "34453"}}},
{"geometry": {"type": "Point", "coordinates": [-82.4879530336, 28.8586154463]}, "type": "Feature", "properties": {"collection_times": [{"days": "Mon-Fri", "time": "4:00pm"}, {"days": "Sat", "time": "12:00pm"}, {"days": "Sun", "time": "Closed"}], "id": "3446100000", "name": "USPS COLLECTION BOX - BLUE BOX", "address": {"city": "LECANTO", "state": "FL", "street": "320 S LECANTO HWY", "postcode": "34461"}}},
{"geometry": {"type": "Point", "coordinates": [-82.4879530336, 28.8586154463]}, "type": "Feature", "properties": {"collection_times": [{"days": "Mon-Fri", "time": "4:00pm"}, {"days": "Sat", "time": "12:00pm"}, {"days": "Sun", "time": "Closed"}], "id": "3446100003", "name": "USPS COLLECTION BOX - BLUE BOX", "address": {"city": "LECANTO", "state": "FL", "street": "320 S LECANTO HWY", "postcode": "34461"}}},
{"geometry": {"type": "Point", "coordinates": [-82.4876738553, 28.8090187087]}, "type": "Feature", "properties": {"collection_times": [{"days": "Mon-Sat", "time": "11:00am"}, {"days": "Sun", "time": "Closed"}], "id": "3446100005", "name": "USPS COLLECTION BOX - BLUE BOX", "address": {"city": "LECANTO", "state": "FL", "street": "3800 S LECANTO HWY", "postcode": "34461"}}},
{"geometry": {"type": "Point", "coordinates": [-82.4879530336, 28.8586154463]}, "type": "Feature", "properties": {"collection_times": [{"days": "Mon-Fri", "time": "4:00pm"}, {"days": "Sat", "time": "12:00pm"}, {"days": "Sun", "time": "Closed"}], "id": "3446100006", "name": "USPS COLLECTION BOX - PO LOBBY", "address": {"city": "LECANTO", "state": "FL", "street": "320 S LECANTO HWY", "postcode": "34461"}}},
{"geometry": {"type": "Point", "coordinates": [-82.4879530336, 28.8586154463]}, "type": "Feature", "properties": {"collection_times": [{"days": "Mon-Fri", "time": "4:00pm"}, {"days": "Sat", "time": "12:00pm"}, {"days": "Sun", "time": "Closed"}], "id": "3446100007", "name": "USPS COLLECTION BOX - PO LOBBY", "address": {"city": "LECANTO", "state": "FL", "street": "320 S LECANTO HWY", "postcode": "34461"}}},
{"geometry": {"type": "Point", "coordinates": [-82.4879530336, 28.8586154463]}, "type": "Feature", "properties": {"collection_times": [{"days": "Mon-Fri", "time": "4:00pm"}, {"days": "Sat", "time": "12:00pm"}, {"days": "Sun", "time": "Closed"}], "id": "3446100008", "name": "USPS COLLECTION BOX - PO LOBBY", "address": {"city": "LECANTO", "state": "FL", "street": "320 S LECANTO HWY", "postcode": "34461"}}},
{"geometry": {"type": "Point", "coordinates": [-82.4710722092, 28.8925569049]}, "type": "Feature", "properties": {"collection_times": [{"days": "Mon-Sat", "time": "11:30am"}, {"days": "Sun", "time": "Closed"}], "id": "3446100010", "name": "USPS COLLECTION BOX - BLUE BOX", "address": {"city": "LECANTO", "state": "FL", "street": "2205 W NORVELL BRYANT HWY", "postcode": "34461"}}},
{"geometry": {"type": "Point", "coordinates": [-82.4663167141, 28.9213548579]}, "type": "Feature", "properties": {"collection_times": [{"days": "Mon-Fri", "time": "4:00pm"}, {"days": "Sat", "time": "12:00pm"}, {"days": "Sun", "time": "Closed"}], "id": "3446500000", "name": "USPS COLLECTION BOX - BLUE BOX", "address": {"city": "BEVERLY HILLS", "state": "FL", "street": "3971 N LECANTO HWY", "postcode": "34465"}}},
{"geometry": {"type": "Point", "coordinates": [-82.4663167141, 28.9213548579]}, "type": "Feature", "properties": {"collection_times": [{"days": "Mon-Fri", "time": "4:00pm"}, {"days": "Sat", "time": "12:00pm"}, {"days": "Sun", "time": "Closed"}], "id": "3446500001", "name": "USPS COLLECTION BOX - BLUE BOX", "address": {"city": "BEVERLY HILLS", "state": "FL", "street": "3971 N LECANTO HWY", "postcode": "34465"}}},
{"geometry": {"type": "Point", "coordinates": [-82.4789464508, 28.9285636566]}, "type": "Feature", "properties": {"collection_times": [{"days": "Mon-Fri", "time": "4:00pm"}, {"days": "Sat", "time": "12:00pm"}, {"days": "Sun", "time": "Closed"}], "id": "3446500003", "name": "USPS COLLECTION BOX - BLUE BOX", "address": {"city": "BEVERLY HILLS", "state": "FL", "street": "3971 N LECANTO HWY", "postcode": "34465"}}},
{"geometry": {"type": "Point", "coordinates": [-82.4710875877, 28.9161143497]}, "type": "Feature", "properties": {"collection_times": [{"days": "Mon-Sat", "time": "12:00pm"}, {"days": "Sun", "time": "Closed"}], "id": "3446500007", "name": "USPS COLLECTION BOX - BLUE BOX", "address": {"city": "BEVERLY HILLS", "state": "FL", "street": "3555 N LECANTO HWY", "postcode": "34465"}}},
{"geometry": {"type": "Point", "coordinates": [-82.4663167141, 28.9213548579]}, "type": "Feature", "properties": {"collection_times": [{"days": "Mon-Fri", "time": "4:00pm"}, {"days": "Sat", "time": "12:00pm"}, {"days": "Sun", "time": "Closed"}], "id": "3446500008", "name": "USPS COLLECTION BOX - PO LOBBY", "address": {"city": "BEVERLY HILLS", "state": "FL", "street": "3971 N LECANTO HWY", "postcode": "34465"}}},
{"geometry": {"type": "Point", "coordinates": [-82.4663167141, 28.9213548579]}, "type": "Feature", "properties": {"collection_times": [{"days": "Mon-Fri", "time": "4:00pm"}, {"days": "Sat", "time": "12:00pm"}, {"days": "Sun", "time": "Closed"}], "id": "3446500009", "name": "USPS COLLECTION BOX - PO LOBBY", "address": {"city": "BEVERLY HILLS", "state": "FL", "street": "3971 N LECANTO HWY", "postcode": "34465"}}},
{"geometry": {"type": "Point", "coordinates": [-82.0908118338, 29.1951922709]}, "type": "Feature", "properties": {"collection_times": [{"days": "Mon-Fri", "time": "3:15pm"}, {"days": "Sat-Sun", "time": "Closed"}], "id": "3447000013", "name": "USPS COLLECTION BOX - BLUE BOX", "address": {"city": "OCALA", "state": "FL", "street": "3305 E SILVER SPRINGS BLVD", "postcode": "34470"}}},
{"geometry": {"type": "Point", "coordinates": [-82.0898553772, 29.1951792605]}, "type": "Feature", "properties": {"collection_times": [{"days": "Mon-Fri", "time": "3:00pm"}, {"days": "Sat", "time": "11:00am"}, {"days": "Sun", "time": "Closed"}], "id": "3447000014", "name": "USPS COLLECTION BOX - BLUE BOX", "address": {"city": "OCALA", "state": "FL", "street": "3400 E SILVER SPRINGS BLVD", "postcode": "34470"}}},
{"geometry": {"type": "Point", "coordinates": [-82.1360423336, 29.1878834476]}, "type": "Feature", "properties": {"collection_times": [{"days": "Mon-Fri", "time": "4:15pm"}, {"days": "Sat-Sun", "time": "Closed"}], "id": "3447000017", "name": "USPS COLLECTION BOX - BLUE BOX", "address": {"city": "OCALA", "state": "FL", "street": "100 NE 1ST AVE", "postcode": "34470"}}},
{"geometry": {"type": "Point", "coordinates": [-82.1182629786, 29.1870450756]}, "type": "Feature", "properties": {"collection_times": [{"days": "Mon-Fri", "time": "3:45pm"}, {"days": "Sat", "time": "9:00am"}, {"days": "Sun", "time": "Closed"}], "id": "3447000020", "name": "USPS COLLECTION BOX - BLUE BOX", "address": {"city": "OCALA", "state": "FL", "street": "1515 E SILVER SPRINGS BLVD", "postcode": "34470"}}},
{"geometry": {"type": "Point", "coordinates": [-82.1118182772, 29.1870479854]}, "type": "Feature", "properties": {"collection_times": [{"days": "Mon-Fri", "time": "3:30pm"}, {"days": "Sat-Sun", "time": "Closed"}], "id": "3447000023", "name": "USPS COLLECTION BOX - BLUE BOX", "address": {"city": "OCALA", "state": "FL", "street": "1915 E SILVER SPRINGS BLVD", "postcode": "34470"}}},
{"geometry": {"type": "Point", "coordinates": [-82.1701653032, 29.174752949]}, "type": "Feature", "properties": {"collection_times": [{"days": "Mon-Fri", "time": "3:30pm"}, {"days": "Sat", "time": "9:00am"}, {"days": "Sun", "time": "Closed"}], "id": "3447000051", "name": "USPS COLLECTION BOX - BLUE BOX", "address": {"city": "OCALA", "state": "FL", "street": "2716 NE 14TH ST", "postcode": "34470"}}},
{"geometry": {"type": "Point", "coordinates": [-82.1182629786, 29.1870450756]}, "type": "Feature", "properties": {"collection_times": [{"days": "Mon-Fri", "time": "3:45pm"}, {"days": "Sat", "time": "9:00am"}, {"days": "Sun", "time": "Closed"}], "id": "3447000091", "name": "USPS COLLECTION BOX - BLUE BOX", "address": {"city": "OCALA", "state": "FL", "street": "1515 E SILVER SPRINGS BLVD", "postcode": "34470"}}},
{"geometry": {"type": "Point", "coordinates": [-82.1182629786, 29.1870450756]}, "type": "Feature", "properties": {"collection_times": [{"days": "Mon-Fri", "time": "3:45pm"}, {"days": "Sat", "time": "9:00am"}, {"days": "Sun", "time": "Closed"}], "id": "3447000092", "name": "USPS COLLECTION BOX - BLUE BOX", "address": {"city": "OCALA", "state": "FL", "street": "1515 E SILVER SPRINGS BLVD", "postcode": "34470"}}},
{"geometry": {"type": "Point", "coordinates": [-82.083744236, 29.1957244455]}, "type": "Feature", "properties": {"collection_times": [{"days": "Mon-Sat", "time": "9:30am"}, {"days": "Sun", "time": "Closed"}], "id": "3447000149", "name": "USPS COLLECTION BOX - BLUE BOX", "address": {"city": "OCALA", "state": "FL", "street": "3728 NE 8TH PL", "postcode": "34470"}}},
{"geometry": {"type": "Point", "coordinates": [-82.0880478407, 29.1972753047]}, "type": "Feature", "properties": {"collection_times": [{"days": "Mon-Fri", "time": "3:15pm"}, {"days": "Sat-Sun", "time": "Closed"}], "id": "3447000162", "name": "USPS COLLECTION BOX - BLUE BOX", "address": {"city": "OCALA", "state": "FL", "street": "3501 NE 10TH ST", "postcode": "34470"}}},
{"geometry": {"type": "Point", "coordinates": [-82.1001461673, 29.1886734154]}, "type": "Feature", "properties": {"collection_times": [{"days": "Mon-Fri", "time": "3:00pm"}, {"days": "Sat", "time": "9:00am"}, {"days": "Sun", "time": "Closed"}], "id": "3447000171", "name": "USPS COLLECTION BOX - BLUE BOX", "address": {"city": "OCALA", "state": "FL", "street": "2720 E SILVER SPRINGS BLVD", "postcode": "34470"}}},
{"geometry": {"type": "Point", "coordinates": [-82.1350065039, 29.1854375157]}, "type": "Feature", "properties": {"collection_times": [{"days": "Mon-Fri", "time": "4:45pm"}, {"days": "Sat-Sun", "time": "Closed"}], "id": "3447100001", "name": "USPS COLLECTION BOX - BLUE BOX", "address": {"city": "OCALA", "state": "FL", "street": "214 E FORT KING ST", "postcode": "34471"}}},
{"geometry": {"type": "Point", "coordinates": [-82.1350065039, 29.1854375157]}, "type": "Feature", "properties": {"collection_times": [{"days": "Mon-Fri", "time": "4:45pm"}, {"days": "Sat-Sun", "time": "Closed"}], "id": "3447100002", "name": "USPS COLLECTION BOX - BLUE BOX", "address": {"city": "OCALA", "state": "FL", "street": "214 E FORT KING ST", "postcode": "34471"}}},
{"geometry": {"type": "Point", "coordinates": [-82.088926253, 29.15920491]}, "type": "Feature", "properties": {"collection_times": [{"days": "Mon-Fri", "time": "3:15pm"}, {"days": "Sat-Sun", "time": "Closed"}], "id": "3447100003", "name": "USPS COLLECTION BOX - BLUE BOX", "address": {"city": "OCALA", "state": "FL", "street": "3535 SE MARICAMP RD STE 1001", "postcode": "34471"}}},
{"geometry": {"type": "Point", "coordinates": [-82.1360120949, 29.183802585]}, "type": "Feature", "properties": {"collection_times": [{"days": "Mon-Fri", "time": "4:30pm"}, {"days": "Sat-Sun", "time": "Closed"}], "id": "3447100005", "name": "USPS COLLECTION BOX - BLUE BOX", "address": {"city": "OCALA", "state": "FL", "street": "300 SE 1ST AVE", "postcode": "34471"}}},
{"geometry": {"type": "Point", "coordinates": [-82.128225118, 29.1739961544]}, "type": "Feature", "properties": {"collection_times": [{"days": "Mon-Sat", "time": "1:00pm"}, {"days": "Sun", "time": "Closed"}], "id": "3447100006", "name": "USPS COLLECTION BOX - BLUE BOX", "address": {"city": "OCALA", "state": "FL", "street": "900 SE 16TH ST", "postcode": "34471"}}},
{"geometry": {"type": "Point", "coordinates": [-82.1147767985, 29.1715577768]}, "type": "Feature", "properties": {"collection_times": [{"days": "Mon-Fri", "time": "3:15pm"}, {"days": "Sat-Sun", "time": "Closed"}], "id": "3447100007", "name": "USPS COLLECTION BOX - BLUE BOX", "address": {"city": "OCALA", "state": "FL", "street": "1700 SE 17TH AVE", "postcode": "34471"}}},
{"geometry": {"type": "Point", "coordinates": [-82.1075926887, 29.171551862]}, "type": "Feature", "properties": {"collection_times": [{"days": "Mon-Fri", "time": "3:30pm"}, {"days": "Sat-Sun", "time": "Closed"}], "id": "3447100009", "name": "USPS COLLECTION BOX - BLUE BOX", "address": {"city": "OCALA", "state": "FL", "street": "2303 SE 17TH ST", "postcode": "34471"}}},
{"geometry": {"type": "Point", "coordinates": [-82.132548391, 29.1716808045]}, "type": "Feature", "properties": {"collection_times": [{"days": "Mon-Fri", "time": "3:45pm"}, {"days": "Sat", "time": "11:00am"}, {"days": "Sun", "time": "Closed"}], "id": "3447100012", "name": "USPS COLLECTION BOX - BLUE BOX", "address": {"city": "OCALA", "state": "FL", "street": "303 SE 17TH ST", "postcode": "34471"}}},
{"geometry": {"type": "Point", "coordinates": [-82.1011944498, 29.1714743502]}, "type": "Feature", "properties": {"collection_times": [{"days": "Mon-Fri", "time": "3:30pm"}, {"days": "Sat", "time": "2:45pm"}, {"days": "Sun", "time": "Closed"}], "id": "3447100013", "name": "USPS COLLECTION BOX - BLUE BOX", "address": {"city": "OCALA", "state": "FL", "street": "2532 SE 17TH ST", "postcode": "34471"}}},
{"geometry": {"type": "Point", "coordinates": [-82.1136435238, 29.171551862]}, "type": "Feature", "properties": {"collection_times": [{"days": "Mon-Fri", "time": "4:45pm"}, {"days": "Sat", "time": "9:30am"}, {"days": "Sun", "time": "Closed"}], "id": "3447100014", "name": "USPS COLLECTION BOX - BLUE BOX", "address": {"city": "OCALA", "state": "FL", "street": "1800 SW 17TH ST", "postcode": "34471"}}},
{"geometry": {"type": "Point", "coordinates": [-82.12136, 29.163841]}, "type": "Feature", "properties": {"collection_times": [{"days": "Mon-Fri", "time": "3:00pm"}, {"days": "Sat-Sun", "time": "Closed"}], "id": "3447100015", "name": "USPS COLLECTION BOX - BLUE BOX", "address": {"city": "OCALA", "state": "FL", "street": "1309 SE 25TH LOOP", "postcode": "34471"}}},
{"geometry": {"type": "Point", "coordinates": [-82.1337965574, 29.1612171864]}, "type": "Feature", "properties": {"collection_times": [{"days": "Mon-Fri", "time": "3:00pm"}, {"days": "Sat-Sun", "time": "Closed"}], "id": "3447100016", "name": "USPS COLLECTION BOX - BLUE BOX", "address": {"city": "OCALA", "state": "FL", "street": "2800 SE 3RD CT", "postcode": "34471"}}},
{"geometry": {"type": "Point", "coordinates": [-82.10324, 29.182663]}, "type": "Feature", "properties": {"collection_times": [{"days": "Mon-Fri", "time": "3:30pm"}, {"days": "Sat", "time": "9:30am"}, {"days": "Sun", "time": "Closed"}], "id": "3447100017", "name": "USPS COLLECTION BOX - BLUE BOX", "address": {"city": "OCALA", "state": "FL", "street": "501 SE 25TH AVE", "postcode": "34471"}}},
{"geometry": {"type": "Point", "coordinates": [-82.10324, 29.182663]}, "type": "Feature", "properties": {"collection_times": [{"days": "Mon-Fri", "time": "3:30pm"}, {"days": "Sat", "time": "9:30am"}, {"days": "Sun", "time": "Closed"}], "id": "3447100018", "name": "USPS COLLECTION BOX - BLUE BOX", "address": {"city": "OCALA", "state": "FL", "street": "501 SE 25TH AVE", "postcode": "34471"}}},
{"geometry": {"type": "Point", "coordinates": [-82.1678443377, 29.1547195389]}, "type": "Feature", "properties": {"collection_times": [{"days": "Mon-Fri", "time": "4:30pm"}, {"days": "Sat-Sun", "time": "Closed"}], "id": "3447100019", "name": "USPS COLLECTION BOX - BLUE BOX", "address": {"city": "OCALA", "state": "FL", "street": "2605 SW 33RD ST", "postcode": "34471"}}},
{"geometry": {"type": "Point", "coordinates": [-82.0265162301, 29.1174646122]}, "type": "Feature", "properties": {"collection_times": [{"days": "Mon-Sat", "time": "10:00am"}, {"days": "Sun", "time": "Closed"}], "id": "3447200001", "name": "USPS COLLECTION BOX - BLUE BOX", "address": {"city": "OCALA", "state": "FL", "street": "7578 SE MARICAMP RD", "postcode": "34472"}}},
{"geometry": {"type": "Point", "coordinates": [-82.0369686708, 29.0976873845]}, "type": "Feature", "properties": {"collection_times": [{"days": "Mon-Sat", "time": "10:30am"}, {"days": "Sun", "time": "Closed"}], "id": "3447200002", "name": "USPS COLLECTION BOX - BLUE BOX", "address": {"city": "OCALA", "state": "FL", "street": "7000 SE 85TH LN", "postcode": "34472"}}},
{"geometry": {"type": "Point", "coordinates": [-82.1892416994, 29.0116607624]}, "type": "Feature", "properties": {"collection_times": [{"days": "Mon-Fri", "time": "3:15pm"}, {"days": "Sat", "time": "3:00pm"}, {"days": "Sun", "time": "Closed"}], "id": "3447300002", "name": "USPS COLLECTION BOX - BLUE BOX", "address": {"city": "OCALA", "state": "FL", "street": "289 MARION OAKS LN", "postcode": "34473"}}},
{"geometry": {"type": "Point", "coordinates": [-82.1803493969, 29.0178275275]}, "type": "Feature", "properties": {"collection_times": [{"days": "Mon-Fri", "time": "2:00pm"}, {"days": "Sat", "time": "12:45pm"}, {"days": "Sun", "time": "Closed"}], "id": "3447300003", "name": "USPS COLLECTION BOX - BLUE BOX", "address": {"city": "OCALA", "state": "FL", "street": "166 MARION OAKS BLVD", "postcode": "34473"}}},
{"geometry": {"type": "Point", "coordinates": [-82.1692958283, 29.1657482653]}, "type": "Feature", "properties": {"collection_times": [{"days": "Mon-Fri", "time": "1:00pm"}, {"days": "Sat", "time": "10:40am"}, {"days": "Sun", "time": "Closed"}], "id": "3447400001", "name": "USPS COLLECTION BOX - BLUE BOX", "address": {"city": "OCALA", "state": "FL", "street": "2701 SW COLLEGE RD", "postcode": "34474"}}},
{"geometry": {"type": "Point", "coordinates": [-82.1724744391, 29.1626418151]}, "type": "Feature", "properties": {"collection_times": [{"days": "Mon-Fri", "time": "4:00pm"}, {"days": "Sat", "time": "12:00pm"}, {"days": "Sun", "time": "Closed"}], "id": "3447400002", "name": "USPS COLLECTION BOX - BLUE BOX", "address": {"city": "OCALA", "state": "FL", "street": "3001 SW COLLEGE RD", "postcode": "34474"}}},
{"geometry": {"type": "Point", "coordinates": [-82.1747729283, 29.1603764487]}, "type": "Feature", "properties": {"collection_times": [{"days": "Mon-Fri", "time": "4:15pm"}, {"days": "Sat", "time": "12:00pm"}, {"days": "Sun", "time": "Closed"}], "id": "3447400003", "name": "USPS COLLECTION BOX - BLUE BOX", "address": {"city": "OCALA", "state": "FL", "street": "3100 SW COLLEGE RD", "postcode": "34474"}}},
{"geometry": {"type": "Point", "coordinates": [-82.1747729283, 29.1603764487]}, "type": "Feature", "properties": {"collection_times": [{"days": "Mon-Fri", "time": "4:15pm"}, {"days": "Sat", "time": "12:00pm"}, {"days": "Sun", "time": "Closed"}], "id": "3447400004", "name": "USPS COLLECTION BOX - BLUE BOX", "address": {"city": "OCALA", "state": "FL", "street": "3100 SW COLLEGE RD", "postcode": "34474"}}},
{"geometry": {"type": "Point", "coordinates": [-82.1747729283, 29.1603764487]}, "type": "Feature", "properties": {"collection_times": [{"days": "Mon-Fri", "time": "4:15pm"}, {"days": "Sat", "time": "12:00pm"}, {"days": "Sun", "time": "Closed"}], "id": "3447400005", "name": "USPS COLLECTION BOX - BLUE BOX", "address": {"city": "OCALA", "state": "FL", "street": "3100 SW COLLEGE RD", "postcode": "34474"}}},
{"geometry": {"type": "Point", "coordinates": [-82.2030196225, 29.1682289303]}, "type": "Feature", "properties": {"collection_times": [{"days": "Mon-Sat", "time": "11:30am"}, {"days": "Sun", "time": "Closed"}], "id": "3447400006", "name": "USPS COLLECTION BOX - BLUE BOX", "address": {"city": "OCALA", "state": "FL", "street": "5001 SW 20TH ST", "postcode": "34474"}}},
{"geometry": {"type": "Point", "coordinates": [-82.1780438099, 29.1524837464]}, "type": "Feature", "properties": {"collection_times": [{"days": "Mon-Fri", "time": "4:00pm"}, {"days": "Sat", "time": "10:35am"}, {"days": "Sun", "time": "Closed"}], "id": "3447400008", "name": "USPS COLLECTION BOX - BLUE BOX", "address": {"city": "OCALA", "state": "FL", "street": "3300 SW 34TH AVE", "postcode": "34474"}}},
{"geometry": {"type": "Point", "coordinates": [-82.177722045, 29.1543078692]}, "type": "Feature", "properties": {"collection_times": [{"days": "Mon-Fri", "time": "4:00pm"}, {"days": "Sat", "time": "10:35am"}, {"days": "Sun", "time": "Closed"}], "id": "3447400009", "name": "USPS COLLECTION BOX - BLUE BOX", "address": {"city": "OCALA", "state": "FL", "street": "3200 SW 34TH AVE", "postcode": "34474"}}},
{"geometry": {"type": "Point", "coordinates": [-82.1780438099, 29.1524837464]}, "type": "Feature", "properties": {"collection_times": [{"days": "Mon-Fri", "time": "1:00pm"}, {"days": "Sat-Sun", "time": "Closed"}], "id": "3447400010", "name": "USPS COLLECTION BOX - BLUE BOX", "address": {"city": "OCALA", "state": "FL", "street": "3300 SW 34TH AVE", "postcode": "34474"}}},
{"geometry": {"type": "Point", "coordinates": [-82.1518836257, 29.2609271698]}, "type": "Feature", "properties": {"collection_times": [{"days": "Mon-Sat", "time": "9:15am"}, {"days": "Sun", "time": "Closed"}], "id": "3447500001", "name": "USPS COLLECTION BOX - BLUE BOX", "address": {"city": "OCALA", "state": "FL", "street": "7131 N US HIGHWAY 441", "postcode": "34475"}}},
{"geometry": {"type": "Point", "coordinates": [-82.13694, 29.18792]}, "type": "Feature", "properties": {"collection_times": [{"days": "Mon-Fri", "time": "4:15pm"}, {"days": "Sat-Sun", "time": "Closed"}], "id": "3447500002", "name": "USPS COLLECTION BOX - BLUE BOX", "address": {"city": "OCALA", "state": "FL", "street": "108 N MAGNOLIA AVE", "postcode": "34475"}}},
{"geometry": {"type": "Point", "coordinates": [-82.1468042295, 29.2215543545]}, "type": "Feature", "properties": {"collection_times": [{"days": "Mon-Sat", "time": "9:00am"}, {"days": "Sun", "time": "Closed"}], "id": "3447500004", "name": "USPS COLLECTION BOX - BLUE BOX", "address": {"city": "OCALA", "state": "FL", "street": "3435 NW PINE AVE", "postcode": "34475"}}},
{"geometry": {"type": "Point", "coordinates": [-82.137795997, 29.1884125761]}, "type": "Feature", "properties": {"collection_times": [{"days": "Mon-Fri", "time": "4:30pm"}, {"days": "Sat-Sun", "time": "Closed"}], "id": "3447500006", "name": "USPS COLLECTION BOX - BLUE BOX", "address": {"city": "OCALA", "state": "FL", "street": "110 NW 1ST AVE", "postcode": "34475"}}},
{"geometry": {"type": "Point", "coordinates": [-82.1387165438, 29.1892657982]}, "type": "Feature", "properties": {"collection_times": [{"days": "Mon-Fri", "time": "4:15pm"}, {"days": "Sat-Sun", "time": "Closed"}], "id": "3447500008", "name": "USPS COLLECTION BOX - BLUE BOX", "address": {"city": "OCALA", "state": "FL", "street": "210 NW 3RD ST", "postcode": "34475"}}},
{"geometry": {"type": "Point", "coordinates": [-82.1890637828, 29.2085644372]}, "type": "Feature", "properties": {"collection_times": [{"days": "Mon-Sat", "time": "9:30am"}, {"days": "Sun", "time": "Closed"}], "id": "3447500009", "name": "USPS COLLECTION BOX - BLUE BOX", "address": {"city": "OCALA", "state": "FL", "street": "4037 NW BLITCHTON RD", "postcode": "34475"}}},
{"geometry": {"type": "Point", "coordinates": [-82.2208196186, 29.1147507649]}, "type": "Feature", "properties": {"collection_times": [{"days": "Mon-Fri", "time": "1:15pm"}, {"days": "Sat", "time": "11:00am"}, {"days": "Sun", "time": "Closed"}], "id": "3447600001", "name": "USPS COLLECTION BOX - BLUE BOX", "address": {"city": "OCALA", "state": "FL", "street": "6112 SW STATE RD 200", "postcode": "34476"}}},
{"geometry": {"type": "Point", "coordinates": [-82.2188346009, 29.1423682643]}, "type": "Feature", "properties": {"collection_times": [{"days": "Mon-Sat", "time": "5:00pm"}, {"days": "Sun", "time": "Closed"}], "id": "3447700001", "name": "USPS COLLECTION BOX - PO LOBBY", "address": {"city": "OCALA", "state": "FL", "street": "4545 SW 60TH AVE", "postcode": "34477"}}},
{"geometry": {"type": "Point", "coordinates": [-82.2188346009, 29.1423682643]}, "type": "Feature", "properties": {"collection_times": [{"days": "Mon-Sat", "time": "5:00pm"}, {"days": "Sun", "time": "Closed"}], "id": "3447700002", "name": "USPS COLLECTION BOX - PO LOBBY", "address": {"city": "OCALA", "state": "FL", "street": "4545 SW 60TH AVE", "postcode": "34477"}}},
{"geometry": {"type": "Point", "coordinates": [-82.2188346009, 29.1423682643]}, "type": "Feature", "properties": {"collection_times": [{"days": "Mon-Sat", "time": "5:00pm"}, {"days": "Sun", "time": "Closed"}], "id": "3447700003", "name": "USPS COLLECTION BOX - PO LOBBY", "address": {"city": "OCALA", "state": "FL", "street": "4545 SW 60TH AVE", "postcode": "34477"}}},
{"geometry": {"type": "Point", "coordinates": [-82.2188346009, 29.1423682643]}, "type": "Feature", "properties": {"collection_times": [{"days": "Mon-Sat", "time": "5:00pm"}, {"days": "Sun", "time": "Closed"}], "id": "3447700007", "name": "USPS COLLECTION BOX - APC", "address": {"city": "OCALA", "state": "FL", "street": "4545 SW 60TH AVE", "postcode": "34477"}}},
{"geometry": {"type": "Point", "coordinates": [-82.2188346009, 29.1423682643]}, "type": "Feature", "properties": {"collection_times": [{"days": "Mon-Sat", "time": "5:00pm"}, {"days": "Sun", "time": "Closed"}], "id": "3447700008", "name": "USPS COLLECTION BOX - BLUE BOX", "address": {"city": "OCALA", "state": "FL", "street": "4545 SW 60TH AVE", "postcode": "34477"}}},
{"geometry": {"type": "Point", "coordinates": [-82.1378208392, 29.1833010104]}, "type": "Feature", "properties": {"collection_times": [{"days": "Mon-Fri", "time": "5:00pm"}, {"days": "Sat", "time": "4:30pm"}, {"days": "Sun", "time": "Closed"}], "id": "3447800001", "name": "USPS COLLECTION BOX - BLUE BOX", "address": {"city": "OCALA", "state": "FL", "street": "400 SW 1ST AVE", "postcode": "34478"}}},
{"geometry": {"type": "Point", "coordinates": [-82.1378591741, 29.183241809]}, "type": "Feature", "properties": {"collection_times": [{"days": "Mon-Fri", "time": "5:00pm"}, {"days": "Sat", "time": "4:30pm"}, {"days": "Sun", "time": "Closed"}], "id": "3447800002", "name": "USPS COLLECTION BOX - BLUE BOX", "address": {"city": "OCALA", "state": "FL", "street": "400 SW 1ST AVE", "postcode": "34478"}}},
{"geometry": {"type": "Point", "coordinates": [-82.1378208392, 29.1833010104]}, "type": "Feature", "properties": {"collection_times": [{"days": "Mon-Fri", "time": "5:00pm"}, {"days": "Sat", "time": "4:30pm"}, {"days": "Sun", "time": "Closed"}], "id": "3447800003", "name": "USPS COLLECTION BOX - BLUE BOX", "address": {"city": "OCALA", "state": "FL", "street": "400 SW 1ST AVE", "postcode": "34478"}}},
{"geometry": {"type": "Point", "coordinates": [-82.1378208392, 29.1833010104]}, "type": "Feature", "properties": {"collection_times": [{"days": "Mon-Fri", "time": "5:00pm"}, {"days": "Sat", "time": "4:30pm"}, {"days": "Sun", "time": "Closed"}], "id": "3447800004", "name": "USPS COLLECTION BOX - BLUE BOX", "address": {"city": "OCALA", "state": "FL", "street": "400 SW 1ST AVE", "postcode": "34478"}}},
{"geometry": {"type": "Point", "coordinates": [-82.1378591743, 29.1832418551]}, "type": "Feature", "properties": {"collection_times": [{"days": "Mon-Fri", "time": "5:00pm"}, {"days": "Sat", "time": "4:30pm"}, {"days": "Sun", "time": "Closed"}], "id": "3447800006", "name": "USPS COLLECTION BOX - PO LOBBY", "address": {"city": "OCALA", "state": "FL", "street": "400 SW 1ST AVE", "postcode": "34478"}}},
{"geometry": {"type": "Point", "coordinates": [-82.1378591743, 29.1832418551]}, "type": "Feature", "properties": {"collection_times": [{"days": "Mon-Fri", "time": "5:00pm"}, {"days": "Sat", "time": "4:30pm"}, {"days": "Sun", "time": "Closed"}], "id": "3447800007", "name": "USPS COLLECTION BOX - PO LOBBY", "address": {"city": "OCALA", "state": "FL", "street": "400 SW 1ST AVE", "postcode": "34478"}}},
{"geometry": {"type": "Point", "coordinates": [-82.1378208392, 29.1833010104]}, "type": "Feature", "properties": {"collection_times": [{"days": "Mon-Fri", "time": "5:00pm"}, {"days": "Sat", "time": "4:30pm"}, {"days": "Sun", "time": "Closed"}], "id": "3447800008", "name": "USPS COLLECTION BOX - APC", "address": {"city": "OCALA", "state": "FL", "street": "400 SW 1ST AVE", "postcode": "34478"}}},
{"geometry": {"type": "Point", "coordinates": [-82.1378208392, 29.1833010104]}, "type": "Feature", "properties": {"collection_times": [{"days": "Mon-Fri", "time": "5:00pm"}, {"days": "Sat", "time": "4:30pm"}, {"days": "Sun", "time": "Closed"}], "id": "3447800009", "name": "USPS COLLECTION BOX - BLUE BOX", "address": {"city": "OCALA", "state": "FL", "street": "400 SW 1ST AVE", "postcode": "34478"}}},
{"geometry": {"type": "Point", "coordinates": [-82.124060857, 29.2225776465]}, "type": "Feature", "properties": {"collection_times": [{"days": "Mon-Fri", "time": "3:45pm"}, {"days": "Sat", "time": "9:00am"}, {"days": "Sun", "time": "Closed"}], "id": "3447900001", "name": "USPS COLLECTION BOX - BLUE BOX", "address": {"city": "OCALA", "state": "FL", "street": "3450 NE JACKSONVILLE RD", "postcode": "34479"}}},
{"geometry": {"type": "Point", "coordinates": [-82.1016743758, 29.2230305376]}, "type": "Feature", "properties": {"collection_times": [{"days": "Mon-Fri", "time": "3:45pm"}, {"days": "Sat", "time": "12:00pm"}, {"days": "Sun", "time": "Closed"}], "id": "3447900002", "name": "USPS COLLECTION BOX - BLUE BOX", "address": {"city": "OCALA", "state": "FL", "street": "2655 NE 35TH ST", "postcode": "34479"}}},
{"geometry": {"type": "Point", "coordinates": [-82.0535959034, 29.1692323587]}, "type": "Feature", "properties": {"collection_times": [{"days": "Mon-Sat", "time": "1:00pm"}, {"days": "Sun", "time": "Closed"}], "id": "3448000001", "name": "USPS COLLECTION BOX - BLUE BOX", "address": {"city": "OCALA", "state": "FL", "street": "1905 SE BASELINE RD", "postcode": "34480"}}},
{"geometry": {"type": "Point", "coordinates": [-82.2518772828, 29.0846590925]}, "type": "Feature", "properties": {"collection_times": [{"days": "Mon-Fri", "time": "11:00am"}, {"days": "Sat", "time": "10:00am"}, {"days": "Sun", "time": "Closed"}], "id": "3448100001", "name": "USPS COLLECTION BOX - BLUE BOX", "address": {"city": "OCALA", "state": "FL", "street": "8075 SW HIGHWAY 200", "postcode": "34481"}}},
{"geometry": {"type": "Point", "coordinates": [-82.2767723821, 29.0602626314]}, "type": "Feature", "properties": {"collection_times": [{"days": "Mon-Sat", "time": "11:15am"}, {"days": "Sun", "time": "Closed"}], "id": "3448100003", "name": "USPS COLLECTION BOX - BLUE BOX", "address": {"city": "OCALA", "state": "FL", "street": "9401 SW HIGHWAY 200", "postcode": "34481"}}},
{"geometry": {"type": "Point", "coordinates": [-82.2663339522, 29.078293292]}, "type": "Feature", "properties": {"collection_times": [{"days": "Mon-Sat", "time": "1:15pm"}, {"days": "Sun", "time": "Closed"}], "id": "3448100006", "name": "USPS COLLECTION BOX - BLUE BOX", "address": {"city": "OCALA", "state": "FL", "street": "9920 SW 89TH COURT RD UNIT A", "postcode": "34481"}}},
{"geometry": {"type": "Point", "coordinates": [-82.2591179784, 29.077569934]}, "type": "Feature", "properties": {"collection_times": [{"days": "Mon-Fri", "time": "3:00pm"}, {"days": "Sat", "time": "12:00pm"}, {"days": "Sun", "time": "Closed"}], "id": "3448100007", "name": "USPS COLLECTION BOX - BLUE BOX", "address": {"city": "OCALA", "state": "FL", "street": "8441 STATE ROAD 200", "postcode": "34481"}}},
{"geometry": {"type": "Point", "coordinates": [-82.1325050882, 29.1609589735]}, "type": "Feature", "properties": {"collection_times": [{"days": "Mon-Sat", "time": "12:15pm"}, {"days": "Sun", "time": "Closed"}], "id": "3448200003", "name": "USPS COLLECTION BOX - BLUE BOX", "address": {"city": "OCALA", "state": "FL", "street": "2765 NW 49TH AVE", "postcode": "34482"}}},
{"geometry": {"type": "Point", "coordinates": [-82.233707944, 29.2279790046]}, "type": "Feature", "properties": {"collection_times": [{"days": "Mon-Fri", "time": "4:30pm"}, {"days": "Sat", "time": "12:00pm"}, {"days": "Sun", "time": "Closed"}], "id": "3448200004", "name": "USPS COLLECTION BOX - BLUE BOX", "address": {"city": "OCALA", "state": "FL", "street": "6998 N US HIGHWAY 27", "postcode": "34482"}}},
{"geometry": {"type": "Point", "coordinates": [-82.0438063584, 29.1338911804]}, "type": "Feature", "properties": {"collection_times": [{"days": "Mon-Fri", "time": "5:00pm"}, {"days": "Sat", "time": "2:00pm"}, {"days": "Sun", "time": "Closed"}], "id": "3448300001", "name": "USPS COLLECTION BOX - PO LOBBY", "address": {"city": "OCALA", "state": "FL", "street": "6530 SE MARICAMP RD", "postcode": "34483"}}},
{"geometry": {"type": "Point", "coordinates": [-82.0438063584, 29.1338911804]}, "type": "Feature", "properties": {"collection_times": [{"days": "Mon-Fri", "time": "5:00pm"}, {"days": "Sat", "time": "2:00pm"}, {"days": "Sun", "time": "Closed"}], "id": "3448300002", "name": "USPS COLLECTION BOX - PO LOBBY", "address": {"city": "OCALA", "state": "FL", "street": "6530 SE MARICAMP RD", "postcode": "34483"}}},
{"geometry": {"type": "Point", "coordinates": [-82.0438063584, 29.1338911804]}, "type": "Feature", "properties": {"collection_times": [{"days": "Mon-Fri", "time": "5:00pm"}, {"days": "Sat", "time": "2:00pm"}, {"days": "Sun", "time": "Closed"}], "id": "3448300003", "name": "USPS COLLECTION BOX - PO LOBBY", "address": {"city": "OCALA", "state": "FL", "street": "6530 SE MARICAMP RD", "postcode": "34483"}}},
{"geometry": {"type": "Point", "coordinates": [-82.0438063584, 29.1338911804]}, "type": "Feature", "properties": {"collection_times": [{"days": "Mon-Fri", "time": "5:00pm"}, {"days": "Sat", "time": "2:00pm"}, {"days": "Sun", "time": "Closed"}], "id": "3448300007", "name": "USPS COLLECTION BOX - BLUE BOX", "address": {"city": "OCALA", "state": "FL", "street": "6530 SE MARICAMP RD", "postcode": "34483"}}},
{"geometry": {"type": "Point", "coordinates": [-82.0374503199, 28.9310775977]}, "type": "Feature", "properties": {"collection_times": [{"days": "Mon-Fri", "time": "4:00pm"}, {"days": "Sat", "time": "11:30am"}, {"days": "Sun", "time": "Closed"}], "id": "3448400000", "name": "USPS COLLECTION BOX - BLUE BOX", "address": {"city": "OXFORD", "state": "FL", "street": "3974 COUNTY ROAD 201", "postcode": "34484"}}},
{"geometry": {"type": "Point", "coordinates": [-82.0374503199, 28.9310775977]}, "type": "Feature", "properties": {"collection_times": [{"days": "Mon-Fri", "time": "4:00pm"}, {"days": "Sat", "time": "11:30am"}, {"days": "Sun", "time": "Closed"}], "id": "3448400001", "name": "USPS COLLECTION BOX - PO LOBBY", "address": {"city": "OXFORD", "state": "FL", "street": "3974 COUNTY ROAD 201", "postcode": "34484"}}},
{"geometry": {"type": "Point", "coordinates": [-82.0374503199, 28.9310775977]}, "type": "Feature", "properties": {"collection_times": [{"days": "Mon-Fri", "time": "4:00pm"}, {"days": "Sat", "time": "11:30am"}, {"days": "Sun", "time": "Closed"}], "id": "3448400002", "name": "USPS COLLECTION BOX - PO LOBBY", "address": {"city": "OXFORD", "state": "FL", "street": "3974 COUNTY ROAD 201", "postcode": "34484"}}},
{"geometry": {"type": "Point", "coordinates": [-82.6126972394, 28.7822424325]}, "type": "Feature", "properties": {"collection_times": [{"days": "Mon-Fri", "time": "3:30pm"}, {"days": "Sat", "time": "11:45am"}, {"days": "Sun", "time": "Closed"}], "id": "3448700000", "name": "USPS COLLECTION BOX - BLUE BOX", "address": {"city": "HOMOSASSA", "state": "FL", "street": "10780 W YULEE DR", "postcode": "34487"}}},
{"geometry": {"type": "Point", "coordinates": [-82.6126972394, 28.7822424325]}, "type": "Feature", "properties": {"collection_times": [{"days": "Mon-Fri", "time": "3:30pm"}, {"days": "Sat", "time": "11:45am"}, {"days": "Sun", "time": "Closed"}], "id": "3448700001", "name": "USPS COLLECTION BOX - PO LOBBY", "address": {"city": "HOMOSASSA", "state": "FL", "street": "10780 W YULEE DR", "postcode": "34487"}}},
{"geometry": {"type": "Point", "coordinates": [-82.0579060463, 29.2183923052]}, "type": "Feature", "properties": {"collection_times": [{"days": "Mon-Fri", "time": "4:45pm"}, {"days": "Sat", "time": "12:45pm"}, {"days": "Sun", "time": "Closed"}], "id": "3448800000", "name": "USPS COLLECTION BOX - BLUE BOX", "address": {"city": "SILVER SPRINGS", "state": "FL", "street": "3050 NE 55TH AVE", "postcode": "34488"}}},
{"geometry": {"type": "Point", "coordinates": [-81.8883288786, 29.1817998355]}, "type": "Feature", "properties": {"collection_times": [{"days": "Mon-Sat", "time": "11:00am"}, {"days": "Sun", "time": "Closed"}], "id": "3448800001", "name": "USPS COLLECTION BOX - BLUE BOX", "address": {"city": "SILVER SPRINGS", "state": "FL", "street": "15997 E HIGHWAY 40", "postcode": "34488"}}},
{"geometry": {"type": "Point", "coordinates": [-82.0579060463, 29.2183923052]}, "type": "Feature", "properties": {"collection_times": [{"days": "Mon-Fri", "time": "4:45pm"}, {"days": "Sat", "time": "12:45pm"}, {"days": "Sun", "time": "Closed"}], "id": "3448800002", "name": "USPS COLLECTION BOX - PO LOBBY", "address": {"city": "SILVER SPRINGS", "state": "FL", "street": "3050 NE 55TH AVE", "postcode": "34488"}}},
{"geometry": {"type": "Point", "coordinates": [-81.9875720381, 29.1857272593]}, "type": "Feature", "properties": {"collection_times": [{"days": "Mon-Sat", "time": "9:00am"}, {"days": "Sun", "time": "Closed"}], "id": "3448800005", "name": "USPS COLLECTION BOX - BLUE BOX", "address": {"city": "SILVER SPRINGS", "state": "FL", "street": "9901 SE CR 314", "postcode": "34488"}}},
{"geometry": {"type": "Point", "coordinates": [-81.8895189466, 29.1825375016]}, "type": "Feature", "properties": {"collection_times": [{"days": "Mon-Sat", "time": "9:30am"}, {"days": "Sun", "time": "Closed"}], "id": "3448800009", "name": "USPS COLLECTION BOX - BLUE BOX", "address": {"city": "SILVER SPRINGS", "state": "FL", "street": "15936 E HIGHWAY 40", "postcode": "34488"}}},
{"geometry": {"type": "Point", "coordinates": [-82.0414132475, 29.0105788048]}, "type": "Feature", "properties": {"collection_times": [{"days": "Mon-Fri", "time": "4:30pm"}, {"days": "Sat", "time": "12:00pm"}, {"days": "Sun", "time": "Closed"}], "id": "3449100000", "name": "USPS COLLECTION BOX - BLUE BOX", "address": {"city": "SUMMERFIELD", "state": "FL", "street": "14560 S US HIGHWAY 301", "postcode": "34491"}}},
{"geometry": {"type": "Point", "coordinates": [-81.9697980796, 28.9629500611]}, "type": "Feature", "properties": {"collection_times": [{"days": "Mon-Sat", "time": "10:00am"}, {"days": "Sun", "time": "Closed"}], "id": "3449100001", "name": "USPS COLLECTION BOX - BLUE BOX", "address": {"city": "SUMMERFIELD", "state": "FL", "street": "17820 SE 109TH AVE", "postcode": "34491"}}},
{"geometry": {"type": "Point", "coordinates": [-82.0414132475, 29.0105788048]}, "type": "Feature", "properties": {"collection_times": [{"days": "Mon-Fri", "time": "4:30pm"}, {"days": "Sat", "time": "12:00pm"}, {"days": "Sun", "time": "Closed"}], "id": "3449100002", "name": "USPS COLLECTION BOX - PO LOBBY", "address": {"city": "SUMMERFIELD", "state": "FL", "street": "14560 S US HIGHWAY 301", "postcode": "34491"}}},
{"geometry": {"type": "Point", "coordinates": [-81.9668235608, 28.9617877346]}, "type": "Feature", "properties": {"collection_times": [{"days": "Mon-Sat", "time": "10:15am"}, {"days": "Sun", "time": "Closed"}], "id": "3449100003", "name": "USPS COLLECTION BOX - BLUE BOX", "address": {"city": "SUMMERFIELD", "state": "FL", "street": "17861 S US HIGHWAY 441", "postcode": "34491"}}},
{"geometry": {"type": "Point", "coordinates": [-82.0414132475, 29.0105788048]}, "type": "Feature", "properties": {"collection_times": [{"days": "Mon-Fri", "time": "4:30pm"}, {"days": "Sat", "time": "12:00pm"}, {"days": "Sun", "time": "Closed"}], "id": "3449100005", "name": "USPS COLLECTION BOX - PO LOBBY", "address": {"city": "SUMMERFIELD", "state": "FL", "street": "14560 S US HIGHWAY 301", "postcode": "34491"}}},
{"geometry": {"type": "Point", "coordinates": [-82.0414132475, 29.0105788048]}, "type": "Feature", "properties": {"collection_times": [{"days": "Mon-Fri", "time": "4:30pm"}, {"days": "Sat", "time": "12:00pm"}, {"days": "Sun", "time": "Closed"}], "id": "3449100006", "name": "USPS COLLECTION BOX - PO LOBBY", "address": {"city": "SUMMERFIELD", "state": "FL", "street": "14560 S US HIGHWAY 301", "postcode": "34491"}}},
{"geometry": {"type": "Point", "coordinates": [-82.0001516237, 29.0247265441]}, "type": "Feature", "properties": {"collection_times": [{"days": "Mon-Sat", "time": "11:00am"}, {"days": "Sun", "time": "Closed"}], "id": "3449100007", "name": "USPS COLLECTION BOX - BLUE BOX", "address": {"city": "SUMMERFIELD", "state": "FL", "street": "13601 DEL WEBB BLVD", "postcode": "34491"}}},
{"geometry": {"type": "Point", "coordinates": [-81.9731919889, 28.9697532581]}, "type": "Feature", "properties": {"collection_times": [{"days": "Mon-Sat", "time": "10:00am"}, {"days": "Sun", "time": "Closed"}], "id": "3449100008", "name": "USPS COLLECTION BOX - BLUE BOX", "address": {"city": "SUMMERFIELD", "state": "FL", "street": "17350 SE 109TH TERRACE RD", "postcode": "34491"}}},
{"geometry": {"type": "Point", "coordinates": [-82.70951595, 29.0343323299]}, "type": "Feature", "properties": {"collection_times": [{"days": "Mon-Fri", "time": "1:00pm"}, {"days": "Sat", "time": "9:30am"}, {"days": "Sun", "time": "Closed"}], "id": "3449800000", "name": "USPS COLLECTION BOX - BLUE BOX", "address": {"city": "YANKEETOWN", "state": "FL", "street": "17 56TH ST", "postcode": "34498"}}},
{"geometry": {"type": "Point", "coordinates": [-82.70951595, 29.0343323299]}, "type": "Feature", "properties": {"collection_times": [{"days": "Mon-Fri", "time": "12:45pm"}, {"days": "Sat", "time": "9:30am"}, {"days": "Sun", "time": "Closed"}], "id": "3449800003", "name": "USPS COLLECTION BOX - PO LOBBY", "address": {"city": "YANKEETOWN", "state": "FL", "street": "17 56TH ST", "postcode": "34498"}}}
]}
