{"type": "FeatureCollection", "features": [
{"geometry": {"type": "Point", "coordinates": [-82.4050808433, 28.5386841942]}, "type": "Feature", "properties": {"collection_times": [{"days": "Mon-Sat", "time": "11:00am"}, {"days": "Sun", "time": "Closed"}], "id": "3460100001", "name": "USPS COLLECTION BOX - BLUE BOX", "address": {"city": "BROOKSVILLE", "state": "FL", "street": "19514 CORTEZ BLVD", "postcode": "34601"}}},
{"geometry": {"type": "Point", "coordinates": [-82.4028663441, 28.542178655]}, "type": "Feature", "properties": {"collection_times": [{"days": "Mon-Sat", "time": "10:30am"}, {"days": "Sun", "time": "Closed"}], "id": "3460100003", "name": "USPS COLLECTION BOX - BLUE BOX", "address": {"city": "BROOKSVILLE", "state": "FL", "street": "1234 S BROAD ST", "postcode": "34601"}}},
{"geometry": {"type": "Point", "coordinates": [-82.3882331417, 28.5556194347]}, "type": "Feature", "properties": {"collection_times": [{"days": "Mon-Fri", "time": "3:30pm"}, {"days": "Sat-Sun", "time": "Closed"}], "id": "3460100007", "name": "USPS COLLECTION BOX - BLUE BOX", "address": {"city": "BROOKSVILLE", "state": "FL", "street": "10 W JEFFERSON ST", "postcode": "34601"}}},
{"geometry": {"type": "Point", "coordinates": [-82.3882497032, 28.554889549]}, "type": "Feature", "properties": {"collection_times": [{"days": "Mon-Fri", "time": "3:30pm"}, {"days": "Sat-Sun", "time": "Closed"}], "id": "3460100008", "name": "USPS COLLECTION BOX - BLUE BOX", "address": {"city": "BROOKSVILLE", "state": "FL", "street": "10 S BROAD ST", "postcode": "34601"}}},
{"geometry": {"type": "Point", "coordinates": [-82.3878167402, 28.5564250298]}, "type": "Feature", "properties": {"collection_times": [{"days": "Mon-Fri", "time": "3:30pm"}, {"days": "Sat-Sun", "time": "Closed"}], "id": "3460100009", "name": "USPS COLLECTION BOX - BLUE BOX", "address": {"city": "BROOKSVILLE", "state": "FL", "street": "201 HOWELL AVE", "postcode": "34601"}}},
{"geometry": {"type": "Point", "coordinates": [-82.4162113042, 28.5437590881]}, "type": "Feature", "properties": {"collection_times": [{"days": "Mon-Sat", "time": "5:00pm"}, {"days": "Sun", "time": "Closed"}], "id": "3460100013", "name": "USPS COLLECTION BOX - BLUE BOX", "address": {"city": "BROOKSVILLE", "state": "FL", "street": "19101 CORTEZ BLVD", "postcode": "34601"}}},
{"geometry": {"type": "Point", "coordinates": [-82.4162113042, 28.5437590881]}, "type": "Feature", "properties": {"collection_times": [{"days": "Mon-Sat", "time": "5:00pm"}, {"days": "Sun", "time": "Closed"}], "id": "3460100014", "name": "USPS COLLECTION BOX - BLUE BOX", "address": {"city": "BROOKSVILLE", "state": "FL", "street": "19101 CORTEZ BLVD", "postcode": "34601"}}},
{"geometry": {"type": "Point", "coordinates": [-82.3855750329, 28.5563540522]}, "type": "Feature", "properties": {"collection_times": [{"days": "Mon-Sat", "time": "5:00pm"}, {"days": "Sun", "time": "Closed"}], "id": "3460100017", "name": "USPS COLLECTION BOX - BLUE BOX", "address": {"city": "BROOKSVILLE", "state": "FL", "street": "207 E FORT DADE AVE", "postcode": "34601"}}},
{"geometry": {"type": "Point", "coordinates": [-82.3875908131, 28.5542250594]}, "type": "Feature", "properties": {"collection_times": [{"days": "Mon-Fri", "time": "4:00pm"}, {"days": "Sat-Sun", "time": "Closed"}], "id": "3460100021", "name": "USPS COLLECTION BOX - BLUE BOX", "address": {"city": "BROOKSVILLE", "state": "FL", "street": "31 E LIBERTY ST", "postcode": "34601"}}},
{"geometry": {"type": "Point", "coordinates": [-82.3855750329, 28.5563540522]}, "type": "Feature", "properties": {"collection_times": [{"days": "Mon-Sat", "time": "5:00pm"}, {"days": "Sun", "time": "Closed"}], "id": "3460100022", "name": "USPS COLLECTION BOX - BLUE BOX", "address": {"city": "BROOKSVILLE", "state": "FL", "street": "207 E FORT DADE AVE", "postcode": "34601"}}},
{"geometry": {"type": "Point", "coordinates": [-82.4162113042, 28.5437590881]}, "type": "Feature", "properties": {"collection_times": [{"days": "Mon-Sat", "time": "5:00pm"}, {"days": "Sun", "time": "Closed"}], "id": "3460100030", "name": "USPS COLLECTION BOX - APC", "address": {"city": "BROOKSVILLE", "state": "FL", "street": "19101 CORTEZ BLVD", "postcode": "34601"}}},
{"geometry": {"type": "Point", "coordinates": [-82.229211517, 28.5218234801]}, "type": "Feature", "properties": {"collection_times": [{"days": "Mon-Sat", "time": "12:00pm"}, {"days": "Sun", "time": "Closed"}], "id": "3460200001", "name": "USPS COLLECTION BOX - BLUE BOX", "address": {"city": "BROOKSVILLE", "state": "FL", "street": "31138 CORTEZ BLVD", "postcode": "34602"}}},
{"geometry": {"type": "Point", "coordinates": [-82.5996361895, 28.4930125145]}, "type": "Feature", "properties": {"collection_times": [{"days": "Mon-Sat", "time": "1:00pm"}, {"days": "Sun", "time": "Closed"}], "id": "3460600001", "name": "USPS COLLECTION BOX - BLUE BOX", "address": {"city": "BROOKSVILLE", "state": "FL", "street": "4343 COMMERCIAL WAY", "postcode": "34606"}}},
{"geometry": {"type": "Point", "coordinates": [-82.6281928189, 28.456242601]}, "type": "Feature", "properties": {"collection_times": [{"days": "Mon-Sat", "time": "11:00am"}, {"days": "Sun", "time": "Closed"}], "id": "3460600003", "name": "USPS COLLECTION BOX - BLUE BOX", "address": {"city": "BROOKSVILLE", "state": "FL", "street": "1400 PINEHURST DR", "postcode": "34606"}}},
{"geometry": {"type": "Point", "coordinates": [-82.6020565235, 28.4877566278]}, "type": "Feature", "properties": {"collection_times": [{"days": "Mon-Sat", "time": "12:00pm"}, {"days": "Sun", "time": "Closed"}], "id": "3460600005", "name": "USPS COLLECTION BOX - BLUE BOX", "address": {"city": "BROOKSVILLE", "state": "FL", "street": "4066 COMMERCIAL WAY", "postcode": "34606"}}},
{"geometry": {"type": "Point", "coordinates": [-82.5957608159, 28.4510068246]}, "type": "Feature", "properties": {"collection_times": [{"days": "Mon-Sat", "time": "1:00pm"}, {"days": "Sun", "time": "Closed"}], "id": "3460600009", "name": "USPS COLLECTION BOX - BLUE BOX", "address": {"city": "BROOKSVILLE", "state": "FL", "street": "7331 SPRING HILL DR", "postcode": "34606"}}},
{"geometry": {"type": "Point", "coordinates": [-82.5957608159, 28.4510068246]}, "type": "Feature", "properties": {"collection_times": [{"days": "Mon-Sat", "time": "1:00pm"}, {"days": "Sun", "time": "Closed"}], "id": "3460600010", "name": "USPS COLLECTION BOX - BLUE BOX", "address": {"city": "BROOKSVILLE", "state": "FL", "street": "7331 SPRING HILL DR", "postcode": "34606"}}},
{"geometry": {"type": "Point", "coordinates": [-82.5771859943, 28.4852629503]}, "type": "Feature", "properties": {"collection_times": [{"days": "Mon-Fri", "time": "5:00pm"}, {"days": "Sat", "time": "4:05pm"}, {"days": "Sun", "time": "Closed"}], "id": "3460600013", "name": "USPS COLLECTION BOX - BLUE BOX", "address": {"city": "BROOKSVILLE", "state": "FL", "street": "8501 PHILATELIC DR", "postcode": "34606"}}},
{"geometry": {"type": "Point", "coordinates": [-82.5771859943, 28.4852629503]}, "type": "Feature", "properties": {"collection_times": [{"days": "Mon-Fri", "time": "5:00pm"}, {"days": "Sat", "time": "4:05pm"}, {"days": "Sun", "time": "Closed"}], "id": "3460600015", "name": "USPS COLLECTION BOX - BLUE BOX", "address": {"city": "BROOKSVILLE", "state": "FL", "street": "8501 PHILATELIC DR", "postcode": "34606"}}},
{"geometry": {"type": "Point", "coordinates": [-82.6202882871, 28.4658730699]}, "type": "Feature", "properties": {"collection_times": [{"days": "Mon-Fri", "time": "12:00pm"}, {"days": "Sat", "time": "11:00am"}, {"days": "Sun", "time": "Closed"}], "id": "3460600016", "name": "USPS COLLECTION BOX - BLUE BOX", "address": {"city": "BROOKSVILLE", "state": "FL", "street": "2240 COMMERCIAL WAY", "postcode": "34606"}}},
{"geometry": {"type": "Point", "coordinates": [-82.585034927, 28.5062510082]}, "type": "Feature", "properties": {"collection_times": [{"days": "Mon-Sat", "time": "1:00pm"}, {"days": "Sun", "time": "Closed"}], "id": "3460600018", "name": "USPS COLLECTION BOX - BLUE BOX", "address": {"city": "BROOKSVILLE", "state": "FL", "street": "5327 COMMERCIAL WAY", "postcode": "34606"}}},
{"geometry": {"type": "Point", "coordinates": [-82.5825466834, 28.5087566989]}, "type": "Feature", "properties": {"collection_times": [{"days": "Mon-Sat", "time": "1:00pm"}, {"days": "Sun", "time": "Closed"}], "id": "3460600019", "name": "USPS COLLECTION BOX - BLUE BOX", "address": {"city": "BROOKSVILLE", "state": "FL", "street": "5433 COMMERCIAL WAY", "postcode": "34606"}}},
{"geometry": {"type": "Point", "coordinates": [-82.5786469486, 28.5090711824]}, "type": "Feature", "properties": {"collection_times": [{"days": "Mon-Sat", "time": "12:00pm"}, {"days": "Sun", "time": "Closed"}], "id": "3460600020", "name": "USPS COLLECTION BOX - BLUE BOX", "address": {"city": "BROOKSVILLE", "state": "FL", "street": "8417 NORTHCLIFFE BLVD", "postcode": "34606"}}},
{"geometry": {"type": "Point", "coordinates": [-82.614584059, 28.4727259512]}, "type": "Feature", "properties": {"collection_times": [{"days": "Mon-Sat", "time": "12:00pm"}, {"days": "Sun", "time": "Closed"}], "id": "3460600021", "name": "USPS COLLECTION BOX - BLUE BOX", "address": {"city": "BROOKSVILLE", "state": "FL", "street": "2703 FOREST RD", "postcode": "34606"}}},
{"geometry": {"type": "Point", "coordinates": [-82.5771859943, 28.4852629503]}, "type": "Feature", "properties": {"collection_times": [{"days": "Mon-Fri", "time": "5:00pm"}, {"days": "Sat", "time": "4:05pm"}, {"days": "Sun", "time": "Closed"}], "id": "3460600023", "name": "USPS COLLECTION BOX - APC", "address": {"city": "BROOKSVILLE", "state": "FL", "street": "8501 PHILATELIC DR", "postcode": "34606"}}},
{"geometry": {"type": "Point", "coordinates": [-82.5418415463, 28.4611779058]}, "type": "Feature", "properties": {"collection_times": [{"days": "Mon-Sat", "time": "11:00am"}, {"days": "Sun", "time": "Closed"}], "id": "3460800001", "name": "USPS COLLECTION BOX - BLUE BOX", "address": {"city": "BROOKSVILLE", "state": "FL", "street": "11072 SPRING HILL DR", "postcode": "34608"}}},
{"geometry": {"type": "Point", "coordinates": [-82.5381471655, 28.4618202525]}, "type": "Feature", "properties": {"collection_times": [{"days": "Mon-Sat", "time": "1:00pm"}, {"days": "Sun", "time": "Closed"}], "id": "3460900002", "name": "USPS COLLECTION BOX - BLUE BOX", "address": {"city": "MASARYKTOWN", "state": "FL", "street": "11186 SPRING HILL DR", "postcode": "34609"}}},
{"geometry": {"type": "Point", "coordinates": [-82.5479077599, 28.4363310357]}, "type": "Feature", "properties": {"collection_times": [{"days": "Mon-Sat", "time": "1:00pm"}, {"days": "Sun", "time": "Closed"}], "id": "3460900003", "name": "USPS COLLECTION BOX - BLUE BOX", "address": {"city": "MASARYKTOWN", "state": "FL", "street": "160 MARINER BLVD", "postcode": "34609"}}},
{"geometry": {"type": "Point", "coordinates": [-82.508140217, 28.478820674]}, "type": "Feature", "properties": {"collection_times": [{"days": "Mon-Sat", "time": "1:00pm"}, {"days": "Sun", "time": "Closed"}], "id": "3460900004", "name": "USPS COLLECTION BOX - BLUE BOX", "address": {"city": "MASARYKTOWN", "state": "FL", "street": "379 BROAD ST", "postcode": "34609"}}},
{"geometry": {"type": "Point", "coordinates": [-82.5091776703, 28.4797072831]}, "type": "Feature", "properties": {"collection_times": [{"days": "Mon-Sat", "time": "4:45pm"}, {"days": "Sun", "time": "Closed"}], "id": "3460900007", "name": "USPS COLLECTION BOX - BLUE BOX", "address": {"city": "MASARYKTOWN", "state": "FL", "street": "16150 AVIATION LOOP DR", "postcode": "34609"}}},
{"geometry": {"type": "Point", "coordinates": [-82.5409886329, 28.4923323131]}, "type": "Feature", "properties": {"collection_times": [{"days": "Mon-Sat", "time": "1:00pm"}, {"days": "Sun", "time": "Closed"}], "id": "3460900008", "name": "USPS COLLECTION BOX - BLUE BOX", "address": {"city": "MASARYKTOWN", "state": "FL", "street": "4221 MARINER BLVD", "postcode": "34609"}}},
{"geometry": {"type": "Point", "coordinates": [-82.5411648938, 28.4921513203]}, "type": "Feature", "properties": {"collection_times": [{"days": "Mon-Sat", "time": "1:00pm"}, {"days": "Sun", "time": "Closed"}], "id": "3460900010", "name": "USPS COLLECTION BOX - BLUE BOX", "address": {"city": "MASARYKTOWN", "state": "FL", "street": "4158 MARINER BLVD", "postcode": "34609"}}},
{"geometry": {"type": "Point", "coordinates": [-82.5091776703, 28.4797072831]}, "type": "Feature", "properties": {"collection_times": [{"days": "Mon-Sat", "time": "4:45pm"}, {"days": "Sun", "time": "Closed"}], "id": "3460900011", "name": "USPS COLLECTION BOX - APC", "address": {"city": "MASARYKTOWN", "state": "FL", "street": "16150 AVIATION LOOP DR", "postcode": "34609"}}},
{"geometry": {"type": "Point", "coordinates": [-82.5511939312, 28.4050544398]}, "type": "Feature", "properties": {"collection_times": [{"days": "Mon-Fri", "time": "2:45pm"}, {"days": "Sat", "time": "1:00pm"}, {"days": "Sun", "time": "Closed"}], "id": "3461000001", "name": "USPS COLLECTION BOX - BLUE BOX", "address": {"city": "BROOKSVILLE", "state": "FL", "street": "17030 SHADY HILLS RD", "postcode": "34610"}}},
{"geometry": {"type": "Point", "coordinates": [-82.5703851632, 28.5210959603]}, "type": "Feature", "properties": {"collection_times": [{"days": "Mon-Sat", "time": "1:35pm"}, {"days": "Sun", "time": "Closed"}], "id": "3461300001", "name": "USPS COLLECTION BOX - BLUE BOX", "address": {"city": "WEEKI WACHEE", "state": "FL", "street": "6254 COMMERCIAL WAY", "postcode": "34613"}}},
{"geometry": {"type": "Point", "coordinates": [-82.5279356259, 28.5345348841]}, "type": "Feature", "properties": {"collection_times": [{"days": "Mon-Sat", "time": "11:00am"}, {"days": "Sun", "time": "Closed"}], "id": "3461300003", "name": "USPS COLLECTION BOX - BLUE BOX", "address": {"city": "WEEKI WACHEE", "state": "FL", "street": "7251 HIGHPOINT BLVD", "postcode": "34613"}}},
{"geometry": {"type": "Point", "coordinates": [-82.5128330266, 28.5337193154]}, "type": "Feature", "properties": {"collection_times": [{"days": "Mon-Sat", "time": "11:00am"}, {"days": "Sun", "time": "Closed"}], "id": "3461300004", "name": "USPS COLLECTION BOX - BLUE BOX", "address": {"city": "WEEKI WACHEE", "state": "FL", "street": "13017 CORTEZ BLVD", "postcode": "34613"}}},
{"geometry": {"type": "Point", "coordinates": [-82.5056962351, 28.5335809092]}, "type": "Feature", "properties": {"collection_times": [{"days": "Mon-Sat", "time": "11:00am"}, {"days": "Sun", "time": "Closed"}], "id": "3461300011", "name": "USPS COLLECTION BOX - BLUE BOX", "address": {"city": "WEEKI WACHEE", "state": "FL", "street": "13300 CORTEZ BLVD", "postcode": "34613"}}},
{"geometry": {"type": "Point", "coordinates": [-82.5236807603, 28.5334164779]}, "type": "Feature", "properties": {"collection_times": [{"days": "Mon-Sat", "time": "11:00am"}, {"days": "Sun", "time": "Closed"}], "id": "3461300013", "name": "USPS COLLECTION BOX - BLUE BOX", "address": {"city": "WEEKI WACHEE", "state": "FL", "street": "12190 CORTEZ BLVD", "postcode": "34613"}}},
{"geometry": {"type": "Point", "coordinates": [-82.5703851632, 28.5210959603]}, "type": "Feature", "properties": {"collection_times": [{"days": "Mon-Sat", "time": "1:35pm"}, {"days": "Sun", "time": "Closed"}], "id": "3461300014", "name": "USPS COLLECTION BOX - BLUE BOX", "address": {"city": "WEEKI WACHEE", "state": "FL", "street": "6254 COMMERCIAL WAY", "postcode": "34613"}}},
{"geometry": {"type": "Point", "coordinates": [-82.4912747824, 28.5360840504]}, "type": "Feature", "properties": {"collection_times": [{"days": "Mon-Sat", "time": "11:00am"}, {"days": "Sun", "time": "Closed"}], "id": "3461300016", "name": "USPS COLLECTION BOX - BLUE BOX", "address": {"city": "WEEKI WACHEE", "state": "FL", "street": "7300 BROOKRIDGE CENTRAL BLVD", "postcode": "34613"}}},
{"geometry": {"type": "Point", "coordinates": [-82.554333593, 28.5589388176]}, "type": "Feature", "properties": {"collection_times": [{"days": "Mon-Sat", "time": "10:00am"}, {"days": "Sun", "time": "Closed"}], "id": "3461300017", "name": "USPS COLLECTION BOX - BLUE BOX", "address": {"city": "WEEKI WACHEE", "state": "FL", "street": "10246 WOODLAND WATERS BLVD", "postcode": "34613"}}},
{"geometry": {"type": "Point", "coordinates": [-82.2784819662, 28.6590870741]}, "type": "Feature", "properties": {"collection_times": [{"days": "Mon-Fri", "time": "4:00pm"}, {"days": "Sat", "time": "9:20am"}, {"days": "Sun", "time": "Closed"}], "id": "3463600001", "name": "USPS COLLECTION BOX - BLUE BOX", "address": {"city": "ISTACHATTA", "state": "FL", "street": "28199 MAGNON DR", "postcode": "34636"}}},
{"geometry": {"type": "Point", "coordinates": [-82.4602717355, 28.1912361776]}, "type": "Feature", "properties": {"collection_times": [{"days": "Mon-Sat", "time": "10:30am"}, {"days": "Sun", "time": "Closed"}], "id": "3463900001", "name": "USPS COLLECTION BOX - BLUE BOX", "address": {"city": "LAND O LAKES", "state": "FL", "street": "21529 VILLAGE LAKES SHOPPING CTR DR", "postcode": "34639"}}},
{"geometry": {"type": "Point", "coordinates": [-82.4587116767, 28.2331637192]}, "type": "Feature", "properties": {"collection_times": [{"days": "Mon-Fri", "time": "5:00pm"}, {"days": "Sat", "time": "12:30pm"}, {"days": "Sun", "time": "Closed"}], "id": "3463900005", "name": "USPS COLLECTION BOX - BLUE BOX", "address": {"city": "LAND O LAKES", "state": "FL", "street": "5230 LAND O LAKES BLVD", "postcode": "34639"}}},
{"geometry": {"type": "Point", "coordinates": [-82.437577909, 28.18782448]}, "type": "Feature", "properties": {"collection_times": [{"days": "Mon-Sat", "time": "9:30am"}, {"days": "Sun", "time": "Closed"}], "id": "3463900008", "name": "USPS COLLECTION BOX - BLUE BOX", "address": {"city": "LAND O LAKES", "state": "FL", "street": "2126 COLLIER PKWY", "postcode": "34639"}}},
{"geometry": {"type": "Point", "coordinates": [-82.4587116767, 28.2331637192]}, "type": "Feature", "properties": {"collection_times": [{"days": "Mon-Fri", "time": "5:00pm"}, {"days": "Sat", "time": "12:30pm"}, {"days": "Sun", "time": "Closed"}], "id": "3463900009", "name": "USPS COLLECTION BOX - BLUE BOX", "address": {"city": "LAND O LAKES", "state": "FL", "street": "5230 LAND O LAKES BLVD", "postcode": "34639"}}},
{"geometry": {"type": "Point", "coordinates": [-82.4587116767, 28.2331637192]}, "type": "Feature", "properties": {"collection_times": [{"days": "Mon-Fri", "time": "5:00pm"}, {"days": "Sat", "time": "12:30pm"}, {"days": "Sun", "time": "Closed"}], "id": "3463900010", "name": "USPS COLLECTION BOX - APC", "address": {"city": "LAND O LAKES", "state": "FL", "street": "5230 LAND O LAKES BLVD", "postcode": "34639"}}},
{"geometry": {"type": "Point", "coordinates": [-82.7056446912, 28.2506750898]}, "type": "Feature", "properties": {"collection_times": [{"days": "Mon-Fri", "time": "5:00pm"}, {"days": "Sat", "time": "4:00pm"}, {"days": "Sun", "time": "Closed"}], "id": "3465300037", "name": "USPS COLLECTION BOX - APC", "address": {"city": "NEW PORT RICHEY", "state": "FL", "street": "6550 MAIN ST", "postcode": "34653"}}},
{"geometry": {"type": "Point", "coordinates": [-82.7056446912, 28.2506750898]}, "type": "Feature", "properties": {"collection_times": [{"days": "Mon-Fri", "time": "5:00pm"}, {"days": "Sat", "time": "4:00pm"}, {"days": "Sun", "time": "Closed"}], "id": "3465300039", "name": "USPS COLLECTION BOX - BLUE BOX", "address": {"city": "NEW PORT RICHEY", "state": "FL", "street": "6550 MAIN ST", "postcode": "34653"}}},
{"geometry": {"type": "Point", "coordinates": [-82.6745590208, 28.2679120558]}, "type": "Feature", "properties": {"collection_times": [{"days": "Mon-Sat", "time": "10:00am"}, {"days": "Sun", "time": "Closed"}], "id": "3465400009", "name": "USPS COLLECTION BOX - BLUE BOX", "address": {"city": "NEW PORT RICHEY", "state": "FL", "street": "7619 LITTLE RD", "postcode": "34654"}}},
{"geometry": {"type": "Point", "coordinates": [-82.6690820996, 28.2365833915]}, "type": "Feature", "properties": {"collection_times": [{"days": "Mon-Sat", "time": "10:30am"}, {"days": "Sun", "time": "Closed"}], "id": "3465500007", "name": "USPS COLLECTION BOX - BLUE BOX", "address": {"city": "NEW PORT RICHEY", "state": "FL", "street": "5320 LITTLE RD", "postcode": "34655"}}},
{"geometry": {"type": "Point", "coordinates": [-82.6659271357, 28.2174470416]}, "type": "Feature", "properties": {"collection_times": [{"days": "Mon-Fri", "time": "5:00pm"}, {"days": "Sat", "time": "4:00pm"}, {"days": "Sun", "time": "Closed"}], "id": "3465500011", "name": "USPS COLLECTION BOX - BLUE BOX", "address": {"city": "NEW PORT RICHEY", "state": "FL", "street": "4022 LITTLE RD", "postcode": "34655"}}},
{"geometry": {"type": "Point", "coordinates": [-82.6902819499, 28.3609484802]}, "type": "Feature", "properties": {"collection_times": [{"days": "Mon-Sat", "time": "9:30am"}, {"days": "Sun", "time": "Closed"}], "id": "3466700001", "name": "USPS COLLECTION BOX - BLUE BOX", "address": {"city": "PORT RICHEY", "state": "FL", "street": "14000 FIVAY  (R22) RD", "postcode": "34667"}}},
{"geometry": {"type": "Point", "coordinates": [-82.6985442034, 28.3314377122]}, "type": "Feature", "properties": {"collection_times": [{"days": "Mon-Sat", "time": "2:00pm"}, {"days": "Sun", "time": "Closed"}], "id": "3466700003", "name": "USPS COLLECTION BOX - BLUE BOX", "address": {"city": "PORT RICHEY", "state": "FL", "street": "7031 SR 52 (C 25)", "postcode": "34667"}}},
{"geometry": {"type": "Point", "coordinates": [-82.6829408498, 28.3368637947]}, "type": "Feature", "properties": {"collection_times": [{"days": "Mon-Sat", "time": "2:00pm"}, {"days": "Sun", "time": "Closed"}], "id": "3466700008", "name": "USPS COLLECTION BOX - BLUE BOX", "address": {"city": "PORT RICHEY", "state": "FL", "street": "12417 CLOCKTOWER (C 30) PARK", "postcode": "34667"}}},
{"geometry": {"type": "Point", "coordinates": [-82.6682006922, 28.3309713911]}, "type": "Feature", "properties": {"collection_times": [{"days": "Mon-Sat", "time": "10:30am"}, {"days": "Sun", "time": "Closed"}], "id": "3466700015", "name": "USPS COLLECTION BOX - BLUE BOX", "address": {"city": "PORT RICHEY", "state": "FL", "street": "8912 SR 52  (C 39)", "postcode": "34667"}}},
{"geometry": {"type": "Point", "coordinates": [-82.6660450661, 28.3582033425]}, "type": "Feature", "properties": {"collection_times": [{"days": "Mon-Sat", "time": "11:00am"}, {"days": "Sun", "time": "Closed"}], "id": "3466700016", "name": "USPS COLLECTION BOX - BLUE BOX", "address": {"city": "PORT RICHEY", "state": "FL", "street": "13806 LITTLE  (R 22) RD", "postcode": "34667"}}},
{"geometry": {"type": "Point", "coordinates": [-82.6503823888, 28.3971142088]}, "type": "Feature", "properties": {"collection_times": [{"days": "Mon-Sat", "time": "9:30am"}, {"days": "Sun", "time": "Closed"}], "id": "3466700025", "name": "USPS COLLECTION BOX - BLUE BOX", "address": {"city": "PORT RICHEY", "state": "FL", "street": "10114 STATE ROAD 52 (R 16)", "postcode": "34667"}}},
{"geometry": {"type": "Point", "coordinates": [-82.6972243893, 28.3554438505]}, "type": "Feature", "properties": {"collection_times": [{"days": "Mon-Fri", "time": "5:00pm"}, {"days": "Sat", "time": "4:30pm"}, {"days": "Sun", "time": "Closed"}], "id": "3466700027", "name": "USPS COLLECTION BOX - BLUE BOX", "address": {"city": "PORT RICHEY", "state": "FL", "street": "13610 BIG BEND DR", "postcode": "34667"}}},
{"geometry": {"type": "Point", "coordinates": [-82.6972243893, 28.3554438505]}, "type": "Feature", "properties": {"collection_times": [{"days": "Mon-Fri", "time": "5:00pm"}, {"days": "Sat", "time": "4:30pm"}, {"days": "Sun", "time": "Closed"}], "id": "3466700028", "name": "USPS COLLECTION BOX - BLUE BOX", "address": {"city": "PORT RICHEY", "state": "FL", "street": "13610 BIG BEND DR", "postcode": "34667"}}},
{"geometry": {"type": "Point", "coordinates": [-82.7093875734, 28.2938791171]}, "type": "Feature", "properties": {"collection_times": [{"days": "Mon-Sat", "time": "3:00pm"}, {"days": "Sun", "time": "Closed"}], "id": "3466800003", "name": "USPS COLLECTION BOX - BLUE BOX", "address": {"city": "PORT RICHEY", "state": "FL", "street": "9409 US HIGHWAY 19 # 6", "postcode": "34668"}}},
{"geometry": {"type": "Point", "coordinates": [-82.7093875734, 28.2938791171]}, "type": "Feature", "properties": {"collection_times": [{"days": "Mon-Sat", "time": "3:00pm"}, {"days": "Sun", "time": "Closed"}], "id": "3466800004", "name": "USPS COLLECTION BOX - BLUE BOX", "address": {"city": "PORT RICHEY", "state": "FL", "street": "9409 US HIGHWAY 19 # 6", "postcode": "34668"}}},
{"geometry": {"type": "Point", "coordinates": [-82.6991786375, 28.3163943751]}, "type": "Feature", "properties": {"collection_times": [{"days": "Mon-Sat", "time": "3:00pm"}, {"days": "Sun", "time": "Closed"}], "id": "3466800014", "name": "USPS COLLECTION BOX - BLUE BOX", "address": {"city": "PORT RICHEY", "state": "FL", "street": "10934 US HIGHWAY 19 # 3", "postcode": "34668"}}},
{"geometry": {"type": "Point", "coordinates": [-82.7031592944, 28.3103281615]}, "type": "Feature", "properties": {"collection_times": [{"days": "Mon-Sat", "time": "12:00pm"}, {"days": "Sun", "time": "Closed"}], "id": "3466800019", "name": "USPS COLLECTION BOX - BLUE BOX", "address": {"city": "PORT RICHEY", "state": "FL", "street": "10521 SCENIC  (C 33) DR", "postcode": "34668"}}},
{"geometry": {"type": "Point", "coordinates": [-82.7196722186, 28.2747826105]}, "type": "Feature", "properties": {"collection_times": [{"days": "Mon-Fri", "time": "5:00pm"}, {"days": "Sat", "time": "4:30pm"}, {"days": "Sun", "time": "Closed"}], "id": "3466800020", "name": "USPS COLLECTION BOX - BLUE BOX", "address": {"city": "PORT RICHEY", "state": "FL", "street": "8101 WASHINGTON ST", "postcode": "34668"}}},
{"geometry": {"type": "Point", "coordinates": [-82.7051822553, 28.2919320827]}, "type": "Feature", "properties": {"collection_times": [{"days": "Mon-Sat", "time": "12:00pm"}, {"days": "Sun", "time": "Closed"}], "id": "3466800026", "name": "USPS COLLECTION BOX - BLUE BOX", "address": {"city": "PORT RICHEY", "state": "FL", "street": "9302 BINNACLE  (C 13) DR", "postcode": "34668"}}},
{"geometry": {"type": "Point", "coordinates": [-82.7036106785, 28.3035086298]}, "type": "Feature", "properties": {"collection_times": [{"days": "Mon-Sat", "time": "2:00pm"}, {"days": "Sun", "time": "Closed"}], "id": "3466800033", "name": "USPS COLLECTION BOX - BLUE BOX", "address": {"city": "PORT RICHEY", "state": "FL", "street": "7037 RIDGE RD", "postcode": "34668"}}},
{"geometry": {"type": "Point", "coordinates": [-82.7067850991, 28.2976718167]}, "type": "Feature", "properties": {"collection_times": [{"days": "Mon-Fri", "time": "5:00pm"}, {"days": "Sat", "time": "12:30pm"}, {"days": "Sun", "time": "Closed"}], "id": "3466800041", "name": "USPS COLLECTION BOX - BLUE BOX", "address": {"city": "PORT RICHEY", "state": "FL", "street": "9602 US HIGHWAY 19", "postcode": "34668"}}},
{"geometry": {"type": "Point", "coordinates": [-82.7358976838, 28.2780688705]}, "type": "Feature", "properties": {"collection_times": [{"days": "Mon-Sat", "time": "12:00pm"}, {"days": "Sun", "time": "Closed"}], "id": "3466800042", "name": "USPS COLLECTION BOX - BLUE BOX", "address": {"city": "PORT RICHEY", "state": "FL", "street": "4740 BAY BLVD", "postcode": "34668"}}},
{"geometry": {"type": "Point", "coordinates": [-82.668601513, 28.0406313589]}, "type": "Feature", "properties": {"collection_times": [{"days": "Mon-Fri", "time": "5:00pm"}, {"days": "Sat", "time": "2:30pm"}, {"days": "Sun", "time": "Closed"}], "id": "3467700002", "name": "USPS COLLECTION BOX - BLUE BOX", "address": {"city": "OLDSMAR", "state": "FL", "street": "3905 TAMPA RD", "postcode": "34677"}}},
{"geometry": {"type": "Point", "coordinates": [-82.6983459814, 28.0517052258]}, "type": "Feature", "properties": {"collection_times": [{"days": "Mon-Sat", "time": "10:30am"}, {"days": "Sun", "time": "Closed"}], "id": "3467700003", "name": "USPS COLLECTION BOX - BLUE BOX", "address": {"city": "OLDSMAR", "state": "FL", "street": "3146 TAMPA RD", "postcode": "34677"}}},
{"geometry": {"type": "Point", "coordinates": [-82.6916136149, 28.0477455771]}, "type": "Feature", "properties": {"collection_times": [{"days": "Mon-Sat", "time": "12:30pm"}, {"days": "Sun", "time": "Closed"}], "id": "3467700005", "name": "USPS COLLECTION BOX - BLUE BOX", "address": {"city": "OLDSMAR", "state": "FL", "street": "200 OAKLEAF BLVD", "postcode": "34677"}}},
{"geometry": {"type": "Point", "coordinates": [-82.6548058468, 28.0359420125]}, "type": "Feature", "properties": {"collection_times": [{"days": "Mon-Sat", "time": "10:00am"}, {"days": "Sun", "time": "Closed"}], "id": "3467700006", "name": "USPS COLLECTION BOX - BLUE BOX", "address": {"city": "OLDSMAR", "state": "FL", "street": "4025 TAMPA RD", "postcode": "34677"}}},
{"geometry": {"type": "Point", "coordinates": [-82.6633574571, 28.0373793077]}, "type": "Feature", "properties": {"collection_times": [{"days": "Mon-Sat", "time": "11:30am"}, {"days": "Sun", "time": "Closed"}], "id": "3467700009", "name": "USPS COLLECTION BOX - BLUE BOX", "address": {"city": "OLDSMAR", "state": "FL", "street": "100 STATE ST W", "postcode": "34677"}}},
{"geometry": {"type": "Point", "coordinates": [-82.6824491287, 28.0476442527]}, "type": "Feature", "properties": {"collection_times": [{"days": "Mon-Sat", "time": "10:30am"}, {"days": "Sun", "time": "Closed"}], "id": "3467700011", "name": "USPS COLLECTION BOX - BLUE BOX", "address": {"city": "OLDSMAR", "state": "FL", "street": "3687 TAMPA RD", "postcode": "34677"}}},
{"geometry": {"type": "Point", "coordinates": [-82.6551252457, 28.0360496618]}, "type": "Feature", "properties": {"collection_times": [{"days": "Mon-Sat", "time": "10:00am"}, {"days": "Sun", "time": "Closed"}], "id": "3467700016", "name": "USPS COLLECTION BOX - BLUE BOX", "address": {"city": "OLDSMAR", "state": "FL", "street": "4023 TAMPA RD", "postcode": "34677"}}},
{"geometry": {"type": "Point", "coordinates": [-82.668601513, 28.0406313589]}, "type": "Feature", "properties": {"collection_times": [{"days": "Mon-Fri", "time": "5:00pm"}, {"days": "Sat", "time": "2:30pm"}, {"days": "Sun", "time": "Closed"}], "id": "3467700017", "name": "USPS COLLECTION BOX - APC", "address": {"city": "OLDSMAR", "state": "FL", "street": "3905 TAMPA RD", "postcode": "34677"}}},
{"geometry": {"type": "Point", "coordinates": [-82.6642563544, 28.4321763413]}, "type": "Feature", "properties": {"collection_times": [{"days": "Mon-Fri", "time": "3:30pm"}, {"days": "Sat", "time": "9:15am"}, {"days": "Sun", "time": "Closed"}], "id": "3467900001", "name": "USPS COLLECTION BOX - BLUE BOX", "address": {"city": "ARIPEKA", "state": "FL", "street": "18925 ARIPEKA RD", "postcode": "34679"}}},
{"geometry": {"type": "Point", "coordinates": [-82.7152536004, 28.2191143462]}, "type": "Feature", "properties": {"collection_times": [{"days": "Mon-Fri", "time": "4:25pm"}, {"days": "Sat", "time": "12:00pm"}, {"days": "Sun", "time": "Closed"}], "id": "3468000003", "name": "USPS COLLECTION BOX - BLUE BOX", "address": {"city": "ELFERS", "state": "FL", "street": "4122 MADISON ST", "postcode": "34680"}}},
{"geometry": {"type": "Point", "coordinates": [-82.7152536004, 28.2191143462]}, "type": "Feature", "properties": {"collection_times": [{"days": "Mon-Fri", "time": "4:45pm"}, {"days": "Sat", "time": "12:00pm"}, {"days": "Sun", "time": "Closed"}], "id": "3468000006", "name": "USPS COLLECTION BOX - APC", "address": {"city": "ELFERS", "state": "FL", "street": "4122 MADISON ST", "postcode": "34680"}}},
{"geometry": {"type": "Point", "coordinates": [-82.7779433087, 28.091236245]}, "type": "Feature", "properties": {"collection_times": [{"days": "Mon-Fri", "time": "4:00pm"}, {"days": "Sat", "time": "11:00am"}, {"days": "Sun", "time": "Closed"}], "id": "3468100001", "name": "USPS COLLECTION BOX - BLUE BOX", "address": {"city": "CRYSTAL BEACH", "state": "FL", "street": "420 CRYSTAL BEACH AVE", "postcode": "34681"}}},
{"geometry": {"type": "Point", "coordinates": [-82.7677370668, 28.0717059677]}, "type": "Feature", "properties": {"collection_times": [{"days": "Mon-Fri", "time": "5:00pm"}, {"days": "Sat", "time": "3:00pm"}, {"days": "Sun", "time": "Closed"}], "id": "3468300001", "name": "USPS COLLECTION BOX - BLUE BOX", "address": {"city": "PALM HARBOR", "state": "FL", "street": "495 ALT 19", "postcode": "34683"}}},
{"geometry": {"type": "Point", "coordinates": [-82.7724525997, 28.0923413915]}, "type": "Feature", "properties": {"collection_times": [{"days": "Mon-Sat", "time": "12:00pm"}, {"days": "Sun", "time": "Closed"}], "id": "3468300035", "name": "USPS COLLECTION BOX - BLUE BOX", "address": {"city": "PALM HARBOR", "state": "FL", "street": "2710 ALTERNATE 19 N STE 301", "postcode": "34683"}}},
{"geometry": {"type": "Point", "coordinates": [-82.7677370668, 28.0717059677]}, "type": "Feature", "properties": {"collection_times": [{"days": "Mon-Fri", "time": "5:00pm"}, {"days": "Sat", "time": "3:00pm"}, {"days": "Sun", "time": "Closed"}], "id": "3468300039", "name": "USPS COLLECTION BOX - APC", "address": {"city": "PALM HARBOR", "state": "FL", "street": "495 ALT 19", "postcode": "34683"}}},
{"geometry": {"type": "Point", "coordinates": [-82.7228383012, 28.0673352125]}, "type": "Feature", "properties": {"collection_times": [{"days": "Mon-Fri", "time": "2:15pm"}, {"days": "Sat", "time": "12:00pm"}, {"days": "Sun", "time": "Closed"}], "id": "3468400001", "name": "USPS COLLECTION BOX - BLUE BOX", "address": {"city": "PALM HARBOR", "state": "FL", "street": "3382 TAMPA RD", "postcode": "34684"}}},
{"geometry": {"type": "Point", "coordinates": [-82.738783319, 28.0739029053]}, "type": "Feature", "properties": {"collection_times": [{"days": "Mon-Fri", "time": "12:30pm"}, {"days": "Sat-Sun", "time": "Closed"}], "id": "3468400005", "name": "USPS COLLECTION BOX - BLUE BOX", "address": {"city": "PALM HARBOR", "state": "FL", "street": "33195 US HIGHWAY 19 N", "postcode": "34684"}}},
{"geometry": {"type": "Point", "coordinates": [-82.7395577588, 28.0875616099]}, "type": "Feature", "properties": {"collection_times": [{"days": "Mon-Fri", "time": "12:30pm"}, {"days": "Sat-Sun", "time": "Closed"}], "id": "3468400008", "name": "USPS COLLECTION BOX - BLUE BOX", "address": {"city": "PALM HARBOR", "state": "FL", "street": "34650 US HIGHWAY 19 N", "postcode": "34684"}}},
{"geometry": {"type": "Point", "coordinates": [-82.7397236381, 28.0919157441]}, "type": "Feature", "properties": {"collection_times": [{"days": "Mon-Fri", "time": "12:30pm"}, {"days": "Sat-Sun", "time": "Closed"}], "id": "3468400010", "name": "USPS COLLECTION BOX - BLUE BOX", "address": {"city": "PALM HARBOR", "state": "FL", "street": "35176 US HIGHWAY 19 N", "postcode": "34684"}}},
{"geometry": {"type": "Point", "coordinates": [-82.6967290484, 28.0931036253]}, "type": "Feature", "properties": {"collection_times": [{"days": "Mon-Fri", "time": "1:30pm"}, {"days": "Sat", "time": "12:00pm"}, {"days": "Sun", "time": "Closed"}], "id": "3468500000", "name": "USPS COLLECTION BOX - BLUE BOX", "address": {"city": "PALM HARBOR", "state": "FL", "street": "3438 EAST LAKE    STE 14 RD", "postcode": "34685"}}},
{"geometry": {"type": "Point", "coordinates": [-82.7060196892, 28.0656543929]}, "type": "Feature", "properties": {"collection_times": [{"days": "Mon-Fri", "time": "12:00pm"}, {"days": "Sat-Sun", "time": "Closed"}], "id": "3468500001", "name": "USPS COLLECTION BOX - BLUE BOX", "address": {"city": "PALM HARBOR", "state": "FL", "street": "4114 WOODLANDS PKWY", "postcode": "34685"}}},
{"geometry": {"type": "Point", "coordinates": [-82.6966932478, 28.0931414148]}, "type": "Feature", "properties": {"collection_times": [{"days": "Mon-Fri", "time": "1:30pm"}, {"days": "Sat", "time": "12:00pm"}, {"days": "Sun", "time": "Closed"}], "id": "3468500003", "name": "USPS COLLECTION BOX - BLUE BOX", "address": {"city": "PALM HARBOR", "state": "FL", "street": "3450 E LAKE RD", "postcode": "34685"}}},
{"geometry": {"type": "Point", "coordinates": [-82.6943719118, 28.109166433]}, "type": "Feature", "properties": {"collection_times": [{"days": "Mon-Fri", "time": "1:30pm"}, {"days": "Sat", "time": "12:00pm"}, {"days": "Sun", "time": "Closed"}], "id": "3468500007", "name": "USPS COLLECTION BOX - BLUE BOX", "address": {"city": "PALM HARBOR", "state": "FL", "street": "36301 E LAKE RD", "postcode": "34685"}}},
{"geometry": {"type": "Point", "coordinates": [-82.7082268573, 28.061150966]}, "type": "Feature", "properties": {"collection_times": [{"days": "Mon-Fri", "time": "1:30pm"}, {"days": "Sat", "time": "12:00pm"}, {"days": "Sun", "time": "Closed"}], "id": "3468500009", "name": "USPS COLLECTION BOX - BLUE BOX", "address": {"city": "PALM HARBOR", "state": "FL", "street": "334 E LAKE RD", "postcode": "34685"}}},
{"geometry": {"type": "Point", "coordinates": [-82.75871701, 28.1458717459]}, "type": "Feature", "properties": {"collection_times": [{"days": "Mon-Fri", "time": "9:30am"}, {"days": "Sat-Sun", "time": "Closed"}], "id": "3468900002", "name": "USPS COLLECTION BOX - BLUE BOX", "address": {"city": "TARPON SPRINGS", "state": "FL", "street": "111 E TARPON AVE", "postcode": "34689"}}},
{"geometry": {"type": "Point", "coordinates": [-82.7425837679, 28.1432068167]}, "type": "Feature", "properties": {"collection_times": [{"days": "Mon-Fri", "time": "5:00pm"}, {"days": "Sat", "time": "4:30pm"}, {"days": "Sun", "time": "Closed"}], "id": "3468900005", "name": "USPS COLLECTION BOX - BLUE BOX", "address": {"city": "TARPON SPRINGS", "state": "FL", "street": "850 E LIME ST", "postcode": "34689"}}},
{"geometry": {"type": "Point", "coordinates": [-82.7425837679, 28.1432068167]}, "type": "Feature", "properties": {"collection_times": [{"days": "Mon-Fri", "time": "5:00pm"}, {"days": "Sat", "time": "4:30pm"}, {"days": "Sun", "time": "Closed"}], "id": "3468900006", "name": "USPS COLLECTION BOX - BLUE BOX", "address": {"city": "TARPON SPRINGS", "state": "FL", "street": "850 E LIME ST", "postcode": "34689"}}},
{"geometry": {"type": "Point", "coordinates": [-82.7425837679, 28.1432068167]}, "type": "Feature", "properties": {"collection_times": [{"days": "Mon-Fri", "time": "5:00pm"}, {"days": "Sat", "time": "4:30pm"}, {"days": "Sun", "time": "Closed"}], "id": "3468900046", "name": "USPS COLLECTION BOX - APC", "address": {"city": "TARPON SPRINGS", "state": "FL", "street": "850 E LIME ST", "postcode": "34689"}}},
{"geometry": {"type": "Point", "coordinates": [-82.7354919289, 28.1879699839]}, "type": "Feature", "properties": {"collection_times": [{"days": "Mon-Fri", "time": "5:00pm"}, {"days": "Sat", "time": "1:00pm"}, {"days": "Sun", "time": "Closed"}], "id": "3469000011", "name": "USPS COLLECTION BOX - BLUE BOX", "address": {"city": "TARPON SPRINGS", "state": "FL", "street": "4737 MILE STRETCH DR", "postcode": "34690"}}},
{"geometry": {"type": "Point", "coordinates": [-82.7354919289, 28.1879699839]}, "type": "Feature", "properties": {"collection_times": [{"days": "Mon-Fri", "time": "5:00pm"}, {"days": "Sat", "time": "1:00pm"}, {"days": "Sun", "time": "Closed"}], "id": "3469000027", "name": "USPS COLLECTION BOX - BLUE BOX", "address": {"city": "TARPON SPRINGS", "state": "FL", "street": "4737 MILE STRETCH DR", "postcode": "34690"}}},
{"geometry": {"type": "Point", "coordinates": [-82.6886290095, 27.9917596781]}, "type": "Feature", "properties": {"collection_times": [{"days": "Mon-Fri", "time": "2:00pm"}, {"days": "Sat", "time": "12:00pm"}, {"days": "Sun", "time": "Closed"}], "id": "3469500012", "name": "USPS COLLECTION BOX - BLUE BOX", "address": {"city": "SAFETY HARBOR", "state": "FL", "street": "101 2ND ST N", "postcode": "34695"}}},
{"geometry": {"type": "Point", "coordinates": [-82.6948028723, 27.9907778222]}, "type": "Feature", "properties": {"collection_times": [{"days": "Mon-Fri", "time": "2:00pm"}, {"days": "Sat", "time": "12:00pm"}, {"days": "Sun", "time": "Closed"}], "id": "3469500013", "name": "USPS COLLECTION BOX - BLUE BOX", "address": {"city": "SAFETY HARBOR", "state": "FL", "street": "737 MAIN ST", "postcode": "34695"}}},
{"geometry": {"type": "Point", "coordinates": [-82.7889226365, 28.0113033432]}, "type": "Feature", "properties": {"collection_times": [{"days": "Mon-Fri", "time": "2:00pm"}, {"days": "Sat", "time": "11:00am"}, {"days": "Sun", "time": "Closed"}], "id": "3469800004", "name": "USPS COLLECTION BOX - BLUE BOX", "address": {"city": "DUNEDIN", "state": "FL", "street": "735 RAILROAD AVE", "postcode": "34698"}}},
{"geometry": {"type": "Point", "coordinates": [-82.7636037657, 28.0224728418]}, "type": "Feature", "properties": {"collection_times": [{"days": "Mon-Fri", "time": "5:00pm"}, {"days": "Sat", "time": "3:00pm"}, {"days": "Sun", "time": "Closed"}], "id": "3469800011", "name": "USPS COLLECTION BOX - BLUE BOX", "address": {"city": "DUNEDIN", "state": "FL", "street": "1350 COUNTY ROAD 1", "postcode": "34698"}}},
{"geometry": {"type": "Point", "coordinates": [-82.7762343209, 28.0185916146]}, "type": "Feature", "properties": {"collection_times": [{"days": "Mon-Fri", "time": "2:00pm"}, {"days": "Sat", "time": "11:00am"}, {"days": "Sun", "time": "Closed"}], "id": "3469800042", "name": "USPS COLLECTION BOX - BLUE BOX", "address": {"city": "DUNEDIN", "state": "FL", "street": "1022 MAIN ST", "postcode": "34698"}}},
{"geometry": {"type": "Point", "coordinates": [-82.7756766697, 28.017134887]}, "type": "Feature", "properties": {"collection_times": [{"days": "Mon-Fri", "time": "2:00pm"}, {"days": "Sat", "time": "11:00am"}, {"days": "Sun", "time": "Closed"}], "id": "3469800049", "name": "USPS COLLECTION BOX - BLUE BOX", "address": {"city": "DUNEDIN", "state": "FL", "street": "938 PATRICIA AVE", "postcode": "34698"}}},
{"geometry": {"type": "Point", "coordinates": [-82.7852424511, 28.0129594858]}, "type": "Feature", "properties": {"collection_times": [{"days": "Mon-Fri", "time": "2:00pm"}, {"days": "Sat", "time": "11:00am"}, {"days": "Sun", "time": "Closed"}], "id": "3469800053", "name": "USPS COLLECTION BOX - BLUE BOX", "address": {"city": "DUNEDIN", "state": "FL", "street": "542 MAIN ST", "postcode": "34698"}}},
{"geometry": {"type": "Point", "coordinates": [-82.7576463844, 28.0195036148]}, "type": "Feature", "properties": {"collection_times": [{"days": "Mon-Fri", "time": "4:00pm"}, {"days": "Sat", "time": "3:00pm"}, {"days": "Sun", "time": "Closed"}], "id": "3469800054", "name": "USPS COLLECTION BOX - BLUE BOX", "address": {"city": "DUNEDIN", "state": "FL", "street": "1750 MAIN ST", "postcode": "34698"}}},
{"geometry": {"type": "Point", "coordinates": [-82.7425151563, 28.0487439944]}, "type": "Feature", "properties": {"collection_times": [{"days": "Mon-Fri", "time": "11:00am"}, {"days": "Sat", "time": "10:30am"}, {"days": "Sun", "time": "Closed"}], "id": "3469800056", "name": "USPS COLLECTION BOX - BLUE BOX", "address": {"city": "DUNEDIN", "state": "FL", "street": "2323 CURLEW RD   STE 7E", "postcode": "34698"}}},
{"geometry": {"type": "Point", "coordinates": [-82.7636037657, 28.0224728418]}, "type": "Feature", "properties": {"collection_times": [{"days": "Mon-Fri", "time": "5:00pm"}, {"days": "Sat", "time": "3:00pm"}, {"days": "Sun", "time": "Closed"}], "id": "3469800057", "name": "USPS COLLECTION BOX - APC", "address": {"city": "DUNEDIN", "state": "FL", "street": "1350 COUNTY ROAD 1", "postcode": "34698"}}}
]}
