{"type": "FeatureCollection", "features": [
{"geometry": {"type": "Point", "coordinates": [-81.7330749782, 28.7209166568]}, "type": "Feature", "properties": {"collection_times": [{"days": "Mon-Fri", "time": "4:30pm"}, {"days": "Sat", "time": "12:00pm"}, {"days": "Sun", "time": "Closed"}], "id": "3470500001", "name": "USPS COLLECTION BOX - BLUE BOX", "address": {"city": "ASTATULA", "state": "FL", "street": "25711 MONROE ST", "postcode": "34705"}}},
{"geometry": {"type": "Point", "coordinates": [-81.7330749782, 28.7209166568]}, "type": "Feature", "properties": {"collection_times": [{"days": "Mon-Fri", "time": "4:30pm"}, {"days": "Sat", "time": "12:00pm"}, {"days": "Sun", "time": "Closed"}], "id": "3470500004", "name": "USPS COLLECTION BOX - PO LOBBY", "address": {"city": "ASTATULA", "state": "FL", "street": "25711 MONROE ST", "postcode": "34705"}}},
{"geometry": {"type": "Point", "coordinates": [-81.7481107004, 28.5492351804]}, "type": "Feature", "properties": {"collection_times": [{"days": "Mon-Fri", "time": "4:30pm"}, {"days": "Sat", "time": "1:00pm"}, {"days": "Sun", "time": "Closed"}], "id": "3471100002", "name": "USPS COLLECTION BOX - BLUE BOX", "address": {"city": "CLERMONT", "state": "FL", "street": "660 E HIGHWAY 50", "postcode": "34711"}}},
{"geometry": {"type": "Point", "coordinates": [-81.7460027719, 28.5482977775]}, "type": "Feature", "properties": {"collection_times": [{"days": "Mon-Fri", "time": "4:30pm"}, {"days": "Sat", "time": "1:00pm"}, {"days": "Sun", "time": "Closed"}], "id": "3471100003", "name": "USPS COLLECTION BOX - BLUE BOX", "address": {"city": "CLERMONT", "state": "FL", "street": "701 E HIGHWAY 50", "postcode": "34711"}}},
{"geometry": {"type": "Point", "coordinates": [-81.6774841875, 28.3563665585]}, "type": "Feature", "properties": {"collection_times": [{"days": "Mon-Sat", "time": "11:00am"}, {"days": "Sun", "time": "Closed"}], "id": "3471100007", "name": "USPS COLLECTION BOX - BLUE BOX", "address": {"city": "CLERMONT", "state": "FL", "street": "600 US HIGHWAY 27", "postcode": "34711"}}},
{"geometry": {"type": "Point", "coordinates": [-81.7423984985, 28.5335939667]}, "type": "Feature", "properties": {"collection_times": [{"days": "Mon-Sat", "time": "10:00am"}, {"days": "Sun", "time": "Closed"}], "id": "3471100009", "name": "USPS COLLECTION BOX - BLUE BOX", "address": {"city": "CLERMONT", "state": "FL", "street": "9000 US HIGHWAY 192", "postcode": "34711"}}},
{"geometry": {"type": "Point", "coordinates": [-81.7497014559, 28.578397914]}, "type": "Feature", "properties": {"collection_times": [{"days": "Mon-Fri", "time": "4:30pm"}, {"days": "Sat", "time": "1:15pm"}, {"days": "Sun", "time": "Closed"}], "id": "3471100011", "name": "USPS COLLECTION BOX - BLUE BOX", "address": {"city": "CLERMONT", "state": "FL", "street": "141 N HIGHWAY 27", "postcode": "34711"}}},
{"geometry": {"type": "Point", "coordinates": [-81.7759607895, 28.5603536365]}, "type": "Feature", "properties": {"collection_times": [{"days": "Mon-Sat", "time": "10:00am"}, {"days": "Sun", "time": "Closed"}], "id": "3471100014", "name": "USPS COLLECTION BOX - BLUE BOX", "address": {"city": "CLERMONT", "state": "FL", "street": "200 12TH ST", "postcode": "34711"}}},
{"geometry": {"type": "Point", "coordinates": [-81.7699951275, 28.5563173805]}, "type": "Feature", "properties": {"collection_times": [{"days": "Mon-Fri", "time": "5:00pm"}, {"days": "Sat", "time": "1:30pm"}, {"days": "Sun", "time": "Closed"}], "id": "3471100015", "name": "USPS COLLECTION BOX - BLUE BOX", "address": {"city": "CLERMONT", "state": "FL", "street": "877 W MINNEOLA AVE", "postcode": "34711"}}},
{"geometry": {"type": "Point", "coordinates": [-81.7396622717, 28.5470429584]}, "type": "Feature", "properties": {"collection_times": [{"days": "Mon-Fri", "time": "4:30pm"}, {"days": "Sat", "time": "1:00pm"}, {"days": "Sun", "time": "Closed"}], "id": "3471100018", "name": "USPS COLLECTION BOX - BLUE BOX", "address": {"city": "CLERMONT", "state": "FL", "street": "1050 E HIGHWAY 50", "postcode": "34711"}}},
{"geometry": {"type": "Point", "coordinates": [-81.6806709482, 28.3575421451]}, "type": "Feature", "properties": {"collection_times": [{"days": "Mon-Sat", "time": "9:00am"}, {"days": "Sun", "time": "Closed"}], "id": "3471100019", "name": "USPS COLLECTION BOX - BLUE BOX", "address": {"city": "CLERMONT", "state": "FL", "street": "721 AVENIDA CUARTA", "postcode": "34711"}}},
{"geometry": {"type": "Point", "coordinates": [-81.7699951275, 28.5563173805]}, "type": "Feature", "properties": {"collection_times": [{"days": "Mon-Fri", "time": "5:00pm"}, {"days": "Sat", "time": "1:30pm"}, {"days": "Sun", "time": "Closed"}], "id": "3471100020", "name": "USPS COLLECTION BOX - PO LOBBY", "address": {"city": "CLERMONT", "state": "FL", "street": "877 W MINNEOLA AVE", "postcode": "34711"}}},
{"geometry": {"type": "Point", "coordinates": [-81.6878267265, 28.3757122504]}, "type": "Feature", "properties": {"collection_times": [{"days": "Mon-Sat", "time": "10:30am"}, {"days": "Sun", "time": "Closed"}], "id": "3471100021", "name": "USPS COLLECTION BOX - BLUE BOX", "address": {"city": "CLERMONT", "state": "FL", "street": "16000 DORCHESTER BLVD", "postcode": "34711"}}},
{"geometry": {"type": "Point", "coordinates": [-81.7458308247, 28.5781701815]}, "type": "Feature", "properties": {"collection_times": [{"days": "Mon-Fri", "time": "4:45pm"}, {"days": "Sat", "time": "1:15pm"}, {"days": "Sun", "time": "Closed"}], "id": "3471100022", "name": "USPS COLLECTION BOX - BLUE BOX", "address": {"city": "CLERMONT", "state": "FL", "street": "200 S BLOXAM AVE", "postcode": "34711"}}},
{"geometry": {"type": "Point", "coordinates": [-81.6799187171, 28.3620660548]}, "type": "Feature", "properties": {"collection_times": [{"days": "Mon-Fri", "time": "5:00pm"}, {"days": "Sat", "time": "1:30pm"}, {"days": "Sun", "time": "Closed"}], "id": "3471100023", "name": "USPS COLLECTION BOX - BLUE BOX", "address": {"city": "CLERMONT", "state": "FL", "street": "1100 US HIGHWAY 27 STE F", "postcode": "34711"}}},
{"geometry": {"type": "Point", "coordinates": [-81.7513011081, 28.5256355794]}, "type": "Feature", "properties": {"collection_times": [{"days": "Mon-Sat", "time": "10:00am"}, {"days": "Sun", "time": "Closed"}], "id": "3471100024", "name": "USPS COLLECTION BOX - BLUE BOX", "address": {"city": "CLERMONT", "state": "FL", "street": "4415 S HIGHWAY 27", "postcode": "34711"}}},
{"geometry": {"type": "Point", "coordinates": [-81.6950657342, 28.5467109361]}, "type": "Feature", "properties": {"collection_times": [{"days": "Mon-Sat", "time": "10:00am"}, {"days": "Sun", "time": "Closed"}], "id": "3471100025", "name": "USPS COLLECTION BOX - BLUE BOX", "address": {"city": "CLERMONT", "state": "FL", "street": "13800 S GREATER HILLS BLVD", "postcode": "34711"}}},
{"geometry": {"type": "Point", "coordinates": [-81.763345898, 28.5149448724]}, "type": "Feature", "properties": {"collection_times": [{"days": "Mon-Sat", "time": "12:15pm"}, {"days": "Sun", "time": "Closed"}], "id": "3471100026", "name": "USPS COLLECTION BOX - BLUE BOX", "address": {"city": "CLERMONT", "state": "FL", "street": "11525 KINGFISHER DR", "postcode": "34711"}}},
{"geometry": {"type": "Point", "coordinates": [-81.6799187171, 28.3620660548]}, "type": "Feature", "properties": {"collection_times": [{"days": "Mon-Fri", "time": "4:45pm"}, {"days": "Sat", "time": "1:30pm"}, {"days": "Sun", "time": "Closed"}], "id": "3471100027", "name": "USPS COLLECTION BOX - PO LOBBY", "address": {"city": "CLERMONT", "state": "FL", "street": "1100 US HIGHWAY 27 STE F", "postcode": "34711"}}},
{"geometry": {"type": "Point", "coordinates": [-81.6799187171, 28.3620660548]}, "type": "Feature", "properties": {"collection_times": [{"days": "Mon-Fri", "time": "4:45pm"}, {"days": "Sat", "time": "1:30pm"}, {"days": "Sun", "time": "Closed"}], "id": "3471100029", "name": "USPS COLLECTION BOX - PO LOBBY", "address": {"city": "CLERMONT", "state": "FL", "street": "1100 US HIGHWAY 27 STE F", "postcode": "34711"}}},
{"geometry": {"type": "Point", "coordinates": [-81.6799187171, 28.3620660548]}, "type": "Feature", "properties": {"collection_times": [{"days": "Mon-Fri", "time": "4:45pm"}, {"days": "Sat", "time": "1:30pm"}, {"days": "Sun", "time": "Closed"}], "id": "3471100030", "name": "USPS COLLECTION BOX - PO LOBBY", "address": {"city": "CLERMONT", "state": "FL", "street": "1100 US HIGHWAY 27 STE F", "postcode": "34711"}}},
{"geometry": {"type": "Point", "coordinates": [-81.9077341375, 28.8614308886]}, "type": "Feature", "properties": {"collection_times": [{"days": "Mon-Fri", "time": "5:00pm"}, {"days": "Sat", "time": "2:15pm"}, {"days": "Sun", "time": "Closed"}], "id": "3473100002", "name": "USPS COLLECTION BOX - BLUE BOX", "address": {"city": "FRUITLAND PARK", "state": "FL", "street": "104 W MILLER ST", "postcode": "34731"}}},
{"geometry": {"type": "Point", "coordinates": [-81.9077341375, 28.8614308886]}, "type": "Feature", "properties": {"collection_times": [{"days": "Mon-Fri", "time": "5:00pm"}, {"days": "Sat", "time": "2:15pm"}, {"days": "Sun", "time": "Closed"}], "id": "3473100003", "name": "USPS COLLECTION BOX - PO LOBBY", "address": {"city": "FRUITLAND PARK", "state": "FL", "street": "104 W MILLER ST", "postcode": "34731"}}},
{"geometry": {"type": "Point", "coordinates": [-81.5233209752, 28.5299373956]}, "type": "Feature", "properties": {"collection_times": [{"days": "Mon-Fri", "time": "5:00pm"}, {"days": "Sat", "time": "12:00pm"}, {"days": "Sun", "time": "Closed"}], "id": "3473400001", "name": "USPS COLLECTION BOX - BLUE BOX", "address": {"city": "GOTHA", "state": "FL", "street": "9907 8TH ST", "postcode": "34734"}}},
{"geometry": {"type": "Point", "coordinates": [-81.517244115, 28.5486080369]}, "type": "Feature", "properties": {"collection_times": [{"days": "Mon-Sat", "time": "11:00am"}, {"days": "Sun", "time": "Closed"}], "id": "3473400002", "name": "USPS COLLECTION BOX - BLUE BOX", "address": {"city": "GOTHA", "state": "FL", "street": "1450 CITRUS OAKS AVE", "postcode": "34734"}}},
{"geometry": {"type": "Point", "coordinates": [-81.5233209752, 28.5299373956]}, "type": "Feature", "properties": {"collection_times": [{"days": "Mon-Fri", "time": "5:00pm"}, {"days": "Sat", "time": "12:00pm"}, {"days": "Sun", "time": "Closed"}], "id": "3473400003", "name": "USPS COLLECTION BOX - PO LOBBY", "address": {"city": "GOTHA", "state": "FL", "street": "9907 8TH ST", "postcode": "34734"}}},
{"geometry": {"type": "Point", "coordinates": [-81.8572004964, 28.5613437732]}, "type": "Feature", "properties": {"collection_times": [{"days": "Mon-Fri", "time": "5:00pm"}, {"days": "Sat", "time": "4:30pm"}, {"days": "Sun", "time": "Closed"}], "id": "3473600001", "name": "USPS COLLECTION BOX - BLUE BOX", "address": {"city": "GROVELAND", "state": "FL", "street": "304 W BROAD ST", "postcode": "34736"}}},
{"geometry": {"type": "Point", "coordinates": [-81.8574999788, 28.5605324595]}, "type": "Feature", "properties": {"collection_times": [{"days": "Mon-Fri", "time": "5:00pm"}, {"days": "Sat", "time": "4:30pm"}, {"days": "Sun", "time": "Closed"}], "id": "3473600003", "name": "USPS COLLECTION BOX - BLUE BOX", "address": {"city": "GROVELAND", "state": "FL", "street": "304 W ORANGE ST", "postcode": "34736"}}},
{"geometry": {"type": "Point", "coordinates": [-81.8572004964, 28.5613437732]}, "type": "Feature", "properties": {"collection_times": [{"days": "Mon-Fri", "time": "5:00pm"}, {"days": "Sat", "time": "4:30pm"}, {"days": "Sun", "time": "Closed"}], "id": "3473600005", "name": "USPS COLLECTION BOX - PO LOBBY", "address": {"city": "GROVELAND", "state": "FL", "street": "304 W BROAD ST", "postcode": "34736"}}},
{"geometry": {"type": "Point", "coordinates": [-81.8572004964, 28.5613437732]}, "type": "Feature", "properties": {"collection_times": [{"days": "Mon-Fri", "time": "5:00pm"}, {"days": "Sat", "time": "4:30pm"}, {"days": "Sun", "time": "Closed"}], "id": "3473600006", "name": "USPS COLLECTION BOX - PO LOBBY", "address": {"city": "GROVELAND", "state": "FL", "street": "304 W BROAD ST", "postcode": "34736"}}},
{"geometry": {"type": "Point", "coordinates": [-81.7749922316, 28.7130689243]}, "type": "Feature", "properties": {"collection_times": [{"days": "Mon-Fri", "time": "5:00pm"}, {"days": "Sat", "time": "11:00am"}, {"days": "Sun", "time": "Closed"}], "id": "3473700001", "name": "USPS COLLECTION BOX - BLUE BOX", "address": {"city": "HOWEY IN HLS", "state": "FL", "street": "105 S FLORIDA AVE", "postcode": "34737"}}},
{"geometry": {"type": "Point", "coordinates": [-81.7749922316, 28.7130689243]}, "type": "Feature", "properties": {"collection_times": [{"days": "Mon-Fri", "time": "4:15pm"}, {"days": "Sat", "time": "11:00am"}, {"days": "Sun", "time": "Closed"}], "id": "3473700002", "name": "USPS COLLECTION BOX - PO LOBBY", "address": {"city": "HOWEY IN HLS", "state": "FL", "street": "105 S FLORIDA AVE", "postcode": "34737"}}},
{"geometry": {"type": "Point", "coordinates": [-81.7749922316, 28.7130689243]}, "type": "Feature", "properties": {"collection_times": [{"days": "Mon-Fri", "time": "4:15pm"}, {"days": "Sat", "time": "11:00am"}, {"days": "Sun", "time": "Closed"}], "id": "3473700003", "name": "USPS COLLECTION BOX - PO LOBBY", "address": {"city": "HOWEY IN HLS", "state": "FL", "street": "105 S FLORIDA AVE", "postcode": "34737"}}},
{"geometry": {"type": "Point", "coordinates": [-80.9886728292, 27.8782991063]}, "type": "Feature", "properties": {"collection_times": [{"days": "Mon-Fri", "time": "1:00pm"}, {"days": "Sat", "time": "11:00am"}, {"days": "Sun", "time": "Closed"}], "id": "3473900001", "name": "USPS COLLECTION BOX - BLUE BOX", "address": {"city": "KENANSVILLE", "state": "FL", "street": "140 N KENANSVILLE RD", "postcode": "34739"}}},
{"geometry": {"type": "Point", "coordinates": [-80.9886728292, 27.8782991063]}, "type": "Feature", "properties": {"collection_times": [{"days": "Mon-Fri", "time": "1:00pm"}, {"days": "Sat", "time": "11:00am"}, {"days": "Sun", "time": "Closed"}], "id": "3473900002", "name": "USPS COLLECTION BOX - PO LOBBY", "address": {"city": "KENANSVILLE", "state": "FL", "street": "140 N KENANSVILLE RD", "postcode": "34739"}}},
{"geometry": {"type": "Point", "coordinates": [-81.4110945296, 28.2916739873]}, "type": "Feature", "properties": {"collection_times": [{"days": "Mon-Fri", "time": "3:15pm"}, {"days": "Sat", "time": "2:00pm"}, {"days": "Sun", "time": "Closed"}], "id": "3474100006", "name": "USPS COLLECTION BOX - BLUE BOX", "address": {"city": "KISSIMMEE", "state": "FL", "street": "2 COURTHOUSE SQ", "postcode": "34741"}}},
{"geometry": {"type": "Point", "coordinates": [-81.4373694588, 28.3046201318]}, "type": "Feature", "properties": {"collection_times": [{"days": "Mon-Fri", "time": "3:30pm"}, {"days": "Sat", "time": "9:00am"}, {"days": "Sun", "time": "Closed"}], "id": "3474100015", "name": "USPS COLLECTION BOX - BLUE BOX", "address": {"city": "KISSIMMEE", "state": "FL", "street": "3357 W VINE ST", "postcode": "34741"}}},
{"geometry": {"type": "Point", "coordinates": [-81.4053075734, 28.3176106867]}, "type": "Feature", "properties": {"collection_times": [{"days": "Mon-Fri", "time": "3:00pm"}, {"days": "Sat", "time": "10:00am"}, {"days": "Sun", "time": "Closed"}], "id": "3474100016", "name": "USPS COLLECTION BOX - BLUE BOX", "address": {"city": "KISSIMMEE", "state": "FL", "street": "201 HILDA ST", "postcode": "34741"}}},
{"geometry": {"type": "Point", "coordinates": [-81.4069840587, 28.2942931527]}, "type": "Feature", "properties": {"collection_times": [{"days": "Mon-Fri", "time": "3:30pm"}, {"days": "Sat", "time": "12:00pm"}, {"days": "Sun", "time": "Closed"}], "id": "3474100020", "name": "USPS COLLECTION BOX - BLUE BOX", "address": {"city": "KISSIMMEE", "state": "FL", "street": "101 CHURCH ST", "postcode": "34741"}}},
{"geometry": {"type": "Point", "coordinates": [-81.4391069211, 28.3085997781]}, "type": "Feature", "properties": {"collection_times": [{"days": "Mon-Sat", "time": "12:30pm"}, {"days": "Sun", "time": "Closed"}], "id": "3474100027", "name": "USPS COLLECTION BOX - BLUE BOX", "address": {"city": "KISSIMMEE", "state": "FL", "street": "3503 BONAIRE BLVD", "postcode": "34741"}}},
{"geometry": {"type": "Point", "coordinates": [-81.4162263913, 28.2956711766]}, "type": "Feature", "properties": {"collection_times": [{"days": "Mon-Fri", "time": "3:30pm"}, {"days": "Sat", "time": "10:00am"}, {"days": "Sun", "time": "Closed"}], "id": "3474100028", "name": "USPS COLLECTION BOX - BLUE BOX", "address": {"city": "KISSIMMEE", "state": "FL", "street": "316 N JOHN YOUNG PKWY", "postcode": "34741"}}},
{"geometry": {"type": "Point", "coordinates": [-81.4099414562, 28.3016156687]}, "type": "Feature", "properties": {"collection_times": [{"days": "Mon-Fri", "time": "1:30pm"}, {"days": "Sat", "time": "11:00am"}, {"days": "Sun", "time": "Closed"}], "id": "3474100029", "name": "USPS COLLECTION BOX - BLUE BOX", "address": {"city": "KISSIMMEE", "state": "FL", "street": "720 W OAK ST", "postcode": "34741"}}},
{"geometry": {"type": "Point", "coordinates": [-81.4366334075, 28.2795998938]}, "type": "Feature", "properties": {"collection_times": [{"days": "Mon-Sat", "time": "12:00pm"}, {"days": "Sun", "time": "Closed"}], "id": "3474100030", "name": "USPS COLLECTION BOX - BLUE BOX", "address": {"city": "KISSIMMEE", "state": "FL", "street": "1080 S HOAGLAND BLVD", "postcode": "34741"}}},
{"geometry": {"type": "Point", "coordinates": [-81.4041959705, 28.3142546977]}, "type": "Feature", "properties": {"collection_times": [{"days": "Mon-Fri", "time": "3:00pm"}, {"days": "Sat", "time": "10:00am"}, {"days": "Sun", "time": "Closed"}], "id": "3474100032", "name": "USPS COLLECTION BOX - BLUE BOX", "address": {"city": "KISSIMMEE", "state": "FL", "street": "102 PARK PLACE BLVD", "postcode": "34741"}}},
{"geometry": {"type": "Point", "coordinates": [-81.4185628611, 28.3008644898]}, "type": "Feature", "properties": {"collection_times": [{"days": "Mon-Fri", "time": "4:45pm"}, {"days": "Sat", "time": "4:00pm"}, {"days": "Sun", "time": "Closed"}], "id": "3474100035", "name": "USPS COLLECTION BOX - PO LOBBY", "address": {"city": "KISSIMMEE", "state": "FL", "street": "1415 W OAK ST", "postcode": "34741"}}},
{"geometry": {"type": "Point", "coordinates": [-81.4185628611, 28.3008644898]}, "type": "Feature", "properties": {"collection_times": [{"days": "Mon-Fri", "time": "5:00pm"}, {"days": "Sat", "time": "4:00pm"}, {"days": "Sun", "time": "Closed"}], "id": "3474100039", "name": "USPS COLLECTION BOX - BLUE BOX", "address": {"city": "KISSIMMEE", "state": "FL", "street": "1415 W OAK ST", "postcode": "34741"}}},
{"geometry": {"type": "Point", "coordinates": [-81.4039259622, 28.2914537989]}, "type": "Feature", "properties": {"collection_times": [{"days": "Mon-Fri", "time": "1:00pm"}, {"days": "Sat", "time": "12:00pm"}, {"days": "Sun", "time": "Closed"}], "id": "3474100041", "name": "USPS COLLECTION BOX - BLUE BOX", "address": {"city": "KISSIMMEE", "state": "FL", "street": "200 JOHNSON ST", "postcode": "34741"}}},
{"geometry": {"type": "Point", "coordinates": [-81.4066646598, 28.2929611409]}, "type": "Feature", "properties": {"collection_times": [{"days": "Mon-Fri", "time": "1:00pm"}, {"days": "Sat", "time": "12:00pm"}, {"days": "Sun", "time": "Closed"}], "id": "3474100042", "name": "USPS COLLECTION BOX - BLUE BOX", "address": {"city": "KISSIMMEE", "state": "FL", "street": "114 BROADWAY", "postcode": "34741"}}},
{"geometry": {"type": "Point", "coordinates": [-81.4185628611, 28.3008644898]}, "type": "Feature", "properties": {"collection_times": [{"days": "Mon-Fri", "time": "4:45pm"}, {"days": "Sat", "time": "4:00pm"}, {"days": "Sun", "time": "Closed"}], "id": "3474100044", "name": "USPS COLLECTION BOX - PO LOBBY", "address": {"city": "KISSIMMEE", "state": "FL", "street": "1415 W OAK ST", "postcode": "34741"}}},
{"geometry": {"type": "Point", "coordinates": [-81.4185628611, 28.3008644898]}, "type": "Feature", "properties": {"collection_times": [{"days": "Mon-Fri", "time": "4:45pm"}, {"days": "Sat", "time": "4:00pm"}, {"days": "Sun", "time": "Closed"}], "id": "3474100045", "name": "USPS COLLECTION BOX - APC", "address": {"city": "KISSIMMEE", "state": "FL", "street": "1415 W OAK ST", "postcode": "34741"}}},
{"geometry": {"type": "Point", "coordinates": [-81.352421298, 28.3274437243]}, "type": "Feature", "properties": {"collection_times": [{"days": "Mon-Fri", "time": "2:45pm"}, {"days": "Sat", "time": "1:45pm"}, {"days": "Sun", "time": "Closed"}], "id": "3474300006", "name": "USPS COLLECTION BOX - BLUE BOX", "address": {"city": "KISSIMMEE", "state": "FL", "street": "503 FLORIDA PKWY", "postcode": "34743"}}},
{"geometry": {"type": "Point", "coordinates": [-81.3777081903, 28.3027122717]}, "type": "Feature", "properties": {"collection_times": [{"days": "Mon-Fri", "time": "3:30pm"}, {"days": "Sat", "time": "2:00pm"}, {"days": "Sun", "time": "Closed"}], "id": "3474400003", "name": "USPS COLLECTION BOX - BLUE BOX", "address": {"city": "KISSIMMEE", "state": "FL", "street": "1633 E VINE ST", "postcode": "34744"}}},
{"geometry": {"type": "Point", "coordinates": [-81.3992155672, 28.3007627553]}, "type": "Feature", "properties": {"collection_times": [{"days": "Mon-Fri", "time": "3:30pm"}, {"days": "Sat", "time": "2:00pm"}, {"days": "Sun", "time": "Closed"}], "id": "3474400005", "name": "USPS COLLECTION BOX - BLUE BOX", "address": {"city": "KISSIMMEE", "state": "FL", "street": "601 E OAK ST", "postcode": "34744"}}},
{"geometry": {"type": "Point", "coordinates": [-81.3912909251, 28.3235252517]}, "type": "Feature", "properties": {"collection_times": [{"days": "Mon-Fri", "time": "5:00pm"}, {"days": "Sat", "time": "3:15pm"}, {"days": "Sun", "time": "Closed"}], "id": "3474400010", "name": "USPS COLLECTION BOX - BLUE BOX", "address": {"city": "KISSIMMEE", "state": "FL", "street": "2600 MICHIGAN AVE", "postcode": "34744"}}},
{"geometry": {"type": "Point", "coordinates": [-81.3912909251, 28.3235252517]}, "type": "Feature", "properties": {"collection_times": [{"days": "Mon-Fri", "time": "4:45pm"}, {"days": "Sat", "time": "3:15pm"}, {"days": "Sun", "time": "Closed"}], "id": "3474400020", "name": "USPS COLLECTION BOX - PO LOBBY", "address": {"city": "KISSIMMEE", "state": "FL", "street": "2600 MICHIGAN AVE", "postcode": "34744"}}},
{"geometry": {"type": "Point", "coordinates": [-81.3912909251, 28.3235252517]}, "type": "Feature", "properties": {"collection_times": [{"days": "Mon-Fri", "time": "4:45pm"}, {"days": "Sat", "time": "3:15pm"}, {"days": "Sun", "time": "Closed"}], "id": "3474400021", "name": "USPS COLLECTION BOX - PO LOBBY", "address": {"city": "KISSIMMEE", "state": "FL", "street": "2600 MICHIGAN AVE", "postcode": "34744"}}},
{"geometry": {"type": "Point", "coordinates": [-81.3912909251, 28.3235252517]}, "type": "Feature", "properties": {"collection_times": [{"days": "Mon-Fri", "time": "4:45pm"}, {"days": "Sat", "time": "3:15pm"}, {"days": "Sun", "time": "Closed"}], "id": "3474400026", "name": "USPS COLLECTION BOX - APC", "address": {"city": "KISSIMMEE", "state": "FL", "street": "2600 MICHIGAN AVE", "postcode": "34744"}}},
{"geometry": {"type": "Point", "coordinates": [-81.3215534238, 28.3028408608]}, "type": "Feature", "properties": {"collection_times": [{"days": "Mon-Sat", "time": "11:00am"}, {"days": "Sun", "time": "Closed"}], "id": "3474400027", "name": "USPS COLLECTION BOX - BLUE BOX", "address": {"city": "KISSIMMEE", "state": "FL", "street": "2501 E IRLO BRONSON HWY", "postcode": "34744"}}},
{"geometry": {"type": "Point", "coordinates": [-81.5207265118, 28.3336648782]}, "type": "Feature", "properties": {"collection_times": [{"days": "Mon-Sat", "time": "12:00pm"}, {"days": "Sun", "time": "Closed"}], "id": "3474600003", "name": "USPS COLLECTION BOX - BLUE BOX", "address": {"city": "KISSIMMEE", "state": "FL", "street": "29 BLAKE BLVD", "postcode": "34746"}}},
{"geometry": {"type": "Point", "coordinates": [-81.435036, 28.261417]}, "type": "Feature", "properties": {"collection_times": [{"days": "Mon-Sat", "time": "12:30pm"}, {"days": "Sun", "time": "Closed"}], "id": "3474600008", "name": "USPS COLLECTION BOX - BLUE BOX", "address": {"city": "KISSIMMEE", "state": "FL", "street": "3275 S JOHN YOUNG PKWY", "postcode": "34746"}}},
{"geometry": {"type": "Point", "coordinates": [-81.459817372, 28.3038751203]}, "type": "Feature", "properties": {"collection_times": [{"days": "Mon-Sat", "time": "11:00am"}, {"days": "Sun", "time": "Closed"}], "id": "3474600011", "name": "USPS COLLECTION BOX - BLUE BOX", "address": {"city": "KISSIMMEE", "state": "FL", "street": "4444 W VINE ST", "postcode": "34746"}}},
{"geometry": {"type": "Point", "coordinates": [-81.6231221467, 28.3105159415]}, "type": "Feature", "properties": {"collection_times": [{"days": "Mon-Sat", "time": "11:00am"}, {"days": "Sun", "time": "Closed"}], "id": "3474700002", "name": "USPS COLLECTION BOX - BLUE BOX", "address": {"city": "KISSIMMEE", "state": "FL", "street": "7840 W IRLO BRONSON HWY", "postcode": "34747"}}},
{"geometry": {"type": "Point", "coordinates": [-81.6128118209, 28.3487080822]}, "type": "Feature", "properties": {"collection_times": [{"days": "Mon-Sat", "time": "11:00am"}, {"days": "Sun", "time": "Closed"}], "id": "3474700005", "name": "USPS COLLECTION BOX - BLUE BOX", "address": {"city": "KISSIMMEE", "state": "FL", "street": "14900 E ORANGE LAKE BLVD", "postcode": "34747"}}},
{"geometry": {"type": "Point", "coordinates": [-81.5408269095, 28.3187687688]}, "type": "Feature", "properties": {"collection_times": [{"days": "Mon-Fri", "time": "4:30pm"}, {"days": "Sat", "time": "2:00pm"}, {"days": "Sun", "time": "Closed"}], "id": "3474700006", "name": "USPS COLLECTION BOX - BLUE BOX", "address": {"city": "KISSIMMEE", "state": "FL", "street": "601 MARKET ST", "postcode": "34747"}}},
{"geometry": {"type": "Point", "coordinates": [-81.6231221467, 28.3105159415]}, "type": "Feature", "properties": {"collection_times": [{"days": "Mon-Sat", "time": "12:00pm"}, {"days": "Sun", "time": "Closed"}], "id": "3474700007", "name": "USPS COLLECTION BOX - BLUE BOX", "address": {"city": "KISSIMMEE", "state": "FL", "street": "8687 W IRLO BRONSON HWY", "postcode": "34747"}}},
{"geometry": {"type": "Point", "coordinates": [-81.8608282639, 28.7141723206]}, "type": "Feature", "properties": {"collection_times": [{"days": "Mon-Sat", "time": "11:00am"}, {"days": "Sun", "time": "Closed"}], "id": "3474800001", "name": "USPS COLLECTION BOX - BLUE BOX", "address": {"city": "LEESBURG", "state": "FL", "street": "25201 US HIGHWAY 27", "postcode": "34748"}}},
{"geometry": {"type": "Point", "coordinates": [-81.8876486772, 28.798834615]}, "type": "Feature", "properties": {"collection_times": [{"days": "Mon-Fri", "time": "5:00pm"}, {"days": "Sat", "time": "4:30pm"}, {"days": "Sun", "time": "Closed"}], "id": "3474800002", "name": "USPS COLLECTION BOX - BLUE BOX", "address": {"city": "LEESBURG", "state": "FL", "street": "1201 S 14TH ST", "postcode": "34748"}}},
{"geometry": {"type": "Point", "coordinates": [-81.8844878109, 28.8223210823]}, "type": "Feature", "properties": {"collection_times": [{"days": "Mon-Fri", "time": "4:00pm"}, {"days": "Sat", "time": "2:30pm"}, {"days": "Sun", "time": "Closed"}], "id": "3474800006", "name": "USPS COLLECTION BOX - BLUE BOX", "address": {"city": "LEESBURG", "state": "FL", "street": "1300 CITIZENS BLVD", "postcode": "34748"}}},
{"geometry": {"type": "Point", "coordinates": [-81.8763715294, 28.8194039055]}, "type": "Feature", "properties": {"collection_times": [{"days": "Mon-Fri", "time": "4:00pm"}, {"days": "Sat", "time": "2:15pm"}, {"days": "Sun", "time": "Closed"}], "id": "3474800007", "name": "USPS COLLECTION BOX - BLUE BOX", "address": {"city": "LEESBURG", "state": "FL", "street": "734 N 3RD ST", "postcode": "34748"}}},
{"geometry": {"type": "Point", "coordinates": [-81.8763715294, 28.8194039055]}, "type": "Feature", "properties": {"collection_times": [{"days": "Mon-Fri", "time": "4:00pm"}, {"days": "Sat", "time": "2:15pm"}, {"days": "Sun", "time": "Closed"}], "id": "3474800008", "name": "USPS COLLECTION BOX - BLUE BOX", "address": {"city": "LEESBURG", "state": "FL", "street": "734 N 3RD ST", "postcode": "34748"}}},
{"geometry": {"type": "Point", "coordinates": [-81.8770410529, 28.8127201768]}, "type": "Feature", "properties": {"collection_times": [{"days": "Mon-Fri", "time": "4:00pm"}, {"days": "Sat", "time": "2:15pm"}, {"days": "Sun", "time": "Closed"}], "id": "3474800009", "name": "USPS COLLECTION BOX - BLUE BOX", "address": {"city": "LEESBURG", "state": "FL", "street": "501 W MEADOW ST", "postcode": "34748"}}},
{"geometry": {"type": "Point", "coordinates": [-81.9455413326, 28.8200917096]}, "type": "Feature", "properties": {"collection_times": [{"days": "Mon-Sat", "time": "11:30am"}, {"days": "Sun", "time": "Closed"}], "id": "3474800011", "name": "USPS COLLECTION BOX - BLUE BOX", "address": {"city": "LEESBURG", "state": "FL", "street": "32503 COUNTRYSIDE BLVD", "postcode": "34748"}}},
{"geometry": {"type": "Point", "coordinates": [-81.8974660537, 28.8127639568]}, "type": "Feature", "properties": {"collection_times": [{"days": "Mon-Sat", "time": "1:00pm"}, {"days": "Sun", "time": "Closed"}], "id": "3474800015", "name": "USPS COLLECTION BOX - BLUE BOX", "address": {"city": "LEESBURG", "state": "FL", "street": "2101 W MAIN ST", "postcode": "34748"}}},
{"geometry": {"type": "Point", "coordinates": [-81.8608282639, 28.7141723206]}, "type": "Feature", "properties": {"collection_times": [{"days": "Mon-Sat", "time": "11:00am"}, {"days": "Sun", "time": "Closed"}], "id": "3474800016", "name": "USPS COLLECTION BOX - BLUE BOX", "address": {"city": "LEESBURG", "state": "FL", "street": "25201 US HIGHWAY 27", "postcode": "34748"}}},
{"geometry": {"type": "Point", "coordinates": [-81.8876486772, 28.798834615]}, "type": "Feature", "properties": {"collection_times": [{"days": "Mon-Fri", "time": "5:00pm"}, {"days": "Sat", "time": "4:30pm"}, {"days": "Sun", "time": "Closed"}], "id": "3474800019", "name": "USPS COLLECTION BOX - PO LOBBY", "address": {"city": "LEESBURG", "state": "FL", "street": "1201 S 14TH ST", "postcode": "34748"}}},
{"geometry": {"type": "Point", "coordinates": [-81.8884838463, 28.7540903751]}, "type": "Feature", "properties": {"collection_times": [{"days": "Mon-Sat", "time": "10:00am"}, {"days": "Sun", "time": "Closed"}], "id": "3474800020", "name": "USPS COLLECTION BOX - BLUE BOX", "address": {"city": "LEESBURG", "state": "FL", "street": "28229 COUNTY ROAD 33", "postcode": "34748"}}},
{"geometry": {"type": "Point", "coordinates": [-81.8844878109, 28.8223210823]}, "type": "Feature", "properties": {"collection_times": [{"days": "Mon-Fri", "time": "4:00pm"}, {"days": "Sat", "time": "2:30pm"}, {"days": "Sun", "time": "Closed"}], "id": "3474800022", "name": "USPS COLLECTION BOX - BLUE BOX", "address": {"city": "LEESBURG", "state": "FL", "street": "1300 CITIZENS BLVD", "postcode": "34748"}}},
{"geometry": {"type": "Point", "coordinates": [-81.8876486772, 28.798834615]}, "type": "Feature", "properties": {"collection_times": [{"days": "Mon-Fri", "time": "5:00pm"}, {"days": "Sat", "time": "4:30pm"}, {"days": "Sun", "time": "Closed"}], "id": "3474800023", "name": "USPS COLLECTION BOX - APC", "address": {"city": "LEESBURG", "state": "FL", "street": "1201 S 14TH ST", "postcode": "34748"}}},
{"geometry": {"type": "Point", "coordinates": [-81.8876486772, 28.798834615]}, "type": "Feature", "properties": {"collection_times": [{"days": "Mon-Fri", "time": "5:00pm"}, {"days": "Sat", "time": "4:30pm"}, {"days": "Sun", "time": "Closed"}], "id": "3474800024", "name": "USPS COLLECTION BOX - PO LOBBY", "address": {"city": "LEESBURG", "state": "FL", "street": "1201 S 14TH ST", "postcode": "34748"}}},
{"geometry": {"type": "Point", "coordinates": [-81.8846427785, 28.5732159493]}, "type": "Feature", "properties": {"collection_times": [{"days": "Mon-Fri", "time": "4:30pm"}, {"days": "Sat", "time": "11:30am"}, {"days": "Sun", "time": "Closed"}], "id": "3475300001", "name": "USPS COLLECTION BOX - BLUE BOX", "address": {"city": "MASCOTTE", "state": "FL", "street": "411 MIDWAY AVE", "postcode": "34753"}}},
{"geometry": {"type": "Point", "coordinates": [-81.8846427785, 28.5732159493]}, "type": "Feature", "properties": {"collection_times": [{"days": "Mon-Fri", "time": "4:30pm"}, {"days": "Sat", "time": "11:30am"}, {"days": "Sun", "time": "Closed"}], "id": "3475300002", "name": "USPS COLLECTION BOX - PO LOBBY", "address": {"city": "MASCOTTE", "state": "FL", "street": "411 MIDWAY AVE", "postcode": "34753"}}},
{"geometry": {"type": "Point", "coordinates": [-81.748832547, 28.5755812958]}, "type": "Feature", "properties": {"collection_times": [{"days": "Mon-Fri", "time": "4:30pm"}, {"days": "Sat", "time": "12:00pm"}, {"days": "Sun", "time": "Closed"}], "id": "3475500001", "name": "USPS COLLECTION BOX - BLUE BOX", "address": {"city": "MINNEOLA", "state": "FL", "street": "131 W WASHINGTON ST", "postcode": "34755"}}},
{"geometry": {"type": "Point", "coordinates": [-81.748832547, 28.5755812958]}, "type": "Feature", "properties": {"collection_times": [{"days": "Mon-Fri", "time": "4:30pm"}, {"days": "Sat", "time": "12:00pm"}, {"days": "Sun", "time": "Closed"}], "id": "3475500002", "name": "USPS COLLECTION BOX - PO LOBBY", "address": {"city": "MINNEOLA", "state": "FL", "street": "131 W WASHINGTON ST", "postcode": "34755"}}},
{"geometry": {"type": "Point", "coordinates": [-81.748832547, 28.5755812958]}, "type": "Feature", "properties": {"collection_times": [{"days": "Mon-Fri", "time": "4:30pm"}, {"days": "Sat", "time": "12:00pm"}, {"days": "Sun", "time": "Closed"}], "id": "3475500003", "name": "USPS COLLECTION BOX - PO LOBBY", "address": {"city": "MINNEOLA", "state": "FL", "street": "131 W WASHINGTON ST", "postcode": "34755"}}},
{"geometry": {"type": "Point", "coordinates": [-81.6715834141, 28.5991284223]}, "type": "Feature", "properties": {"collection_times": [{"days": "Mon-Fri", "time": "4:30pm"}, {"days": "Sat", "time": "11:15am"}, {"days": "Sun", "time": "Closed"}], "id": "3475600001", "name": "USPS COLLECTION BOX - BLUE BOX", "address": {"city": "MONTVERDE", "state": "FL", "street": "17101 PORTER AVE", "postcode": "34756"}}},
{"geometry": {"type": "Point", "coordinates": [-81.6715834141, 28.5991284223]}, "type": "Feature", "properties": {"collection_times": [{"days": "Mon-Fri", "time": "4:30pm"}, {"days": "Sat", "time": "11:15am"}, {"days": "Sun", "time": "Closed"}], "id": "3475600002", "name": "USPS COLLECTION BOX - PO LOBBY", "address": {"city": "MONTVERDE", "state": "FL", "street": "17101 PORTER AVE", "postcode": "34756"}}},
{"geometry": {"type": "Point", "coordinates": [-81.4656449462, 28.1667395342]}, "type": "Feature", "properties": {"collection_times": [{"days": "Mon-Fri", "time": "4:15pm"}, {"days": "Sat", "time": "12:00pm"}, {"days": "Sun", "time": "Closed"}], "id": "3475800001", "name": "USPS COLLECTION BOX - BLUE BOX", "address": {"city": "KISSIMMEE", "state": "FL", "street": "4774 SAN REMO RD", "postcode": "34758"}}},
{"geometry": {"type": "Point", "coordinates": [-81.4656449462, 28.1667395342]}, "type": "Feature", "properties": {"collection_times": [{"days": "Mon-Fri", "time": "4:15pm"}, {"days": "Sat", "time": "12:00pm"}, {"days": "Sun", "time": "Closed"}], "id": "3475800002", "name": "USPS COLLECTION BOX - PO LOBBY", "address": {"city": "KISSIMMEE", "state": "FL", "street": "4774 SAN REMO RD", "postcode": "34758"}}},
{"geometry": {"type": "Point", "coordinates": [-81.4656449462, 28.1667395342]}, "type": "Feature", "properties": {"collection_times": [{"days": "Mon-Fri", "time": "4:15pm"}, {"days": "Sat", "time": "12:00pm"}, {"days": "Sun", "time": "Closed"}], "id": "3475800003", "name": "USPS COLLECTION BOX - PO LOBBY", "address": {"city": "KISSIMMEE", "state": "FL", "street": "4774 SAN REMO RD", "postcode": "34758"}}},
{"geometry": {"type": "Point", "coordinates": [-81.4656449462, 28.1667395342]}, "type": "Feature", "properties": {"collection_times": [{"days": "Mon-Fri", "time": "4:15pm"}, {"days": "Sat", "time": "12:00pm"}, {"days": "Sun", "time": "Closed"}], "id": "3475800004", "name": "USPS COLLECTION BOX - PO LOBBY", "address": {"city": "KISSIMMEE", "state": "FL", "street": "4774 SAN REMO RD", "postcode": "34758"}}},
{"geometry": {"type": "Point", "coordinates": [-81.4506997741, 28.1446270396]}, "type": "Feature", "properties": {"collection_times": [{"days": "Mon-Fri", "time": "4:15pm"}, {"days": "Sat", "time": "12:00pm"}, {"days": "Sun", "time": "Closed"}], "id": "3475900001", "name": "USPS COLLECTION BOX - BLUE BOX", "address": {"city": "KISSIMMEE", "state": "FL", "street": "909 TOWNE CENTER DR", "postcode": "34759"}}},
{"geometry": {"type": "Point", "coordinates": [-81.4787165851, 28.1348453095]}, "type": "Feature", "properties": {"collection_times": [{"days": "Mon-Sat", "time": "1:00pm"}, {"days": "Sun", "time": "Closed"}], "id": "3475900004", "name": "USPS COLLECTION BOX - BLUE BOX", "address": {"city": "KISSIMMEE", "state": "FL", "street": "385 VILLAGE DR", "postcode": "34759"}}},
{"geometry": {"type": "Point", "coordinates": [-81.6280696256, 28.5569502636]}, "type": "Feature", "properties": {"collection_times": [{"days": "Mon-Fri", "time": "4:30pm"}, {"days": "Sat", "time": "11:00am"}, {"days": "Sun", "time": "Closed"}], "id": "3476000001", "name": "USPS COLLECTION BOX - BLUE BOX", "address": {"city": "OAKLAND", "state": "FL", "street": "210 N TUBB ST", "postcode": "34760"}}},
{"geometry": {"type": "Point", "coordinates": [-81.6280696256, 28.5569502636]}, "type": "Feature", "properties": {"collection_times": [{"days": "Mon-Fri", "time": "4:30pm"}, {"days": "Sat", "time": "11:00am"}, {"days": "Sun", "time": "Closed"}], "id": "3476000002", "name": "USPS COLLECTION BOX - PO LOBBY", "address": {"city": "OAKLAND", "state": "FL", "street": "210 N TUBB ST", "postcode": "34760"}}},
{"geometry": {"type": "Point", "coordinates": [-81.516465486, 28.573827823]}, "type": "Feature", "properties": {"collection_times": [{"days": "Mon-Fri", "time": "1:00pm"}, {"days": "Sat", "time": "12:30pm"}, {"days": "Sun", "time": "Closed"}], "id": "3476100001", "name": "USPS COLLECTION BOX - BLUE BOX", "address": {"city": "OCOEE", "state": "FL", "street": "1746 E SILVER STAR RD", "postcode": "34761"}}},
{"geometry": {"type": "Point", "coordinates": [-81.506592572, 28.551927123]}, "type": "Feature", "properties": {"collection_times": [{"days": "Mon-Sat", "time": "12:30pm"}, {"days": "Sun", "time": "Closed"}], "id": "3476100004", "name": "USPS COLLECTION BOX - BLUE BOX", "address": {"city": "OCOEE", "state": "FL", "street": "8891 W COLONIAL DR", "postcode": "34761"}}},
{"geometry": {"type": "Point", "coordinates": [-81.551578316, 28.5735850325]}, "type": "Feature", "properties": {"collection_times": [{"days": "Mon-Fri", "time": "5:00pm"}, {"days": "Sat", "time": "3:00pm"}, {"days": "Sun", "time": "Closed"}], "id": "3476100006", "name": "USPS COLLECTION BOX - BLUE BOX", "address": {"city": "OCOEE", "state": "FL", "street": "449 W SILVER STAR RD", "postcode": "34761"}}},
{"geometry": {"type": "Point", "coordinates": [-81.551578316, 28.5735850325]}, "type": "Feature", "properties": {"collection_times": [{"days": "Mon-Fri", "time": "4:45pm"}, {"days": "Sat", "time": "12:30pm"}, {"days": "Sun", "time": "Closed"}], "id": "3476100011", "name": "USPS COLLECTION BOX - PO LOBBY", "address": {"city": "OCOEE", "state": "FL", "street": "449 W SILVER STAR RD", "postcode": "34761"}}},
{"geometry": {"type": "Point", "coordinates": [-81.5421170102, 28.5715065736]}, "type": "Feature", "properties": {"collection_times": [{"days": "Mon-Fri", "time": "3:30pm"}, {"days": "Sat", "time": "12:30pm"}, {"days": "Sun", "time": "Closed"}], "id": "3476100019", "name": "USPS COLLECTION BOX - BLUE BOX", "address": {"city": "OCOEE", "state": "FL", "street": "150 N LAKESHORE DR", "postcode": "34761"}}},
{"geometry": {"type": "Point", "coordinates": [-81.5260879162, 28.5517286827]}, "type": "Feature", "properties": {"collection_times": [{"days": "Mon-Sat", "time": "10:00am"}, {"days": "Sun", "time": "Closed"}], "id": "3476100020", "name": "USPS COLLECTION BOX - BLUE BOX", "address": {"city": "OCOEE", "state": "FL", "street": "10125 W COLONIAL DR", "postcode": "34761"}}},
{"geometry": {"type": "Point", "coordinates": [-81.5419229029, 28.530703795]}, "type": "Feature", "properties": {"collection_times": [{"days": "Mon-Fri", "time": "9:30am"}, {"days": "Sat", "time": "9:00am"}, {"days": "Sun", "time": "Closed"}], "id": "3476100022", "name": "USPS COLLECTION BOX - BLUE BOX", "address": {"city": "OCOEE", "state": "FL", "street": "2731 MAGUIRE RD", "postcode": "34761"}}},
{"geometry": {"type": "Point", "coordinates": [-81.5444344268, 28.551604472]}, "type": "Feature", "properties": {"collection_times": [{"days": "Mon-Fri", "time": "10:00am"}, {"days": "Sat", "time": "9:00am"}, {"days": "Sun", "time": "Closed"}], "id": "3476100025", "name": "USPS COLLECTION BOX - BLUE BOX", "address": {"city": "OCOEE", "state": "FL", "street": "11119 W COLONIAL DR", "postcode": "34761"}}},
{"geometry": {"type": "Point", "coordinates": [-81.527565432, 28.5517215849]}, "type": "Feature", "properties": {"collection_times": [{"days": "Mon-Fri", "time": "10:30am"}, {"days": "Sat", "time": "10:00am"}, {"days": "Sun", "time": "Closed"}], "id": "3476100028", "name": "USPS COLLECTION BOX - BLUE BOX", "address": {"city": "OCOEE", "state": "FL", "street": "10000 W COLONIAL DR", "postcode": "34761"}}},
{"geometry": {"type": "Point", "coordinates": [-81.8965741026, 28.7477000308]}, "type": "Feature", "properties": {"collection_times": [{"days": "Mon-Fri", "time": "4:00pm"}, {"days": "Sat", "time": "11:00am"}, {"days": "Sun", "time": "Closed"}], "id": "3476200001", "name": "USPS COLLECTION BOX - BLUE BOX", "address": {"city": "OKAHUMPKA", "state": "FL", "street": "3441 COUNTY ROAD 470", "postcode": "34762"}}},
{"geometry": {"type": "Point", "coordinates": [-81.8965741026, 28.7477000308]}, "type": "Feature", "properties": {"collection_times": [{"days": "Mon-Fri", "time": "4:00pm"}, {"days": "Sat", "time": "11:00am"}, {"days": "Sun", "time": "Closed"}], "id": "3476200003", "name": "USPS COLLECTION BOX - PO LOBBY", "address": {"city": "OKAHUMPKA", "state": "FL", "street": "3441 COUNTY ROAD 470", "postcode": "34762"}}},
{"geometry": {"type": "Point", "coordinates": [-81.3165856801, 28.2532279516]}, "type": "Feature", "properties": {"collection_times": [{"days": "Mon-Sat", "time": "2:00pm"}, {"days": "Sun", "time": "Closed"}], "id": "3476900003", "name": "USPS COLLECTION BOX - BLUE BOX", "address": {"city": "SAINT CLOUD", "state": "FL", "street": "4405 13TH ST", "postcode": "34769"}}},
{"geometry": {"type": "Point", "coordinates": [-81.3136178395, 28.251303241]}, "type": "Feature", "properties": {"collection_times": [{"days": "Mon-Sat", "time": "2:00pm"}, {"days": "Sun", "time": "Closed"}], "id": "3476900005", "name": "USPS COLLECTION BOX - BLUE BOX", "address": {"city": "SAINT CLOUD", "state": "FL", "street": "4211 13TH ST", "postcode": "34769"}}},
{"geometry": {"type": "Point", "coordinates": [-81.3070421984, 28.2473565005]}, "type": "Feature", "properties": {"collection_times": [{"days": "Mon-Sat", "time": "2:00pm"}, {"days": "Sun", "time": "Closed"}], "id": "3476900006", "name": "USPS COLLECTION BOX - BLUE BOX", "address": {"city": "SAINT CLOUD", "state": "FL", "street": "3351 13TH ST", "postcode": "34769"}}},
{"geometry": {"type": "Point", "coordinates": [-81.2672700596, 28.1442381184]}, "type": "Feature", "properties": {"collection_times": [{"days": "Mon-Fri", "time": "5:00pm"}, {"days": "Sat", "time": "4:15pm"}, {"days": "Sun", "time": "Closed"}], "id": "3476900010", "name": "USPS COLLECTION BOX - BLUE BOX", "address": {"city": "SAINT CLOUD", "state": "FL", "street": "4701 OLD CANOE CREEK RD", "postcode": "34769"}}},
{"geometry": {"type": "Point", "coordinates": [-81.2830927663, 28.2489183957]}, "type": "Feature", "properties": {"collection_times": [{"days": "Mon-Sat", "time": "2:00pm"}, {"days": "Sun", "time": "Closed"}], "id": "3476900014", "name": "USPS COLLECTION BOX - BLUE BOX", "address": {"city": "SAINT CLOUD", "state": "FL", "street": "1222 10TH ST", "postcode": "34769"}}},
{"geometry": {"type": "Point", "coordinates": [-81.2793356887, 28.2460071337]}, "type": "Feature", "properties": {"collection_times": [{"days": "Mon-Sat", "time": "2:00pm"}, {"days": "Sun", "time": "Closed"}], "id": "3476900015", "name": "USPS COLLECTION BOX - BLUE BOX", "address": {"city": "SAINT CLOUD", "state": "FL", "street": "900 13TH ST", "postcode": "34769"}}},
{"geometry": {"type": "Point", "coordinates": [-81.2672700596, 28.1442381184]}, "type": "Feature", "properties": {"collection_times": [{"days": "Mon-Fri", "time": "4:45pm"}, {"days": "Sat", "time": "4:15pm"}, {"days": "Sun", "time": "Closed"}], "id": "3476900017", "name": "USPS COLLECTION BOX - PO LOBBY", "address": {"city": "SAINT CLOUD", "state": "FL", "street": "4701 OLD CANOE CREEK RD", "postcode": "34769"}}},
{"geometry": {"type": "Point", "coordinates": [-81.2672700596, 28.1442381184]}, "type": "Feature", "properties": {"collection_times": [{"days": "Mon-Fri", "time": "4:45pm"}, {"days": "Sat", "time": "4:15pm"}, {"days": "Sun", "time": "Closed"}], "id": "3476900018", "name": "USPS COLLECTION BOX - APC", "address": {"city": "SAINT CLOUD", "state": "FL", "street": "4701 OLD CANOE CREEK RD", "postcode": "34769"}}},
{"geometry": {"type": "Point", "coordinates": [-82.040731848, 28.8599983253]}, "type": "Feature", "properties": {"collection_times": [{"days": "Mon-Fri", "time": "4:45pm"}, {"days": "Sat", "time": "2:00pm"}, {"days": "Sun", "time": "Closed"}], "id": "3478500001", "name": "USPS COLLECTION BOX - PO LOBBY", "address": {"city": "WILDWOOD", "state": "FL", "street": "316 SHOPPING CENTER DR", "postcode": "34785"}}},
{"geometry": {"type": "Point", "coordinates": [-82.040731848, 28.8599983253]}, "type": "Feature", "properties": {"collection_times": [{"days": "Mon-Fri", "time": "5:00pm"}, {"days": "Sat", "time": "2:00pm"}, {"days": "Sun", "time": "Closed"}], "id": "3478500013", "name": "USPS COLLECTION BOX - BLUE BOX", "address": {"city": "WILDWOOD", "state": "FL", "street": "316 SHOPPING CENTER DR", "postcode": "34785"}}},
{"geometry": {"type": "Point", "coordinates": [-81.5125430361, 28.4935341994]}, "type": "Feature", "properties": {"collection_times": [{"days": "Mon-Fri", "time": "4:45pm"}, {"days": "Sat", "time": "2:00pm"}, {"days": "Sun", "time": "Closed"}], "id": "3478600001", "name": "USPS COLLECTION BOX - BLUE BOX", "address": {"city": "WINDERMERE", "state": "FL", "street": "9300 CONROY WINDERMERE RD", "postcode": "34786"}}},
{"geometry": {"type": "Point", "coordinates": [-81.5125430361, 28.4935341994]}, "type": "Feature", "properties": {"collection_times": [{"days": "Mon-Fri", "time": "4:45pm"}, {"days": "Sat", "time": "2:00pm"}, {"days": "Sun", "time": "Closed"}], "id": "3478600002", "name": "USPS COLLECTION BOX - PO LOBBY", "address": {"city": "WINDERMERE", "state": "FL", "street": "9300 CONROY WINDERMERE RD", "postcode": "34786"}}},
{"geometry": {"type": "Point", "coordinates": [-81.5125430361, 28.4935341994]}, "type": "Feature", "properties": {"collection_times": [{"days": "Mon-Fri", "time": "4:45pm"}, {"days": "Sat", "time": "2:00pm"}, {"days": "Sun", "time": "Closed"}], "id": "3478600007", "name": "USPS COLLECTION BOX - PO LOBBY", "address": {"city": "WINDERMERE", "state": "FL", "street": "9300 CONROY WINDERMERE RD", "postcode": "34786"}}},
{"geometry": {"type": "Point", "coordinates": [-81.5890286271, 28.5650614497]}, "type": "Feature", "properties": {"collection_times": [{"days": "Mon-Sat", "time": "2:45pm"}, {"days": "Sun", "time": "Closed"}], "id": "3478700002", "name": "USPS COLLECTION BOX - BLUE BOX", "address": {"city": "WINTER GARDEN", "state": "FL", "street": "300 W PLANT ST", "postcode": "34787"}}},
{"geometry": {"type": "Point", "coordinates": [-81.5878548484, 28.5654725842]}, "type": "Feature", "properties": {"collection_times": [{"days": "Mon-Fri", "time": "3:00pm"}, {"days": "Sat-Sun", "time": "Closed"}], "id": "3478700015", "name": "USPS COLLECTION BOX - PO LOBBY", "address": {"city": "WINTER GARDEN", "state": "FL", "street": "207 W PLANT ST", "postcode": "34787"}}},
{"geometry": {"type": "Point", "coordinates": [-81.6000257033, 28.5350408535]}, "type": "Feature", "properties": {"collection_times": [{"days": "Mon-Fri", "time": "5:00pm"}, {"days": "Sat", "time": "3:00pm"}, {"days": "Sun", "time": "Closed"}], "id": "3478700016", "name": "USPS COLLECTION BOX - BLUE BOX", "address": {"city": "WINTER GARDEN", "state": "FL", "street": "15155 W COLONIAL DR", "postcode": "34787"}}},
{"geometry": {"type": "Point", "coordinates": [-81.60989701, 28.5510733234]}, "type": "Feature", "properties": {"collection_times": [{"days": "Mon-Fri", "time": "5:00pm"}, {"days": "Sat", "time": "3:00pm"}, {"days": "Sun", "time": "Closed"}], "id": "3478700018", "name": "USPS COLLECTION BOX - PO LOBBY", "address": {"city": "WINTER GARDEN", "state": "FL", "street": "15155 W COLONIAL DR", "postcode": "34787"}}},
{"geometry": {"type": "Point", "coordinates": [-81.600017013, 28.5350322097]}, "type": "Feature", "properties": {"collection_times": [{"days": "Mon-Fri", "time": "5:00pm"}, {"days": "Sat", "time": "3:00pm"}, {"days": "Sun", "time": "Closed"}], "id": "3478700019", "name": "USPS COLLECTION BOX - APC", "address": {"city": "WINTER GARDEN", "state": "FL", "street": "15155 W COLONIAL DR", "postcode": "34787"}}},
{"geometry": {"type": "Point", "coordinates": [-81.60989701, 28.5510733234]}, "type": "Feature", "properties": {"collection_times": [{"days": "Mon-Fri", "time": "5:00pm"}, {"days": "Sat", "time": "3:00pm"}, {"days": "Sun", "time": "Closed"}], "id": "3478700020", "name": "USPS COLLECTION BOX - PO LOBBY", "address": {"city": "WINTER GARDEN", "state": "FL", "street": "15155 W COLONIAL DR", "postcode": "34787"}}},
{"geometry": {"type": "Point", "coordinates": [-81.7736355211, 28.8720183715]}, "type": "Feature", "properties": {"collection_times": [{"days": "Mon-Sat", "time": "10:30am"}, {"days": "Sun", "time": "Closed"}], "id": "3478800003", "name": "USPS COLLECTION BOX - BLUE BOX", "address": {"city": "LEESBURG", "state": "FL", "street": "188 FOREST DR", "postcode": "34788"}}},
{"geometry": {"type": "Point", "coordinates": [-81.7734848564, 28.8202958565]}, "type": "Feature", "properties": {"collection_times": [{"days": "Mon-Fri", "time": "4:30pm"}, {"days": "Sat", "time": "12:00pm"}, {"days": "Sun", "time": "Closed"}], "id": "3478800004", "name": "USPS COLLECTION BOX - BLUE BOX", "address": {"city": "LEESBURG", "state": "FL", "street": "32327 COUNTY ROAD 473", "postcode": "34788"}}},
{"geometry": {"type": "Point", "coordinates": [-81.7734848564, 28.8202958565]}, "type": "Feature", "properties": {"collection_times": [{"days": "Mon-Fri", "time": "4:30pm"}, {"days": "Sat", "time": "12:00pm"}, {"days": "Sun", "time": "Closed"}], "id": "3478800005", "name": "USPS COLLECTION BOX - BLUE BOX", "address": {"city": "LEESBURG", "state": "FL", "street": "32327 COUNTY ROAD 473", "postcode": "34788"}}},
{"geometry": {"type": "Point", "coordinates": [-81.7784920526, 28.820415103]}, "type": "Feature", "properties": {"collection_times": [{"days": "Mon-Sat", "time": "10:00am"}, {"days": "Sun", "time": "Closed"}], "id": "3478800006", "name": "USPS COLLECTION BOX - BLUE BOX", "address": {"city": "LEESBURG", "state": "FL", "street": "10701 US HIGHWAY 441", "postcode": "34788"}}},
{"geometry": {"type": "Point", "coordinates": [-81.7784920526, 28.820415103]}, "type": "Feature", "properties": {"collection_times": [{"days": "Mon-Sat", "time": "10:00am"}, {"days": "Sun", "time": "Closed"}], "id": "3478800007", "name": "USPS COLLECTION BOX - BLUE BOX", "address": {"city": "LEESBURG", "state": "FL", "street": "10701 US HIGHWAY 441", "postcode": "34788"}}},
{"geometry": {"type": "Point", "coordinates": [-81.7854634989, 28.8228427672]}, "type": "Feature", "properties": {"collection_times": [{"days": "Mon-Sat", "time": "10:00am"}, {"days": "Sun", "time": "Closed"}], "id": "3478800008", "name": "USPS COLLECTION BOX - BLUE BOX", "address": {"city": "LEESBURG", "state": "FL", "street": "10401 US HIGHWAY 441", "postcode": "34788"}}},
{"geometry": {"type": "Point", "coordinates": [-81.7734848564, 28.8202958565]}, "type": "Feature", "properties": {"collection_times": [{"days": "Mon-Fri", "time": "4:30pm"}, {"days": "Sat", "time": "12:00pm"}, {"days": "Sun", "time": "Closed"}], "id": "3478800009", "name": "USPS COLLECTION BOX - PO LOBBY", "address": {"city": "LEESBURG", "state": "FL", "street": "32327 COUNTY ROAD 473", "postcode": "34788"}}},
{"geometry": {"type": "Point", "coordinates": [-81.8094851217, 28.7419864128]}, "type": "Feature", "properties": {"collection_times": [{"days": "Mon-Fri", "time": "4:00pm"}, {"days": "Sat", "time": "11:00am"}, {"days": "Sun", "time": "Closed"}], "id": "3479700001", "name": "USPS COLLECTION BOX - BLUE BOX", "address": {"city": "YALAHA", "state": "FL", "street": "8712 COUNTY ROAD 48", "postcode": "34797"}}},
{"geometry": {"type": "Point", "coordinates": [-81.8094851217, 28.7419864128]}, "type": "Feature", "properties": {"collection_times": [{"days": "Mon-Fri", "time": "4:00pm"}, {"days": "Sat", "time": "11:00am"}, {"days": "Sun", "time": "Closed"}], "id": "3479700002", "name": "USPS COLLECTION BOX - PO LOBBY", "address": {"city": "YALAHA", "state": "FL", "street": "8712 COUNTY ROAD 48", "postcode": "34797"}}},
{"geometry": {"type": "Point", "coordinates": [-81.8094851217, 28.7419864128]}, "type": "Feature", "properties": {"collection_times": [{"days": "Mon-Fri", "time": "4:00pm"}, {"days": "Sat", "time": "11:00am"}, {"days": "Sun", "time": "Closed"}], "id": "3479700003", "name": "USPS COLLECTION BOX - PO LOBBY", "address": {"city": "YALAHA", "state": "FL", "street": "8712 COUNTY ROAD 48", "postcode": "34797"}}}
]}
