{"type": "FeatureCollection", "features": [
{"geometry": {"type": "Point", "coordinates": [-80.3473268404, 27.4305706491]}, "type": "Feature", "properties": {"collection_times": [{"days": "Mon-Fri", "time": "2:00pm"}, {"days": "Sat", "time": "1:00pm"}, {"days": "Sun", "time": "Closed"}], "id": "3495000001", "name": "USPS COLLECTION BOX - BLUE BOX", "address": {"city": "FORT PIERCE", "state": "FL", "street": "1700 S 23RD ST", "postcode": "34950"}}},
{"geometry": {"type": "Point", "coordinates": [-80.3235549687, 27.4468263818]}, "type": "Feature", "properties": {"collection_times": [{"days": "Mon-Fri", "time": "2:30pm"}, {"days": "Sat", "time": "1:00pm"}, {"days": "Sun", "time": "Closed"}], "id": "3495000006", "name": "USPS COLLECTION BOX - BLUE BOX", "address": {"city": "FORT PIERCE", "state": "FL", "street": "218 S 2ND ST", "postcode": "34950"}}},
{"geometry": {"type": "Point", "coordinates": [-80.3459678982, 27.4330668938]}, "type": "Feature", "properties": {"collection_times": [{"days": "Mon-Fri", "time": "2:00pm"}, {"days": "Sat", "time": "1:00pm"}, {"days": "Sun", "time": "Closed"}], "id": "3495000016", "name": "USPS COLLECTION BOX - BLUE BOX", "address": {"city": "FORT PIERCE", "state": "FL", "street": "2215 NEBRASKA AVE", "postcode": "34950"}}},
{"geometry": {"type": "Point", "coordinates": [-80.3416284996, 27.447200205]}, "type": "Feature", "properties": {"collection_times": [{"days": "Mon-Sat", "time": "5:00pm"}, {"days": "Sun", "time": "Closed"}], "id": "3495000021", "name": "USPS COLLECTION BOX - PO LOBBY", "address": {"city": "FORT PIERCE", "state": "FL", "street": "1717 ORANGE AVE", "postcode": "34950"}}},
{"geometry": {"type": "Point", "coordinates": [-80.3268793053, 27.4439914361]}, "type": "Feature", "properties": {"collection_times": [{"days": "Mon-Fri", "time": "2:45pm"}, {"days": "Sat", "time": "1:00pm"}, {"days": "Sun", "time": "Closed"}], "id": "3495000037", "name": "USPS COLLECTION BOX - BLUE BOX", "address": {"city": "FORT PIERCE", "state": "FL", "street": "402 S 5TH ST", "postcode": "34950"}}},
{"geometry": {"type": "Point", "coordinates": [-80.3690874411, 27.4250540507]}, "type": "Feature", "properties": {"collection_times": [{"days": "Mon-Fri", "time": "2:00pm"}, {"days": "Sat-Sun", "time": "Closed"}], "id": "3495000039", "name": "USPS COLLECTION BOX - BLUE BOX", "address": {"city": "FORT PIERCE", "state": "FL", "street": "4300 OKEECHOBEE RD", "postcode": "34950"}}},
{"geometry": {"type": "Point", "coordinates": [-80.3416284996, 27.447200205]}, "type": "Feature", "properties": {"collection_times": [{"days": "Mon-Sat", "time": "5:00pm"}, {"days": "Sun", "time": "Closed"}], "id": "3495000040", "name": "USPS COLLECTION BOX - BLUE BOX", "address": {"city": "FORT PIERCE", "state": "FL", "street": "1717 ORANGE AVE", "postcode": "34950"}}},
{"geometry": {"type": "Point", "coordinates": [-80.3939022301, 27.5280803976]}, "type": "Feature", "properties": {"collection_times": [{"days": "Mon-Sat", "time": "1:00pm"}, {"days": "Sun", "time": "Closed"}], "id": "3495100000", "name": "USPS COLLECTION BOX - BLUE BOX", "address": {"city": "FORT PIERCE", "state": "FL", "street": "7319 INDRIO RD", "postcode": "34951"}}},
{"geometry": {"type": "Point", "coordinates": [-80.3229869713, 27.3300900963]}, "type": "Feature", "properties": {"collection_times": [{"days": "Mon-Sat", "time": "11:30am"}, {"days": "Sun", "time": "Closed"}], "id": "3495200005", "name": "USPS COLLECTION BOX - BLUE BOX", "address": {"city": "PORT ST LUCIE", "state": "FL", "street": "7410 S FEDERAL HWY", "postcode": "34952"}}},
{"geometry": {"type": "Point", "coordinates": [-80.3174676176, 27.3207101938]}, "type": "Feature", "properties": {"collection_times": [{"days": "Mon-Sat", "time": "11:15am"}, {"days": "Sun", "time": "Closed"}], "id": "3495200007", "name": "USPS COLLECTION BOX - BLUE BOX", "address": {"city": "PORT ST LUCIE", "state": "FL", "street": "8000 S FEDERAL HWY", "postcode": "34952"}}},
{"geometry": {"type": "Point", "coordinates": [-80.2935900912, 27.280445765]}, "type": "Feature", "properties": {"collection_times": [{"days": "Mon-Fri", "time": "1:30pm"}, {"days": "Sat", "time": "12:00pm"}, {"days": "Sun", "time": "Closed"}], "id": "3495200012", "name": "USPS COLLECTION BOX - BLUE BOX", "address": {"city": "PORT ST LUCIE", "state": "FL", "street": "10135 S FEDERAL HWY", "postcode": "34952"}}},
{"geometry": {"type": "Point", "coordinates": [-80.296490309, 27.2881886063]}, "type": "Feature", "properties": {"collection_times": [{"days": "Mon-Sat", "time": "11:00am"}, {"days": "Sun", "time": "Closed"}], "id": "3495200014", "name": "USPS COLLECTION BOX - BLUE BOX", "address": {"city": "PORT ST LUCIE", "state": "FL", "street": "1700 SE HILLMOOR DR", "postcode": "34952"}}},
{"geometry": {"type": "Point", "coordinates": [-80.29517679, 27.2873166755]}, "type": "Feature", "properties": {"collection_times": [{"days": "Mon-Fri", "time": "1:00pm"}, {"days": "Sat", "time": "12:00pm"}, {"days": "Sun", "time": "Closed"}], "id": "3495200016", "name": "USPS COLLECTION BOX - BLUE BOX", "address": {"city": "PORT ST LUCIE", "state": "FL", "street": "1801 SE HILLMOOR DR", "postcode": "34952"}}},
{"geometry": {"type": "Point", "coordinates": [-80.3185406071, 27.275828029]}, "type": "Feature", "properties": {"collection_times": [{"days": "Mon-Sat", "time": "11:45am"}, {"days": "Sun", "time": "Closed"}], "id": "3495200022", "name": "USPS COLLECTION BOX - BLUE BOX", "address": {"city": "PORT ST LUCIE", "state": "FL", "street": "2400 SE VETERANS MEMORIAL PKWY", "postcode": "34952"}}},
{"geometry": {"type": "Point", "coordinates": [-80.3214429288, 27.3268651977]}, "type": "Feature", "properties": {"collection_times": [{"days": "Mon-Sat", "time": "10:45am"}, {"days": "Sun", "time": "Closed"}], "id": "3495200024", "name": "USPS COLLECTION BOX - BLUE BOX", "address": {"city": "PORT ST LUCIE", "state": "FL", "street": "891 E PRIMA VISTA BLVD", "postcode": "34952"}}},
{"geometry": {"type": "Point", "coordinates": [-80.2951389284, 27.2896985473]}, "type": "Feature", "properties": {"collection_times": [{"days": "Mon-Fri", "time": "2:15pm"}, {"days": "Sat", "time": "12:15pm"}, {"days": "Sun", "time": "Closed"}], "id": "3495200028", "name": "USPS COLLECTION BOX - BLUE BOX", "address": {"city": "PORT ST LUCIE", "state": "FL", "street": "1800 SE TIFFANY AVE", "postcode": "34952"}}},
{"geometry": {"type": "Point", "coordinates": [-80.3169687625, 27.2796887839]}, "type": "Feature", "properties": {"collection_times": [{"days": "Mon-Fri", "time": "5:00pm"}, {"days": "Sat", "time": "4:00pm"}, {"days": "Sun", "time": "Closed"}], "id": "3495200030", "name": "USPS COLLECTION BOX - BLUE BOX", "address": {"city": "PORT ST LUCIE", "state": "FL", "street": "2255 SE VETERANS MEMORIAL PKWY", "postcode": "34952"}}},
{"geometry": {"type": "Point", "coordinates": [-80.3059965946, 27.3010726084]}, "type": "Feature", "properties": {"collection_times": [{"days": "Mon-Fri", "time": "2:30pm"}, {"days": "Sat-Sun", "time": "Closed"}], "id": "3495200032", "name": "USPS COLLECTION BOX - BLUE BOX", "address": {"city": "PORT ST LUCIE", "state": "FL", "street": "9122 S FEDERAL HWY", "postcode": "34952"}}},
{"geometry": {"type": "Point", "coordinates": [-80.3169687625, 27.2796887839]}, "type": "Feature", "properties": {"collection_times": [{"days": "Mon-Fri", "time": "5:00pm"}, {"days": "Sat", "time": "4:00pm"}, {"days": "Sun", "time": "Closed"}], "id": "3495200033", "name": "USPS COLLECTION BOX - APC", "address": {"city": "PORT ST LUCIE", "state": "FL", "street": "2255 SE VETERANS MEMORIAL PKWY", "postcode": "34952"}}},
{"geometry": {"type": "Point", "coordinates": [-80.3026746688, 27.2985015797]}, "type": "Feature", "properties": {"collection_times": [{"days": "Mon-Sat", "time": "11:00am"}, {"days": "Sun", "time": "Closed"}], "id": "3495200034", "name": "USPS COLLECTION BOX - BLUE BOX", "address": {"city": "PORT ST LUCIE", "state": "FL", "street": "1664 SE WALTON RD", "postcode": "34952"}}},
{"geometry": {"type": "Point", "coordinates": [-80.3169687625, 27.2796887839]}, "type": "Feature", "properties": {"collection_times": [{"days": "Mon-Fri", "time": "5:00pm"}, {"days": "Sat", "time": "4:00pm"}, {"days": "Sun", "time": "Closed"}], "id": "3495200037", "name": "USPS COLLECTION BOX - BLUE BOX", "address": {"city": "PORT ST LUCIE", "state": "FL", "street": "2255 SE VETERANS MEMORIAL PKWY", "postcode": "34952"}}},
{"geometry": {"type": "Point", "coordinates": [-80.3169687625, 27.2796887839]}, "type": "Feature", "properties": {"collection_times": [{"days": "Mon-Fri", "time": "5:00pm"}, {"days": "Sat", "time": "4:00pm"}, {"days": "Sun", "time": "Closed"}], "id": "3495200038", "name": "USPS COLLECTION BOX - BLUE BOX", "address": {"city": "PORT ST LUCIE", "state": "FL", "street": "2255 SE VETERANS MEMORIAL PKWY", "postcode": "34952"}}},
{"geometry": {"type": "Point", "coordinates": [-80.3719843333, 27.2186865103]}, "type": "Feature", "properties": {"collection_times": [{"days": "Mon-Fri", "time": "2:30pm"}, {"days": "Sat", "time": "1:00pm"}, {"days": "Sun", "time": "Closed"}], "id": "3495300001", "name": "USPS COLLECTION BOX - BLUE BOX", "address": {"city": "FORT PIERCE", "state": "FL", "street": "3205 SW PORT ST LUCIE BLVD", "postcode": "34953"}}},
{"geometry": {"type": "Point", "coordinates": [-80.4674212667, 27.0201753699]}, "type": "Feature", "properties": {"collection_times": [{"days": "Mon-Fri", "time": "2:00pm"}, {"days": "Sat", "time": "11:00am"}, {"days": "Sun", "time": "Closed"}], "id": "3495600001", "name": "USPS COLLECTION BOX - BLUE BOX", "address": {"city": "INDIANTOWN", "state": "FL", "street": "15300 SW ADAMS AVE", "postcode": "34956"}}},
{"geometry": {"type": "Point", "coordinates": [-80.4734271494, 27.0302636439]}, "type": "Feature", "properties": {"collection_times": [{"days": "Mon-Sat", "time": "10:00am"}, {"days": "Sun", "time": "Closed"}], "id": "3495600002", "name": "USPS COLLECTION BOX - BLUE BOX", "address": {"city": "INDIANTOWN", "state": "FL", "street": "14574 SW RAKE DR", "postcode": "34956"}}},
{"geometry": {"type": "Point", "coordinates": [-80.4674212667, 27.0201753699]}, "type": "Feature", "properties": {"collection_times": [{"days": "Mon-Fri", "time": "2:00pm"}, {"days": "Sat", "time": "11:00am"}, {"days": "Sun", "time": "Closed"}], "id": "3495600004", "name": "USPS COLLECTION BOX - PO LOBBY", "address": {"city": "INDIANTOWN", "state": "FL", "street": "15300 SW ADAMS AVE", "postcode": "34956"}}},
{"geometry": {"type": "Point", "coordinates": [-80.2377557326, 27.2451311676]}, "type": "Feature", "properties": {"collection_times": [{"days": "Mon-Fri", "time": "2:00pm"}, {"days": "Sat", "time": "1:30pm"}, {"days": "Sun", "time": "Closed"}], "id": "3495700001", "name": "USPS COLLECTION BOX - BLUE BOX", "address": {"city": "JENSEN BEACH", "state": "FL", "street": "1105 NE JENSEN BEACH BLVD", "postcode": "34957"}}},
{"geometry": {"type": "Point", "coordinates": [-80.2277697578, 27.2436623816]}, "type": "Feature", "properties": {"collection_times": [{"days": "Mon-Fri", "time": "1:45pm"}, {"days": "Sat", "time": "1:00pm"}, {"days": "Sun", "time": "Closed"}], "id": "3495700006", "name": "USPS COLLECTION BOX - BLUE BOX", "address": {"city": "JENSEN BEACH", "state": "FL", "street": "1816 NE JENSEN BEACH BLVD", "postcode": "34957"}}},
{"geometry": {"type": "Point", "coordinates": [-80.2260436975, 27.3177704821]}, "type": "Feature", "properties": {"collection_times": [{"days": "Mon-Sat", "time": "12:30pm"}, {"days": "Sun", "time": "Closed"}], "id": "3495700011", "name": "USPS COLLECTION BOX - BLUE BOX", "address": {"city": "JENSEN BEACH", "state": "FL", "street": "9801 S OCEAN DR", "postcode": "34957"}}},
{"geometry": {"type": "Point", "coordinates": [-80.2271173485, 27.2447187258]}, "type": "Feature", "properties": {"collection_times": [{"days": "Mon-Fri", "time": "2:00pm"}, {"days": "Sat", "time": "1:00pm"}, {"days": "Sun", "time": "Closed"}], "id": "3495700013", "name": "USPS COLLECTION BOX - BLUE BOX", "address": {"city": "JENSEN BEACH", "state": "FL", "street": "1900 NE RICOU TER", "postcode": "34957"}}},
{"geometry": {"type": "Point", "coordinates": [-80.2231098637, 27.2415981152]}, "type": "Feature", "properties": {"collection_times": [{"days": "Mon-Sat", "time": "12:00pm"}, {"days": "Sun", "time": "Closed"}], "id": "3495700014", "name": "USPS COLLECTION BOX - BLUE BOX", "address": {"city": "JENSEN BEACH", "state": "FL", "street": "3000 NE INDIAN RIVER DR", "postcode": "34957"}}},
{"geometry": {"type": "Point", "coordinates": [-80.2363680876, 27.2329565648]}, "type": "Feature", "properties": {"collection_times": [{"days": "Mon-Fri", "time": "5:00pm"}, {"days": "Sat", "time": "4:00pm"}, {"days": "Sun", "time": "Closed"}], "id": "3495700022", "name": "USPS COLLECTION BOX - BLUE BOX", "address": {"city": "JENSEN BEACH", "state": "FL", "street": "2301 NE SAVANNAH RD", "postcode": "34957"}}},
{"geometry": {"type": "Point", "coordinates": [-80.2363680876, 27.2329565648]}, "type": "Feature", "properties": {"collection_times": [{"days": "Mon-Fri", "time": "5:00pm"}, {"days": "Sat", "time": "4:00pm"}, {"days": "Sun", "time": "Closed"}], "id": "3495700023", "name": "USPS COLLECTION BOX - PO LOBBY", "address": {"city": "JENSEN BEACH", "state": "FL", "street": "2301 NE SAVANNAH RD", "postcode": "34957"}}},
{"geometry": {"type": "Point", "coordinates": [-80.2363680876, 27.2329565648]}, "type": "Feature", "properties": {"collection_times": [{"days": "Mon-Fri", "time": "5:00pm"}, {"days": "Sat", "time": "4:00pm"}, {"days": "Sun", "time": "Closed"}], "id": "3495700024", "name": "USPS COLLECTION BOX - PO LOBBY", "address": {"city": "JENSEN BEACH", "state": "FL", "street": "2301 NE SAVANNAH RD", "postcode": "34957"}}},
{"geometry": {"type": "Point", "coordinates": [-80.2363680876, 27.2329565648]}, "type": "Feature", "properties": {"collection_times": [{"days": "Mon-Fri", "time": "5:00pm"}, {"days": "Sat", "time": "4:00pm"}, {"days": "Sun", "time": "Closed"}], "id": "3495700025", "name": "USPS COLLECTION BOX - PO LOBBY", "address": {"city": "JENSEN BEACH", "state": "FL", "street": "2301 NE SAVANNAH RD", "postcode": "34957"}}},
{"geometry": {"type": "Point", "coordinates": [-80.2190572291, 27.3016040758]}, "type": "Feature", "properties": {"collection_times": [{"days": "Mon-Fri", "time": "4:00pm"}, {"days": "Sat", "time": "12:00pm"}, {"days": "Sun", "time": "Closed"}], "id": "3495700033", "name": "USPS COLLECTION BOX - BLUE BOX", "address": {"city": "JENSEN BEACH", "state": "FL", "street": "11007 S OCEAN DR", "postcode": "34957"}}},
{"geometry": {"type": "Point", "coordinates": [-80.2190572291, 27.3016040758]}, "type": "Feature", "properties": {"collection_times": [{"days": "Mon-Fri", "time": "4:00pm"}, {"days": "Sat-Sun", "time": "Closed"}], "id": "3495700034", "name": "USPS COLLECTION BOX - PO LOBBY", "address": {"city": "JENSEN BEACH", "state": "FL", "street": "11007 S OCEAN DR", "postcode": "34957"}}},
{"geometry": {"type": "Point", "coordinates": [-80.2363680876, 27.2329565648]}, "type": "Feature", "properties": {"collection_times": [{"days": "Mon-Fri", "time": "5:00pm"}, {"days": "Sat", "time": "4:00pm"}, {"days": "Sun", "time": "Closed"}], "id": "3495700037", "name": "USPS COLLECTION BOX - APC", "address": {"city": "JENSEN BEACH", "state": "FL", "street": "2301 NE SAVANNAH RD", "postcode": "34957"}}},
{"geometry": {"type": "Point", "coordinates": [-80.8414733553, 27.2437843362]}, "type": "Feature", "properties": {"collection_times": [{"days": "Mon-Sat", "time": "5:00pm"}, {"days": "Sun", "time": "Closed"}], "id": "3497200001", "name": "USPS COLLECTION BOX - PO LOBBY", "address": {"city": "OKEECHOBEE", "state": "FL", "street": "1000 HIGHWAY 70", "postcode": "34972"}}},
{"geometry": {"type": "Point", "coordinates": [-80.8322789916, 27.2447114144]}, "type": "Feature", "properties": {"collection_times": [{"days": "Mon-Sat", "time": "1:30pm"}, {"days": "Sun", "time": "Closed"}], "id": "3497200004", "name": "USPS COLLECTION BOX - BLUE BOX", "address": {"city": "OKEECHOBEE", "state": "FL", "street": "303 NW 2ND ST", "postcode": "34972"}}},
{"geometry": {"type": "Point", "coordinates": [-80.8414733553, 27.2437843362]}, "type": "Feature", "properties": {"collection_times": [{"days": "Mon-Sat", "time": "5:00pm"}, {"days": "Sun", "time": "Closed"}], "id": "3497200007", "name": "USPS COLLECTION BOX - BLUE BOX", "address": {"city": "OKEECHOBEE", "state": "FL", "street": "1000 HIGHWAY 70", "postcode": "34972"}}},
{"geometry": {"type": "Point", "coordinates": [-80.8299777796, 27.2614180499]}, "type": "Feature", "properties": {"collection_times": [{"days": "Mon-Sat", "time": "1:30pm"}, {"days": "Sun", "time": "Closed"}], "id": "3497200008", "name": "USPS COLLECTION BOX - BLUE BOX", "address": {"city": "OKEECHOBEE", "state": "FL", "street": "1796 US HIGHWAY 441 N", "postcode": "34972"}}},
{"geometry": {"type": "Point", "coordinates": [-80.8414733553, 27.2437843362]}, "type": "Feature", "properties": {"collection_times": [{"days": "Mon-Sat", "time": "5:00pm"}, {"days": "Sun", "time": "Closed"}], "id": "3497200009", "name": "USPS COLLECTION BOX - PO LOBBY", "address": {"city": "OKEECHOBEE", "state": "FL", "street": "1000 HIGHWAY 70", "postcode": "34972"}}},
{"geometry": {"type": "Point", "coordinates": [-80.8414733553, 27.2437843362]}, "type": "Feature", "properties": {"collection_times": [{"days": "Mon-Sat", "time": "5:00pm"}, {"days": "Sun", "time": "Closed"}], "id": "3497200010", "name": "USPS COLLECTION BOX - PO LOBBY", "address": {"city": "OKEECHOBEE", "state": "FL", "street": "1000 HIGHWAY 70", "postcode": "34972"}}},
{"geometry": {"type": "Point", "coordinates": [-80.829666239, 27.2094352726]}, "type": "Feature", "properties": {"collection_times": [{"days": "Mon-Sat", "time": "1:45pm"}, {"days": "Sun", "time": "Closed"}], "id": "3497400002", "name": "USPS COLLECTION BOX - BLUE BOX", "address": {"city": "OKEECHOBEE", "state": "FL", "street": "3603 US HIGHWAY 441 S", "postcode": "34974"}}},
{"geometry": {"type": "Point", "coordinates": [-80.8299680652, 27.2043602544]}, "type": "Feature", "properties": {"collection_times": [{"days": "Mon-Sat", "time": "1:45pm"}, {"days": "Sun", "time": "Closed"}], "id": "3497400003", "name": "USPS COLLECTION BOX - BLUE BOX", "address": {"city": "OKEECHOBEE", "state": "FL", "street": "4276 US HIGHWAY 441 S", "postcode": "34974"}}},
{"geometry": {"type": "Point", "coordinates": [-80.8299857374, 27.2140097804]}, "type": "Feature", "properties": {"collection_times": [{"days": "Mon-Sat", "time": "1:45pm"}, {"days": "Sun", "time": "Closed"}], "id": "3497400004", "name": "USPS COLLECTION BOX - BLUE BOX", "address": {"city": "OKEECHOBEE", "state": "FL", "street": "3246 US HIGHWAY 441 S", "postcode": "34974"}}},
{"geometry": {"type": "Point", "coordinates": [-80.8297368405, 27.235845931]}, "type": "Feature", "properties": {"collection_times": [{"days": "Mon-Sat", "time": "2:00pm"}, {"days": "Sun", "time": "Closed"}], "id": "3497400006", "name": "USPS COLLECTION BOX - BLUE BOX", "address": {"city": "OKEECHOBEE", "state": "FL", "street": "815 S PARROTT AVE", "postcode": "34974"}}},
{"geometry": {"type": "Point", "coordinates": [-80.8297020395, 27.2237853242]}, "type": "Feature", "properties": {"collection_times": [{"days": "Mon-Sat", "time": "2:00pm"}, {"days": "Sun", "time": "Closed"}], "id": "3497400007", "name": "USPS COLLECTION BOX - BLUE BOX", "address": {"city": "OKEECHOBEE", "state": "FL", "street": "2101 S PARROTT AVE", "postcode": "34974"}}},
{"geometry": {"type": "Point", "coordinates": [-80.3762406138, 27.3745093492]}, "type": "Feature", "properties": {"collection_times": [{"days": "Mon-Sat", "time": "5:00pm"}, {"days": "Sun", "time": "Closed"}], "id": "3498100003", "name": "USPS COLLECTION BOX - BLUE BOX", "address": {"city": "FORT PIERCE", "state": "FL", "street": "5000 W MIDWAY RD", "postcode": "34981"}}},
{"geometry": {"type": "Point", "coordinates": [-80.3762406138, 27.3745093492]}, "type": "Feature", "properties": {"collection_times": [{"days": "Mon-Sat", "time": "5:00pm"}, {"days": "Sun", "time": "Closed"}], "id": "3498100006", "name": "USPS COLLECTION BOX - PO LOBBY", "address": {"city": "FORT PIERCE", "state": "FL", "street": "5000 W MIDWAY RD", "postcode": "34981"}}},
{"geometry": {"type": "Point", "coordinates": [-80.3762406138, 27.3745093492]}, "type": "Feature", "properties": {"collection_times": [{"days": "Mon-Sat", "time": "5:00pm"}, {"days": "Sun", "time": "Closed"}], "id": "3498100007", "name": "USPS COLLECTION BOX - APC", "address": {"city": "FORT PIERCE", "state": "FL", "street": "5000 W MIDWAY RD", "postcode": "34981"}}},
{"geometry": {"type": "Point", "coordinates": [-80.3259776472, 27.4224428727]}, "type": "Feature", "properties": {"collection_times": [{"days": "Mon-Sat", "time": "12:00pm"}, {"days": "Sun", "time": "Closed"}], "id": "3498200001", "name": "USPS COLLECTION BOX - BLUE BOX", "address": {"city": "FORT PIERCE", "state": "FL", "street": "2503 S FEDERAL HWY", "postcode": "34982"}}},
{"geometry": {"type": "Point", "coordinates": [-80.3260482914, 27.3752120841]}, "type": "Feature", "properties": {"collection_times": [{"days": "Mon-Sat", "time": "11:00am"}, {"days": "Sun", "time": "Closed"}], "id": "3498200008", "name": "USPS COLLECTION BOX - BLUE BOX", "address": {"city": "FORT PIERCE", "state": "FL", "street": "4937 S FEDERAL HWY", "postcode": "34982"}}},
{"geometry": {"type": "Point", "coordinates": [-80.3298385643, 27.4254682246]}, "type": "Feature", "properties": {"collection_times": [{"days": "Mon-Fri", "time": "12:00pm"}, {"days": "Sat", "time": "11:15am"}, {"days": "Sun", "time": "Closed"}], "id": "3498200011", "name": "USPS COLLECTION BOX - BLUE BOX", "address": {"city": "FORT PIERCE", "state": "FL", "street": "700 VIRGINIA AVE", "postcode": "34982"}}},
{"geometry": {"type": "Point", "coordinates": [-80.3435439127, 27.2734832191]}, "type": "Feature", "properties": {"collection_times": [{"days": "Mon-Sat", "time": "12:00pm"}, {"days": "Sun", "time": "Closed"}], "id": "3498400003", "name": "USPS COLLECTION BOX - BLUE BOX", "address": {"city": "PORT ST LUCIE", "state": "FL", "street": "121 SW PORT ST LUCIE BLVD", "postcode": "34984"}}},
{"geometry": {"type": "Point", "coordinates": [-80.3559084764, 27.2741122263]}, "type": "Feature", "properties": {"collection_times": [{"days": "Mon-Fri", "time": "1:00pm"}, {"days": "Sat", "time": "12:00pm"}, {"days": "Sun", "time": "Closed"}], "id": "3498400007", "name": "USPS COLLECTION BOX - BLUE BOX", "address": {"city": "PORT ST LUCIE", "state": "FL", "street": "265 SW PORT ST LUCIE BLVD", "postcode": "34984"}}},
{"geometry": {"type": "Point", "coordinates": [-80.3963341801, 27.3132948138]}, "type": "Feature", "properties": {"collection_times": [{"days": "Mon-Sat", "time": "12:00pm"}, {"days": "Sun", "time": "Closed"}], "id": "3498600001", "name": "USPS COLLECTION BOX - BLUE BOX", "address": {"city": "FORT PIERCE", "state": "FL", "street": "1337 NW SAINT LUCIE WEST BLVD", "postcode": "34986"}}},
{"geometry": {"type": "Point", "coordinates": [-80.3798493883, 27.3178323164]}, "type": "Feature", "properties": {"collection_times": [{"days": "Mon-Sat", "time": "11:00am"}, {"days": "Sun", "time": "Closed"}], "id": "3498600004", "name": "USPS COLLECTION BOX - BLUE BOX", "address": {"city": "FORT PIERCE", "state": "FL", "street": "1100 SW SAINT LUCIE WEST BLVD", "postcode": "34986"}}},
{"geometry": {"type": "Point", "coordinates": [-80.4071444859, 27.317424114]}, "type": "Feature", "properties": {"collection_times": [{"days": "Mon-Sat", "time": "5:00pm"}, {"days": "Sun", "time": "Closed"}], "id": "3498600005", "name": "USPS COLLECTION BOX - BLUE BOX", "address": {"city": "FORT PIERCE", "state": "FL", "street": "290 NW PEACOCK BLVD", "postcode": "34986"}}},
{"geometry": {"type": "Point", "coordinates": [-80.4071444859, 27.317424114]}, "type": "Feature", "properties": {"collection_times": [{"days": "Mon-Sat", "time": "5:00pm"}, {"days": "Sun", "time": "Closed"}], "id": "3498600006", "name": "USPS COLLECTION BOX - APC", "address": {"city": "FORT PIERCE", "state": "FL", "street": "290 NW PEACOCK BLVD", "postcode": "34986"}}},
{"geometry": {"type": "Point", "coordinates": [-80.4300477604, 27.325744504]}, "type": "Feature", "properties": {"collection_times": [{"days": "Mon-Sat", "time": "1:00pm"}, {"days": "Sun", "time": "Closed"}], "id": "3498600007", "name": "USPS COLLECTION BOX - BLUE BOX", "address": {"city": "FORT PIERCE", "state": "FL", "street": "9701 RESERVE BLVD", "postcode": "34986"}}},
{"geometry": {"type": "Point", "coordinates": [-80.4071444859, 27.317424114]}, "type": "Feature", "properties": {"collection_times": [{"days": "Mon-Sat", "time": "5:00pm"}, {"days": "Sun", "time": "Closed"}], "id": "3498600008", "name": "USPS COLLECTION BOX - PO LOBBY", "address": {"city": "FORT PIERCE", "state": "FL", "street": "290 NW PEACOCK BLVD", "postcode": "34986"}}},
{"geometry": {"type": "Point", "coordinates": [-80.4071444859, 27.317424114]}, "type": "Feature", "properties": {"collection_times": [{"days": "Mon-Sat", "time": "5:00pm"}, {"days": "Sun", "time": "Closed"}], "id": "3498600009", "name": "USPS COLLECTION BOX - PO LOBBY", "address": {"city": "FORT PIERCE", "state": "FL", "street": "290 NW PEACOCK BLVD", "postcode": "34986"}}},
{"geometry": {"type": "Point", "coordinates": [-80.4071444859, 27.317424114]}, "type": "Feature", "properties": {"collection_times": [{"days": "Mon-Sat", "time": "5:00pm"}, {"days": "Sun", "time": "Closed"}], "id": "3498600010", "name": "USPS COLLECTION BOX - PO LOBBY", "address": {"city": "FORT PIERCE", "state": "FL", "street": "290 NW PEACOCK BLVD", "postcode": "34986"}}},
{"geometry": {"type": "Point", "coordinates": [-80.4038399686, 27.3272318371]}, "type": "Feature", "properties": {"collection_times": [{"days": "Mon-Sat", "time": "11:30am"}, {"days": "Sun", "time": "Closed"}], "id": "3498600011", "name": "USPS COLLECTION BOX - BLUE BOX", "address": {"city": "FORT PIERCE", "state": "FL", "street": "119 SW CASHMERE BLVD", "postcode": "34986"}}},
{"geometry": {"type": "Point", "coordinates": [-80.2944903226, 27.1723342722]}, "type": "Feature", "properties": {"collection_times": [{"days": "Mon-Sat", "time": "12:00pm"}, {"days": "Sun", "time": "Closed"}], "id": "3499000001", "name": "USPS COLLECTION BOX - BLUE BOX", "address": {"city": "PALM CITY", "state": "FL", "street": "3120 SW MARTIN DOWNS BLVD", "postcode": "34990"}}},
{"geometry": {"type": "Point", "coordinates": [-80.2699925132, 27.1611284794]}, "type": "Feature", "properties": {"collection_times": [{"days": "Mon-Fri", "time": "5:00pm"}, {"days": "Sat", "time": "12:30pm"}, {"days": "Sun", "time": "Closed"}], "id": "3499000002", "name": "USPS COLLECTION BOX - BLUE BOX", "address": {"city": "PALM CITY", "state": "FL", "street": "1257 SW MARTIN HWY", "postcode": "34990"}}},
{"geometry": {"type": "Point", "coordinates": [-80.2699925132, 27.1611284794]}, "type": "Feature", "properties": {"collection_times": [{"days": "Mon-Fri", "time": "5:00pm"}, {"days": "Sat", "time": "12:30pm"}, {"days": "Sun", "time": "Closed"}], "id": "3499000003", "name": "USPS COLLECTION BOX - BLUE BOX", "address": {"city": "PALM CITY", "state": "FL", "street": "1257 SW MARTIN HWY", "postcode": "34990"}}},
{"geometry": {"type": "Point", "coordinates": [-80.2699925132, 27.1611284794]}, "type": "Feature", "properties": {"collection_times": [{"days": "Mon-Fri", "time": "5:00pm"}, {"days": "Sat", "time": "12:30pm"}, {"days": "Sun", "time": "Closed"}], "id": "3499000005", "name": "USPS COLLECTION BOX - PO LOBBY", "address": {"city": "PALM CITY", "state": "FL", "street": "1257 SW MARTIN HWY", "postcode": "34990"}}},
{"geometry": {"type": "Point", "coordinates": [-80.2931230078, 27.1725999497]}, "type": "Feature", "properties": {"collection_times": [{"days": "Mon-Sat", "time": "12:00pm"}, {"days": "Sun", "time": "Closed"}], "id": "3499000006", "name": "USPS COLLECTION BOX - BLUE BOX", "address": {"city": "PALM CITY", "state": "FL", "street": "3035 SW MARTIN DOWNS BLVD", "postcode": "34990"}}},
{"geometry": {"type": "Point", "coordinates": [-80.2903293537, 27.1723038293]}, "type": "Feature", "properties": {"collection_times": [{"days": "Mon-Sat", "time": "12:00pm"}, {"days": "Sun", "time": "Closed"}], "id": "3499000007", "name": "USPS COLLECTION BOX - BLUE BOX", "address": {"city": "PALM CITY", "state": "FL", "street": "2750 SW MARTIN DOWNS BLVD", "postcode": "34990"}}},
{"geometry": {"type": "Point", "coordinates": [-80.2699925132, 27.1611284794]}, "type": "Feature", "properties": {"collection_times": [{"days": "Mon-Fri", "time": "5:00pm"}, {"days": "Sat", "time": "12:30pm"}, {"days": "Sun", "time": "Closed"}], "id": "3499000008", "name": "USPS COLLECTION BOX - APC", "address": {"city": "PALM CITY", "state": "FL", "street": "1257 SW MARTIN HWY", "postcode": "34990"}}},
{"geometry": {"type": "Point", "coordinates": [-80.2699925132, 27.1611284794]}, "type": "Feature", "properties": {"collection_times": [{"days": "Mon-Fri", "time": "5:00pm"}, {"days": "Sat", "time": "12:30pm"}, {"days": "Sun", "time": "Closed"}], "id": "3499000009", "name": "USPS COLLECTION BOX - PO LOBBY", "address": {"city": "PALM CITY", "state": "FL", "street": "1257 SW MARTIN HWY", "postcode": "34990"}}},
{"geometry": {"type": "Point", "coordinates": [-80.1983645403, 27.1466821147]}, "type": "Feature", "properties": {"collection_times": [{"days": "Mon-Fri", "time": "5:00pm"}, {"days": "Sat", "time": "9:00am"}, {"days": "Sun", "time": "Closed"}], "id": "3499200001", "name": "USPS COLLECTION BOX - BLUE BOX", "address": {"city": "PORT SALERNO", "state": "FL", "street": "4755 SE DIXIE HWY", "postcode": "34992"}}},
{"geometry": {"type": "Point", "coordinates": [-80.1983645403, 27.1466821147]}, "type": "Feature", "properties": {"collection_times": [{"days": "Mon-Fri", "time": "5:00pm"}, {"days": "Sat", "time": "9:00am"}, {"days": "Sun", "time": "Closed"}], "id": "3499200002", "name": "USPS COLLECTION BOX - PO LOBBY", "address": {"city": "PORT SALERNO", "state": "FL", "street": "4755 SE DIXIE HWY", "postcode": "34992"}}},
{"geometry": {"type": "Point", "coordinates": [-80.1983645403, 27.1466821147]}, "type": "Feature", "properties": {"collection_times": [{"days": "Mon-Fri", "time": "5:00pm"}, {"days": "Sat", "time": "9:00am"}, {"days": "Sun", "time": "Closed"}], "id": "3499200003", "name": "USPS COLLECTION BOX - PO LOBBY", "address": {"city": "PORT SALERNO", "state": "FL", "street": "4755 SE DIXIE HWY", "postcode": "34992"}}},
{"geometry": {"type": "Point", "coordinates": [-80.2517820429, 27.1787474703]}, "type": "Feature", "properties": {"collection_times": [{"days": "Mon-Sat", "time": "1:00pm"}, {"days": "Sun", "time": "Closed"}], "id": "3499400009", "name": "USPS COLLECTION BOX - BLUE BOX", "address": {"city": "STUART", "state": "FL", "street": "10 SE CENTRAL PKWY", "postcode": "34994"}}},
{"geometry": {"type": "Point", "coordinates": [-80.2553510301, 27.192708752]}, "type": "Feature", "properties": {"collection_times": [{"days": "Mon-Fri", "time": "1:00pm"}, {"days": "Sat", "time": "11:00am"}, {"days": "Sun", "time": "Closed"}], "id": "3499400012", "name": "USPS COLLECTION BOX - BLUE BOX", "address": {"city": "STUART", "state": "FL", "street": "789 SW FEDERAL HWY", "postcode": "34994"}}},
{"geometry": {"type": "Point", "coordinates": [-80.2690899155, 27.2308556297]}, "type": "Feature", "properties": {"collection_times": [{"days": "Mon-Sat", "time": "10:30am"}, {"days": "Sun", "time": "Closed"}], "id": "3499400014", "name": "USPS COLLECTION BOX - BLUE BOX", "address": {"city": "STUART", "state": "FL", "street": "2160 SE FEDERAL HWY", "postcode": "34994"}}},
{"geometry": {"type": "Point", "coordinates": [-81.6886459372, 28.566047978]}, "type": "Feature", "properties": {"collection_times": [{"days": "Mon-Fri", "time": "4:00pm"}, {"days": "Sat", "time": "11:00am"}, {"days": "Sun", "time": "Closed"}], "id": "3499400018", "name": "USPS COLLECTION BOX - BLUE BOX", "address": {"city": "STUART", "state": "FL", "street": "4411 SE FEDERAL HWY", "postcode": "34994"}}},
{"geometry": {"type": "Point", "coordinates": [-80.2528368251, 27.1983881657]}, "type": "Feature", "properties": {"collection_times": [{"days": "Mon-Sat", "time": "1:00pm"}, {"days": "Sun", "time": "Closed"}], "id": "3499400024", "name": "USPS COLLECTION BOX - BLUE BOX", "address": {"city": "STUART", "state": "FL", "street": "300 COLORADO AVE", "postcode": "34994"}}},
{"geometry": {"type": "Point", "coordinates": [-80.2542686226, 27.1975742622]}, "type": "Feature", "properties": {"collection_times": [{"days": "Mon-Sat", "time": "2:45pm"}, {"days": "Sun", "time": "Closed"}], "id": "3499400026", "name": "USPS COLLECTION BOX - BLUE BOX", "address": {"city": "STUART", "state": "FL", "street": "120 SE OCEAN BLVD", "postcode": "34994"}}},
{"geometry": {"type": "Point", "coordinates": [-80.2500466421, 27.1923455836]}, "type": "Feature", "properties": {"collection_times": [{"days": "Mon-Sat", "time": "5:00pm"}, {"days": "Sun", "time": "Closed"}], "id": "3499400029", "name": "USPS COLLECTION BOX - BLUE BOX", "address": {"city": "STUART", "state": "FL", "street": "801 SE JOHNSON AVE", "postcode": "34994"}}},
{"geometry": {"type": "Point", "coordinates": [-80.2367189659, 27.1671619746]}, "type": "Feature", "properties": {"collection_times": [{"days": "Mon-Sat", "time": "12:00pm"}, {"days": "Sun", "time": "Closed"}], "id": "3499400036", "name": "USPS COLLECTION BOX - BLUE BOX", "address": {"city": "STUART", "state": "FL", "street": "3100 SE ASTER LN", "postcode": "34994"}}},
{"geometry": {"type": "Point", "coordinates": [-80.242496998, 27.1755984335]}, "type": "Feature", "properties": {"collection_times": [{"days": "Mon-Sat", "time": "10:00am"}, {"days": "Sun", "time": "Closed"}], "id": "3499400043", "name": "USPS COLLECTION BOX - BLUE BOX", "address": {"city": "STUART", "state": "FL", "street": "800 SE MONTEREY RD", "postcode": "34994"}}},
{"geometry": {"type": "Point", "coordinates": [-80.2343136731, 27.17156947]}, "type": "Feature", "properties": {"collection_times": [{"days": "Mon-Sat", "time": "12:00pm"}, {"days": "Sun", "time": "Closed"}], "id": "3499400045", "name": "USPS COLLECTION BOX - BLUE BOX", "address": {"city": "STUART", "state": "FL", "street": "1250 SE GLENWOOD DR", "postcode": "34994"}}},
{"geometry": {"type": "Point", "coordinates": [-80.2370589356, 27.1975139313]}, "type": "Feature", "properties": {"collection_times": [{"days": "Mon-Fri", "time": "1:00pm"}, {"days": "Sat", "time": "11:00am"}, {"days": "Sun", "time": "Closed"}], "id": "3499400047", "name": "USPS COLLECTION BOX - BLUE BOX", "address": {"city": "STUART", "state": "FL", "street": "900 SE OCEAN BLVD", "postcode": "34994"}}},
{"geometry": {"type": "Point", "coordinates": [-80.2500466421, 27.1923455836]}, "type": "Feature", "properties": {"collection_times": [{"days": "Mon-Sat", "time": "5:00pm"}, {"days": "Sun", "time": "Closed"}], "id": "3499400049", "name": "USPS COLLECTION BOX - PO LOBBY", "address": {"city": "STUART", "state": "FL", "street": "801 SE JOHNSON AVE", "postcode": "34994"}}},
{"geometry": {"type": "Point", "coordinates": [-80.2500466421, 27.1923455836]}, "type": "Feature", "properties": {"collection_times": [{"days": "Mon-Sat", "time": "5:00pm"}, {"days": "Sun", "time": "Closed"}], "id": "3499400050", "name": "USPS COLLECTION BOX - BLUE BOX", "address": {"city": "STUART", "state": "FL", "street": "801 SE JOHNSON AVE", "postcode": "34994"}}},
{"geometry": {"type": "Point", "coordinates": [-80.2542686226, 27.1975742622]}, "type": "Feature", "properties": {"collection_times": [{"days": "Mon-Sat", "time": "2:45pm"}, {"days": "Sun", "time": "Closed"}], "id": "3499400052", "name": "USPS COLLECTION BOX - BLUE BOX", "address": {"city": "STUART", "state": "FL", "street": "120 SE OCEAN BLVD", "postcode": "34994"}}},
{"geometry": {"type": "Point", "coordinates": [-80.2500466421, 27.1923455836]}, "type": "Feature", "properties": {"collection_times": [{"days": "Mon-Sat", "time": "5:00pm"}, {"days": "Sun", "time": "Closed"}], "id": "3499400054", "name": "USPS COLLECTION BOX - APC", "address": {"city": "STUART", "state": "FL", "street": "801 SE JOHNSON AVE", "postcode": "34994"}}},
{"geometry": {"type": "Point", "coordinates": [-80.2500466421, 27.1923455836]}, "type": "Feature", "properties": {"collection_times": [{"days": "Mon-Sat", "time": "5:00pm"}, {"days": "Sun", "time": "Closed"}], "id": "3499400055", "name": "USPS COLLECTION BOX - PO LOBBY", "address": {"city": "STUART", "state": "FL", "street": "801 SE JOHNSON AVE", "postcode": "34994"}}},
{"geometry": {"type": "Point", "coordinates": [-80.2607394082, 27.2151814234]}, "type": "Feature", "properties": {"collection_times": [{"days": "Mon-Sat", "time": "10:00am"}, {"days": "Sun", "time": "Closed"}], "id": "3499400056", "name": "USPS COLLECTION BOX - BLUE BOX", "address": {"city": "STUART", "state": "FL", "street": "837 NW FEDERAL HWY", "postcode": "34994"}}},
{"geometry": {"type": "Point", "coordinates": [-80.2003168415, 27.2024105504]}, "type": "Feature", "properties": {"collection_times": [{"days": "Mon-Sat", "time": "2:00pm"}, {"days": "Sun", "time": "Closed"}], "id": "3499600004", "name": "USPS COLLECTION BOX - BLUE BOX", "address": {"city": "STUART", "state": "FL", "street": "1 S SEWALLS POINT RD", "postcode": "34996"}}},
{"geometry": {"type": "Point", "coordinates": [-80.1813092994, 27.2118517821]}, "type": "Feature", "properties": {"collection_times": [{"days": "Mon-Sat", "time": "10:00am"}, {"days": "Sun", "time": "Closed"}], "id": "3499600005", "name": "USPS COLLECTION BOX - BLUE BOX", "address": {"city": "STUART", "state": "FL", "street": "595 NE OCEAN BLVD", "postcode": "34996"}}},
{"geometry": {"type": "Point", "coordinates": [-80.2242991432, 27.1974389033]}, "type": "Feature", "properties": {"collection_times": [{"days": "Mon-Fri", "time": "2:00pm"}, {"days": "Sat", "time": "1:45pm"}, {"days": "Sun", "time": "Closed"}], "id": "3499600015", "name": "USPS COLLECTION BOX - BLUE BOX", "address": {"city": "STUART", "state": "FL", "street": "2081 SE OCEAN BLVD", "postcode": "34996"}}},
{"geometry": {"type": "Point", "coordinates": [-80.2209658934, 27.1967001817]}, "type": "Feature", "properties": {"collection_times": [{"days": "Mon-Sat", "time": "2:30pm"}, {"days": "Sun", "time": "Closed"}], "id": "3499600018", "name": "USPS COLLECTION BOX - BLUE BOX", "address": {"city": "STUART", "state": "FL", "street": "2336 SE OCEAN BLVD", "postcode": "34996"}}},
{"geometry": {"type": "Point", "coordinates": [-80.2241256453, 27.1946700979]}, "type": "Feature", "properties": {"collection_times": [{"days": "Mon-Fri", "time": "2:00pm"}, {"days": "Sat", "time": "11:00am"}, {"days": "Sun", "time": "Closed"}], "id": "3499600021", "name": "USPS COLLECTION BOX - BLUE BOX", "address": {"city": "STUART", "state": "FL", "street": "2401 SE MONTEREY RD", "postcode": "34996"}}},
{"geometry": {"type": "Point", "coordinates": [-80.209688731, 27.1383686882]}, "type": "Feature", "properties": {"collection_times": [{"days": "Mon-Sat", "time": "12:00pm"}, {"days": "Sun", "time": "Closed"}], "id": "3499700004", "name": "USPS COLLECTION BOX - BLUE BOX", "address": {"city": "STUART", "state": "FL", "street": "5561 SE FEDERAL HWY", "postcode": "34997"}}},
{"geometry": {"type": "Point", "coordinates": [-80.2045197346, 27.1321142757]}, "type": "Feature", "properties": {"collection_times": [{"days": "Mon-Sat", "time": "12:00pm"}, {"days": "Sun", "time": "Closed"}], "id": "3499700012", "name": "USPS COLLECTION BOX - BLUE BOX", "address": {"city": "STUART", "state": "FL", "street": "5929 SE FEDERAL HWY", "postcode": "34997"}}},
{"geometry": {"type": "Point", "coordinates": [-80.2259280676, 27.1638788808]}, "type": "Feature", "properties": {"collection_times": [{"days": "Mon-Sat", "time": "11:00am"}, {"days": "Sun", "time": "Closed"}], "id": "3499700013", "name": "USPS COLLECTION BOX - BLUE BOX", "address": {"city": "STUART", "state": "FL", "street": "3400 SE FEDERAL HWY", "postcode": "34997"}}},
{"geometry": {"type": "Point", "coordinates": [-80.2628722832, 27.1060120553]}, "type": "Feature", "properties": {"collection_times": [{"days": "Mon-Sat", "time": "10:30am"}, {"days": "Sun", "time": "Closed"}], "id": "3499700014", "name": "USPS COLLECTION BOX - BLUE BOX", "address": {"city": "STUART", "state": "FL", "street": "8000 SW JACK JAMES DR", "postcode": "34997"}}},
{"geometry": {"type": "Point", "coordinates": [-80.2524990612, 27.1246866402]}, "type": "Feature", "properties": {"collection_times": [{"days": "Mon-Sat", "time": "12:00pm"}, {"days": "Sun", "time": "Closed"}], "id": "3499700017", "name": "USPS COLLECTION BOX - BLUE BOX", "address": {"city": "STUART", "state": "FL", "street": "6550 S KANNER HWY", "postcode": "34997"}}},
{"geometry": {"type": "Point", "coordinates": [-80.2128458974, 27.1428553242]}, "type": "Feature", "properties": {"collection_times": [{"days": "Mon-Sat", "time": "12:00pm"}, {"days": "Sun", "time": "Closed"}], "id": "3499700018", "name": "USPS COLLECTION BOX - BLUE BOX", "address": {"city": "STUART", "state": "FL", "street": "5050 SE FEDERAL HWY", "postcode": "34997"}}}
]}
