{"type": "FeatureCollection", "features": [
{"geometry": {"type": "Point", "coordinates": [-149.8943010667, 61.2185478388]}, "type": "Feature", "properties": {"collection_times": [{"days": "Mon-Fri", "time": "3:45pm"}, {"days": "Sat-Sun", "time": "Closed"}], "id": "9950100010", "name": "USPS COLLECTION BOX - BLUE BOX", "address": {"city": "ANCHORAGE", "state": "AK", "street": "605 W 4TH AVE", "postcode": "99501"}}},
{"geometry": {"type": "Point", "coordinates": [-149.8770380448, 61.2131189831]}, "type": "Feature", "properties": {"collection_times": [{"days": "Mon-Fri", "time": "3:45pm"}, {"days": "Sat-Sun", "time": "Closed"}], "id": "9950100012", "name": "USPS COLLECTION BOX - EXPRESS", "address": {"city": "ANCHORAGE", "state": "AK", "street": "605 W 4TH AVE", "postcode": "99501"}}},
{"geometry": {"type": "Point", "coordinates": [-149.9016389612, 61.2188423956]}, "type": "Feature", "properties": {"collection_times": [{"days": "Mon-Fri", "time": "4:00pm"}, {"days": "Sat", "time": "1:30pm"}, {"days": "Sun", "time": "Closed"}], "id": "9950100015", "name": "USPS COLLECTION BOX - BLUE BOX", "address": {"city": "ANCHORAGE", "state": "AK", "street": "360 K ST", "postcode": "99501"}}},
{"geometry": {"type": "Point", "coordinates": [-149.9016389612, 61.2188423956]}, "type": "Feature", "properties": {"collection_times": [{"days": "Mon-Fri", "time": "4:00pm"}, {"days": "Sat", "time": "1:30pm"}, {"days": "Sun", "time": "Closed"}], "id": "9950100016", "name": "USPS COLLECTION BOX - BLUE BOX", "address": {"city": "ANCHORAGE", "state": "AK", "street": "360 K ST", "postcode": "99501"}}},
{"geometry": {"type": "Point", "coordinates": [-149.8770380448, 61.2131189831]}, "type": "Feature", "properties": {"collection_times": [{"days": "Mon-Fri", "time": "4:00pm"}, {"days": "Sat", "time": "1:30pm"}, {"days": "Sun", "time": "Closed"}], "id": "9950100017", "name": "USPS COLLECTION BOX - EXPRESS", "address": {"city": "ANCHORAGE", "state": "AK", "street": "360 K ST", "postcode": "99501"}}},
{"geometry": {"type": "Point", "coordinates": [-149.9037446281, 61.2168041573]}, "type": "Feature", "properties": {"collection_times": [{"days": "Mon-Fri", "time": "4:30pm"}, {"days": "Sat", "time": "1:45pm"}, {"days": "Sun", "time": "Closed"}], "id": "9950100030", "name": "USPS COLLECTION BOX - BLUE BOX", "address": {"city": "ANCHORAGE", "state": "AK", "street": "540 L ST", "postcode": "99501"}}},
{"geometry": {"type": "Point", "coordinates": [-149.8770380448, 61.2131189831]}, "type": "Feature", "properties": {"collection_times": [{"days": "Mon-Fri", "time": "4:30pm"}, {"days": "Sat", "time": "1:45pm"}, {"days": "Sun", "time": "Closed"}], "id": "9950100032", "name": "USPS COLLECTION BOX - EXPRESS", "address": {"city": "ANCHORAGE", "state": "AK", "street": "540 L ST", "postcode": "99501"}}},
{"geometry": {"type": "Point", "coordinates": [-149.8832853528, 61.2142241238]}, "type": "Feature", "properties": {"collection_times": [{"days": "Mon-Fri", "time": "3:00pm"}, {"days": "Sat-Sun", "time": "Closed"}], "id": "9950100034", "name": "USPS COLLECTION BOX - BLUE BOX", "address": {"city": "ANCHORAGE", "state": "AK", "street": "800 A ST", "postcode": "99501"}}},
{"geometry": {"type": "Point", "coordinates": [-149.896079054, 61.2146145002]}, "type": "Feature", "properties": {"collection_times": [{"days": "Mon-Fri", "time": "5:15pm"}, {"days": "Sat", "time": "1:15pm"}, {"days": "Sun", "time": "Closed"}], "id": "9950100037", "name": "USPS COLLECTION BOX - BLUE BOX", "address": {"city": "ANCHORAGE", "state": "AK", "street": "701 W 8TH AVE", "postcode": "99501"}}},
{"geometry": {"type": "Point", "coordinates": [-149.8770380448, 61.2131189831]}, "type": "Feature", "properties": {"collection_times": [{"days": "Mon-Fri", "time": "5:15pm"}, {"days": "Sat-Sun", "time": "Closed"}], "id": "9950100040", "name": "USPS COLLECTION BOX - EXPRESS", "address": {"city": "ANCHORAGE", "state": "AK", "street": "550 W 7TH AVE", "postcode": "99501"}}},
{"geometry": {"type": "Point", "coordinates": [-149.9078045433, 61.2143187605]}, "type": "Feature", "properties": {"collection_times": [{"days": "Mon-Fri", "time": "5:30pm"}, {"days": "Sat-Sun", "time": "Closed"}], "id": "9950100049", "name": "USPS COLLECTION BOX - BLUE BOX", "address": {"city": "ANCHORAGE", "state": "AK", "street": "810 N ST", "postcode": "99501"}}},
{"geometry": {"type": "Point", "coordinates": [-149.8669273963, 61.2140691561]}, "type": "Feature", "properties": {"collection_times": [{"days": "Mon-Fri", "time": "5:15pm"}, {"days": "Sat", "time": "3:00pm"}, {"days": "Sun", "time": "Closed"}], "id": "9950100060", "name": "USPS COLLECTION BOX - BLUE BOX", "address": {"city": "ANCHORAGE", "state": "AK", "street": "800 INGRA ST", "postcode": "99501"}}},
{"geometry": {"type": "Point", "coordinates": [-149.8669273963, 61.2140691561]}, "type": "Feature", "properties": {"collection_times": [{"days": "Mon-Fri", "time": "5:15pm"}, {"days": "Sat", "time": "3:00pm"}, {"days": "Sun", "time": "Closed"}], "id": "9950100061", "name": "USPS COLLECTION BOX - BLUE BOX", "address": {"city": "ANCHORAGE", "state": "AK", "street": "800 INGRA ST", "postcode": "99501"}}},
{"geometry": {"type": "Point", "coordinates": [-149.8669273963, 61.2140691561]}, "type": "Feature", "properties": {"collection_times": [{"days": "Mon-Fri", "time": "5:15pm"}, {"days": "Sat", "time": "3:00pm"}, {"days": "Sun", "time": "Closed"}], "id": "9950100062", "name": "USPS COLLECTION BOX - PO LOBBY", "address": {"city": "ANCHORAGE", "state": "AK", "street": "800 INGRA ST", "postcode": "99501"}}},
{"geometry": {"type": "Point", "coordinates": [-149.8669273963, 61.2140691561]}, "type": "Feature", "properties": {"collection_times": [{"days": "Mon-Fri", "time": "5:15pm"}, {"days": "Sat", "time": "3:00pm"}, {"days": "Sun", "time": "Closed"}], "id": "9950100063", "name": "USPS COLLECTION BOX - PO LOBBY", "address": {"city": "ANCHORAGE", "state": "AK", "street": "800 INGRA ST", "postcode": "99501"}}},
{"geometry": {"type": "Point", "coordinates": [-149.8720271324, 61.2227236839]}, "type": "Feature", "properties": {"collection_times": [{"days": "Mon-Fri", "time": "12:45pm"}, {"days": "Sat-Sun", "time": "Closed"}], "id": "9950100068", "name": "USPS COLLECTION BOX - BLUE BOX", "address": {"city": "ANCHORAGE", "state": "AK", "street": "619 E SHIP CREEK AVE", "postcode": "99501"}}},
{"geometry": {"type": "Point", "coordinates": [-149.8770380448, 61.2131189831]}, "type": "Feature", "properties": {"collection_times": [{"days": "Mon-Fri", "time": "3:00pm"}, {"days": "Sat-Sun", "time": "Closed"}], "id": "9950100071", "name": "USPS COLLECTION BOX - EXPRESS", "address": {"city": "ANCHORAGE", "state": "AK", "street": "701 C ST", "postcode": "99501"}}},
{"geometry": {"type": "Point", "coordinates": [-149.9078045433, 61.2143187605]}, "type": "Feature", "properties": {"collection_times": [{"days": "Mon-Fri", "time": "5:30pm"}, {"days": "Sat-Sun", "time": "Closed"}], "id": "9950100078", "name": "USPS COLLECTION BOX - BLUE BOX", "address": {"city": "ANCHORAGE", "state": "AK", "street": "810 N ST", "postcode": "99501"}}},
{"geometry": {"type": "Point", "coordinates": [-149.903259888, 61.21857716]}, "type": "Feature", "properties": {"collection_times": [{"days": "Mon-Fri", "time": "4:15pm"}, {"days": "Sat-Sun", "time": "Closed"}], "id": "9950100079", "name": "USPS COLLECTION BOX - BLUE BOX", "address": {"city": "ANCHORAGE", "state": "AK", "street": "1031 W 4TH AVE", "postcode": "99501"}}},
{"geometry": {"type": "Point", "coordinates": [-149.8986803808, 61.2185478388]}, "type": "Feature", "properties": {"collection_times": [{"days": "Mon-Fri", "time": "3:45pm"}, {"days": "Sat-Sun", "time": "Closed"}], "id": "9950100080", "name": "USPS COLLECTION BOX - BLUE BOX", "address": {"city": "ANCHORAGE", "state": "AK", "street": "825 W 4TH AVE", "postcode": "99501"}}},
{"geometry": {"type": "Point", "coordinates": [-149.8951197613, 61.2165416739]}, "type": "Feature", "properties": {"collection_times": [{"days": "Mon-Fri", "time": "5:00pm"}, {"days": "Sat", "time": "2:00pm"}, {"days": "Sun", "time": "Closed"}], "id": "9950100082", "name": "USPS COLLECTION BOX - BLUE BOX", "address": {"city": "ANCHORAGE", "state": "AK", "street": "632 W 6TH AVE", "postcode": "99501"}}},
{"geometry": {"type": "Point", "coordinates": [-149.8951197613, 61.2165416739]}, "type": "Feature", "properties": {"collection_times": [{"days": "Mon-Fri", "time": "5:00pm"}, {"days": "Sat", "time": "2:00pm"}, {"days": "Sun", "time": "Closed"}], "id": "9950100083", "name": "USPS COLLECTION BOX - EXPRESS", "address": {"city": "ANCHORAGE", "state": "AK", "street": "632 W 6TH AVE", "postcode": "99501"}}},
{"geometry": {"type": "Point", "coordinates": [-149.9003421361, 61.2175410689]}, "type": "Feature", "properties": {"collection_times": [{"days": "Mon-Fri", "time": "4:45pm"}, {"days": "Sat", "time": "1:30pm"}, {"days": "Sun", "time": "Closed"}], "id": "9950100084", "name": "USPS COLLECTION BOX - BLUE BOX", "address": {"city": "ANCHORAGE", "state": "AK", "street": "932 W 5TH AVE", "postcode": "99501"}}},
{"geometry": {"type": "Point", "coordinates": [-149.8640019387, 61.2165604677]}, "type": "Feature", "properties": {"collection_times": [{"days": "Mon-Fri", "time": "5:00pm"}, {"days": "Sat", "time": "2:00pm"}, {"days": "Sun", "time": "Closed"}], "id": "9950100089", "name": "USPS COLLECTION BOX - BLUE BOX", "address": {"city": "ANCHORAGE", "state": "AK", "street": "1000 W 6TH AVE", "postcode": "99501"}}},
{"geometry": {"type": "Point", "coordinates": [-149.8640019387, 61.2165604677]}, "type": "Feature", "properties": {"collection_times": [{"days": "Mon-Fri", "time": "5:00pm"}, {"days": "Sat", "time": "2:00pm"}, {"days": "Sun", "time": "Closed"}], "id": "9950100090", "name": "USPS COLLECTION BOX - BLUE BOX", "address": {"city": "ANCHORAGE", "state": "AK", "street": "1000 W 6TH AVE", "postcode": "99501"}}},
{"geometry": {"type": "Point", "coordinates": [-149.8640019387, 61.2165604677]}, "type": "Feature", "properties": {"collection_times": [{"days": "Mon-Fri", "time": "5:00pm"}, {"days": "Sat", "time": "2:00pm"}, {"days": "Sun", "time": "Closed"}], "id": "9950100091", "name": "USPS COLLECTION BOX - BLUE BOX", "address": {"city": "ANCHORAGE", "state": "AK", "street": "1000 W 6TH AVE", "postcode": "99501"}}},
{"geometry": {"type": "Point", "coordinates": [-149.8770380448, 61.2131189831]}, "type": "Feature", "properties": {"collection_times": [{"days": "Mon-Fri", "time": "5:00pm"}, {"days": "Sat", "time": "2:00pm"}, {"days": "Sun", "time": "Closed"}], "id": "9950100092", "name": "USPS COLLECTION BOX - EXPRESS", "address": {"city": "ANCHORAGE", "state": "AK", "street": "1000 W 6TH AVE", "postcode": "99501"}}},
{"geometry": {"type": "Point", "coordinates": [-149.8935341611, 61.2194775453]}, "type": "Feature", "properties": {"collection_times": [{"days": "Mon-Fri", "time": "3:30pm"}, {"days": "Sat", "time": "1:30pm"}, {"days": "Sun", "time": "Closed"}], "id": "9950100097", "name": "USPS COLLECTION BOX - BLUE BOX", "address": {"city": "ANCHORAGE", "state": "AK", "street": "600 W 3RD AVE", "postcode": "99501"}}},
{"geometry": {"type": "Point", "coordinates": [-149.9790328685, 61.1777369374]}, "type": "Feature", "properties": {"collection_times": [{"days": "Mon-Fri", "time": "5:45pm"}, {"days": "Sat", "time": "4:45pm"}, {"days": "Sun", "time": "Closed"}], "id": "9950200001", "name": "USPS COLLECTION BOX - BLUE BOX", "address": {"city": "ANCHORAGE", "state": "AK", "street": "4600 POSTMARK DR", "postcode": "99502"}}},
{"geometry": {"type": "Point", "coordinates": [-149.9202480887, 61.1519354195]}, "type": "Feature", "properties": {"collection_times": [{"days": "Mon-Fri", "time": "5:30pm"}, {"days": "Sat", "time": "3:30pm"}, {"days": "Sun", "time": "Closed"}], "id": "9950200006", "name": "USPS COLLECTION BOX - BLUE BOX", "address": {"city": "ANCHORAGE", "state": "AK", "street": "2200 STRAWBERRY RD", "postcode": "99502"}}},
{"geometry": {"type": "Point", "coordinates": [-149.9202480887, 61.1519354195]}, "type": "Feature", "properties": {"collection_times": [{"days": "Mon-Fri", "time": "5:30pm"}, {"days": "Sat", "time": "3:30pm"}, {"days": "Sun", "time": "Closed"}], "id": "9950200007", "name": "USPS COLLECTION BOX - BLUE BOX", "address": {"city": "ANCHORAGE", "state": "AK", "street": "2200 STRAWBERRY RD", "postcode": "99502"}}},
{"geometry": {"type": "Point", "coordinates": [-149.9202480887, 61.1519354195]}, "type": "Feature", "properties": {"collection_times": [{"days": "Mon-Fri", "time": "5:30pm"}, {"days": "Sat", "time": "3:30pm"}, {"days": "Sun", "time": "Closed"}], "id": "9950200008", "name": "USPS COLLECTION BOX - PO LOBBY", "address": {"city": "ANCHORAGE", "state": "AK", "street": "2200 STRAWBERRY RD", "postcode": "99502"}}},
{"geometry": {"type": "Point", "coordinates": [-149.9202480887, 61.1519354195]}, "type": "Feature", "properties": {"collection_times": [{"days": "Mon-Fri", "time": "5:30pm"}, {"days": "Sat", "time": "3:30pm"}, {"days": "Sun", "time": "Closed"}], "id": "9950200017", "name": "USPS COLLECTION BOX - PO LOBBY", "address": {"city": "ANCHORAGE", "state": "AK", "street": "2200 STRAWBERRY RD", "postcode": "99502"}}},
{"geometry": {"type": "Point", "coordinates": [-149.964800106, 61.1764957743]}, "type": "Feature", "properties": {"collection_times": [{"days": "Mon-Fri", "time": "5:30pm"}, {"days": "Sat", "time": "4:30pm"}, {"days": "Sun", "time": "Closed"}], "id": "9950200018", "name": "USPS COLLECTION BOX - BLUE BOX", "address": {"city": "ANCHORAGE", "state": "AK", "street": "5000 W INTERNATIONAL AIRPORT RD", "postcode": "99502"}}},
{"geometry": {"type": "Point", "coordinates": [-149.9560302314, 61.1374110493]}, "type": "Feature", "properties": {"collection_times": [{"days": "Mon-Fri", "time": "12:45pm"}, {"days": "Sat", "time": "10:45am"}, {"days": "Sun", "time": "Closed"}], "id": "9950200020", "name": "USPS COLLECTION BOX - BLUE BOX", "address": {"city": "ANCHORAGE", "state": "AK", "street": "4000 W DIMOND BLVD", "postcode": "99502"}}},
{"geometry": {"type": "Point", "coordinates": [-149.8703532454, 61.1970168027]}, "type": "Feature", "properties": {"collection_times": [{"days": "Mon-Fri", "time": "4:15pm"}, {"days": "Sat-Sun", "time": "Closed"}], "id": "9950300001", "name": "USPS COLLECTION BOX - BLUE BOX", "address": {"city": "ANCHORAGE", "state": "AK", "street": "2525 GAMBELL ST", "postcode": "99503"}}},
{"geometry": {"type": "Point", "coordinates": [-149.8926670296, 61.1894387031]}, "type": "Feature", "properties": {"collection_times": [{"days": "Mon-Fri", "time": "4:30pm"}, {"days": "Sat-Sun", "time": "Closed"}], "id": "9950300004", "name": "USPS COLLECTION BOX - EXPRESS", "address": {"city": "ANCHORAGE", "state": "AK", "street": "101 W BENSON BLVD", "postcode": "99503"}}},
{"geometry": {"type": "Point", "coordinates": [-149.8893244898, 61.1806841212]}, "type": "Feature", "properties": {"collection_times": [{"days": "Mon-Fri", "time": "5:30pm"}, {"days": "Sat", "time": "12:30pm"}, {"days": "Sun", "time": "Closed"}], "id": "9950300006", "name": "USPS COLLECTION BOX - BLUE BOX", "address": {"city": "ANCHORAGE", "state": "AK", "street": "4400 BUSINESS PARK BLVD", "postcode": "99503"}}},
{"geometry": {"type": "Point", "coordinates": [-149.8926670296, 61.1894387031]}, "type": "Feature", "properties": {"collection_times": [{"days": "Mon-Fri", "time": "5:30pm"}, {"days": "Sat", "time": "12:30pm"}, {"days": "Sun", "time": "Closed"}], "id": "9950300007", "name": "USPS COLLECTION BOX - EXPRESS", "address": {"city": "ANCHORAGE", "state": "AK", "street": "4400 BUSINESS PARK BLVD", "postcode": "99503"}}},
{"geometry": {"type": "Point", "coordinates": [-149.8865905402, 61.1875152762]}, "type": "Feature", "properties": {"collection_times": [{"days": "Mon-Fri", "time": "5:00pm"}, {"days": "Sat-Sun", "time": "Closed"}], "id": "9950300011", "name": "USPS COLLECTION BOX - BLUE BOX", "address": {"city": "ANCHORAGE", "state": "AK", "street": "3601 C ST", "postcode": "99503"}}},
{"geometry": {"type": "Point", "coordinates": [-149.8865905402, 61.1875152762]}, "type": "Feature", "properties": {"collection_times": [{"days": "Mon-Fri", "time": "5:00pm"}, {"days": "Sat-Sun", "time": "Closed"}], "id": "9950300013", "name": "USPS COLLECTION BOX - BLUE BOX", "address": {"city": "ANCHORAGE", "state": "AK", "street": "3601 C ST", "postcode": "99503"}}},
{"geometry": {"type": "Point", "coordinates": [-149.8926670296, 61.1894387031]}, "type": "Feature", "properties": {"collection_times": [{"days": "Mon-Fri", "time": "5:00pm"}, {"days": "Sat-Sun", "time": "Closed"}], "id": "9950300015", "name": "USPS COLLECTION BOX - EXPRESS", "address": {"city": "ANCHORAGE", "state": "AK", "street": "3601 C ST", "postcode": "99503"}}},
{"geometry": {"type": "Point", "coordinates": [-149.8767462386, 61.1971589302]}, "type": "Feature", "properties": {"collection_times": [{"days": "Mon-Fri", "time": "4:15pm"}, {"days": "Sat", "time": "3:45pm"}, {"days": "Sun", "time": "Closed"}], "id": "9950300017", "name": "USPS COLLECTION BOX - BLUE BOX", "address": {"city": "ANCHORAGE", "state": "AK", "street": "2550 DENALI ST", "postcode": "99503"}}},
{"geometry": {"type": "Point", "coordinates": [-149.8767462386, 61.1971589302]}, "type": "Feature", "properties": {"collection_times": [{"days": "Mon-Fri", "time": "4:15pm"}, {"days": "Sat", "time": "3:45pm"}, {"days": "Sun", "time": "Closed"}], "id": "9950300018", "name": "USPS COLLECTION BOX - EXPRESS", "address": {"city": "ANCHORAGE", "state": "AK", "street": "2550 DENALI ST", "postcode": "99503"}}},
{"geometry": {"type": "Point", "coordinates": [-149.8962482172, 61.1952967803]}, "type": "Feature", "properties": {"collection_times": [{"days": "Mon-Fri", "time": "4:15pm"}, {"days": "Sat", "time": "4:00pm"}, {"days": "Sun", "time": "Closed"}], "id": "9950300020", "name": "USPS COLLECTION BOX - BLUE BOX", "address": {"city": "ANCHORAGE", "state": "AK", "street": "700 E NORTHERN LIGHTS BLVD", "postcode": "99503"}}},
{"geometry": {"type": "Point", "coordinates": [-149.8891268773, 61.1880608111]}, "type": "Feature", "properties": {"collection_times": [{"days": "Mon-Fri", "time": "5:30pm"}, {"days": "Sat", "time": "3:00pm"}, {"days": "Sun", "time": "Closed"}], "id": "9950300034", "name": "USPS COLLECTION BOX - BLUE BOX", "address": {"city": "ANCHORAGE", "state": "AK", "street": "3721 B ST", "postcode": "99503"}}},
{"geometry": {"type": "Point", "coordinates": [-149.8866118334, 61.1920720342]}, "type": "Feature", "properties": {"collection_times": [{"days": "Mon-Fri", "time": "4:45pm"}, {"days": "Sat-Sun", "time": "Closed"}], "id": "9950300044", "name": "USPS COLLECTION BOX - BLUE BOX", "address": {"city": "ANCHORAGE", "state": "AK", "street": "3111 C ST", "postcode": "99503"}}},
{"geometry": {"type": "Point", "coordinates": [-149.8926670296, 61.1894387031]}, "type": "Feature", "properties": {"collection_times": [{"days": "Mon-Fri", "time": "4:45pm"}, {"days": "Sat-Sun", "time": "Closed"}], "id": "9950300045", "name": "USPS COLLECTION BOX - EXPRESS", "address": {"city": "ANCHORAGE", "state": "AK", "street": "3111 C ST", "postcode": "99503"}}},
{"geometry": {"type": "Point", "coordinates": [-149.8831327511, 61.1933011285]}, "type": "Feature", "properties": {"collection_times": [{"days": "Mon-Fri", "time": "4:45pm"}, {"days": "Sat-Sun", "time": "Closed"}], "id": "9950300048", "name": "USPS COLLECTION BOX - BLUE BOX", "address": {"city": "ANCHORAGE", "state": "AK", "street": "3000 A ST", "postcode": "99503"}}},
{"geometry": {"type": "Point", "coordinates": [-149.8891268773, 61.1880608111]}, "type": "Feature", "properties": {"collection_times": [{"days": "Mon-Fri", "time": "5:30pm"}, {"days": "Sat", "time": "3:00pm"}, {"days": "Sun", "time": "Closed"}], "id": "9950300053", "name": "USPS COLLECTION BOX - BLUE BOX", "address": {"city": "ANCHORAGE", "state": "AK", "street": "3721 B ST", "postcode": "99503"}}},
{"geometry": {"type": "Point", "coordinates": [-149.8891268773, 61.1880608111]}, "type": "Feature", "properties": {"collection_times": [{"days": "Mon-Fri", "time": "5:30pm"}, {"days": "Sat", "time": "3:00pm"}, {"days": "Sun", "time": "Closed"}], "id": "9950300057", "name": "USPS COLLECTION BOX - PO LOBBY", "address": {"city": "ANCHORAGE", "state": "AK", "street": "3721 B ST", "postcode": "99503"}}},
{"geometry": {"type": "Point", "coordinates": [-149.8891268773, 61.1880608111]}, "type": "Feature", "properties": {"collection_times": [{"days": "Mon-Fri", "time": "5:30pm"}, {"days": "Sat", "time": "3:00pm"}, {"days": "Sun", "time": "Closed"}], "id": "9950300058", "name": "USPS COLLECTION BOX - APC", "address": {"city": "ANCHORAGE", "state": "AK", "street": "3721 B ST", "postcode": "99503"}}},
{"geometry": {"type": "Point", "coordinates": [-149.7334588677, 61.1976863574]}, "type": "Feature", "properties": {"collection_times": [{"days": "Mon-Fri", "time": "6:00pm"}, {"days": "Sat", "time": "3:30pm"}, {"days": "Sun", "time": "Closed"}], "id": "9950400006", "name": "USPS COLLECTION BOX - PO LOBBY", "address": {"city": "ANCHORAGE", "state": "AK", "street": "2420 MULDOON RD", "postcode": "99504"}}},
{"geometry": {"type": "Point", "coordinates": [-149.7780422256, 61.209661451]}, "type": "Feature", "properties": {"collection_times": [{"days": "Mon-Fri", "time": "1:30pm"}, {"days": "Sat", "time": "3:15pm"}, {"days": "Sun", "time": "Closed"}], "id": "9950400016", "name": "USPS COLLECTION BOX - BLUE BOX", "address": {"city": "ANCHORAGE", "state": "AK", "street": "5600 DEBARR RD", "postcode": "99504"}}},
{"geometry": {"type": "Point", "coordinates": [-149.7334588677, 61.1976863574]}, "type": "Feature", "properties": {"collection_times": [{"days": "Mon-Fri", "time": "6:00pm"}, {"days": "Sat", "time": "3:30pm"}, {"days": "Sun", "time": "Closed"}], "id": "9950400017", "name": "USPS COLLECTION BOX - PO LOBBY", "address": {"city": "ANCHORAGE", "state": "AK", "street": "2420 MULDOON RD", "postcode": "99504"}}},
{"geometry": {"type": "Point", "coordinates": [-149.7371307727, 61.2097312456]}, "type": "Feature", "properties": {"collection_times": [{"days": "Mon-Fri", "time": "1:45pm"}, {"days": "Sat", "time": "2:45pm"}, {"days": "Sun", "time": "Closed"}], "id": "9950400018", "name": "USPS COLLECTION BOX - BLUE BOX", "address": {"city": "ANCHORAGE", "state": "AK", "street": "7701 DEBARR RD", "postcode": "99504"}}},
{"geometry": {"type": "Point", "coordinates": [-149.7334588677, 61.1976863574]}, "type": "Feature", "properties": {"collection_times": [{"days": "Mon-Fri", "time": "6:00pm"}, {"days": "Sat", "time": "3:30pm"}, {"days": "Sun", "time": "Closed"}], "id": "9950400021", "name": "USPS COLLECTION BOX - BLUE BOX", "address": {"city": "ANCHORAGE", "state": "AK", "street": "2420 MULDOON RD", "postcode": "99504"}}},
{"geometry": {"type": "Point", "coordinates": [-149.7776623197, 61.1951405448]}, "type": "Feature", "properties": {"collection_times": [{"days": "Mon-Fri", "time": "2:45pm"}, {"days": "Sat", "time": "3:00pm"}, {"days": "Sun", "time": "Closed"}], "id": "9950400022", "name": "USPS COLLECTION BOX - BLUE BOX", "address": {"city": "ANCHORAGE", "state": "AK", "street": "5530 E NORTHERN LIGHTS BLVD", "postcode": "99504"}}},
{"geometry": {"type": "Point", "coordinates": [-149.7128044988, 61.2575759823]}, "type": "Feature", "properties": {"collection_times": [{"days": "Mon-Fri", "time": "5:30pm"}, {"days": "Sat", "time": "11:15am"}, {"days": "Sun", "time": "Closed"}], "id": "9950500002", "name": "USPS COLLECTION BOX - PO LOBBY", "address": {"city": "FT RICHARDSON", "state": "AK", "street": "724 QUARTERMASTER RD", "postcode": "99505"}}},
{"geometry": {"type": "Point", "coordinates": [-149.7856937715, 61.2403567831]}, "type": "Feature", "properties": {"collection_times": [{"days": "Mon-Fri", "time": "1:00pm"}, {"days": "Sat-Sun", "time": "Closed"}], "id": "9950600004", "name": "USPS COLLECTION BOX - BLUE BOX", "address": {"city": "ELMENDORF AFB", "state": "AK", "street": "6230 ARCTIC WARRIOR DR", "postcode": "99506"}}},
{"geometry": {"type": "Point", "coordinates": [-149.7996046344, 61.2643868027]}, "type": "Feature", "properties": {"collection_times": [{"days": "Mon-Fri", "time": "1:30pm"}, {"days": "Sat-Sun", "time": "Closed"}], "id": "9950600012", "name": "USPS COLLECTION BOX - BLUE BOX", "address": {"city": "ELMENDORF AFB", "state": "AK", "street": "5800 WESTOVER AVE", "postcode": "99506"}}},
{"geometry": {"type": "Point", "coordinates": [-149.8153804821, 61.2480427582]}, "type": "Feature", "properties": {"collection_times": [{"days": "Mon-Fri", "time": "4:00pm"}, {"days": "Sat-Sun", "time": "Closed"}], "id": "9950600013", "name": "USPS COLLECTION BOX - PO LOBBY", "address": {"city": "ELMENDORF AFB", "state": "AK", "street": "10437 KUTER AVE", "postcode": "99506"}}},
{"geometry": {"type": "Point", "coordinates": [-149.8153804821, 61.2480427582]}, "type": "Feature", "properties": {"collection_times": [{"days": "Mon-Fri", "time": "4:00pm"}, {"days": "Sat", "time": "2:15pm"}, {"days": "Sun", "time": "Closed"}], "id": "9950600014", "name": "USPS COLLECTION BOX - BLUE BOX", "address": {"city": "ELMENDORF AFB", "state": "AK", "street": "10437 KUTER AVE", "postcode": "99506"}}},
{"geometry": {"type": "Point", "coordinates": [-149.8381495535, 61.1681230299]}, "type": "Feature", "properties": {"collection_times": [{"days": "Mon-Fri", "time": "5:30pm"}, {"days": "Sat", "time": "2:30pm"}, {"days": "Sun", "time": "Closed"}], "id": "9950700007", "name": "USPS COLLECTION BOX - APC", "address": {"city": "ANCHORAGE", "state": "AK", "street": "5855 LAKE OTIS PKWY", "postcode": "99507"}}},
{"geometry": {"type": "Point", "coordinates": [-149.8381495535, 61.1681230299]}, "type": "Feature", "properties": {"collection_times": [{"days": "Mon-Fri", "time": "5:30pm"}, {"days": "Sat", "time": "2:30pm"}, {"days": "Sun", "time": "Closed"}], "id": "9950700010", "name": "USPS COLLECTION BOX - PO LOBBY", "address": {"city": "ANCHORAGE", "state": "AK", "street": "5855 LAKE OTIS PKWY", "postcode": "99507"}}},
{"geometry": {"type": "Point", "coordinates": [-149.8381495535, 61.1681230299]}, "type": "Feature", "properties": {"collection_times": [{"days": "Mon-Fri", "time": "5:30pm"}, {"days": "Sat", "time": "2:30pm"}, {"days": "Sun", "time": "Closed"}], "id": "9950700012", "name": "USPS COLLECTION BOX - BLUE BOX", "address": {"city": "ANCHORAGE", "state": "AK", "street": "5855 LAKE OTIS PKWY", "postcode": "99507"}}},
{"geometry": {"type": "Point", "coordinates": [-149.8589393184, 61.1375457846]}, "type": "Feature", "properties": {"collection_times": [{"days": "Mon-Fri", "time": "1:45pm"}, {"days": "Sat", "time": "11:45am"}, {"days": "Sun", "time": "Closed"}], "id": "9950700013", "name": "USPS COLLECTION BOX - BLUE BOX", "address": {"city": "ANCHORAGE", "state": "AK", "street": "1725 ABBOTT RD", "postcode": "99507"}}},
{"geometry": {"type": "Point", "coordinates": [-149.8644028144, 61.1881318146]}, "type": "Feature", "properties": {"collection_times": [{"days": "Mon-Fri", "time": "2:30pm"}, {"days": "Sat", "time": "12:15pm"}, {"days": "Sun", "time": "Closed"}], "id": "9950800003", "name": "USPS COLLECTION BOX - BLUE BOX", "address": {"city": "ANCHORAGE", "state": "AK", "street": "949 E 36TH AVE", "postcode": "99508"}}},
{"geometry": {"type": "Point", "coordinates": [-149.8286279168, 61.2097915765]}, "type": "Feature", "properties": {"collection_times": [{"days": "Mon-Fri", "time": "2:15pm"}, {"days": "Sat-Sun", "time": "Closed"}], "id": "9950800005", "name": "USPS COLLECTION BOX - BLUE BOX", "address": {"city": "ANCHORAGE", "state": "AK", "street": "2801 DEBARR RD", "postcode": "99508"}}},
{"geometry": {"type": "Point", "coordinates": [-149.8133880592, 61.2053066632]}, "type": "Feature", "properties": {"collection_times": [{"days": "Mon-Fri", "time": "5:45pm"}, {"days": "Sat", "time": "4:15pm"}, {"days": "Sun", "time": "Closed"}], "id": "9950800017", "name": "USPS COLLECTION BOX - BLUE BOX", "address": {"city": "ANCHORAGE", "state": "AK", "street": "801 NORTHWAY DR", "postcode": "99508"}}},
{"geometry": {"type": "Point", "coordinates": [-149.8133880592, 61.2053066632]}, "type": "Feature", "properties": {"collection_times": [{"days": "Mon-Fri", "time": "5:45pm"}, {"days": "Sat", "time": "4:15pm"}, {"days": "Sun", "time": "Closed"}], "id": "9950800018", "name": "USPS COLLECTION BOX - BLUE BOX", "address": {"city": "ANCHORAGE", "state": "AK", "street": "801 NORTHWAY DR", "postcode": "99508"}}},
{"geometry": {"type": "Point", "coordinates": [-149.8133880592, 61.2053066632]}, "type": "Feature", "properties": {"collection_times": [{"days": "Mon-Fri", "time": "5:45pm"}, {"days": "Sat", "time": "4:15pm"}, {"days": "Sun", "time": "Closed"}], "id": "9950800022", "name": "USPS COLLECTION BOX - PO LOBBY", "address": {"city": "ANCHORAGE", "state": "AK", "street": "801 NORTHWAY DR", "postcode": "99508"}}},
{"geometry": {"type": "Point", "coordinates": [-149.8382889667, 61.182597466]}, "type": "Feature", "properties": {"collection_times": [{"days": "Mon-Fri", "time": "2:30pm"}, {"days": "Sat-Sun", "time": "Closed"}], "id": "9950800030", "name": "USPS COLLECTION BOX - BLUE BOX", "address": {"city": "ANCHORAGE", "state": "AK", "street": "4200 LAKE OTIS PKWY", "postcode": "99508"}}},
{"geometry": {"type": "Point", "coordinates": [-149.8233649324, 61.2106480388]}, "type": "Feature", "properties": {"collection_times": [{"days": "Mon-Fri", "time": "2:15pm"}, {"days": "Sat", "time": "3:30pm"}, {"days": "Sun", "time": "Closed"}], "id": "9950800031", "name": "USPS COLLECTION BOX - BLUE BOX", "address": {"city": "ANCHORAGE", "state": "AK", "street": "1200 AIRPORT HEIGHTS DR", "postcode": "99508"}}},
{"geometry": {"type": "Point", "coordinates": [-149.8275891337, 61.1881239039]}, "type": "Feature", "properties": {"collection_times": [{"days": "Mon-Fri", "time": "3:30pm"}, {"days": "Sat-Sun", "time": "Closed"}], "id": "9950800035", "name": "USPS COLLECTION BOX - BLUE BOX", "address": {"city": "ANCHORAGE", "state": "AK", "street": "2905 PROVIDENCE DR", "postcode": "99508"}}},
{"geometry": {"type": "Point", "coordinates": [-149.800139899, 61.1819080508]}, "type": "Feature", "properties": {"collection_times": [{"days": "Mon-Fri", "time": "3:00pm"}, {"days": "Sat-Sun", "time": "Closed"}], "id": "9950800036", "name": "USPS COLLECTION BOX - BLUE BOX", "address": {"city": "ANCHORAGE", "state": "AK", "street": "4315 DIPLOMACY DR", "postcode": "99508"}}},
{"geometry": {"type": "Point", "coordinates": [-149.8133880592, 61.2053066632]}, "type": "Feature", "properties": {"collection_times": [{"days": "Mon-Fri", "time": "5:45pm"}, {"days": "Sat", "time": "4:15pm"}, {"days": "Sun", "time": "Closed"}], "id": "9950800042", "name": "USPS COLLECTION BOX - PO LOBBY", "address": {"city": "ANCHORAGE", "state": "AK", "street": "801 NORTHWAY DR", "postcode": "99508"}}},
{"geometry": {"type": "Point", "coordinates": [-149.9157540275, 61.1952944144]}, "type": "Feature", "properties": {"collection_times": [{"days": "Mon-Fri", "time": "6:00pm"}, {"days": "Sat", "time": "4:15pm"}, {"days": "Sun", "time": "Closed"}], "id": "9950900000", "name": "USPS COLLECTION BOX - BLUE BOX", "address": {"city": "ANCHORAGE", "state": "AK", "street": "1601 W NORTHERN LIGHTS BLVD", "postcode": "99509"}}},
{"geometry": {"type": "Point", "coordinates": [-149.9157540275, 61.1952944144]}, "type": "Feature", "properties": {"collection_times": [{"days": "Mon-Fri", "time": "6:00pm"}, {"days": "Sat", "time": "4:15pm"}, {"days": "Sun", "time": "Closed"}], "id": "9950900002", "name": "USPS COLLECTION BOX - BLUE BOX", "address": {"city": "ANCHORAGE", "state": "AK", "street": "1601 W NORTHERN LIGHTS BLVD", "postcode": "99509"}}},
{"geometry": {"type": "Point", "coordinates": [-149.9157540275, 61.1952944144]}, "type": "Feature", "properties": {"collection_times": [{"days": "Mon-Fri", "time": "6:00pm"}, {"days": "Sat-Sun", "time": "Closed"}], "id": "9950900004", "name": "USPS COLLECTION BOX - PO LOBBY", "address": {"city": "ANCHORAGE", "state": "AK", "street": "1601 W NORTHERN LIGHTS BLVD", "postcode": "99509"}}},
{"geometry": {"type": "Point", "coordinates": [-149.9157540275, 61.1952944144]}, "type": "Feature", "properties": {"collection_times": [{"days": "Mon-Fri", "time": "6:00pm"}, {"days": "Sat-Sun", "time": "Closed"}], "id": "9950900005", "name": "USPS COLLECTION BOX - PO LOBBY", "address": {"city": "ANCHORAGE", "state": "AK", "street": "1601 W NORTHERN LIGHTS BLVD", "postcode": "99509"}}},
{"geometry": {"type": "Point", "coordinates": [-149.9157540275, 61.1952944144]}, "type": "Feature", "properties": {"collection_times": [{"days": "Mon-Fri", "time": "6:00pm"}, {"days": "Sat-Sun", "time": "Closed"}], "id": "9950900006", "name": "USPS COLLECTION BOX - PO LOBBY", "address": {"city": "ANCHORAGE", "state": "AK", "street": "1601 W NORTHERN LIGHTS BLVD", "postcode": "99509"}}},
{"geometry": {"type": "Point", "coordinates": [-149.9154087884, 61.1953479106]}, "type": "Feature", "properties": {"collection_times": [{"days": "Mon-Fri", "time": "6:00pm"}, {"days": "Sat", "time": "4:15pm"}, {"days": "Sun", "time": "Closed"}], "id": "9950900007", "name": "USPS COLLECTION BOX - EXPRESS", "address": {"city": "ANCHORAGE", "state": "AK", "street": "1601 W NORTHERN LIGHTS BLVD", "postcode": "99509"}}},
{"geometry": {"type": "Point", "coordinates": [-149.9154087886, 61.1953479564]}, "type": "Feature", "properties": {"collection_times": [{"days": "Mon-Fri", "time": "6:00pm"}, {"days": "Sat", "time": "4:15pm"}, {"days": "Sun", "time": "Closed"}], "id": "9950900008", "name": "USPS COLLECTION BOX - BLUE BOX", "address": {"city": "ANCHORAGE", "state": "AK", "street": "1601 W NORTHERN LIGHTS BLVD", "postcode": "99509"}}},
{"geometry": {"type": "Point", "coordinates": [-149.8598012515, 61.1101627725]}, "type": "Feature", "properties": {"collection_times": [{"days": "Mon-Fri", "time": "6:00pm"}, {"days": "Sat", "time": "4:00pm"}, {"days": "Sun", "time": "Closed"}], "id": "9951500009", "name": "USPS COLLECTION BOX - BLUE BOX", "address": {"city": "ANCHORAGE", "state": "AK", "street": "1221 HUFFMAN PARK DR", "postcode": "99515"}}},
{"geometry": {"type": "Point", "coordinates": [-149.8598012515, 61.1101627725]}, "type": "Feature", "properties": {"collection_times": [{"days": "Mon-Fri", "time": "6:00pm"}, {"days": "Sat", "time": "4:00pm"}, {"days": "Sun", "time": "Closed"}], "id": "9951500010", "name": "USPS COLLECTION BOX - PO LOBBY", "address": {"city": "ANCHORAGE", "state": "AK", "street": "1221 HUFFMAN PARK DR", "postcode": "99515"}}},
{"geometry": {"type": "Point", "coordinates": [-149.8613284515, 61.1091418789]}, "type": "Feature", "properties": {"collection_times": [{"days": "Mon-Fri", "time": "1:30pm"}, {"days": "Sat", "time": "11:30am"}, {"days": "Sun", "time": "Closed"}], "id": "9951500012", "name": "USPS COLLECTION BOX - BLUE BOX", "address": {"city": "ANCHORAGE", "state": "AK", "street": "12350 INDUSTRY WAY", "postcode": "99515"}}},
{"geometry": {"type": "Point", "coordinates": [-149.8545190524, 61.1086766655]}, "type": "Feature", "properties": {"collection_times": [{"days": "Mon-Fri", "time": "1:30pm"}, {"days": "Sat", "time": "11:30am"}, {"days": "Sun", "time": "Closed"}], "id": "9951500013", "name": "USPS COLLECTION BOX - BLUE BOX", "address": {"city": "ANCHORAGE", "state": "AK", "street": "1501 HUFFMAN RD", "postcode": "99515"}}},
{"geometry": {"type": "Point", "coordinates": [-149.9172145801, 61.1375664786]}, "type": "Feature", "properties": {"collection_times": [{"days": "Mon-Fri", "time": "12:45pm"}, {"days": "Sat", "time": "11:00am"}, {"days": "Sun", "time": "Closed"}], "id": "9951500017", "name": "USPS COLLECTION BOX - BLUE BOX", "address": {"city": "ANCHORAGE", "state": "AK", "street": "2000 W DIMOND BLVD", "postcode": "99515"}}},
{"geometry": {"type": "Point", "coordinates": [-149.8598012515, 61.1101627725]}, "type": "Feature", "properties": {"collection_times": [{"days": "Mon-Fri", "time": "6:00pm"}, {"days": "Sat", "time": "4:00pm"}, {"days": "Sun", "time": "Closed"}], "id": "9951500020", "name": "USPS COLLECTION BOX - PO LOBBY", "address": {"city": "ANCHORAGE", "state": "AK", "street": "1221 HUFFMAN PARK DR", "postcode": "99515"}}},
{"geometry": {"type": "Point", "coordinates": [-149.8598012515, 61.1101627725]}, "type": "Feature", "properties": {"collection_times": [{"days": "Mon-Fri", "time": "6:00pm"}, {"days": "Sat", "time": "4:00pm"}, {"days": "Sun", "time": "Closed"}], "id": "9951500024", "name": "USPS COLLECTION BOX - APC", "address": {"city": "ANCHORAGE", "state": "AK", "street": "1221 HUFFMAN PARK DR", "postcode": "99515"}}},
{"geometry": {"type": "Point", "coordinates": [-149.8598012515, 61.1101627725]}, "type": "Feature", "properties": {"collection_times": [{"days": "Mon-Fri", "time": "6:00pm"}, {"days": "Sat", "time": "4:00pm"}, {"days": "Sun", "time": "Closed"}], "id": "9951500025", "name": "USPS COLLECTION BOX - BLUE BOX", "address": {"city": "ANCHORAGE", "state": "AK", "street": "1221 HUFFMAN PARK DR", "postcode": "99515"}}},
{"geometry": {"type": "Point", "coordinates": [-149.8656545324, 61.1663757995]}, "type": "Feature", "properties": {"collection_times": [{"days": "Mon-Fri", "time": "2:00pm"}, {"days": "Sat-Sun", "time": "Closed"}], "id": "9951800002", "name": "USPS COLLECTION BOX - BLUE BOX", "address": {"city": "ANCHORAGE", "state": "AK", "street": "907 E DOWLING RD", "postcode": "99518"}}},
{"geometry": {"type": "Point", "coordinates": [-149.8712487454, 61.1461483842]}, "type": "Feature", "properties": {"collection_times": [{"days": "Mon-Fri", "time": "1:15pm"}, {"days": "Sat-Sun", "time": "Closed"}], "id": "9951800005", "name": "USPS COLLECTION BOX - BLUE BOX", "address": {"city": "ANCHORAGE", "state": "AK", "street": "615 E 82ND AVE", "postcode": "99518"}}},
{"geometry": {"type": "Point", "coordinates": [-149.8844198105, 61.1532910904]}, "type": "Feature", "properties": {"collection_times": [{"days": "Mon-Fri", "time": "1:00pm"}, {"days": "Sat", "time": "11:15am"}, {"days": "Sun", "time": "Closed"}], "id": "9951800006", "name": "USPS COLLECTION BOX - BLUE BOX", "address": {"city": "ANCHORAGE", "state": "AK", "street": "7434 FOXRIDGE WAY", "postcode": "99518"}}},
{"geometry": {"type": "Point", "coordinates": [-149.9889834456, 61.1833168623]}, "type": "Feature", "properties": {"collection_times": [{"days": "Mon-Sat", "time": "7:00pm"}, {"days": "Sun", "time": "Closed"}], "id": "9951900002", "name": "USPS COLLECTION BOX - BLUE BOX", "address": {"city": "ANCHORAGE", "state": "AK", "street": "4141 POSTMARK DR", "postcode": "99519"}}},
{"geometry": {"type": "Point", "coordinates": [-149.9889834456, 61.1833168623]}, "type": "Feature", "properties": {"collection_times": [{"days": "Mon-Sat", "time": "7:00pm"}, {"days": "Sun", "time": "Closed"}], "id": "9951900003", "name": "USPS COLLECTION BOX - BLUE BOX", "address": {"city": "ANCHORAGE", "state": "AK", "street": "4141 POSTMARK DR", "postcode": "99519"}}},
{"geometry": {"type": "Point", "coordinates": [-149.988596061, 61.1846983021]}, "type": "Feature", "properties": {"collection_times": [{"days": "Mon-Sat", "time": "7:00pm"}, {"days": "Sun", "time": "11:00pm"}], "id": "9951900004", "name": "USPS COLLECTION BOX - EXPRESS", "address": {"city": "ANCHORAGE", "state": "AK", "street": "4141 POSTMARK DR", "postcode": "99519"}}},
{"geometry": {"type": "Point", "coordinates": [-149.9889834456, 61.1833168623]}, "type": "Feature", "properties": {"collection_times": [{"days": "Mon-Sat", "time": "7:00pm"}, {"days": "Sun", "time": "Closed"}], "id": "9951900006", "name": "USPS COLLECTION BOX - PO LOBBY", "address": {"city": "ANCHORAGE", "state": "AK", "street": "4141 POSTMARK DR", "postcode": "99519"}}},
{"geometry": {"type": "Point", "coordinates": [-149.9889834456, 61.1833168623]}, "type": "Feature", "properties": {"collection_times": [{"days": "Mon-Sat", "time": "7:00pm"}, {"days": "Sun", "time": "Closed"}], "id": "9951900007", "name": "USPS COLLECTION BOX - PO LOBBY", "address": {"city": "ANCHORAGE", "state": "AK", "street": "4141 POSTMARK DR", "postcode": "99519"}}},
{"geometry": {"type": "Point", "coordinates": [-149.9889834456, 61.1833168623]}, "type": "Feature", "properties": {"collection_times": [{"days": "Mon-Sat", "time": "7:00pm"}, {"days": "Sun", "time": "Closed"}], "id": "9951900008", "name": "USPS COLLECTION BOX - PO LOBBY", "address": {"city": "ANCHORAGE", "state": "AK", "street": "4141 POSTMARK DR", "postcode": "99519"}}},
{"geometry": {"type": "Point", "coordinates": [-149.9889834456, 61.1833168623]}, "type": "Feature", "properties": {"collection_times": [{"days": "Mon-Sat", "time": "7:00pm"}, {"days": "Sun", "time": "Closed"}], "id": "9951900009", "name": "USPS COLLECTION BOX - APC", "address": {"city": "ANCHORAGE", "state": "AK", "street": "4141 POSTMARK DR", "postcode": "99519"}}},
{"geometry": {"type": "Point", "coordinates": [-158.5899134181, 56.9451747906]}, "type": "Feature", "properties": {"collection_times": [{"days": "Mon-Fri", "time": "12:30pm"}, {"days": "Sat-Sun", "time": "Closed"}], "id": "9954900000", "name": "USPS COLLECTION BOX - PO LOBBY", "address": {"city": "PORT HEIDEN", "state": "AK", "street": "1 POSTAL WAY", "postcode": "99549"}}},
{"geometry": {"type": "Point", "coordinates": [-165.9182330031, 54.1278717736]}, "type": "Feature", "properties": {"collection_times": [{"days": "Mon-Sat", "time": "3:00pm"}, {"days": "Sun", "time": "Closed"}], "id": "9955300000", "name": "USPS COLLECTION BOX - PO LOBBY", "address": {"city": "AKUTAN", "state": "AK", "street": "101 SALMON BERRY RD", "postcode": "99553"}}},
{"geometry": {"type": "Point", "coordinates": [-163.7005424642, 62.7187634353]}, "type": "Feature", "properties": {"collection_times": [{"days": "Mon-Sat", "time": "10:30am"}, {"days": "Sun", "time": "Closed"}], "id": "9955400000", "name": "USPS COLLECTION BOX - PO LOBBY", "address": {"city": "ALAKANUK", "state": "AK", "street": "500 ANDERSON ST", "postcode": "99554"}}},
{"geometry": {"type": "Point", "coordinates": [-151.7660193461, 59.7523645352]}, "type": "Feature", "properties": {"collection_times": [{"days": "Mon-Fri", "time": "2:30pm"}, {"days": "Sat", "time": "1:00pm"}, {"days": "Sun", "time": "Closed"}], "id": "9955600001", "name": "USPS COLLECTION BOX - PO LOBBY", "address": {"city": "ANCHOR POINT", "state": "AK", "street": "33790 STERLING HWY", "postcode": "99556"}}},
{"geometry": {"type": "Point", "coordinates": [-144.4496926597, 61.519572578]}, "type": "Feature", "properties": {"collection_times": [{"days": "Mon-Fri", "time": "12:30pm"}, {"days": "Sat", "time": "12:00pm"}, {"days": "Sun", "time": "Closed"}], "id": "9956600000", "name": "USPS COLLECTION BOX - PO LOBBY", "address": {"city": "CHITINA", "state": "AK", "street": "400 FAIRBANKS ST WAY", "postcode": "99566"}}},
{"geometry": {"type": "Point", "coordinates": [-149.467953177, 61.400576664]}, "type": "Feature", "properties": {"collection_times": [{"days": "Mon-Fri", "time": "5:00pm"}, {"days": "Sat", "time": "1:00pm"}, {"days": "Sun", "time": "Closed"}], "id": "9956700001", "name": "USPS COLLECTION BOX - BLUE BOX", "address": {"city": "CHUGIAK", "state": "AK", "street": "22255 DOGSLED CT", "postcode": "99567"}}},
{"geometry": {"type": "Point", "coordinates": [-149.4679531775, 61.4005766639]}, "type": "Feature", "properties": {"collection_times": [{"days": "Mon-Fri", "time": "5:00pm"}, {"days": "Sat", "time": "1:00pm"}, {"days": "Sun", "time": "Closed"}], "id": "9956700002", "name": "USPS COLLECTION BOX - PO LOBBY", "address": {"city": "CHUGIAK", "state": "AK", "street": "22255 DOGSLED CT", "postcode": "99567"}}},
{"geometry": {"type": "Point", "coordinates": [-151.4129062439, 60.2167397019]}, "type": "Feature", "properties": {"collection_times": [{"days": "Mon-Fri", "time": "3:30pm"}, {"days": "Sat", "time": "12:45pm"}, {"days": "Sun", "time": "Closed"}], "id": "9956800000", "name": "USPS COLLECTION BOX - BLUE BOX", "address": {"city": "CLAM GULCH", "state": "AK", "street": "65790 STERLING HWY", "postcode": "99568"}}},
{"geometry": {"type": "Point", "coordinates": [-151.4129062439, 60.2167397019]}, "type": "Feature", "properties": {"collection_times": [{"days": "Mon-Fri", "time": "3:30pm"}, {"days": "Sat", "time": "12:45pm"}, {"days": "Sun", "time": "Closed"}], "id": "9956800001", "name": "USPS COLLECTION BOX - PO LOBBY", "address": {"city": "CLAM GULCH", "state": "AK", "street": "65790 STERLING HWY", "postcode": "99568"}}},
{"geometry": {"type": "Point", "coordinates": [-151.4129062439, 60.2167397019]}, "type": "Feature", "properties": {"collection_times": [{"days": "Mon-Fri", "time": "3:30pm"}, {"days": "Sat", "time": "12:45pm"}, {"days": "Sun", "time": "Closed"}], "id": "9956800002", "name": "USPS COLLECTION BOX - PO LOBBY", "address": {"city": "CLAM GULCH", "state": "AK", "street": "65790 STERLING HWY", "postcode": "99568"}}},
{"geometry": {"type": "Point", "coordinates": [-149.8086863657, 60.4908394523]}, "type": "Feature", "properties": {"collection_times": [{"days": "Mon-Fri", "time": "3:30pm"}, {"days": "Sat", "time": "2:30pm"}, {"days": "Sun", "time": "Closed"}], "id": "9957200001", "name": "USPS COLLECTION BOX - PO LOBBY", "address": {"city": "COOPER LANDING", "state": "AK", "street": "38741 SNUG HARBOR RD", "postcode": "99572"}}},
{"geometry": {"type": "Point", "coordinates": [-145.3016864232, 61.9609161547]}, "type": "Feature", "properties": {"collection_times": [{"days": "Mon-Fri", "time": "3:00pm"}, {"days": "Sat", "time": "11:30am"}, {"days": "Sun", "time": "Closed"}], "id": "9957300001", "name": "USPS COLLECTION BOX - PO LOBBY", "address": {"city": "COPPER CENTER", "state": "AK", "street": "101.5 OLD RICHARDSON HWY", "postcode": "99573"}}},
{"geometry": {"type": "Point", "coordinates": [-145.3016864232, 61.9609161547]}, "type": "Feature", "properties": {"collection_times": [{"days": "Mon-Fri", "time": "3:00pm"}, {"days": "Sat", "time": "11:30am"}, {"days": "Sun", "time": "Closed"}], "id": "9957300002", "name": "USPS COLLECTION BOX - PO LOBBY", "address": {"city": "COPPER CENTER", "state": "AK", "street": "101.5 OLD RICHARDSON HWY", "postcode": "99573"}}},
{"geometry": {"type": "Point", "coordinates": [-157.9548381462, 61.7907308185]}, "type": "Feature", "properties": {"collection_times": [{"days": "Mon-Sat", "time": "10:00am"}, {"days": "Sun", "time": "Closed"}], "id": "9957500000", "name": "USPS COLLECTION BOX - PO LOBBY", "address": {"city": "CROOKED CREEK", "state": "AK", "street": "500 AIRPORT RD", "postcode": "99575"}}},
{"geometry": {"type": "Point", "coordinates": [-149.572136481, 61.323702589]}, "type": "Feature", "properties": {"collection_times": [{"days": "Mon-Fri", "time": "5:30pm"}, {"days": "Sat", "time": "2:00pm"}, {"days": "Sun", "time": "Closed"}], "id": "9957700001", "name": "USPS COLLECTION BOX - BLUE BOX", "address": {"city": "EAGLE RIVER", "state": "AK", "street": "11471 BUSINESS BLVD", "postcode": "99577"}}},
{"geometry": {"type": "Point", "coordinates": [-149.572136481, 61.323702589]}, "type": "Feature", "properties": {"collection_times": [{"days": "Mon-Fri", "time": "5:30pm"}, {"days": "Sat", "time": "2:00pm"}, {"days": "Sun", "time": "Closed"}], "id": "9957700002", "name": "USPS COLLECTION BOX - BLUE BOX", "address": {"city": "EAGLE RIVER", "state": "AK", "street": "11471 BUSINESS BLVD", "postcode": "99577"}}},
{"geometry": {"type": "Point", "coordinates": [-149.572136481, 61.323702589]}, "type": "Feature", "properties": {"collection_times": [{"days": "Mon-Fri", "time": "5:30pm"}, {"days": "Sat", "time": "2:00pm"}, {"days": "Sun", "time": "Closed"}], "id": "9957700003", "name": "USPS COLLECTION BOX - BLUE BOX", "address": {"city": "EAGLE RIVER", "state": "AK", "street": "11471 BUSINESS BLVD", "postcode": "99577"}}},
{"geometry": {"type": "Point", "coordinates": [-149.5269175016, 61.3153178575]}, "type": "Feature", "properties": {"collection_times": [{"days": "Mon-Fri", "time": "5:30pm"}, {"days": "Sat", "time": "2:00pm"}, {"days": "Sun", "time": "Closed"}], "id": "9957700004", "name": "USPS COLLECTION BOX - EXPRESS", "address": {"city": "EAGLE RIVER", "state": "AK", "street": "11471 BUSINESS BLVD", "postcode": "99577"}}},
{"geometry": {"type": "Point", "coordinates": [-149.5352063562, 61.3105043997]}, "type": "Feature", "properties": {"collection_times": [{"days": "Mon-Sat", "time": "1:00pm"}, {"days": "Sun", "time": "Closed"}], "id": "9957700005", "name": "USPS COLLECTION BOX - BLUE BOX", "address": {"city": "EAGLE RIVER", "state": "AK", "street": "10928 EAGLE RIVER RD", "postcode": "99577"}}},
{"geometry": {"type": "Point", "coordinates": [-149.5269175016, 61.3153178575]}, "type": "Feature", "properties": {"collection_times": [{"days": "Mon-Sat", "time": "2:00pm"}, {"days": "Sun", "time": "Closed"}], "id": "9957700011", "name": "USPS COLLECTION BOX - BLUE BOX", "address": {"city": "EAGLE RIVER", "state": "AK", "street": "19708 EAGLEWOOD LOOP", "postcode": "99577"}}},
{"geometry": {"type": "Point", "coordinates": [-149.572136481, 61.323702589]}, "type": "Feature", "properties": {"collection_times": [{"days": "Mon-Fri", "time": "5:30pm"}, {"days": "Sat", "time": "2:00pm"}, {"days": "Sun", "time": "Closed"}], "id": "9957700012", "name": "USPS COLLECTION BOX - APC", "address": {"city": "EAGLE RIVER", "state": "AK", "street": "11471 BUSINESS BLVD", "postcode": "99577"}}},
{"geometry": {"type": "Point", "coordinates": [-149.572136481, 61.323702589]}, "type": "Feature", "properties": {"collection_times": [{"days": "Mon-Fri", "time": "5:30pm"}, {"days": "Sat", "time": "2:00pm"}, {"days": "Sun", "time": "Closed"}], "id": "9957700014", "name": "USPS COLLECTION BOX - PO LOBBY", "address": {"city": "EAGLE RIVER", "state": "AK", "street": "11471 BUSINESS BLVD", "postcode": "99577"}}},
{"geometry": {"type": "Point", "coordinates": [-157.3356600377, 58.178227217]}, "type": "Feature", "properties": {"collection_times": [{"days": "Mon-Sat", "time": "11:00am"}, {"days": "Sun", "time": "Closed"}], "id": "9957900000", "name": "USPS COLLECTION BOX - PO LOBBY", "address": {"city": "EGEGIK", "state": "AK", "street": "1 SCHOOL RD", "postcode": "99579"}}},
{"geometry": {"type": "Point", "coordinates": [-149.0178479672, 60.791935875]}, "type": "Feature", "properties": {"collection_times": [{"days": "Mon-Fri", "time": "5:00pm"}, {"days": "Sat", "time": "12:00pm"}, {"days": "Sun", "time": "Closed"}], "id": "9958700000", "name": "USPS COLLECTION BOX - PO LOBBY", "address": {"city": "GIRDWOOD", "state": "AK", "street": "118 LINDBLAD AVE", "postcode": "99587"}}},
{"geometry": {"type": "Point", "coordinates": [-149.0178479672, 60.791935875]}, "type": "Feature", "properties": {"collection_times": [{"days": "Mon-Fri", "time": "5:00pm"}, {"days": "Sat", "time": "12:00pm"}, {"days": "Sun", "time": "Closed"}], "id": "9958700001", "name": "USPS COLLECTION BOX - BLUE BOX", "address": {"city": "GIRDWOOD", "state": "AK", "street": "118 LINDBLAD AVE", "postcode": "99587"}}},
{"geometry": {"type": "Point", "coordinates": [-149.0178479672, 60.791935875]}, "type": "Feature", "properties": {"collection_times": [{"days": "Mon-Fri", "time": "5:00pm"}, {"days": "Sat", "time": "12:00pm"}, {"days": "Sun", "time": "Closed"}], "id": "9958700002", "name": "USPS COLLECTION BOX - PO LOBBY", "address": {"city": "GIRDWOOD", "state": "AK", "street": "118 LINDBLAD AVE", "postcode": "99587"}}},
{"geometry": {"type": "Point", "coordinates": [-161.5135891882, 59.1560583485]}, "type": "Feature", "properties": {"collection_times": [{"days": "Mon-Sat", "time": "1:00pm"}, {"days": "Sun", "time": "Closed"}], "id": "9958900000", "name": "USPS COLLECTION BOX - PO LOBBY", "address": {"city": "GOODNEWS BAY", "state": "AK", "street": "9998 GOODNEWS BAY ST", "postcode": "99589"}}}
]}
