{"type": "FeatureCollection", "features": [
{"geometry": {"type": "Point", "coordinates": [-151.531395591, 59.6445958397]}, "type": "Feature", "properties": {"collection_times": [{"days": "Mon-Sat", "time": "2:00pm"}, {"days": "Sun", "time": "Closed"}], "id": "9960300001", "name": "USPS COLLECTION BOX - BLUE BOX", "address": {"city": "HOMER", "state": "AK", "street": "3658 HEATH ST", "postcode": "99603"}}},
{"geometry": {"type": "Point", "coordinates": [-151.531395591, 59.6445958397]}, "type": "Feature", "properties": {"collection_times": [{"days": "Mon-Sat", "time": "2:00pm"}, {"days": "Sun", "time": "Closed"}], "id": "9960300002", "name": "USPS COLLECTION BOX - BLUE BOX", "address": {"city": "HOMER", "state": "AK", "street": "3658 HEATH ST", "postcode": "99603"}}},
{"geometry": {"type": "Point", "coordinates": [-151.531395591, 59.6445958397]}, "type": "Feature", "properties": {"collection_times": [{"days": "Mon-Sat", "time": "2:00pm"}, {"days": "Sun", "time": "Closed"}], "id": "9960300011", "name": "USPS COLLECTION BOX - PO LOBBY", "address": {"city": "HOMER", "state": "AK", "street": "3658 HEATH ST", "postcode": "99603"}}},
{"geometry": {"type": "Point", "coordinates": [-149.6219894584, 60.9193491624]}, "type": "Feature", "properties": {"collection_times": [{"days": "Mon-Sat", "time": "11:00am"}, {"days": "Sun", "time": "Closed"}], "id": "9960500002", "name": "USPS COLLECTION BOX - PO LOBBY", "address": {"city": "HOPE", "state": "AK", "street": "19059 LOGMAN LN", "postcode": "99605"}}},
{"geometry": {"type": "Point", "coordinates": [-160.3353236526, 61.542934546]}, "type": "Feature", "properties": {"collection_times": [{"days": "Mon-Fri", "time": "1:00pm"}, {"days": "Sat", "time": "10:00am"}, {"days": "Sun", "time": "Closed"}], "id": "9960700001", "name": "USPS COLLECTION BOX - PO LOBBY", "address": {"city": "KALSKAG", "state": "AK", "street": "1 POSTAL WAY", "postcode": "99607"}}},
{"geometry": {"type": "Point", "coordinates": [-162.5247016353, 60.8770565704]}, "type": "Feature", "properties": {"collection_times": [{"days": "Mon-Sat", "time": "12:00pm"}, {"days": "Sun", "time": "Closed"}], "id": "9960900001", "name": "USPS COLLECTION BOX - PO LOBBY", "address": {"city": "KASIGLUK", "state": "AK", "street": "19 NAYAGAAM AND MISVIGMUIT RDS", "postcode": "99609"}}},
{"geometry": {"type": "Point", "coordinates": [-151.2633648774, 60.3294832879]}, "type": "Feature", "properties": {"collection_times": [{"days": "Mon-Fri", "time": "4:15pm"}, {"days": "Sat", "time": "12:00pm"}, {"days": "Sun", "time": "Closed"}], "id": "9961000000", "name": "USPS COLLECTION BOX - BLUE BOX", "address": {"city": "KASILOF", "state": "AK", "street": "23758 KALIFORNSKY BEACH RD", "postcode": "99610"}}},
{"geometry": {"type": "Point", "coordinates": [-151.2633648774, 60.3294832879]}, "type": "Feature", "properties": {"collection_times": [{"days": "Mon-Fri", "time": "4:15pm"}, {"days": "Sat", "time": "12:00pm"}, {"days": "Sun", "time": "Closed"}], "id": "9961000001", "name": "USPS COLLECTION BOX - PO LOBBY", "address": {"city": "KASILOF", "state": "AK", "street": "23758 KALIFORNSKY BEACH RD", "postcode": "99610"}}},
{"geometry": {"type": "Point", "coordinates": [-151.2448103688, 60.5580169349]}, "type": "Feature", "properties": {"collection_times": [{"days": "Mon-Fri", "time": "4:00pm"}, {"days": "Sat", "time": "2:30pm"}, {"days": "Sun", "time": "Closed"}], "id": "9961100001", "name": "USPS COLLECTION BOX - BLUE BOX", "address": {"city": "KENAI", "state": "AK", "street": "140 BIDARKA ST", "postcode": "99611"}}},
{"geometry": {"type": "Point", "coordinates": [-151.2448103688, 60.5580169349]}, "type": "Feature", "properties": {"collection_times": [{"days": "Mon-Fri", "time": "4:00pm"}, {"days": "Sat", "time": "2:30pm"}, {"days": "Sun", "time": "Closed"}], "id": "9961100002", "name": "USPS COLLECTION BOX - BLUE BOX", "address": {"city": "KENAI", "state": "AK", "street": "140 BIDARKA ST", "postcode": "99611"}}},
{"geometry": {"type": "Point", "coordinates": [-151.2311590089, 60.5665995447]}, "type": "Feature", "properties": {"collection_times": [{"days": "Mon-Fri", "time": "4:00pm"}, {"days": "Sat", "time": "1:00pm"}, {"days": "Sun", "time": "Closed"}], "id": "9961100003", "name": "USPS COLLECTION BOX - EXPRESS", "address": {"city": "KENAI", "state": "AK", "street": "140 BIDARKA ST", "postcode": "99611"}}},
{"geometry": {"type": "Point", "coordinates": [-151.2448103688, 60.5580169349]}, "type": "Feature", "properties": {"collection_times": [{"days": "Mon-Fri", "time": "4:00pm"}, {"days": "Sat", "time": "2:30pm"}, {"days": "Sun", "time": "Closed"}], "id": "9961100010", "name": "USPS COLLECTION BOX - PO LOBBY", "address": {"city": "KENAI", "state": "AK", "street": "140 BIDARKA ST", "postcode": "99611"}}},
{"geometry": {"type": "Point", "coordinates": [-151.2448103688, 60.5580169349]}, "type": "Feature", "properties": {"collection_times": [{"days": "Mon-Fri", "time": "4:00pm"}, {"days": "Sat", "time": "2:30pm"}, {"days": "Sun", "time": "Closed"}], "id": "9961100011", "name": "USPS COLLECTION BOX - PO LOBBY", "address": {"city": "KENAI", "state": "AK", "street": "140 BIDARKA ST", "postcode": "99611"}}},
{"geometry": {"type": "Point", "coordinates": [-162.3119186907, 55.0601042014]}, "type": "Feature", "properties": {"collection_times": [{"days": "Mon-Fri", "time": "12:00pm"}, {"days": "Sat", "time": "10:00am"}, {"days": "Sun", "time": "Closed"}], "id": "9961200004", "name": "USPS COLLECTION BOX - PO LOBBY", "address": {"city": "KING COVE", "state": "AK", "street": "38 WINDY WALKWAY", "postcode": "99612"}}},
{"geometry": {"type": "Point", "coordinates": [-152.3998309153, 57.7932840281]}, "type": "Feature", "properties": {"collection_times": [{"days": "Mon-Sat", "time": "1:00pm"}, {"days": "Sun", "time": "Closed"}], "id": "9961500002", "name": "USPS COLLECTION BOX - BLUE BOX", "address": {"city": "KODIAK", "state": "AK", "street": "419 LOWER MILL BAY RD", "postcode": "99615"}}},
{"geometry": {"type": "Point", "coordinates": [-152.4048883796, 57.791509707]}, "type": "Feature", "properties": {"collection_times": [{"days": "Mon-Sat", "time": "1:00pm"}, {"days": "Sun", "time": "Closed"}], "id": "9961500003", "name": "USPS COLLECTION BOX - EXPRESS", "address": {"city": "KODIAK", "state": "AK", "street": "419 LOWER MILL BAY RD", "postcode": "99615"}}},
{"geometry": {"type": "Point", "coordinates": [-152.3998309153, 57.7932840281]}, "type": "Feature", "properties": {"collection_times": [{"days": "Mon-Sat", "time": "1:00pm"}, {"days": "Sun", "time": "Closed"}], "id": "9961500009", "name": "USPS COLLECTION BOX - BLUE BOX", "address": {"city": "KODIAK", "state": "AK", "street": "419 LOWER MILL BAY RD", "postcode": "99615"}}},
{"geometry": {"type": "Point", "coordinates": [-152.3998309153, 57.7932840281]}, "type": "Feature", "properties": {"collection_times": [{"days": "Mon-Sat", "time": "1:00pm"}, {"days": "Sun", "time": "Closed"}], "id": "9961500013", "name": "USPS COLLECTION BOX - PO LOBBY", "address": {"city": "KODIAK", "state": "AK", "street": "419 LOWER MILL BAY RD", "postcode": "99615"}}},
{"geometry": {"type": "Point", "coordinates": [-152.3998309153, 57.7932840281]}, "type": "Feature", "properties": {"collection_times": [{"days": "Mon-Sat", "time": "1:00pm"}, {"days": "Sun", "time": "Closed"}], "id": "9961500014", "name": "USPS COLLECTION BOX - PO LOBBY", "address": {"city": "KODIAK", "state": "AK", "street": "419 LOWER MILL BAY RD", "postcode": "99615"}}},
{"geometry": {"type": "Point", "coordinates": [-166.3836452328, 60.0971834993]}, "type": "Feature", "properties": {"collection_times": [{"days": "Mon-Fri", "time": "8:45am"}, {"days": "Sat", "time": "9:00am"}, {"days": "Sun", "time": "Closed"}], "id": "9963000000", "name": "USPS COLLECTION BOX - PO LOBBY", "address": {"city": "MEKORYUK", "state": "AK", "street": "1 POSTAL WAY", "postcode": "99630"}}},
{"geometry": {"type": "Point", "coordinates": [-149.3693281368, 60.4864317463]}, "type": "Feature", "properties": {"collection_times": [{"days": "Mon-Fri", "time": "4:30pm"}, {"days": "Sat", "time": "11:30am"}, {"days": "Sun", "time": "Closed"}], "id": "9963100001", "name": "USPS COLLECTION BOX - PO LOBBY", "address": {"city": "MOOSE PASS", "state": "AK", "street": "31785 POST OFFICE DR", "postcode": "99631"}}},
{"geometry": {"type": "Point", "coordinates": [-156.7129725903, 58.8481401375]}, "type": "Feature", "properties": {"collection_times": [{"days": "Mon-Fri", "time": "12:45pm"}, {"days": "Sat", "time": "9:45am"}, {"days": "Sun", "time": "Closed"}], "id": "9963300002", "name": "USPS COLLECTION BOX - PO LOBBY", "address": {"city": "NAKNEK", "state": "AK", "street": "1/2 SCHOOL RD", "postcode": "99633"}}},
{"geometry": {"type": "Point", "coordinates": [-156.7129725903, 58.8481401375]}, "type": "Feature", "properties": {"collection_times": [{"days": "Mon-Fri", "time": "12:45pm"}, {"days": "Sat", "time": "9:45am"}, {"days": "Sun", "time": "Closed"}], "id": "9963300003", "name": "USPS COLLECTION BOX - PO LOBBY", "address": {"city": "NAKNEK", "state": "AK", "street": "1/2 SCHOOL RD", "postcode": "99633"}}},
{"geometry": {"type": "Point", "coordinates": [-151.3114988698, 60.7277263092]}, "type": "Feature", "properties": {"collection_times": [{"days": "Mon-Fri", "time": "2:30pm"}, {"days": "Sat", "time": "9:30am"}, {"days": "Sun", "time": "Closed"}], "id": "9963500000", "name": "USPS COLLECTION BOX - BLUE BOX", "address": {"city": "NIKISKI", "state": "AK", "street": "51708 KENAI SPUR HWY STE B", "postcode": "99635"}}},
{"geometry": {"type": "Point", "coordinates": [-151.3114988698, 60.7277263092]}, "type": "Feature", "properties": {"collection_times": [{"days": "Mon-Fri", "time": "2:30pm"}, {"days": "Sat", "time": "9:30am"}, {"days": "Sun", "time": "Closed"}], "id": "9963500001", "name": "USPS COLLECTION BOX - PO LOBBY", "address": {"city": "NIKISKI", "state": "AK", "street": "51708 KENAI SPUR HWY STE B", "postcode": "99635"}}},
{"geometry": {"type": "Point", "coordinates": [-157.6378411189, 59.5688773794]}, "type": "Feature", "properties": {"collection_times": [{"days": "Mon-Fri", "time": "12:00pm"}, {"days": "Sat", "time": "10:00am"}, {"days": "Sun", "time": "Closed"}], "id": "9963600001", "name": "USPS COLLECTION BOX - PO LOBBY", "address": {"city": "NEW STUYAHOK", "state": "AK", "street": "100 WALLACE ST", "postcode": "99636"}}},
{"geometry": {"type": "Point", "coordinates": [-151.650769225, 60.0323072534]}, "type": "Feature", "properties": {"collection_times": [{"days": "Mon-Fri", "time": "4:00pm"}, {"days": "Sat", "time": "12:00pm"}, {"days": "Sun", "time": "Closed"}], "id": "9963900001", "name": "USPS COLLECTION BOX - PO LOBBY", "address": {"city": "NINILCHIK", "state": "AK", "street": "15700 KINGSLEY RD", "postcode": "99639"}}},
{"geometry": {"type": "Point", "coordinates": [-152.5009833961, 57.922645265]}, "type": "Feature", "properties": {"collection_times": [{"days": "Mon-Fri", "time": "12:00pm"}, {"days": "Sat", "time": "9:30am"}, {"days": "Sun", "time": "Closed"}], "id": "9964400000", "name": "USPS COLLECTION BOX - BLUE BOX", "address": {"city": "OUZINKIE", "state": "AK", "street": "200 2ND AND E ST", "postcode": "99644"}}},
{"geometry": {"type": "Point", "coordinates": [-152.5009833961, 57.922645265]}, "type": "Feature", "properties": {"collection_times": [{"days": "Mon-Fri", "time": "12:00pm"}, {"days": "Sat", "time": "8:00am"}, {"days": "Sun", "time": "Closed"}], "id": "9964400001", "name": "USPS COLLECTION BOX - PO LOBBY", "address": {"city": "OUZINKIE", "state": "AK", "street": "200 2ND AND E ST", "postcode": "99644"}}},
{"geometry": {"type": "Point", "coordinates": [-149.1183686125, 61.6023528463]}, "type": "Feature", "properties": {"collection_times": [{"days": "Mon-Fri", "time": "5:00pm"}, {"days": "Sat", "time": "12:30pm"}, {"days": "Sun", "time": "Closed"}], "id": "9964500003", "name": "USPS COLLECTION BOX - PO LOBBY", "address": {"city": "PALMER", "state": "AK", "street": "500 S COBB ST", "postcode": "99645"}}},
{"geometry": {"type": "Point", "coordinates": [-149.1183686125, 61.6023528463]}, "type": "Feature", "properties": {"collection_times": [{"days": "Mon-Fri", "time": "5:00pm"}, {"days": "Sat", "time": "12:30pm"}, {"days": "Sun", "time": "Closed"}], "id": "9964500004", "name": "USPS COLLECTION BOX - PO LOBBY", "address": {"city": "PALMER", "state": "AK", "street": "500 S COBB ST", "postcode": "99645"}}},
{"geometry": {"type": "Point", "coordinates": [-149.1254609775, 61.5993802668]}, "type": "Feature", "properties": {"collection_times": [{"days": "Mon-Fri", "time": "1:30pm"}, {"days": "Sat", "time": "12:00pm"}, {"days": "Sun", "time": "Closed"}], "id": "9964500005", "name": "USPS COLLECTION BOX - BLUE BOX", "address": {"city": "PALMER", "state": "AK", "street": "664 W EVERGREEN AVE", "postcode": "99645"}}},
{"geometry": {"type": "Point", "coordinates": [-149.1183686125, 61.6023528463]}, "type": "Feature", "properties": {"collection_times": [{"days": "Mon-Fri", "time": "5:00pm"}, {"days": "Sat", "time": "12:30pm"}, {"days": "Sun", "time": "Closed"}], "id": "9964500008", "name": "USPS COLLECTION BOX - BLUE BOX", "address": {"city": "PALMER", "state": "AK", "street": "500 S COBB ST", "postcode": "99645"}}},
{"geometry": {"type": "Point", "coordinates": [-149.263179169, 61.5643953572]}, "type": "Feature", "properties": {"collection_times": [{"days": "Mon-Sat", "time": "10:00am"}, {"days": "Sun", "time": "Closed"}], "id": "9964500009", "name": "USPS COLLECTION BOX - BLUE BOX", "address": {"city": "PALMER", "state": "AK", "street": "2500 S WOODWORTH LOOP", "postcode": "99645"}}},
{"geometry": {"type": "Point", "coordinates": [-157.3850863067, 57.525870937]}, "type": "Feature", "properties": {"collection_times": [{"days": "Mon-Sat", "time": "2:00pm"}, {"days": "Sun", "time": "Closed"}], "id": "9964900002", "name": "USPS COLLECTION BOX - PO LOBBY", "address": {"city": "PILOT POINT", "state": "AK", "street": "600 AIRPLANE LAKE RD", "postcode": "99649"}}},
{"geometry": {"type": "Point", "coordinates": [-149.8193166057, 61.5523628753]}, "type": "Feature", "properties": {"collection_times": [{"days": "Mon-Fri", "time": "2:30pm"}, {"days": "Sat-Sun", "time": "Closed"}], "id": "9965200001", "name": "USPS COLLECTION BOX - PO LOBBY", "address": {"city": "BIG LAKE", "state": "AK", "street": "2809 BIG LAKE RD", "postcode": "99652"}}},
{"geometry": {"type": "Point", "coordinates": [-149.4626107865, 61.5820694009]}, "type": "Feature", "properties": {"collection_times": [{"days": "Mon-Sat", "time": "9:30am"}, {"days": "Sun", "time": "Closed"}], "id": "9965400004", "name": "USPS COLLECTION BOX - BLUE BOX", "address": {"city": "WASILLA", "state": "AK", "street": "503 W PARKS HWY", "postcode": "99654"}}},
{"geometry": {"type": "Point", "coordinates": [-149.4455154512, 61.572205906]}, "type": "Feature", "properties": {"collection_times": [{"days": "Mon-Sat", "time": "10:00am"}, {"days": "Sun", "time": "Closed"}], "id": "9965400013", "name": "USPS COLLECTION BOX - BLUE BOX", "address": {"city": "WASILLA", "state": "AK", "street": "1075 S CHECK ST", "postcode": "99654"}}},
{"geometry": {"type": "Point", "coordinates": [-149.4131899035, 61.5780454495]}, "type": "Feature", "properties": {"collection_times": [{"days": "Mon-Sat", "time": "10:00am"}, {"days": "Sun", "time": "Closed"}], "id": "9965400014", "name": "USPS COLLECTION BOX - BLUE BOX", "address": {"city": "WASILLA", "state": "AK", "street": "1501 E PARKS HWY", "postcode": "99654"}}},
{"geometry": {"type": "Point", "coordinates": [-149.3600676332, 61.5687559372]}, "type": "Feature", "properties": {"collection_times": [{"days": "Mon-Sat", "time": "11:00am"}, {"days": "Sun", "time": "Closed"}], "id": "9965400015", "name": "USPS COLLECTION BOX - BLUE BOX", "address": {"city": "WASILLA", "state": "AK", "street": "1350 S SEWARD MERIDIAN PKWY", "postcode": "99654"}}},
{"geometry": {"type": "Point", "coordinates": [-170.2828262849, 57.1829873882]}, "type": "Feature", "properties": {"collection_times": [{"days": "Mon-Sat", "time": "12:30pm"}, {"days": "Sun", "time": "Closed"}], "id": "9966000001", "name": "USPS COLLECTION BOX - PO LOBBY", "address": {"city": "ST PAUL ISLAND", "state": "AK", "street": "2000 POLOVINA TPKE", "postcode": "99660"}}},
{"geometry": {"type": "Point", "coordinates": [-160.7624760435, 55.2287672172]}, "type": "Feature", "properties": {"collection_times": [{"days": "Mon-Sat", "time": "12:00pm"}, {"days": "Sun", "time": "Closed"}], "id": "9966100002", "name": "USPS COLLECTION BOX - PO LOBBY", "address": {"city": "SAND POINT", "state": "AK", "street": "9998 MAIN ST", "postcode": "99661"}}},
{"geometry": {"type": "Point", "coordinates": [-151.7150362014, 59.4385665968]}, "type": "Feature", "properties": {"collection_times": [{"days": "Mon-Fri", "time": "12:00pm"}, {"days": "Sat-Sun", "time": "Closed"}], "id": "9966300001", "name": "USPS COLLECTION BOX - BLUE BOX", "address": {"city": "SELDOVIA", "state": "AK", "street": "251 MAIN ST", "postcode": "99663"}}},
{"geometry": {"type": "Point", "coordinates": [-151.7150362014, 59.4385665968]}, "type": "Feature", "properties": {"collection_times": [{"days": "Mon-Fri", "time": "12:00pm"}, {"days": "Sat-Sun", "time": "Closed"}], "id": "9966300002", "name": "USPS COLLECTION BOX - PO LOBBY", "address": {"city": "SELDOVIA", "state": "AK", "street": "251 MAIN ST", "postcode": "99663"}}},
{"geometry": {"type": "Point", "coordinates": [-149.44017, 60.11681]}, "type": "Feature", "properties": {"collection_times": [{"days": "Mon-Fri", "time": "12:30pm"}, {"days": "Sat-Sun", "time": "Closed"}], "id": "9966400002", "name": "USPS COLLECTION BOX - BLUE BOX", "address": {"city": "SEWARD", "state": "AK", "street": "1300 4 AVE", "postcode": "99664"}}},
{"geometry": {"type": "Point", "coordinates": [-149.3821897134, 60.195527385]}, "type": "Feature", "properties": {"collection_times": [{"days": "Mon-Fri", "time": "4:00pm"}, {"days": "Sat", "time": "2:15pm"}, {"days": "Sun", "time": "Closed"}], "id": "9966400003", "name": "USPS COLLECTION BOX - BLUE BOX", "address": {"city": "SEWARD", "state": "AK", "street": "507 MADISON AVE", "postcode": "99664"}}},
{"geometry": {"type": "Point", "coordinates": [-149.3821897134, 60.195527385]}, "type": "Feature", "properties": {"collection_times": [{"days": "Mon-Fri", "time": "4:00pm"}, {"days": "Sat", "time": "2:15pm"}, {"days": "Sun", "time": "Closed"}], "id": "9966400006", "name": "USPS COLLECTION BOX - EXPRESS", "address": {"city": "SEWARD", "state": "AK", "street": "507 MADISON AVE", "postcode": "99664"}}},
{"geometry": {"type": "Point", "coordinates": [-149.3821897134, 60.195527385]}, "type": "Feature", "properties": {"collection_times": [{"days": "Mon-Fri", "time": "12:15pm"}, {"days": "Sat-Sun", "time": "Closed"}], "id": "9966400007", "name": "USPS COLLECTION BOX - BLUE BOX", "address": {"city": "SEWARD", "state": "AK", "street": "2701 SEWARD HWY", "postcode": "99664"}}},
{"geometry": {"type": "Point", "coordinates": [-149.4386057836, 60.1064882599]}, "type": "Feature", "properties": {"collection_times": [{"days": "Mon-Fri", "time": "4:00pm"}, {"days": "Sat", "time": "2:15pm"}, {"days": "Sun", "time": "Closed"}], "id": "9966400009", "name": "USPS COLLECTION BOX - PO LOBBY", "address": {"city": "SEWARD", "state": "AK", "street": "507 MADISON AVE", "postcode": "99664"}}},
{"geometry": {"type": "Point", "coordinates": [-149.4386057836, 60.1064882599]}, "type": "Feature", "properties": {"collection_times": [{"days": "Mon-Fri", "time": "4:00pm"}, {"days": "Sat", "time": "2:15pm"}, {"days": "Sun", "time": "Closed"}], "id": "9966400010", "name": "USPS COLLECTION BOX - PO LOBBY", "address": {"city": "SEWARD", "state": "AK", "street": "507 MADISON AVE", "postcode": "99664"}}},
{"geometry": {"type": "Point", "coordinates": [-149.4386057836, 60.1064882599]}, "type": "Feature", "properties": {"collection_times": [{"days": "Mon-Fri", "time": "4:00pm"}, {"days": "Sat", "time": "2:15pm"}, {"days": "Sun", "time": "Closed"}], "id": "9966400011", "name": "USPS COLLECTION BOX - PO LOBBY", "address": {"city": "SEWARD", "state": "AK", "street": "507 MADISON AVE", "postcode": "99664"}}},
{"geometry": {"type": "Point", "coordinates": [-151.0726327803, 60.490167072]}, "type": "Feature", "properties": {"collection_times": [{"days": "Mon-Fri", "time": "4:00pm"}, {"days": "Sat", "time": "2:15pm"}, {"days": "Sun", "time": "Closed"}], "id": "9966900001", "name": "USPS COLLECTION BOX - BLUE BOX", "address": {"city": "SOLDOTNA", "state": "AK", "street": "175 N BINKLEY ST", "postcode": "99669"}}},
{"geometry": {"type": "Point", "coordinates": [-151.0352106887, 60.4955654431]}, "type": "Feature", "properties": {"collection_times": [{"days": "Mon-Fri", "time": "9:30am"}, {"days": "Sat", "time": "10:00am"}, {"days": "Sun", "time": "Closed"}], "id": "9966900009", "name": "USPS COLLECTION BOX - BLUE BOX", "address": {"city": "SOLDOTNA", "state": "AK", "street": "42843 STERLING HWY", "postcode": "99669"}}},
{"geometry": {"type": "Point", "coordinates": [-151.0726327803, 60.490167072]}, "type": "Feature", "properties": {"collection_times": [{"days": "Mon-Fri", "time": "4:00pm"}, {"days": "Sat", "time": "2:15pm"}, {"days": "Sun", "time": "Closed"}], "id": "9966900010", "name": "USPS COLLECTION BOX - PO LOBBY", "address": {"city": "SOLDOTNA", "state": "AK", "street": "175 N BINKLEY ST", "postcode": "99669"}}},
{"geometry": {"type": "Point", "coordinates": [-151.0726327803, 60.490167072]}, "type": "Feature", "properties": {"collection_times": [{"days": "Mon-Fri", "time": "4:00pm"}, {"days": "Sat", "time": "2:15pm"}, {"days": "Sun", "time": "Closed"}], "id": "9966900011", "name": "USPS COLLECTION BOX - PO LOBBY", "address": {"city": "SOLDOTNA", "state": "AK", "street": "175 N BINKLEY ST", "postcode": "99669"}}},
{"geometry": {"type": "Point", "coordinates": [-151.0726327803, 60.490167072]}, "type": "Feature", "properties": {"collection_times": [{"days": "Mon-Fri", "time": "4:00pm"}, {"days": "Sat", "time": "2:15pm"}, {"days": "Sun", "time": "Closed"}], "id": "9966900012", "name": "USPS COLLECTION BOX - PO LOBBY", "address": {"city": "SOLDOTNA", "state": "AK", "street": "175 N BINKLEY ST", "postcode": "99669"}}},
{"geometry": {"type": "Point", "coordinates": [-151.0726327803, 60.490167072]}, "type": "Feature", "properties": {"collection_times": [{"days": "Mon-Fri", "time": "4:00pm"}, {"days": "Sat", "time": "2:15pm"}, {"days": "Sun", "time": "Closed"}], "id": "9966900013", "name": "USPS COLLECTION BOX - BLUE BOX", "address": {"city": "SOLDOTNA", "state": "AK", "street": "175 N BINKLEY ST", "postcode": "99669"}}},
{"geometry": {"type": "Point", "coordinates": [-151.1591443157, 60.4935804385]}, "type": "Feature", "properties": {"collection_times": [{"days": "Mon-Fri", "time": "1:00pm"}, {"days": "Sat", "time": "11:00am"}, {"days": "Sun", "time": "Closed"}], "id": "9966900014", "name": "USPS COLLECTION BOX - BLUE BOX", "address": {"city": "SOLDOTNA", "state": "AK", "street": "43335 KALIFORNSKY BEACH RD", "postcode": "99669"}}},
{"geometry": {"type": "Point", "coordinates": [-156.9046435924, 58.690116166]}, "type": "Feature", "properties": {"collection_times": [{"days": "Mon-Fri", "time": "12:00pm"}, {"days": "Sat", "time": "10:00am"}, {"days": "Sun", "time": "Closed"}], "id": "9967000001", "name": "USPS COLLECTION BOX - PO LOBBY", "address": {"city": "SOUTH NAKNEK", "state": "AK", "street": "500 7TH ST", "postcode": "99670"}}},
{"geometry": {"type": "Point", "coordinates": [-162.231624097, 63.4979588765]}, "type": "Feature", "properties": {"collection_times": [{"days": "Mon-Fri", "time": "11:45am"}, {"days": "Sat", "time": "3:00pm"}, {"days": "Sun", "time": "Closed"}], "id": "9967100000", "name": "USPS COLLECTION BOX - PO LOBBY", "address": {"city": "STEBBINS", "state": "AK", "street": "1 POSTAL WAY", "postcode": "99671"}}},
{"geometry": {"type": "Point", "coordinates": [-150.7907740956, 60.5370798509]}, "type": "Feature", "properties": {"collection_times": [{"days": "Mon-Fri", "time": "2:30pm"}, {"days": "Sat", "time": "12:00pm"}, {"days": "Sun", "time": "Closed"}], "id": "9967200001", "name": "USPS COLLECTION BOX - BLUE BOX", "address": {"city": "STERLING", "state": "AK", "street": "38161 MIDWAY DR", "postcode": "99672"}}},
{"geometry": {"type": "Point", "coordinates": [-150.7907740956, 60.5370798509]}, "type": "Feature", "properties": {"collection_times": [{"days": "Mon-Fri", "time": "2:30pm"}, {"days": "Sat", "time": "12:00pm"}, {"days": "Sun", "time": "Closed"}], "id": "9967200002", "name": "USPS COLLECTION BOX - PO LOBBY", "address": {"city": "STERLING", "state": "AK", "street": "38161 MIDWAY DR", "postcode": "99672"}}},
{"geometry": {"type": "Point", "coordinates": [-148.9456077038, 61.7549000412]}, "type": "Feature", "properties": {"collection_times": [{"days": "Mon-Fri", "time": "4:00pm"}, {"days": "Sat", "time": "11:00am"}, {"days": "Sun", "time": "Closed"}], "id": "9967400001", "name": "USPS COLLECTION BOX - BLUE BOX", "address": {"city": "SUTTON", "state": "AK", "street": "11266 N CHICKALOON WAY", "postcode": "99674"}}},
{"geometry": {"type": "Point", "coordinates": [-148.9456077038, 61.7549000412]}, "type": "Feature", "properties": {"collection_times": [{"days": "Mon-Fri", "time": "4:00pm"}, {"days": "Sat", "time": "11:00am"}, {"days": "Sun", "time": "Closed"}], "id": "9967400002", "name": "USPS COLLECTION BOX - PO LOBBY", "address": {"city": "SUTTON", "state": "AK", "street": "11266 N CHICKALOON WAY", "postcode": "99674"}}},
{"geometry": {"type": "Point", "coordinates": [-160.3919817174, 59.0600743754]}, "type": "Feature", "properties": {"collection_times": [{"days": "Mon-Fri", "time": "1:00pm"}, {"days": "Sat", "time": "8:00am"}, {"days": "Sun", "time": "Closed"}], "id": "9967800001", "name": "USPS COLLECTION BOX - PO LOBBY", "address": {"city": "TOGIAK", "state": "AK", "street": "9998 AIRPORT WAY", "postcode": "99678"}}},
{"geometry": {"type": "Point", "coordinates": [-151.1394621831, 61.0672309685]}, "type": "Feature", "properties": {"collection_times": [{"days": "Mon-Fri", "time": "12:00pm"}, {"days": "Sat-Sun", "time": "Closed"}], "id": "9968200001", "name": "USPS COLLECTION BOX - PO LOBBY", "address": {"city": "TYONEK", "state": "AK", "street": "16 C ST", "postcode": "99682"}}},
{"geometry": {"type": "Point", "coordinates": [-160.7892027913, 63.8750239806]}, "type": "Feature", "properties": {"collection_times": [{"days": "Mon-Fri", "time": "12:00pm"}, {"days": "Sat-Sun", "time": "Closed"}], "id": "9968400002", "name": "USPS COLLECTION BOX - PO LOBBY", "address": {"city": "UNALAKLEET", "state": "AK", "street": "100 MAIN ST", "postcode": "99684"}}},
{"geometry": {"type": "Point", "coordinates": [-160.7892027913, 63.8750239806]}, "type": "Feature", "properties": {"collection_times": [{"days": "Mon-Fri", "time": "12:00pm"}, {"days": "Sat-Sun", "time": "Closed"}], "id": "9968400003", "name": "USPS COLLECTION BOX - PO LOBBY", "address": {"city": "UNALAKLEET", "state": "AK", "street": "100 MAIN ST", "postcode": "99684"}}},
{"geometry": {"type": "Point", "coordinates": [-166.5368748175, 53.8701616187]}, "type": "Feature", "properties": {"collection_times": [{"days": "Mon-Fri", "time": "1:45pm"}, {"days": "Sat", "time": "12:00pm"}, {"days": "Sun", "time": "Closed"}], "id": "9968500001", "name": "USPS COLLECTION BOX - PO LOBBY", "address": {"city": "UNALASKA", "state": "AK", "street": "82 AIRPORT BEACH RD", "postcode": "99685"}}},
{"geometry": {"type": "Point", "coordinates": [-166.5368748175, 53.8701616187]}, "type": "Feature", "properties": {"collection_times": [{"days": "Mon-Fri", "time": "1:45pm"}, {"days": "Sat", "time": "12:00pm"}, {"days": "Sun", "time": "Closed"}], "id": "9968500002", "name": "USPS COLLECTION BOX - PO LOBBY", "address": {"city": "UNALASKA", "state": "AK", "street": "82 AIRPORT BEACH RD", "postcode": "99685"}}},
{"geometry": {"type": "Point", "coordinates": [-146.3541771055, 61.1260363829]}, "type": "Feature", "properties": {"collection_times": [{"days": "Mon-Sat", "time": "11:30am"}, {"days": "Sun", "time": "Closed"}], "id": "9968600003", "name": "USPS COLLECTION BOX - EXPRESS", "address": {"city": "VALDEZ", "state": "AK", "street": "221 TATITLEK ST", "postcode": "99686"}}},
{"geometry": {"type": "Point", "coordinates": [-149.4415914165, 61.5826238212]}, "type": "Feature", "properties": {"collection_times": [{"days": "Mon-Fri", "time": "5:30pm"}, {"days": "Sat", "time": "1:00pm"}, {"days": "Sun", "time": "Closed"}], "id": "9968700000", "name": "USPS COLLECTION BOX - BLUE BOX", "address": {"city": "WASILLA", "state": "AK", "street": "401 N MAIN ST", "postcode": "99687"}}},
{"geometry": {"type": "Point", "coordinates": [-149.4415914165, 61.5826238212]}, "type": "Feature", "properties": {"collection_times": [{"days": "Mon-Fri", "time": "5:30pm"}, {"days": "Sat", "time": "1:00pm"}, {"days": "Sun", "time": "Closed"}], "id": "9968700001", "name": "USPS COLLECTION BOX - BLUE BOX", "address": {"city": "WASILLA", "state": "AK", "street": "401 N MAIN ST", "postcode": "99687"}}},
{"geometry": {"type": "Point", "coordinates": [-149.4415914165, 61.5826238212]}, "type": "Feature", "properties": {"collection_times": [{"days": "Mon-Fri", "time": "5:30pm"}, {"days": "Sat", "time": "1:00pm"}, {"days": "Sun", "time": "Closed"}], "id": "9968700002", "name": "USPS COLLECTION BOX - PO LOBBY", "address": {"city": "WASILLA", "state": "AK", "street": "401 N MAIN ST", "postcode": "99687"}}},
{"geometry": {"type": "Point", "coordinates": [-149.4415914165, 61.5826238212]}, "type": "Feature", "properties": {"collection_times": [{"days": "Mon-Fri", "time": "5:30pm"}, {"days": "Sat", "time": "1:00pm"}, {"days": "Sun", "time": "Closed"}], "id": "9968700003", "name": "USPS COLLECTION BOX - APC", "address": {"city": "WASILLA", "state": "AK", "street": "401 N MAIN ST", "postcode": "99687"}}}
]}
