{"type": "FeatureCollection", "features": [
{"geometry": {"type": "Point", "coordinates": [-147.7419084129, 64.8328802192]}, "type": "Feature", "properties": {"collection_times": [{"days": "Mon-Fri", "time": "3:45pm"}, {"days": "Sat", "time": "2:00pm"}, {"days": "Sun", "time": "Closed"}], "id": "9970100002", "name": "USPS COLLECTION BOX - BLUE BOX", "address": {"city": "FAIRBANKS", "state": "AK", "street": "1650 COWLES ST", "postcode": "99701"}}},
{"geometry": {"type": "Point", "coordinates": [-147.71891529, 64.8379585796]}, "type": "Feature", "properties": {"collection_times": [{"days": "Mon-Fri", "time": "4:00pm"}, {"days": "Sat-Sun", "time": "Closed"}], "id": "9970100004", "name": "USPS COLLECTION BOX - BLUE BOX", "address": {"city": "FAIRBANKS", "state": "AK", "street": "600 12TH AVE", "postcode": "99701"}}},
{"geometry": {"type": "Point", "coordinates": [-147.702754837, 64.847503958]}, "type": "Feature", "properties": {"collection_times": [{"days": "Mon-Fri", "time": "4:45pm"}, {"days": "Sat", "time": "2:45pm"}, {"days": "Sun", "time": "Closed"}], "id": "9970100009", "name": "USPS COLLECTION BOX - BLUE BOX", "address": {"city": "FAIRBANKS", "state": "AK", "street": "250 3RD ST", "postcode": "99701"}}},
{"geometry": {"type": "Point", "coordinates": [-147.7019433272, 64.8504258666]}, "type": "Feature", "properties": {"collection_times": [{"days": "Mon-Fri", "time": "5:00pm"}, {"days": "Sat", "time": "3:00pm"}, {"days": "Sun", "time": "Closed"}], "id": "9970100011", "name": "USPS COLLECTION BOX - BLUE BOX", "address": {"city": "FAIRBANKS", "state": "AK", "street": "32 COLLEGE RD", "postcode": "99701"}}},
{"geometry": {"type": "Point", "coordinates": [-147.7200780881, 64.8439657277]}, "type": "Feature", "properties": {"collection_times": [{"days": "Mon-Fri", "time": "4:30pm"}, {"days": "Sat", "time": "2:30pm"}, {"days": "Sun", "time": "Closed"}], "id": "9970100013", "name": "USPS COLLECTION BOX - BLUE BOX", "address": {"city": "FAIRBANKS", "state": "AK", "street": "550 1ST AVE", "postcode": "99701"}}},
{"geometry": {"type": "Point", "coordinates": [-147.7220163258, 64.8459316873]}, "type": "Feature", "properties": {"collection_times": [{"days": "Mon-Fri", "time": "4:45pm"}, {"days": "Sat-Sun", "time": "Closed"}], "id": "9970100016", "name": "USPS COLLECTION BOX - BLUE BOX", "address": {"city": "FAIRBANKS", "state": "AK", "street": "119 N CUSHMAN ST", "postcode": "99701"}}},
{"geometry": {"type": "Point", "coordinates": [-147.7445296844, 64.8302135951]}, "type": "Feature", "properties": {"collection_times": [{"days": "Mon-Fri", "time": "3:45pm"}, {"days": "Sat-Sun", "time": "Closed"}], "id": "9970100018", "name": "USPS COLLECTION BOX - BLUE BOX", "address": {"city": "FAIRBANKS", "state": "AK", "street": "1919 LATHROP ST", "postcode": "99701"}}},
{"geometry": {"type": "Point", "coordinates": [-147.7223895899, 64.8406250516]}, "type": "Feature", "properties": {"collection_times": [{"days": "Mon-Fri", "time": "4:30pm"}, {"days": "Sat-Sun", "time": "Closed"}], "id": "9970100020", "name": "USPS COLLECTION BOX - BLUE BOX", "address": {"city": "FAIRBANKS", "state": "AK", "street": "675 7TH AVE", "postcode": "99701"}}},
{"geometry": {"type": "Point", "coordinates": [-147.7107622863, 64.8133495667]}, "type": "Feature", "properties": {"collection_times": [{"days": "Mon-Fri", "time": "3:45pm"}, {"days": "Sat", "time": "2:15pm"}, {"days": "Sun", "time": "Closed"}], "id": "9970100023", "name": "USPS COLLECTION BOX - BLUE BOX", "address": {"city": "FAIRBANKS", "state": "AK", "street": "3569 S CUSHMAN ST", "postcode": "99701"}}},
{"geometry": {"type": "Point", "coordinates": [-147.7216809975, 64.8372618992]}, "type": "Feature", "properties": {"collection_times": [{"days": "Mon-Fri", "time": "4:00pm"}, {"days": "Sat-Sun", "time": "Closed"}], "id": "9970100025", "name": "USPS COLLECTION BOX - BLUE BOX", "address": {"city": "FAIRBANKS", "state": "AK", "street": "711 GAFFNEY RD", "postcode": "99701"}}},
{"geometry": {"type": "Point", "coordinates": [-147.7140225212, 64.8391037663]}, "type": "Feature", "properties": {"collection_times": [{"days": "Mon-Fri", "time": "4:15pm"}, {"days": "Sat", "time": "2:15pm"}, {"days": "Sun", "time": "Closed"}], "id": "9970100029", "name": "USPS COLLECTION BOX - BLUE BOX", "address": {"city": "FAIRBANKS", "state": "AK", "street": "1001 NOBLE ST", "postcode": "99701"}}},
{"geometry": {"type": "Point", "coordinates": [-147.7245378434, 64.8425225178]}, "type": "Feature", "properties": {"collection_times": [{"days": "Mon-Fri", "time": "5:00pm"}, {"days": "Sat", "time": "2:30pm"}, {"days": "Sun", "time": "Closed"}], "id": "9970100056", "name": "USPS COLLECTION BOX - BLUE BOX", "address": {"city": "FAIRBANKS", "state": "AK", "street": "315 BARNETTE ST", "postcode": "99701"}}},
{"geometry": {"type": "Point", "coordinates": [-147.7238554927, 64.8462038982]}, "type": "Feature", "properties": {"collection_times": [{"days": "Mon-Fri", "time": "4:45pm"}, {"days": "Sat-Sun", "time": "Closed"}], "id": "9970100064", "name": "USPS COLLECTION BOX - BLUE BOX", "address": {"city": "FAIRBANKS", "state": "AK", "street": "809 PIONEER RD", "postcode": "99701"}}},
{"geometry": {"type": "Point", "coordinates": [-147.6888124827, 64.8188609725]}, "type": "Feature", "properties": {"collection_times": [{"days": "Mon-Fri", "time": "4:00pm"}, {"days": "Sat", "time": "2:15pm"}, {"days": "Sun", "time": "Closed"}], "id": "9970100066", "name": "USPS COLLECTION BOX - BLUE BOX", "address": {"city": "FAIRBANKS", "state": "AK", "street": "751 OLD RICHARDSON HWY", "postcode": "99701"}}},
{"geometry": {"type": "Point", "coordinates": [-147.7206376277, 64.8613185528]}, "type": "Feature", "properties": {"collection_times": [{"days": "Mon-Fri", "time": "5:15pm"}, {"days": "Sat", "time": "3:00pm"}, {"days": "Sun", "time": "Closed"}], "id": "9970100069", "name": "USPS COLLECTION BOX - BLUE BOX", "address": {"city": "FAIRBANKS", "state": "AK", "street": "300 WEDGEWOOD DR", "postcode": "99701"}}},
{"geometry": {"type": "Point", "coordinates": [-147.7565061265, 64.8366124548]}, "type": "Feature", "properties": {"collection_times": [{"days": "Mon-Fri", "time": "3:30pm"}, {"days": "Sat-Sun", "time": "Closed"}], "id": "9970100070", "name": "USPS COLLECTION BOX - BLUE BOX", "address": {"city": "FAIRBANKS", "state": "AK", "street": "1867 AIRPORT WAY", "postcode": "99701"}}},
{"geometry": {"type": "Point", "coordinates": [-147.7177608271, 64.8447562672]}, "type": "Feature", "properties": {"collection_times": [{"days": "Mon-Fri", "time": "4:30pm"}, {"days": "Sat-Sun", "time": "Closed"}], "id": "9970100071", "name": "USPS COLLECTION BOX - BLUE BOX", "address": {"city": "FAIRBANKS", "state": "AK", "street": "101 LACEY ST", "postcode": "99701"}}},
{"geometry": {"type": "Point", "coordinates": [-147.6869039927, 64.8588851643]}, "type": "Feature", "properties": {"collection_times": [{"days": "Mon-Fri", "time": "5:00pm"}, {"days": "Sat", "time": "2:45pm"}, {"days": "Sun", "time": "Closed"}], "id": "9970100072", "name": "USPS COLLECTION BOX - BLUE BOX", "address": {"city": "FAIRBANKS", "state": "AK", "street": "537 JOHANSEN EXPY", "postcode": "99701"}}},
{"geometry": {"type": "Point", "coordinates": [-147.7245378434, 64.8425225178]}, "type": "Feature", "properties": {"collection_times": [{"days": "Mon-Fri", "time": "5:00pm"}, {"days": "Sat", "time": "1:45pm"}, {"days": "Sun", "time": "Closed"}], "id": "9970100074", "name": "USPS COLLECTION BOX - PO LOBBY", "address": {"city": "FAIRBANKS", "state": "AK", "street": "315 BARNETTE ST", "postcode": "99701"}}},
{"geometry": {"type": "Point", "coordinates": [-147.7245378434, 64.8425225178]}, "type": "Feature", "properties": {"collection_times": [{"days": "Mon-Fri", "time": "5:00pm"}, {"days": "Sat", "time": "2:30pm"}, {"days": "Sun", "time": "Closed"}], "id": "9970100076", "name": "USPS COLLECTION BOX - BLUE BOX", "address": {"city": "FAIRBANKS", "state": "AK", "street": "315 BARNETTE ST", "postcode": "99701"}}},
{"geometry": {"type": "Point", "coordinates": [-147.09021, 64.66852]}, "type": "Feature", "properties": {"collection_times": [{"days": "Mon-Fri", "time": "3:00pm"}, {"days": "Sat", "time": "1:00pm"}, {"days": "Sun", "time": "Closed"}], "id": "9970200000", "name": "USPS COLLECTION BOX - BLUE BOX", "address": {"city": "FAIRBANKS", "state": "AK", "street": "365 KODIAK ST", "postcode": "99702"}}},
{"geometry": {"type": "Point", "coordinates": [-147.0873331495, 64.6538257364]}, "type": "Feature", "properties": {"collection_times": [{"days": "Mon-Fri", "time": "3:00pm"}, {"days": "Sat-Sun", "time": "Closed"}], "id": "9970200001", "name": "USPS COLLECTION BOX - PO LOBBY", "address": {"city": "FAIRBANKS", "state": "AK", "street": "365 KODIAK ST", "postcode": "99702"}}},
{"geometry": {"type": "Point", "coordinates": [-147.6731018289, 64.8278506808]}, "type": "Feature", "properties": {"collection_times": [{"days": "Mon-Fri", "time": "4:00pm"}, {"days": "Sat", "time": "1:15pm"}, {"days": "Sun", "time": "Closed"}], "id": "9970300001", "name": "USPS COLLECTION BOX - BLUE BOX", "address": {"city": "FAIRBANKS", "state": "AK", "street": "3726 NEELY RD", "postcode": "99703"}}},
{"geometry": {"type": "Point", "coordinates": [-147.6731018289, 64.8278506808]}, "type": "Feature", "properties": {"collection_times": [{"days": "Mon-Fri", "time": "4:00pm"}, {"days": "Sat-Sun", "time": "Closed"}], "id": "9970300004", "name": "USPS COLLECTION BOX - PO LOBBY", "address": {"city": "FAIRBANKS", "state": "AK", "street": "3726 NEELY RD", "postcode": "99703"}}},
{"geometry": {"type": "Point", "coordinates": [-147.6731018289, 64.8278506808]}, "type": "Feature", "properties": {"collection_times": [{"days": "Mon-Fri", "time": "4:00pm"}, {"days": "Sat", "time": "1:15pm"}, {"days": "Sun", "time": "Closed"}], "id": "9970300005", "name": "USPS COLLECTION BOX - BLUE BOX", "address": {"city": "FAIRBANKS", "state": "AK", "street": "3726 NEELY RD", "postcode": "99703"}}},
{"geometry": {"type": "Point", "coordinates": [-148.8686906656, 64.7403941672]}, "type": "Feature", "properties": {"collection_times": [{"days": "Mon-Fri", "time": "10:00am"}, {"days": "Sat-Sun", "time": "Closed"}], "id": "9970400000", "name": "USPS COLLECTION BOX - BLUE BOX", "address": {"city": "CLEAR", "state": "AK", "street": "201 CLEAR", "postcode": "99704"}}},
{"geometry": {"type": "Point", "coordinates": [-148.8686906656, 64.7403941672]}, "type": "Feature", "properties": {"collection_times": [{"days": "Mon-Fri", "time": "10:00am"}, {"days": "Sat-Sun", "time": "Closed"}], "id": "9970400001", "name": "USPS COLLECTION BOX - PO LOBBY", "address": {"city": "CLEAR", "state": "AK", "street": "201 CLEAR", "postcode": "99704"}}},
{"geometry": {"type": "Point", "coordinates": [-147.3476857079, 64.7624749913]}, "type": "Feature", "properties": {"collection_times": [{"days": "Mon-Sat", "time": "11:00am"}, {"days": "Sun", "time": "Closed"}], "id": "9970500000", "name": "USPS COLLECTION BOX - BLUE BOX", "address": {"city": "NORTH POLE", "state": "AK", "street": "3340 BADGER RD", "postcode": "99705"}}},
{"geometry": {"type": "Point", "coordinates": [-147.3527645976, 64.752630649]}, "type": "Feature", "properties": {"collection_times": [{"days": "Mon-Fri", "time": "4:00pm"}, {"days": "Sat", "time": "2:00pm"}, {"days": "Sun", "time": "Closed"}], "id": "9970500002", "name": "USPS COLLECTION BOX - BLUE BOX", "address": {"city": "NORTH POLE", "state": "AK", "street": "325 S SANTA CLAUS LN", "postcode": "99705"}}},
{"geometry": {"type": "Point", "coordinates": [-147.3527645976, 64.752630649]}, "type": "Feature", "properties": {"collection_times": [{"days": "Mon-Fri", "time": "4:00pm"}, {"days": "Sat", "time": "2:00pm"}, {"days": "Sun", "time": "Closed"}], "id": "9970500003", "name": "USPS COLLECTION BOX - BLUE BOX", "address": {"city": "NORTH POLE", "state": "AK", "street": "325 S SANTA CLAUS LN", "postcode": "99705"}}},
{"geometry": {"type": "Point", "coordinates": [-147.3527645976, 64.752630649]}, "type": "Feature", "properties": {"collection_times": [{"days": "Mon-Fri", "time": "4:00pm"}, {"days": "Sat", "time": "2:00pm"}, {"days": "Sun", "time": "Closed"}], "id": "9970500005", "name": "USPS COLLECTION BOX - PO LOBBY", "address": {"city": "NORTH POLE", "state": "AK", "street": "325 S SANTA CLAUS LN", "postcode": "99705"}}},
{"geometry": {"type": "Point", "coordinates": [-147.3527645976, 64.752630649]}, "type": "Feature", "properties": {"collection_times": [{"days": "Mon-Fri", "time": "4:00pm"}, {"days": "Sat", "time": "2:00pm"}, {"days": "Sun", "time": "Closed"}], "id": "9970500009", "name": "USPS COLLECTION BOX - PO LOBBY", "address": {"city": "NORTH POLE", "state": "AK", "street": "325 S SANTA CLAUS LN", "postcode": "99705"}}},
{"geometry": {"type": "Point", "coordinates": [-147.8258565384, 64.8491064856]}, "type": "Feature", "properties": {"collection_times": [{"days": "Mon-Fri", "time": "5:30pm"}, {"days": "Sat", "time": "4:00pm"}, {"days": "Sun", "time": "Closed"}], "id": "9970800008", "name": "USPS COLLECTION BOX - EXPRESS", "address": {"city": "FAIRBANKS", "state": "AK", "street": "755 FAIRBANKS ST", "postcode": "99708"}}},
{"geometry": {"type": "Point", "coordinates": [-147.8258565384, 64.8491064856]}, "type": "Feature", "properties": {"collection_times": [{"days": "Mon-Fri", "time": "5:30pm"}, {"days": "Sat", "time": "4:00pm"}, {"days": "Sun", "time": "Closed"}], "id": "9970800009", "name": "USPS COLLECTION BOX - BLUE BOX", "address": {"city": "FAIRBANKS", "state": "AK", "street": "755 FAIRBANKS ST", "postcode": "99708"}}},
{"geometry": {"type": "Point", "coordinates": [-147.8258565384, 64.8491064856]}, "type": "Feature", "properties": {"collection_times": [{"days": "Mon-Fri", "time": "5:30pm"}, {"days": "Sat", "time": "4:00pm"}, {"days": "Sun", "time": "Closed"}], "id": "9970800010", "name": "USPS COLLECTION BOX - BLUE BOX", "address": {"city": "FAIRBANKS", "state": "AK", "street": "755 FAIRBANKS ST", "postcode": "99708"}}},
{"geometry": {"type": "Point", "coordinates": [-147.8258565384, 64.8491064856]}, "type": "Feature", "properties": {"collection_times": [{"days": "Mon-Fri", "time": "5:30pm"}, {"days": "Sat", "time": "4:00pm"}, {"days": "Sun", "time": "Closed"}], "id": "9970800011", "name": "USPS COLLECTION BOX - BLUE BOX", "address": {"city": "FAIRBANKS", "state": "AK", "street": "755 FAIRBANKS ST", "postcode": "99708"}}},
{"geometry": {"type": "Point", "coordinates": [-147.8258565384, 64.8491064856]}, "type": "Feature", "properties": {"collection_times": [{"days": "Mon-Fri", "time": "5:30pm"}, {"days": "Sat", "time": "4:00pm"}, {"days": "Sun", "time": "Closed"}], "id": "9970800012", "name": "USPS COLLECTION BOX - PO LOBBY", "address": {"city": "FAIRBANKS", "state": "AK", "street": "755 FAIRBANKS ST", "postcode": "99708"}}},
{"geometry": {"type": "Point", "coordinates": [-147.8258565384, 64.8491064856]}, "type": "Feature", "properties": {"collection_times": [{"days": "Mon-Fri", "time": "5:30pm"}, {"days": "Sat", "time": "4:00pm"}, {"days": "Sun", "time": "Closed"}], "id": "9970800013", "name": "USPS COLLECTION BOX - PO LOBBY", "address": {"city": "FAIRBANKS", "state": "AK", "street": "755 FAIRBANKS ST", "postcode": "99708"}}},
{"geometry": {"type": "Point", "coordinates": [-147.8258565384, 64.8491064856]}, "type": "Feature", "properties": {"collection_times": [{"days": "Mon-Fri", "time": "5:30pm"}, {"days": "Sat", "time": "4:00pm"}, {"days": "Sun", "time": "Closed"}], "id": "9970800014", "name": "USPS COLLECTION BOX - APC", "address": {"city": "FAIRBANKS", "state": "AK", "street": "755 FAIRBANKS ST", "postcode": "99708"}}},
{"geometry": {"type": "Point", "coordinates": [-147.8817296235, 64.8149223268]}, "type": "Feature", "properties": {"collection_times": [{"days": "Mon-Fri", "time": "6:00pm"}, {"days": "Sat", "time": "4:00pm"}, {"days": "Sun", "time": "Closed"}], "id": "9970900005", "name": "USPS COLLECTION BOX - BLUE BOX", "address": {"city": "FAIRBANKS", "state": "AK", "street": "5400 MAIL TRL", "postcode": "99709"}}},
{"geometry": {"type": "Point", "coordinates": [-147.8805384326, 64.8522261996]}, "type": "Feature", "properties": {"collection_times": [{"days": "Mon-Fri", "time": "6:00pm"}, {"days": "Sat", "time": "4:00pm"}, {"days": "Sun", "time": "Closed"}], "id": "9970900006", "name": "USPS COLLECTION BOX - EXPRESS", "address": {"city": "FAIRBANKS", "state": "AK", "street": "5400 MAIL TRL", "postcode": "99709"}}},
{"geometry": {"type": "Point", "coordinates": [-147.8817296235, 64.8149223268]}, "type": "Feature", "properties": {"collection_times": [{"days": "Mon-Fri", "time": "6:00pm"}, {"days": "Sat", "time": "4:00pm"}, {"days": "Sun", "time": "Closed"}], "id": "9970900007", "name": "USPS COLLECTION BOX - BLUE BOX", "address": {"city": "FAIRBANKS", "state": "AK", "street": "5400 MAIL TRL", "postcode": "99709"}}},
{"geometry": {"type": "Point", "coordinates": [-147.8119140513, 64.8366109352]}, "type": "Feature", "properties": {"collection_times": [{"days": "Mon-Fri", "time": "3:15pm"}, {"days": "Sat", "time": "1:45pm"}, {"days": "Sun", "time": "Closed"}], "id": "9970900010", "name": "USPS COLLECTION BOX - BLUE BOX", "address": {"city": "FAIRBANKS", "state": "AK", "street": "3627 AIRPORT WAY", "postcode": "99709"}}},
{"geometry": {"type": "Point", "coordinates": [-147.8186067403, 64.8367425803]}, "type": "Feature", "properties": {"collection_times": [{"days": "Mon-Fri", "time": "5:30pm"}, {"days": "Sat", "time": "3:15pm"}, {"days": "Sun", "time": "Closed"}], "id": "9970900012", "name": "USPS COLLECTION BOX - BLUE BOX", "address": {"city": "FAIRBANKS", "state": "AK", "street": "3755 AIRPORT WAY", "postcode": "99709"}}},
{"geometry": {"type": "Point", "coordinates": [-147.866413661, 64.8184291925]}, "type": "Feature", "properties": {"collection_times": [{"days": "Mon-Fri", "time": "5:30pm"}, {"days": "Sat", "time": "3:15pm"}, {"days": "Sun", "time": "Closed"}], "id": "9970900013", "name": "USPS COLLECTION BOX - BLUE BOX", "address": {"city": "FAIRBANKS", "state": "AK", "street": "6450 AIRPORT WAY", "postcode": "99709"}}},
{"geometry": {"type": "Point", "coordinates": [-147.8116260995, 64.855862746]}, "type": "Feature", "properties": {"collection_times": [{"days": "Mon-Fri", "time": "5:15pm"}, {"days": "Sat", "time": "3:15pm"}, {"days": "Sun", "time": "Closed"}], "id": "9970900014", "name": "USPS COLLECTION BOX - BLUE BOX", "address": {"city": "FAIRBANKS", "state": "AK", "street": "3677 COLLEGE RD", "postcode": "99709"}}},
{"geometry": {"type": "Point", "coordinates": [-147.7784173677, 64.8310311941]}, "type": "Feature", "properties": {"collection_times": [{"days": "Mon-Fri", "time": "3:15pm"}, {"days": "Sat-Sun", "time": "Closed"}], "id": "9970900015", "name": "USPS COLLECTION BOX - BLUE BOX", "address": {"city": "FAIRBANKS", "state": "AK", "street": "1979 PEGER RD", "postcode": "99709"}}},
{"geometry": {"type": "Point", "coordinates": [-147.8126162361, 64.8466735208]}, "type": "Feature", "properties": {"collection_times": [{"days": "Mon-Fri", "time": "3:00pm"}, {"days": "Sat-Sun", "time": "Closed"}], "id": "9970900016", "name": "USPS COLLECTION BOX - BLUE BOX", "address": {"city": "FAIRBANKS", "state": "AK", "street": "590 UNIVERSITY AVE", "postcode": "99709"}}},
{"geometry": {"type": "Point", "coordinates": [-147.8817296235, 64.8149223268]}, "type": "Feature", "properties": {"collection_times": [{"days": "Mon-Fri", "time": "6:00pm"}, {"days": "Sat", "time": "4:00pm"}, {"days": "Sun", "time": "Closed"}], "id": "9970900018", "name": "USPS COLLECTION BOX - PO LOBBY", "address": {"city": "FAIRBANKS", "state": "AK", "street": "5400 MAIL TRL", "postcode": "99709"}}},
{"geometry": {"type": "Point", "coordinates": [-147.8817296235, 64.8149223268]}, "type": "Feature", "properties": {"collection_times": [{"days": "Mon-Fri", "time": "6:00pm"}, {"days": "Sat", "time": "4:00pm"}, {"days": "Sun", "time": "Closed"}], "id": "9970900019", "name": "USPS COLLECTION BOX - PO LOBBY", "address": {"city": "FAIRBANKS", "state": "AK", "street": "5400 MAIL TRL", "postcode": "99709"}}},
{"geometry": {"type": "Point", "coordinates": [-147.6314732787, 64.8879848137]}, "type": "Feature", "properties": {"collection_times": [{"days": "Mon-Fri", "time": "5:30pm"}, {"days": "Sat", "time": "3:45pm"}, {"days": "Sun", "time": "Closed"}], "id": "9971000000", "name": "USPS COLLECTION BOX - BLUE BOX", "address": {"city": "FAIRBANKS", "state": "AK", "street": "646 ROHLOFF ST", "postcode": "99710"}}},
{"geometry": {"type": "Point", "coordinates": [-147.5681258261, 64.8176874772]}, "type": "Feature", "properties": {"collection_times": [{"days": "Mon-Fri", "time": "5:30pm"}, {"days": "Sat", "time": "3:00pm"}, {"days": "Sun", "time": "Closed"}], "id": "9971100000", "name": "USPS COLLECTION BOX - BLUE BOX", "address": {"city": "NORTH POLE", "state": "AK", "street": "771 BADGER RD", "postcode": "99711"}}},
{"geometry": {"type": "Point", "coordinates": [-146.8811061993, 64.8805222393]}, "type": "Feature", "properties": {"collection_times": [{"days": "Mon-Fri", "time": "12:30pm"}, {"days": "Sat", "time": "10:45am"}, {"days": "Sun", "time": "Closed"}], "id": "9971200001", "name": "USPS COLLECTION BOX - BLUE BOX", "address": {"city": "FAIRBANKS", "state": "AK", "street": "7291 CHENA HOT SPRINGS RD", "postcode": "99712"}}},
{"geometry": {"type": "Point", "coordinates": [-146.9149290085, 64.4548242784]}, "type": "Feature", "properties": {"collection_times": [{"days": "Mon-Fri", "time": "4:00pm"}, {"days": "Sat", "time": "2:00pm"}, {"days": "Sun", "time": "Closed"}], "id": "9971400000", "name": "USPS COLLECTION BOX - PO LOBBY", "address": {"city": "SALCHA", "state": "AK", "street": "9162 RICHARDSON HWY", "postcode": "99714"}}},
{"geometry": {"type": "Point", "coordinates": [-151.7247599357, 68.1468832872]}, "type": "Feature", "properties": {"collection_times": [{"days": "Mon-Fri", "time": "8:15am"}, {"days": "Sat-Sun", "time": "Closed"}], "id": "9972100001", "name": "USPS COLLECTION BOX - PO LOBBY", "address": {"city": "ANAKTUVUK PASS", "state": "AK", "street": "1077 SUMMER ST", "postcode": "99721"}}},
{"geometry": {"type": "Point", "coordinates": [-148.0188362076, 64.8456372376]}, "type": "Feature", "properties": {"collection_times": [{"days": "Mon-Fri", "time": "2:30pm"}, {"days": "Sat", "time": "11:00am"}, {"days": "Sun", "time": "Closed"}], "id": "9972500000", "name": "USPS COLLECTION BOX - BLUE BOX", "address": {"city": "ESTER", "state": "AK", "street": "501 VILLAGE RD", "postcode": "99725"}}},
{"geometry": {"type": "Point", "coordinates": [-148.0188362076, 64.8456372376]}, "type": "Feature", "properties": {"collection_times": [{"days": "Mon-Fri", "time": "2:30pm"}, {"days": "Sat", "time": "11:00am"}, {"days": "Sun", "time": "Closed"}], "id": "9972500001", "name": "USPS COLLECTION BOX - PO LOBBY", "address": {"city": "ESTER", "state": "AK", "street": "501 VILLAGE RD", "postcode": "99725"}}},
{"geometry": {"type": "Point", "coordinates": [-148.6738001646, 63.4472894206]}, "type": "Feature", "properties": {"collection_times": [{"days": "Mon-Sat", "time": "10:30am"}, {"days": "Sun", "time": "Closed"}], "id": "9972900000", "name": "USPS COLLECTION BOX - PO LOBBY", "address": {"city": "CANTWELL", "state": "AK", "street": "250 GEORGE PARKS HWY HWY", "postcode": "99729"}}},
{"geometry": {"type": "Point", "coordinates": [-144.0769411869, 65.8265217947]}, "type": "Feature", "properties": {"collection_times": [{"days": "Mon-Fri", "time": "10:00am"}, {"days": "Sat-Sun", "time": "Closed"}], "id": "9973300000", "name": "USPS COLLECTION BOX - PO LOBBY", "address": {"city": "CIRCLE", "state": "AK", "street": "161 STEESE HWY", "postcode": "99733"}}},
{"geometry": {"type": "Point", "coordinates": [-145.7358740712, 64.0426692582]}, "type": "Feature", "properties": {"collection_times": [{"days": "Mon-Fri", "time": "2:45pm"}, {"days": "Sat", "time": "11:45am"}, {"days": "Sun", "time": "Closed"}], "id": "9973700000", "name": "USPS COLLECTION BOX - BLUE BOX", "address": {"city": "DELTA JUNCTION", "state": "AK", "street": "266 RICHARDSON HWY", "postcode": "99737"}}},
{"geometry": {"type": "Point", "coordinates": [-145.7358740712, 64.0426692582]}, "type": "Feature", "properties": {"collection_times": [{"days": "Mon-Fri", "time": "2:45pm"}, {"days": "Sat", "time": "11:45am"}, {"days": "Sun", "time": "Closed"}], "id": "9973700002", "name": "USPS COLLECTION BOX - PO LOBBY", "address": {"city": "DELTA JUNCTION", "state": "AK", "street": "266 RICHARDSON HWY", "postcode": "99737"}}},
{"geometry": {"type": "Point", "coordinates": [-145.7358740712, 64.0426692582]}, "type": "Feature", "properties": {"collection_times": [{"days": "Mon-Fri", "time": "2:45pm"}, {"days": "Sat", "time": "11:45am"}, {"days": "Sun", "time": "Closed"}], "id": "9973700003", "name": "USPS COLLECTION BOX - PO LOBBY", "address": {"city": "DELTA JUNCTION", "state": "AK", "street": "266 RICHARDSON HWY", "postcode": "99737"}}},
{"geometry": {"type": "Point", "coordinates": [-141.2018235862, 64.7864460718]}, "type": "Feature", "properties": {"collection_times": [{"days": "Mon-Fri", "time": "2:00pm"}, {"days": "Sat-Sun", "time": "Closed"}], "id": "9973800001", "name": "USPS COLLECTION BOX - PO LOBBY", "address": {"city": "EAGLE", "state": "AK", "street": "200 JEFFERSON ST", "postcode": "99738"}}},
{"geometry": {"type": "Point", "coordinates": [-171.6950155725, 63.7515448479]}, "type": "Feature", "properties": {"collection_times": [{"days": "Mon-Sat", "time": "3:00pm"}, {"days": "Sun", "time": "Closed"}], "id": "9974200000", "name": "USPS COLLECTION BOX - PO LOBBY", "address": {"city": "GAMBELL", "state": "AK", "street": "1 POSTAL WAY", "postcode": "99742"}}},
{"geometry": {"type": "Point", "coordinates": [-149.1767149072, 64.343538541]}, "type": "Feature", "properties": {"collection_times": [{"days": "Mon-Fri", "time": "12:00pm"}, {"days": "Sat-Sun", "time": "Closed"}], "id": "9974400003", "name": "USPS COLLECTION BOX - BLUE BOX", "address": {"city": "ANDERSON", "state": "AK", "street": "260 W 1ST ST", "postcode": "99744"}}},
{"geometry": {"type": "Point", "coordinates": [-149.1767149072, 64.343538541]}, "type": "Feature", "properties": {"collection_times": [{"days": "Mon-Fri", "time": "12:00pm"}, {"days": "Sat-Sun", "time": "Closed"}], "id": "9974400004", "name": "USPS COLLECTION BOX - PO LOBBY", "address": {"city": "ANDERSON", "state": "AK", "street": "260 W 1ST ST", "postcode": "99744"}}},
{"geometry": {"type": "Point", "coordinates": [-156.3118295706, 65.6983158383]}, "type": "Feature", "properties": {"collection_times": [{"days": "Mon-Fri", "time": "3:15pm"}, {"days": "Sat-Sun", "time": "Closed"}], "id": "9974600001", "name": "USPS COLLECTION BOX - PO LOBBY", "address": {"city": "HUSLIA", "state": "AK", "street": "34 DAKLI ST", "postcode": "99746"}}},
{"geometry": {"type": "Point", "coordinates": [-158.7216429213, 64.3406449377]}, "type": "Feature", "properties": {"collection_times": [{"days": "Mon-Fri", "time": "9:30am"}, {"days": "Sat-Sun", "time": "Closed"}], "id": "9974800001", "name": "USPS COLLECTION BOX - PO LOBBY", "address": {"city": "KALTAG", "state": "AK", "street": "1 POSTAL WAY", "postcode": "99748"}}},
{"geometry": {"type": "Point", "coordinates": [-161.1489901799, 64.9394106278]}, "type": "Feature", "properties": {"collection_times": [{"days": "Mon-Sat", "time": "11:00am"}, {"days": "Sun", "time": "Closed"}], "id": "9975300000", "name": "USPS COLLECTION BOX - PO LOBBY", "address": {"city": "KOYUK", "state": "AK", "street": "1 POSTAL WAY", "postcode": "99753"}}},
{"geometry": {"type": "Point", "coordinates": [-149.6715975879, 65.0393216507]}, "type": "Feature", "properties": {"collection_times": [{"days": "Mon-Fri", "time": "9:00am"}, {"days": "Sat-Sun", "time": "Closed"}], "id": "9975800001", "name": "USPS COLLECTION BOX - PO LOBBY", "address": {"city": "MINTO", "state": "AK", "street": "100 3RD ST", "postcode": "99758"}}},
{"geometry": {"type": "Point", "coordinates": [-149.0931334218, 64.5630648932]}, "type": "Feature", "properties": {"collection_times": [{"days": "Mon-Fri,Sun", "time": "Closed"}, {"days": "Sat", "time": "9:45am"}], "id": "9976000000", "name": "USPS COLLECTION BOX - BLUE BOX", "address": {"city": "NENANA", "state": "AK", "street": "803 MARKET ST", "postcode": "99760"}}},
{"geometry": {"type": "Point", "coordinates": [-149.0931334218, 64.5630648932]}, "type": "Feature", "properties": {"collection_times": [{"days": "Mon-Fri,Sun", "time": "Closed"}, {"days": "Sat", "time": "9:45am"}], "id": "9976000001", "name": "USPS COLLECTION BOX - PO LOBBY", "address": {"city": "NENANA", "state": "AK", "street": "803 MARKET ST", "postcode": "99760"}}},
{"geometry": {"type": "Point", "coordinates": [-149.0931334218, 64.5630648932]}, "type": "Feature", "properties": {"collection_times": [{"days": "Mon-Fri,Sun", "time": "Closed"}, {"days": "Sat", "time": "9:45am"}], "id": "9976000002", "name": "USPS COLLECTION BOX - PO LOBBY", "address": {"city": "NENANA", "state": "AK", "street": "803 MARKET ST", "postcode": "99760"}}},
{"geometry": {"type": "Point", "coordinates": [-165.4127424364, 64.4985772884]}, "type": "Feature", "properties": {"collection_times": [{"days": "Mon-Sat", "time": "10:45am"}, {"days": "Sun", "time": "Closed"}], "id": "9976200002", "name": "USPS COLLECTION BOX - BLUE BOX", "address": {"city": "NOME", "state": "AK", "street": "113 E FRONT ST", "postcode": "99762"}}},
{"geometry": {"type": "Point", "coordinates": [-165.4127424364, 64.4985772884]}, "type": "Feature", "properties": {"collection_times": [{"days": "Mon-Sat", "time": "10:45am"}, {"days": "Sun", "time": "Closed"}], "id": "9976200003", "name": "USPS COLLECTION BOX - PO LOBBY", "address": {"city": "NOME", "state": "AK", "street": "113 E FRONT ST", "postcode": "99762"}}},
{"geometry": {"type": "Point", "coordinates": [-165.4127424364, 64.4985772884]}, "type": "Feature", "properties": {"collection_times": [{"days": "Mon-Sat", "time": "10:45am"}, {"days": "Sun", "time": "Closed"}], "id": "9976200004", "name": "USPS COLLECTION BOX - PO LOBBY", "address": {"city": "NOME", "state": "AK", "street": "113 E FRONT ST", "postcode": "99762"}}},
{"geometry": {"type": "Point", "coordinates": [-141.9412995617, 62.9442136011]}, "type": "Feature", "properties": {"collection_times": [{"days": "Mon-Fri", "time": "12:30pm"}, {"days": "Sat-Sun", "time": "Closed"}], "id": "9976400001", "name": "USPS COLLECTION BOX - PO LOBBY", "address": {"city": "NORTHWAY", "state": "AK", "street": "6650 NORTHWAY RD", "postcode": "99764"}}},
{"geometry": {"type": "Point", "coordinates": [-159.543461913, 66.2913415571]}, "type": "Feature", "properties": {"collection_times": [{"days": "Mon-Fri", "time": "4:00pm"}, {"days": "Sat", "time": "5:00pm"}, {"days": "Sun", "time": "Closed"}], "id": "9977000000", "name": "USPS COLLECTION BOX - PO LOBBY", "address": {"city": "SELAWIK", "state": "AK", "street": "1 POSTAL WAY", "postcode": "99770"}}},
{"geometry": {"type": "Point", "coordinates": [-147.8210378962, 64.8579627062]}, "type": "Feature", "properties": {"collection_times": [{"days": "Mon-Fri", "time": "2:45pm"}, {"days": "Sat", "time": "1:15pm"}, {"days": "Sun", "time": "Closed"}], "id": "9977500001", "name": "USPS COLLECTION BOX - BLUE BOX", "address": {"city": "FAIRBANKS", "state": "AK", "street": "500 SALCHA ST", "postcode": "99775"}}},
{"geometry": {"type": "Point", "coordinates": [-147.8199702056, 64.8584738572]}, "type": "Feature", "properties": {"collection_times": [{"days": "Mon-Fri", "time": "3:00pm"}, {"days": "Sat", "time": "1:30pm"}, {"days": "Sun", "time": "Closed"}], "id": "9977500008", "name": "USPS COLLECTION BOX - BLUE BOX", "address": {"city": "FAIRBANKS", "state": "AK", "street": "500 YUKON DR", "postcode": "99775"}}},
{"geometry": {"type": "Point", "coordinates": [-166.2787330467, 65.178307103]}, "type": "Feature", "properties": {"collection_times": [{"days": "Mon-Fri", "time": "12:00pm"}, {"days": "Sat", "time": "3:00pm"}, {"days": "Sun", "time": "Closed"}], "id": "9977800000", "name": "USPS COLLECTION BOX - PO LOBBY", "address": {"city": "TELLER", "state": "AK", "street": "1 POSTAL WAY", "postcode": "99778"}}},
{"geometry": {"type": "Point", "coordinates": [-142.2462980595, 63.9193253501]}, "type": "Feature", "properties": {"collection_times": [{"days": "Mon-Sat", "time": "10:00am"}, {"days": "Sun", "time": "Closed"}], "id": "9978000000", "name": "USPS COLLECTION BOX - BLUE BOX", "address": {"city": "TOK", "state": "AK", "street": "1314.3 ALASKA HWY", "postcode": "99780"}}},
{"geometry": {"type": "Point", "coordinates": [-142.2462980595, 63.9193253501]}, "type": "Feature", "properties": {"collection_times": [{"days": "Mon-Sat", "time": "10:00am"}, {"days": "Sun", "time": "Closed"}], "id": "9978000001", "name": "USPS COLLECTION BOX - PO LOBBY", "address": {"city": "TOK", "state": "AK", "street": "1314.3 ALASKA HWY", "postcode": "99780"}}},
{"geometry": {"type": "Point", "coordinates": [-142.2462980595, 63.9193253501]}, "type": "Feature", "properties": {"collection_times": [{"days": "Mon-Sat", "time": "10:00am"}, {"days": "Sun", "time": "Closed"}], "id": "9978000002", "name": "USPS COLLECTION BOX - PO LOBBY", "address": {"city": "TOK", "state": "AK", "street": "1314.3 ALASKA HWY", "postcode": "99780"}}},
{"geometry": {"type": "Point", "coordinates": [-167.1768183571, 65.6267324271]}, "type": "Feature", "properties": {"collection_times": [{"days": "Mon-Fri", "time": "12:45pm"}, {"days": "Sat", "time": "11:45am"}, {"days": "Sun", "time": "Closed"}], "id": "9978300000", "name": "USPS COLLECTION BOX - PO LOBBY", "address": {"city": "WALES", "state": "AK", "street": "500 AIRPORT JUNCTION RD", "postcode": "99783"}}}
]}
