{"type": "FeatureCollection", "features": [
{"geometry": {"type": "Point", "coordinates": [-134.5215192171, 58.3383678003]}, "type": "Feature", "properties": {"collection_times": [{"days": "Mon-Fri", "time": "3:00pm"}, {"days": "Sat", "time": "9:30am"}, {"days": "Sun", "time": "Closed"}], "id": "9980100001", "name": "USPS COLLECTION BOX - BLUE BOX", "address": {"city": "JUNEAU", "state": "AK", "street": "120 4TH ST", "postcode": "99801"}}},
{"geometry": {"type": "Point", "coordinates": [-134.4172567761, 58.3000675655]}, "type": "Feature", "properties": {"collection_times": [{"days": "Mon-Fri", "time": "3:00pm"}, {"days": "Sat", "time": "9:30am"}, {"days": "Sun", "time": "Closed"}], "id": "9980100006", "name": "USPS COLLECTION BOX - BLUE BOX", "address": {"city": "JUNEAU", "state": "AK", "street": "800 GLACIER AVE", "postcode": "99801"}}},
{"geometry": {"type": "Point", "coordinates": [-134.4172567761, 58.3000675655]}, "type": "Feature", "properties": {"collection_times": [{"days": "Mon-Fri", "time": "3:00pm"}, {"days": "Sat", "time": "9:30am"}, {"days": "Sun", "time": "Closed"}], "id": "9980100007", "name": "USPS COLLECTION BOX - BLUE BOX", "address": {"city": "JUNEAU", "state": "AK", "street": "800 GLACIER AVE", "postcode": "99801"}}},
{"geometry": {"type": "Point", "coordinates": [-134.4034455589, 58.2989318878]}, "type": "Feature", "properties": {"collection_times": [{"days": "Mon-Fri", "time": "3:00pm"}, {"days": "Sat", "time": "9:30am"}, {"days": "Sun", "time": "Closed"}], "id": "9980100008", "name": "USPS COLLECTION BOX - BLUE BOX", "address": {"city": "JUNEAU", "state": "AK", "street": "151 S SEWARD ST", "postcode": "99801"}}},
{"geometry": {"type": "Point", "coordinates": [-134.4148005824, 58.2995852038]}, "type": "Feature", "properties": {"collection_times": [{"days": "Mon-Fri", "time": "3:00pm"}, {"days": "Sat", "time": "9:30am"}, {"days": "Sun", "time": "Closed"}], "id": "9980100012", "name": "USPS COLLECTION BOX - BLUE BOX", "address": {"city": "JUNEAU", "state": "AK", "street": "615 W WILLOUGHBY AVE", "postcode": "99801"}}},
{"geometry": {"type": "Point", "coordinates": [-134.4007632965, 58.2984370027]}, "type": "Feature", "properties": {"collection_times": [{"days": "Mon-Fri", "time": "3:00pm"}, {"days": "Sat", "time": "9:30am"}, {"days": "Sun", "time": "Closed"}], "id": "9980100015", "name": "USPS COLLECTION BOX - BLUE BOX", "address": {"city": "JUNEAU", "state": "AK", "street": "230 S FRANKLIN ST", "postcode": "99801"}}},
{"geometry": {"type": "Point", "coordinates": [-134.4125616136, 58.300815307]}, "type": "Feature", "properties": {"collection_times": [{"days": "Mon-Fri", "time": "3:00pm"}, {"days": "Sat-Sun", "time": "Closed"}], "id": "9980100017", "name": "USPS COLLECTION BOX - BLUE BOX", "address": {"city": "JUNEAU", "state": "AK", "street": "333 WILLOUGHBY AVE", "postcode": "99801"}}},
{"geometry": {"type": "Point", "coordinates": [-134.4125616136, 58.300815307]}, "type": "Feature", "properties": {"collection_times": [{"days": "Mon-Fri", "time": "3:00pm"}, {"days": "Sat-Sun", "time": "Closed"}], "id": "9980100018", "name": "USPS COLLECTION BOX - EXPRESS", "address": {"city": "JUNEAU", "state": "AK", "street": "333 WILLOUGHBY AVE", "postcode": "99801"}}},
{"geometry": {"type": "Point", "coordinates": [-134.417053378, 58.3006257083]}, "type": "Feature", "properties": {"collection_times": [{"days": "Mon-Fri", "time": "5:00pm"}, {"days": "Sat", "time": "9:30am"}, {"days": "Sun", "time": "Closed"}], "id": "9980100020", "name": "USPS COLLECTION BOX - PO LOBBY", "address": {"city": "JUNEAU", "state": "AK", "street": "709 W 9TH ST", "postcode": "99801"}}},
{"geometry": {"type": "Point", "coordinates": [-134.417053378, 58.3006257083]}, "type": "Feature", "properties": {"collection_times": [{"days": "Mon-Fri", "time": "5:00pm"}, {"days": "Sat", "time": "9:30am"}, {"days": "Sun", "time": "Closed"}], "id": "9980100021", "name": "USPS COLLECTION BOX - PO LOBBY", "address": {"city": "JUNEAU", "state": "AK", "street": "709 W 9TH ST", "postcode": "99801"}}},
{"geometry": {"type": "Point", "coordinates": [-134.4044193008, 58.3000894525]}, "type": "Feature", "properties": {"collection_times": [{"days": "Mon-Fri", "time": "12:00pm"}, {"days": "Sat", "time": "9:30am"}, {"days": "Sun", "time": "Closed"}], "id": "9980100022", "name": "USPS COLLECTION BOX - BLUE BOX", "address": {"city": "JUNEAU", "state": "AK", "street": "200 SEWARD ST", "postcode": "99801"}}},
{"geometry": {"type": "Point", "coordinates": [-134.590008248, 58.3722244672]}, "type": "Feature", "properties": {"collection_times": [{"days": "Mon-Fri", "time": "5:00pm"}, {"days": "Sat", "time": "9:30am"}, {"days": "Sun", "time": "Closed"}], "id": "9980300000", "name": "USPS COLLECTION BOX - BLUE BOX", "address": {"city": "JUNEAU", "state": "AK", "street": "9491 VINTAGE BLVD", "postcode": "99803"}}},
{"geometry": {"type": "Point", "coordinates": [-134.590008248, 58.3722244672]}, "type": "Feature", "properties": {"collection_times": [{"days": "Mon-Fri", "time": "5:00pm"}, {"days": "Sat", "time": "9:30am"}, {"days": "Sun", "time": "Closed"}], "id": "9980300001", "name": "USPS COLLECTION BOX - BLUE BOX", "address": {"city": "JUNEAU", "state": "AK", "street": "9491 VINTAGE BLVD", "postcode": "99803"}}},
{"geometry": {"type": "Point", "coordinates": [-134.488046726, 58.3498362232]}, "type": "Feature", "properties": {"collection_times": [{"days": "Mon-Fri", "time": "9:00am"}, {"days": "Sat", "time": "9:30am"}, {"days": "Sun", "time": "Closed"}], "id": "9980300002", "name": "USPS COLLECTION BOX - BLUE BOX", "address": {"city": "JUNEAU", "state": "AK", "street": "5165 GLACIER HWY", "postcode": "99803"}}},
{"geometry": {"type": "Point", "coordinates": [-134.574344844, 58.3631070994]}, "type": "Feature", "properties": {"collection_times": [{"days": "Mon-Sat", "time": "9:30am"}, {"days": "Sun", "time": "Closed"}], "id": "9980300004", "name": "USPS COLLECTION BOX - BLUE BOX", "address": {"city": "JUNEAU", "state": "AK", "street": "8745 GLACIER HWY", "postcode": "99803"}}},
{"geometry": {"type": "Point", "coordinates": [-134.5822185912, 58.3711973406]}, "type": "Feature", "properties": {"collection_times": [{"days": "Mon-Sat", "time": "9:30am"}, {"days": "Sun", "time": "Closed"}], "id": "9980300005", "name": "USPS COLLECTION BOX - BLUE BOX", "address": {"city": "JUNEAU", "state": "AK", "street": "9105 MENDENHALL MALL RD", "postcode": "99803"}}},
{"geometry": {"type": "Point", "coordinates": [-134.5539638875, 58.3595946596]}, "type": "Feature", "properties": {"collection_times": [{"days": "Mon-Sat", "time": "9:30am"}, {"days": "Sun", "time": "Closed"}], "id": "9980300006", "name": "USPS COLLECTION BOX - BLUE BOX", "address": {"city": "JUNEAU", "state": "AK", "street": "8181 GLACIER HWY", "postcode": "99803"}}},
{"geometry": {"type": "Point", "coordinates": [-134.580594409, 58.3624632994]}, "type": "Feature", "properties": {"collection_times": [{"days": "Mon-Fri", "time": "9:00am"}, {"days": "Sat", "time": "9:30am"}, {"days": "Sun", "time": "Closed"}], "id": "9980300007", "name": "USPS COLLECTION BOX - BLUE BOX", "address": {"city": "JUNEAU", "state": "AK", "street": "9141 GLACIER HWY", "postcode": "99803"}}},
{"geometry": {"type": "Point", "coordinates": [-134.590008248, 58.3722244672]}, "type": "Feature", "properties": {"collection_times": [{"days": "Mon-Fri", "time": "5:00pm"}, {"days": "Sat", "time": "9:30am"}, {"days": "Sun", "time": "Closed"}], "id": "9980300008", "name": "USPS COLLECTION BOX - PO LOBBY", "address": {"city": "JUNEAU", "state": "AK", "street": "9491 VINTAGE BLVD", "postcode": "99803"}}},
{"geometry": {"type": "Point", "coordinates": [-134.590008248, 58.3722244672]}, "type": "Feature", "properties": {"collection_times": [{"days": "Mon-Fri", "time": "5:00pm"}, {"days": "Sat", "time": "9:30am"}, {"days": "Sun", "time": "Closed"}], "id": "9980300009", "name": "USPS COLLECTION BOX - APC", "address": {"city": "JUNEAU", "state": "AK", "street": "9491 VINTAGE BLVD", "postcode": "99803"}}},
{"geometry": {"type": "Point", "coordinates": [-134.6487929797, 58.3873229695]}, "type": "Feature", "properties": {"collection_times": [{"days": "Mon-Fri", "time": "5:15pm"}, {"days": "Sat", "time": "9:30am"}, {"days": "Sun", "time": "Closed"}], "id": "9982100000", "name": "USPS COLLECTION BOX - BLUE BOX", "address": {"city": "JUNEAU", "state": "AK", "street": "11899 GLACIER HWY", "postcode": "99821"}}},
{"geometry": {"type": "Point", "coordinates": [-134.6487929797, 58.3873229695]}, "type": "Feature", "properties": {"collection_times": [{"days": "Mon-Fri", "time": "5:15pm"}, {"days": "Sat", "time": "9:30am"}, {"days": "Sun", "time": "Closed"}], "id": "9982100001", "name": "USPS COLLECTION BOX - PO LOBBY", "address": {"city": "JUNEAU", "state": "AK", "street": "11899 GLACIER HWY", "postcode": "99821"}}},
{"geometry": {"type": "Point", "coordinates": [-134.3930715764, 58.2756966757]}, "type": "Feature", "properties": {"collection_times": [{"days": "Mon-Fri", "time": "5:00pm"}, {"days": "Sat", "time": "9:30am"}, {"days": "Sun", "time": "Closed"}], "id": "9982400000", "name": "USPS COLLECTION BOX - BLUE BOX", "address": {"city": "DOUGLAS", "state": "AK", "street": "804 3RD ST", "postcode": "99824"}}},
{"geometry": {"type": "Point", "coordinates": [-134.3930715764, 58.2756966757]}, "type": "Feature", "properties": {"collection_times": [{"days": "Mon-Fri", "time": "5:00pm"}, {"days": "Sat", "time": "9:30am"}, {"days": "Sun", "time": "Closed"}], "id": "9982400001", "name": "USPS COLLECTION BOX - PO LOBBY", "address": {"city": "DOUGLAS", "state": "AK", "street": "804 3RD ST", "postcode": "99824"}}},
{"geometry": {"type": "Point", "coordinates": [-136.9681442526, 58.6502674088]}, "type": "Feature", "properties": {"collection_times": [{"days": "Mon-Fri", "time": "3:00pm"}, {"days": "Sat", "time": "2:00pm"}, {"days": "Sun", "time": "Closed"}], "id": "9982600000", "name": "USPS COLLECTION BOX - PO LOBBY", "address": {"city": "GUSTAVUS", "state": "AK", "street": "1 POSTAL WAY", "postcode": "99826"}}},
{"geometry": {"type": "Point", "coordinates": [-135.4431440805, 59.2300741927]}, "type": "Feature", "properties": {"collection_times": [{"days": "Mon-Sat", "time": "12:00pm"}, {"days": "Sun", "time": "Closed"}], "id": "9982700000", "name": "USPS COLLECTION BOX - BLUE BOX", "address": {"city": "HAINES", "state": "AK", "street": "55 HAINES HWY", "postcode": "99827"}}},
{"geometry": {"type": "Point", "coordinates": [-135.4431440805, 59.2300741927]}, "type": "Feature", "properties": {"collection_times": [{"days": "Mon-Sat", "time": "12:00pm"}, {"days": "Sun", "time": "Closed"}], "id": "9982700001", "name": "USPS COLLECTION BOX - PO LOBBY", "address": {"city": "HAINES", "state": "AK", "street": "55 HAINES HWY", "postcode": "99827"}}},
{"geometry": {"type": "Point", "coordinates": [-135.4431440805, 59.2300741927]}, "type": "Feature", "properties": {"collection_times": [{"days": "Mon-Sat", "time": "12:00pm"}, {"days": "Sun", "time": "Closed"}], "id": "9982700002", "name": "USPS COLLECTION BOX - PO LOBBY", "address": {"city": "HAINES", "state": "AK", "street": "55 HAINES HWY", "postcode": "99827"}}},
{"geometry": {"type": "Point", "coordinates": [-133.9450732046, 56.9747484306]}, "type": "Feature", "properties": {"collection_times": [{"days": "Mon-Fri", "time": "10:00am"}, {"days": "Sat", "time": "12:00pm"}, {"days": "Sun", "time": "Closed"}], "id": "9983000000", "name": "USPS COLLECTION BOX - PO LOBBY", "address": {"city": "KAKE", "state": "AK", "street": "1 POSTAL WAY", "postcode": "99830"}}},
{"geometry": {"type": "Point", "coordinates": [-136.227077282, 57.96030539]}, "type": "Feature", "properties": {"collection_times": [{"days": "Mon-Sat", "time": "10:00am"}, {"days": "Sun", "time": "Closed"}], "id": "9983200001", "name": "USPS COLLECTION BOX - PO LOBBY", "address": {"city": "PELICAN", "state": "AK", "street": "171 A SALMON WAY", "postcode": "99832"}}},
{"geometry": {"type": "Point", "coordinates": [-135.3389928971, 57.0490392762]}, "type": "Feature", "properties": {"collection_times": [{"days": "Mon-Fri", "time": "2:30pm"}, {"days": "Sat", "time": "9:30am"}, {"days": "Sun", "time": "Closed"}], "id": "9983500003", "name": "USPS COLLECTION BOX - BLUE BOX", "address": {"city": "SITKA", "state": "AK", "street": "100 LINCOLN ST", "postcode": "99835"}}},
{"geometry": {"type": "Point", "coordinates": [-135.3340752154, 57.0505103719]}, "type": "Feature", "properties": {"collection_times": [{"days": "Mon-Fri", "time": "2:30pm"}, {"days": "Sat", "time": "9:30am"}, {"days": "Sun", "time": "Closed"}], "id": "9983500006", "name": "USPS COLLECTION BOX - BLUE BOX", "address": {"city": "SITKA", "state": "AK", "street": "338 LINCOLN ST", "postcode": "99835"}}},
{"geometry": {"type": "Point", "coordinates": [-135.3418539724, 57.0554490428]}, "type": "Feature", "properties": {"collection_times": [{"days": "Mon-Fri", "time": "11:30am"}, {"days": "Sat", "time": "9:30am"}, {"days": "Sun", "time": "Closed"}], "id": "9983500007", "name": "USPS COLLECTION BOX - BLUE BOX", "address": {"city": "SITKA", "state": "AK", "street": "705 HALIBUT POINT RD", "postcode": "99835"}}},
{"geometry": {"type": "Point", "coordinates": [-135.3644244434, 57.0667010768]}, "type": "Feature", "properties": {"collection_times": [{"days": "Mon-Fri", "time": "12:30pm"}, {"days": "Sat", "time": "9:30am"}, {"days": "Sun", "time": "Closed"}], "id": "9983500008", "name": "USPS COLLECTION BOX - BLUE BOX", "address": {"city": "SITKA", "state": "AK", "street": "1867 HALIBUT POINT RD", "postcode": "99835"}}},
{"geometry": {"type": "Point", "coordinates": [-135.3089220057, 57.0479141163]}, "type": "Feature", "properties": {"collection_times": [{"days": "Mon-Fri", "time": "4:15pm"}, {"days": "Sat", "time": "9:30am"}, {"days": "Sun", "time": "Closed"}], "id": "9983500014", "name": "USPS COLLECTION BOX - BLUE BOX", "address": {"city": "SITKA", "state": "AK", "street": "1207 SAWMILL CREEK RD", "postcode": "99835"}}},
{"geometry": {"type": "Point", "coordinates": [-135.3089220057, 57.0479141163]}, "type": "Feature", "properties": {"collection_times": [{"days": "Mon-Fri", "time": "4:15pm"}, {"days": "Sat", "time": "9:30am"}, {"days": "Sun", "time": "Closed"}], "id": "9983500015", "name": "USPS COLLECTION BOX - PO LOBBY", "address": {"city": "SITKA", "state": "AK", "street": "1207 SAWMILL CREEK RD", "postcode": "99835"}}},
{"geometry": {"type": "Point", "coordinates": [-135.3089220057, 57.0479141163]}, "type": "Feature", "properties": {"collection_times": [{"days": "Mon-Fri", "time": "4:15pm"}, {"days": "Sat", "time": "9:30am"}, {"days": "Sun", "time": "Closed"}], "id": "9983500016", "name": "USPS COLLECTION BOX - PO LOBBY", "address": {"city": "SITKA", "state": "AK", "street": "1207 SAWMILL CREEK RD", "postcode": "99835"}}}
]}
