{"type": "FeatureCollection", "features": [
{"geometry": {"type": "Point", "coordinates": [-131.6808090385, 55.3516816047]}, "type": "Feature", "properties": {"collection_times": [{"days": "Mon-Fri", "time": "1:00pm"}, {"days": "Sat", "time": "9:00am"}, {"days": "Sun", "time": "Closed"}], "id": "9990100001", "name": "USPS COLLECTION BOX - BLUE BOX", "address": {"city": "KETCHIKAN", "state": "AK", "street": "2417 TONGASS AVE", "postcode": "99901"}}},
{"geometry": {"type": "Point", "coordinates": [-131.6464406671, 55.3408907599]}, "type": "Feature", "properties": {"collection_times": [{"days": "Mon-Fri", "time": "1:00pm"}, {"days": "Sat", "time": "9:00am"}, {"days": "Sun", "time": "Closed"}], "id": "9990100004", "name": "USPS COLLECTION BOX - BLUE BOX", "address": {"city": "KETCHIKAN", "state": "AK", "street": "131 FRONT ST", "postcode": "99901"}}},
{"geometry": {"type": "Point", "coordinates": [-131.6503867932, 55.3443874755]}, "type": "Feature", "properties": {"collection_times": [{"days": "Mon-Fri", "time": "1:00pm"}, {"days": "Sat", "time": "9:00am"}, {"days": "Sun", "time": "Closed"}], "id": "9990100005", "name": "USPS COLLECTION BOX - BLUE BOX", "address": {"city": "KETCHIKAN", "state": "AK", "street": "648 MISSION ST", "postcode": "99901"}}},
{"geometry": {"type": "Point", "coordinates": [-131.6511515516, 55.3451442795]}, "type": "Feature", "properties": {"collection_times": [{"days": "Mon-Fri", "time": "1:00pm"}, {"days": "Sat", "time": "9:00am"}, {"days": "Sun", "time": "Closed"}], "id": "9990100006", "name": "USPS COLLECTION BOX - BLUE BOX", "address": {"city": "KETCHIKAN", "state": "AK", "street": "320 BAWDEN ST", "postcode": "99901"}}},
{"geometry": {"type": "Point", "coordinates": [-131.6534294961, 55.3445609286]}, "type": "Feature", "properties": {"collection_times": [{"days": "Mon-Fri", "time": "1:00pm"}, {"days": "Sat", "time": "9:00am"}, {"days": "Sun", "time": "Closed"}], "id": "9990100009", "name": "USPS COLLECTION BOX - BLUE BOX", "address": {"city": "KETCHIKAN", "state": "AK", "street": "326 DOCK ST", "postcode": "99901"}}},
{"geometry": {"type": "Point", "coordinates": [-131.6994753973, 55.357942943]}, "type": "Feature", "properties": {"collection_times": [{"days": "Mon-Fri", "time": "5:00pm"}, {"days": "Sat", "time": "9:00am"}, {"days": "Sun", "time": "Closed"}], "id": "9990100013", "name": "USPS COLLECTION BOX - BLUE BOX", "address": {"city": "KETCHIKAN", "state": "AK", "street": "3609 TONGASS AVE", "postcode": "99901"}}},
{"geometry": {"type": "Point", "coordinates": [-131.6912980009, 55.3546788409]}, "type": "Feature", "properties": {"collection_times": [{"days": "Mon-Fri", "time": "1:00pm"}, {"days": "Sat", "time": "9:00am"}, {"days": "Sun", "time": "Closed"}], "id": "9990100015", "name": "USPS COLLECTION BOX - BLUE BOX", "address": {"city": "KETCHIKAN", "state": "AK", "street": "3031 TONGASS AVE", "postcode": "99901"}}},
{"geometry": {"type": "Point", "coordinates": [-131.643302775, 55.3418194622]}, "type": "Feature", "properties": {"collection_times": [{"days": "Mon-Fri", "time": "11:30am"}, {"days": "Sat", "time": "9:00am"}, {"days": "Sun", "time": "Closed"}], "id": "9990100018", "name": "USPS COLLECTION BOX - BLUE BOX", "address": {"city": "KETCHIKAN", "state": "AK", "street": "633 STEDMAN ST", "postcode": "99901"}}},
{"geometry": {"type": "Point", "coordinates": [-131.6836320127, 55.3574408471]}, "type": "Feature", "properties": {"collection_times": [{"days": "Mon-Fri", "time": "11:00am"}, {"days": "Sat", "time": "9:00am"}, {"days": "Sun", "time": "Closed"}], "id": "9990100022", "name": "USPS COLLECTION BOX - BLUE BOX", "address": {"city": "KETCHIKAN", "state": "AK", "street": "2600 7TH AVE", "postcode": "99901"}}},
{"geometry": {"type": "Point", "coordinates": [-131.6536244289, 55.3444893869]}, "type": "Feature", "properties": {"collection_times": [{"days": "Mon-Fri", "time": "1:00pm"}, {"days": "Sat", "time": "9:00am"}, {"days": "Sun", "time": "Closed"}], "id": "9990100025", "name": "USPS COLLECTION BOX - BLUE BOX", "address": {"city": "KETCHIKAN", "state": "AK", "street": "312 DOCK ST", "postcode": "99901"}}},
{"geometry": {"type": "Point", "coordinates": [-131.6994753973, 55.357942943]}, "type": "Feature", "properties": {"collection_times": [{"days": "Mon-Fri", "time": "5:00pm"}, {"days": "Sat", "time": "9:00am"}, {"days": "Sun", "time": "Closed"}], "id": "9990100026", "name": "USPS COLLECTION BOX - BLUE BOX", "address": {"city": "KETCHIKAN", "state": "AK", "street": "3609 TONGASS AVE", "postcode": "99901"}}},
{"geometry": {"type": "Point", "coordinates": [-131.6564473237, 55.3452367085]}, "type": "Feature", "properties": {"collection_times": [{"days": "Mon-Fri", "time": "5:00pm"}, {"days": "Sat", "time": "9:00am"}, {"days": "Sun", "time": "Closed"}], "id": "9990100028", "name": "USPS COLLECTION BOX - PO LOBBY", "address": {"city": "KETCHIKAN", "state": "AK", "street": "3609 TONGASS AVE", "postcode": "99901"}}},
{"geometry": {"type": "Point", "coordinates": [-131.6564473237, 55.3452367085]}, "type": "Feature", "properties": {"collection_times": [{"days": "Mon-Fri", "time": "5:00pm"}, {"days": "Sat", "time": "9:00am"}, {"days": "Sun", "time": "Closed"}], "id": "9990100029", "name": "USPS COLLECTION BOX - PO LOBBY", "address": {"city": "KETCHIKAN", "state": "AK", "street": "3609 TONGASS AVE", "postcode": "99901"}}},
{"geometry": {"type": "Point", "coordinates": [-132.6414471372, 55.6845199825]}, "type": "Feature", "properties": {"collection_times": [{"days": "Mon-Sat", "time": "12:30pm"}, {"days": "Sun", "time": "Closed"}], "id": "9991900000", "name": "USPS COLLECTION BOX - PO LOBBY", "address": {"city": "THORNE BAY", "state": "AK", "street": "9998 THORNE BAY", "postcode": "99919"}}},
{"geometry": {"type": "Point", "coordinates": [-132.9044249053, 55.4220108516]}, "type": "Feature", "properties": {"collection_times": [{"days": "Mon-Fri", "time": "5:00pm"}, {"days": "Sat", "time": "2:00pm"}, {"days": "Sun", "time": "Closed"}], "id": "9992100001", "name": "USPS COLLECTION BOX - PO LOBBY", "address": {"city": "CRAIG", "state": "AK", "street": "303 THOMPSON RD", "postcode": "99921"}}},
{"geometry": {"type": "Point", "coordinates": [-132.6968558829, 55.2074263572]}, "type": "Feature", "properties": {"collection_times": [{"days": "Mon-Sat", "time": "11:30am"}, {"days": "Sun", "time": "Closed"}], "id": "9992200001", "name": "USPS COLLECTION BOX - PO LOBBY", "address": {"city": "HYDABURG", "state": "AK", "street": "1 POSTAL WAY", "postcode": "99922"}}},
{"geometry": {"type": "Point", "coordinates": [-132.9576347248, 55.5551440905]}, "type": "Feature", "properties": {"collection_times": [{"days": "Mon-Fri", "time": "12:45pm"}, {"days": "Sat", "time": "10:00am"}, {"days": "Sun", "time": "Closed"}], "id": "9992500000", "name": "USPS COLLECTION BOX - PO LOBBY", "address": {"city": "KLAWOCK", "state": "AK", "street": "6488 KLAWOCK HOLLIS HWY", "postcode": "99925"}}},
{"geometry": {"type": "Point", "coordinates": [-132.9576347248, 55.5551440905]}, "type": "Feature", "properties": {"collection_times": [{"days": "Mon-Fri", "time": "12:45pm"}, {"days": "Sat", "time": "10:00am"}, {"days": "Sun", "time": "Closed"}], "id": "9992500001", "name": "USPS COLLECTION BOX - PO LOBBY", "address": {"city": "KLAWOCK", "state": "AK", "street": "6488 KLAWOCK HOLLIS HWY", "postcode": "99925"}}},
{"geometry": {"type": "Point", "coordinates": [-131.4312967522, 55.1154736436]}, "type": "Feature", "properties": {"collection_times": [{"days": "Mon-Fri", "time": "3:30pm"}, {"days": "Sat", "time": "12:00pm"}, {"days": "Sun", "time": "Closed"}], "id": "9992600001", "name": "USPS COLLECTION BOX - PO LOBBY", "address": {"city": "METLAKATLA", "state": "AK", "street": "352 8TH AVE", "postcode": "99926"}}},
{"geometry": {"type": "Point", "coordinates": [-133.3547682892, 56.2344697116]}, "type": "Feature", "properties": {"collection_times": [{"days": "Mon-Sat", "time": "10:00am"}, {"days": "Sun", "time": "Closed"}], "id": "9992700001", "name": "USPS COLLECTION BOX - PO LOBBY", "address": {"city": "POINT BAKER", "state": "AK", "street": "1 POSTAL WAY", "postcode": "99927"}}},
{"geometry": {"type": "Point", "coordinates": [-131.7252372803, 55.4133412215]}, "type": "Feature", "properties": {"collection_times": [{"days": "Mon-Fri", "time": "4:30pm"}, {"days": "Sat", "time": "12:30pm"}, {"days": "Sun", "time": "Closed"}], "id": "9992800000", "name": "USPS COLLECTION BOX - BLUE BOX", "address": {"city": "WARD COVE", "state": "AK", "street": "7172 N TONGASS HWY", "postcode": "99928"}}}
]}
