{"type": "FeatureCollection", "features": [
{"geometry": {"type": "Point", "coordinates": [-112.0753600497, 33.4493278726]}, "type": "Feature", "properties": {"collection_times": [{"days": "Mon-Fri", "time": "4:30pm"}, {"days": "Sat-Sun", "time": "Closed"}], "id": "8500300014", "name": "USPS COLLECTION BOX - BLUE BOX", "address": {"city": "PHOENIX", "state": "AZ", "street": "114 W ADAMS ST", "postcode": "85003"}}},
{"geometry": {"type": "Point", "coordinates": [-112.0789230663, 33.4586120353]}, "type": "Feature", "properties": {"collection_times": [{"days": "Mon-Fri", "time": "2:00pm"}, {"days": "Sat-Sun", "time": "Closed"}], "id": "8500300020", "name": "USPS COLLECTION BOX - BLUE BOX", "address": {"city": "PHOENIX", "state": "AZ", "street": "399 W ROOSEVELT ST", "postcode": "85003"}}},
{"geometry": {"type": "Point", "coordinates": [-112.0783110437, 33.4482228342]}, "type": "Feature", "properties": {"collection_times": [{"days": "Mon-Fri", "time": "3:45pm"}, {"days": "Sat-Sun", "time": "Closed"}], "id": "8500300030", "name": "USPS COLLECTION BOX - BLUE BOX", "address": {"city": "PHOENIX", "state": "AZ", "street": "305 W WASHINGTON ST", "postcode": "85003"}}},
{"geometry": {"type": "Point", "coordinates": [-112.0807186233, 33.4450393232]}, "type": "Feature", "properties": {"collection_times": [{"days": "Mon-Fri", "time": "3:00pm"}, {"days": "Sat-Sun", "time": "Closed"}], "id": "8500300053", "name": "USPS COLLECTION BOX - BLUE BOX", "address": {"city": "PHOENIX", "state": "AZ", "street": "550 W JACKSON ST", "postcode": "85003"}}},
{"geometry": {"type": "Point", "coordinates": [-112.0737011492, 33.471658567]}, "type": "Feature", "properties": {"collection_times": [{"days": "Mon-Fri", "time": "12:30pm"}, {"days": "Sat-Sun", "time": "Closed"}], "id": "8500400027", "name": "USPS COLLECTION BOX - BLUE BOX", "address": {"city": "PHOENIX", "state": "AZ", "street": "2201 N CENTRAL AVE", "postcode": "85004"}}},
{"geometry": {"type": "Point", "coordinates": [-112.073766212, 33.4591026406]}, "type": "Feature", "properties": {"collection_times": [{"days": "Mon-Fri", "time": "2:00pm"}, {"days": "Sat-Sun", "time": "Closed"}], "id": "8500400040", "name": "USPS COLLECTION BOX - BLUE BOX", "address": {"city": "PHOENIX", "state": "AZ", "street": "1001 N CENTRAL AVE", "postcode": "85004"}}},
{"geometry": {"type": "Point", "coordinates": [-112.0721177896, 33.4493393174]}, "type": "Feature", "properties": {"collection_times": [{"days": "Mon-Fri", "time": "1:30pm"}, {"days": "Sat-Sun", "time": "Closed"}], "id": "8500400047", "name": "USPS COLLECTION BOX - BLUE BOX", "address": {"city": "PHOENIX", "state": "AZ", "street": "130 E ADAMS ST", "postcode": "85004"}}},
{"geometry": {"type": "Point", "coordinates": [-112.0661302119, 33.4675395039]}, "type": "Feature", "properties": {"collection_times": [{"days": "Mon-Fri", "time": "4:45pm"}, {"days": "Sat-Sun", "time": "Closed"}], "id": "8500400057", "name": "USPS COLLECTION BOX - BLUE BOX", "address": {"city": "PHOENIX", "state": "AZ", "street": "360 E CORONADO RD", "postcode": "85004"}}},
{"geometry": {"type": "Point", "coordinates": [-112.0711669143, 33.4581536803]}, "type": "Feature", "properties": {"collection_times": [{"days": "Mon-Fri", "time": "3:30pm"}, {"days": "Sat-Sun", "time": "Closed"}], "id": "8500400063", "name": "USPS COLLECTION BOX - BLUE BOX", "address": {"city": "PHOENIX", "state": "AZ", "street": "141 E PALM LN", "postcode": "85004"}}},
{"geometry": {"type": "Point", "coordinates": [-112.0711669143, 33.4581536803]}, "type": "Feature", "properties": {"collection_times": [{"days": "Mon-Fri", "time": "3:30pm"}, {"days": "Sat-Sun", "time": "Closed"}], "id": "8500400064", "name": "USPS COLLECTION BOX - BLUE BOX", "address": {"city": "PHOENIX", "state": "AZ", "street": "141 E PALM LN", "postcode": "85004"}}},
{"geometry": {"type": "Point", "coordinates": [-112.0694718969, 33.4796254217]}, "type": "Feature", "properties": {"collection_times": [{"days": "Mon-Fri", "time": "5:00pm"}, {"days": "Sat-Sun", "time": "Closed"}], "id": "8500400069", "name": "USPS COLLECTION BOX - BLUE BOX", "address": {"city": "PHOENIX", "state": "AZ", "street": "2826 N 3RD ST", "postcode": "85004"}}},
{"geometry": {"type": "Point", "coordinates": [-112.0699456427, 33.4512506213]}, "type": "Feature", "properties": {"collection_times": [{"days": "Mon-Fri", "time": "4:15pm"}, {"days": "Sat-Sun", "time": "Closed"}], "id": "8500400071", "name": "USPS COLLECTION BOX - BLUE BOX", "address": {"city": "PHOENIX", "state": "AZ", "street": "299 N 3RD ST", "postcode": "85004"}}},
{"geometry": {"type": "Point", "coordinates": [-112.0693935345, 33.4632197821]}, "type": "Feature", "properties": {"collection_times": [{"days": "Mon-Fri", "time": "1:45pm"}, {"days": "Sat-Sun", "time": "Closed"}], "id": "8500400073", "name": "USPS COLLECTION BOX - BLUE BOX", "address": {"city": "PHOENIX", "state": "AZ", "street": "1314 N 3RD ST", "postcode": "85004"}}},
{"geometry": {"type": "Point", "coordinates": [-112.0655403046, 33.4657985889]}, "type": "Feature", "properties": {"collection_times": [{"days": "Mon-Fri", "time": "1:45pm"}, {"days": "Sat-Sun", "time": "Closed"}], "id": "8500400080", "name": "USPS COLLECTION BOX - BLUE BOX", "address": {"city": "PHOENIX", "state": "AZ", "street": "530 E MCDOWELL RD", "postcode": "85004"}}},
{"geometry": {"type": "Point", "coordinates": [-112.0740081073, 33.4537974347]}, "type": "Feature", "properties": {"collection_times": [{"days": "Mon-Fri", "time": "5:00pm"}, {"days": "Sat-Sun", "time": "Closed"}], "id": "8500400092", "name": "USPS COLLECTION BOX - BLUE BOX", "address": {"city": "PHOENIX", "state": "AZ", "street": "522 N CENTRAL AVE", "postcode": "85004"}}},
{"geometry": {"type": "Point", "coordinates": [-112.0740081073, 33.4537974347]}, "type": "Feature", "properties": {"collection_times": [{"days": "Mon-Fri", "time": "5:00pm"}, {"days": "Sat-Sun", "time": "Closed"}], "id": "8500400098", "name": "USPS COLLECTION BOX - BLUE BOX", "address": {"city": "PHOENIX", "state": "AZ", "street": "522 N CENTRAL AVE", "postcode": "85004"}}},
{"geometry": {"type": "Point", "coordinates": [-112.0740081073, 33.4537974347]}, "type": "Feature", "properties": {"collection_times": [{"days": "Mon-Fri", "time": "5:00pm"}, {"days": "Sat-Sun", "time": "Closed"}], "id": "8500400099", "name": "USPS COLLECTION BOX - PO LOBBY", "address": {"city": "PHOENIX", "state": "AZ", "street": "522 N CENTRAL AVE", "postcode": "85004"}}},
{"geometry": {"type": "Point", "coordinates": [-112.0661302119, 33.4675395039]}, "type": "Feature", "properties": {"collection_times": [{"days": "Mon-Fri", "time": "4:45pm"}, {"days": "Sat-Sun", "time": "Closed"}], "id": "8500400108", "name": "USPS COLLECTION BOX - BLUE BOX", "address": {"city": "PHOENIX", "state": "AZ", "street": "360 E CORONADO RD", "postcode": "85004"}}},
{"geometry": {"type": "Point", "coordinates": [-112.0670975527, 33.479087923]}, "type": "Feature", "properties": {"collection_times": [{"days": "Mon-Fri", "time": "3:00pm"}, {"days": "Sat-Sun", "time": "Closed"}], "id": "8500400110", "name": "USPS COLLECTION BOX - BLUE BOX", "address": {"city": "PHOENIX", "state": "AZ", "street": "502 E ROANOKE AVE", "postcode": "85004"}}},
{"geometry": {"type": "Point", "coordinates": [-112.0650338226, 33.4730607063]}, "type": "Feature", "properties": {"collection_times": [{"days": "Mon-Fri", "time": "2:00pm"}, {"days": "Sat-Sun", "time": "Closed"}], "id": "8500600003", "name": "USPS COLLECTION BOX - BLUE BOX", "address": {"city": "PHOENIX", "state": "AZ", "street": "2301 N 7TH ST", "postcode": "85006"}}},
{"geometry": {"type": "Point", "coordinates": [-112.0630414969, 33.4635641972]}, "type": "Feature", "properties": {"collection_times": [{"days": "Mon-Fri", "time": "1:00pm"}, {"days": "Sat-Sun", "time": "Closed"}], "id": "8500600005", "name": "USPS COLLECTION BOX - BLUE BOX", "address": {"city": "PHOENIX", "state": "AZ", "street": "735 E WILLETTA ST", "postcode": "85006"}}},
{"geometry": {"type": "Point", "coordinates": [-112.0563920937, 33.4630028563]}, "type": "Feature", "properties": {"collection_times": [{"days": "Mon-Fri", "time": "2:45pm"}, {"days": "Sat-Sun", "time": "Closed"}], "id": "8500600011", "name": "USPS COLLECTION BOX - BLUE BOX", "address": {"city": "PHOENIX", "state": "AZ", "street": "1300 N 12TH ST", "postcode": "85006"}}},
{"geometry": {"type": "Point", "coordinates": [-112.0538380853, 33.4657461381]}, "type": "Feature", "properties": {"collection_times": [{"days": "Mon-Fri", "time": "2:45pm"}, {"days": "Sat-Sun", "time": "Closed"}], "id": "8500600015", "name": "USPS COLLECTION BOX - BLUE BOX", "address": {"city": "PHOENIX", "state": "AZ", "street": "1301 E MCDOWELL RD", "postcode": "85006"}}},
{"geometry": {"type": "Point", "coordinates": [-112.0475759384, 33.4775206203]}, "type": "Feature", "properties": {"collection_times": [{"days": "Mon-Fri", "time": "1:45pm"}, {"days": "Sat-Sun", "time": "Closed"}], "id": "8500600017", "name": "USPS COLLECTION BOX - BLUE BOX", "address": {"city": "PHOENIX", "state": "AZ", "street": "2701 N 16TH ST", "postcode": "85006"}}},
{"geometry": {"type": "Point", "coordinates": [-112.0412507594, 33.4514834704]}, "type": "Feature", "properties": {"collection_times": [{"days": "Mon-Fri", "time": "12:45pm"}, {"days": "Sat-Sun", "time": "Closed"}], "id": "8500600020", "name": "USPS COLLECTION BOX - BLUE BOX", "address": {"city": "PHOENIX", "state": "AZ", "street": "300 N 19TH ST", "postcode": "85006"}}},
{"geometry": {"type": "Point", "coordinates": [-112.0403493764, 33.4775829154]}, "type": "Feature", "properties": {"collection_times": [{"days": "Mon-Fri", "time": "1:30pm"}, {"days": "Sat-Sun", "time": "Closed"}], "id": "8500600024", "name": "USPS COLLECTION BOX - BLUE BOX", "address": {"city": "PHOENIX", "state": "AZ", "street": "1920 E CAMBRIDGE AVE", "postcode": "85006"}}},
{"geometry": {"type": "Point", "coordinates": [-112.0914301552, 33.4490392086]}, "type": "Feature", "properties": {"collection_times": [{"days": "Mon-Fri", "time": "4:00pm"}, {"days": "Sat-Sun", "time": "Closed"}], "id": "8500700006", "name": "USPS COLLECTION BOX - BLUE BOX", "address": {"city": "PHOENIX", "state": "AZ", "street": "100 N 15TH AVE", "postcode": "85007"}}},
{"geometry": {"type": "Point", "coordinates": [-112.0912308409, 33.4470822996]}, "type": "Feature", "properties": {"collection_times": [{"days": "Mon-Fri", "time": "4:15pm"}, {"days": "Sat-Sun", "time": "Closed"}], "id": "8500700007", "name": "USPS COLLECTION BOX - BLUE BOX", "address": {"city": "PHOENIX", "state": "AZ", "street": "1490 W JEFFERSON ST", "postcode": "85007"}}},
{"geometry": {"type": "Point", "coordinates": [-112.0982862868, 33.4469658851]}, "type": "Feature", "properties": {"collection_times": [{"days": "Mon-Fri", "time": "2:00pm"}, {"days": "Sat-Sun", "time": "Closed"}], "id": "8500700026", "name": "USPS COLLECTION BOX - BLUE BOX", "address": {"city": "PHOENIX", "state": "AZ", "street": "1801 W JEFFERSON ST", "postcode": "85007"}}},
{"geometry": {"type": "Point", "coordinates": [-112.0946998538, 33.4502895963]}, "type": "Feature", "properties": {"collection_times": [{"days": "Mon-Fri", "time": "4:15pm"}, {"days": "Sat-Sun", "time": "Closed"}], "id": "8500700027", "name": "USPS COLLECTION BOX - BLUE BOX", "address": {"city": "PHOENIX", "state": "AZ", "street": "1600 W MONROE ST", "postcode": "85007"}}},
{"geometry": {"type": "Point", "coordinates": [-112.0105206219, 33.4656879207]}, "type": "Feature", "properties": {"collection_times": [{"days": "Mon-Fri", "time": "4:45pm"}, {"days": "Sat", "time": "12:00pm"}, {"days": "Sun", "time": "Closed"}], "id": "8500800010", "name": "USPS COLLECTION BOX - BLUE BOX", "address": {"city": "PHOENIX", "state": "AZ", "street": "3287 E MCDOWELL RD", "postcode": "85008"}}},
{"geometry": {"type": "Point", "coordinates": [-112.1471830113, 33.4659472411]}, "type": "Feature", "properties": {"collection_times": [{"days": "Mon-Fri", "time": "1:30pm"}, {"days": "Sat-Sun", "time": "Closed"}], "id": "8500800014", "name": "USPS COLLECTION BOX - BLUE BOX", "address": {"city": "PHOENIX", "state": "AZ", "street": "4040 E MCDOWELL RD", "postcode": "85008"}}},
{"geometry": {"type": "Point", "coordinates": [-111.9871862721, 33.4749939572]}, "type": "Feature", "properties": {"collection_times": [{"days": "Mon-Fri", "time": "1:15pm"}, {"days": "Sat-Sun", "time": "Closed"}], "id": "8500800022", "name": "USPS COLLECTION BOX - BLUE BOX", "address": {"city": "PHOENIX", "state": "AZ", "street": "2500 N 44TH ST", "postcode": "85008"}}},
{"geometry": {"type": "Point", "coordinates": [-111.9718554801, 33.4654918019]}, "type": "Feature", "properties": {"collection_times": [{"days": "Mon-Fri", "time": "2:00pm"}, {"days": "Sat-Sun", "time": "Closed"}], "id": "8500800027", "name": "USPS COLLECTION BOX - BLUE BOX", "address": {"city": "PHOENIX", "state": "AZ", "street": "5005 E MCDOWELL RD", "postcode": "85008"}}},
{"geometry": {"type": "Point", "coordinates": [-111.9869677809, 33.472465345]}, "type": "Feature", "properties": {"collection_times": [{"days": "Mon-Fri", "time": "5:00pm"}, {"days": "Sat-Sun", "time": "Closed"}], "id": "8500800042", "name": "USPS COLLECTION BOX - BLUE BOX", "address": {"city": "PHOENIX", "state": "AZ", "street": "2255 N 44TH ST", "postcode": "85008"}}},
{"geometry": {"type": "Point", "coordinates": [-111.9869500365, 33.4778182343]}, "type": "Feature", "properties": {"collection_times": [{"days": "Mon-Fri", "time": "12:45pm"}, {"days": "Sat-Sun", "time": "Closed"}], "id": "8500800043", "name": "USPS COLLECTION BOX - BLUE BOX", "address": {"city": "PHOENIX", "state": "AZ", "street": "2641 N 44TH ST", "postcode": "85008"}}},
{"geometry": {"type": "Point", "coordinates": [-112.1345135208, 33.4483116889]}, "type": "Feature", "properties": {"collection_times": [{"days": "Mon-Fri", "time": "5:00pm"}, {"days": "Sat", "time": "3:30pm"}, {"days": "Sun", "time": "Closed"}], "id": "8500900001", "name": "USPS COLLECTION BOX - BLUE BOX", "address": {"city": "PHOENIX", "state": "AZ", "street": "2 S 35TH AVE", "postcode": "85009"}}},
{"geometry": {"type": "Point", "coordinates": [-112.1345135208, 33.4483116889]}, "type": "Feature", "properties": {"collection_times": [{"days": "Mon-Fri", "time": "5:00pm"}, {"days": "Sat", "time": "3:30pm"}, {"days": "Sun", "time": "Closed"}], "id": "8500900002", "name": "USPS COLLECTION BOX - BLUE BOX", "address": {"city": "PHOENIX", "state": "AZ", "street": "2 S 35TH AVE", "postcode": "85009"}}},
{"geometry": {"type": "Point", "coordinates": [-112.1063307305, 33.4689986186]}, "type": "Feature", "properties": {"collection_times": [{"days": "Mon-Fri", "time": "4:45pm"}, {"days": "Sat-Sun", "time": "Closed"}], "id": "8500900010", "name": "USPS COLLECTION BOX - BLUE BOX", "address": {"city": "PHOENIX", "state": "AZ", "street": "1911 N 22ND AVE", "postcode": "85009"}}},
{"geometry": {"type": "Point", "coordinates": [-112.1288294823, 33.4558725524]}, "type": "Feature", "properties": {"collection_times": [{"days": "Mon-Fri", "time": "4:30pm"}, {"days": "Sat-Sun", "time": "Closed"}], "id": "8500900019", "name": "USPS COLLECTION BOX - BLUE BOX", "address": {"city": "PHOENIX", "state": "AZ", "street": "2515 N 34TH DR", "postcode": "85009"}}},
{"geometry": {"type": "Point", "coordinates": [-112.1397702987, 33.47888851]}, "type": "Feature", "properties": {"collection_times": [{"days": "Mon-Fri", "time": "4:15pm"}, {"days": "Sat-Sun", "time": "Closed"}], "id": "8500900026", "name": "USPS COLLECTION BOX - BLUE BOX", "address": {"city": "PHOENIX", "state": "AZ", "street": "3726 W ROANOKE AVE", "postcode": "85009"}}},
{"geometry": {"type": "Point", "coordinates": [-112.1480229121, 33.4780820342]}, "type": "Feature", "properties": {"collection_times": [{"days": "Mon-Fri", "time": "4:15pm"}, {"days": "Sat", "time": "1:30pm"}, {"days": "Sun", "time": "Closed"}], "id": "8500900027", "name": "USPS COLLECTION BOX - BLUE BOX", "address": {"city": "PHOENIX", "state": "AZ", "street": "2636 N 41ST AVE", "postcode": "85009"}}},
{"geometry": {"type": "Point", "coordinates": [-112.1518355754, 33.4660627063]}, "type": "Feature", "properties": {"collection_times": [{"days": "Mon-Fri", "time": "2:30pm"}, {"days": "Sat-Sun", "time": "Closed"}], "id": "8500900031", "name": "USPS COLLECTION BOX - BLUE BOX", "address": {"city": "PHOENIX", "state": "AZ", "street": "1600 N 43RD AVE", "postcode": "85009"}}},
{"geometry": {"type": "Point", "coordinates": [-112.1288294823, 33.4558725524]}, "type": "Feature", "properties": {"collection_times": [{"days": "Mon-Fri", "time": "4:45pm"}, {"days": "Sat-Sun", "time": "Closed"}], "id": "8500900032", "name": "USPS COLLECTION BOX - BLUE BOX", "address": {"city": "PHOENIX", "state": "AZ", "street": "2901 W MCDOWELL RD", "postcode": "85009"}}},
{"geometry": {"type": "Point", "coordinates": [-112.1288294823, 33.4558725524]}, "type": "Feature", "properties": {"collection_times": [{"days": "Mon-Fri", "time": "3:00pm"}, {"days": "Sat", "time": "3:30pm"}, {"days": "Sun", "time": "Closed"}], "id": "8500900034", "name": "USPS COLLECTION BOX - EXPRESS", "address": {"city": "PHOENIX", "state": "AZ", "street": "2 S 35TH AVE", "postcode": "85009"}}},
{"geometry": {"type": "Point", "coordinates": [-112.1345135208, 33.4483116889]}, "type": "Feature", "properties": {"collection_times": [{"days": "Mon-Fri", "time": "5:00pm"}, {"days": "Sat", "time": "3:30pm"}, {"days": "Sun", "time": "Closed"}], "id": "8500900035", "name": "USPS COLLECTION BOX - PO LOBBY", "address": {"city": "PHOENIX", "state": "AZ", "street": "2 S 35TH AVE", "postcode": "85009"}}},
{"geometry": {"type": "Point", "coordinates": [-112.0722146209, 33.4821818093]}, "type": "Feature", "properties": {"collection_times": [{"days": "Mon-Fri", "time": "4:30pm"}, {"days": "Sat-Sun", "time": "Closed"}], "id": "8501200004", "name": "USPS COLLECTION BOX - BLUE BOX", "address": {"city": "PHOENIX", "state": "AZ", "street": "50 E CATALINA DR", "postcode": "85012"}}},
{"geometry": {"type": "Point", "coordinates": [-112.073879776, 33.4904202962]}, "type": "Feature", "properties": {"collection_times": [{"days": "Mon-Fri", "time": "5:00pm"}, {"days": "Sat-Sun", "time": "Closed"}], "id": "8501200017", "name": "USPS COLLECTION BOX - BLUE BOX", "address": {"city": "PHOENIX", "state": "AZ", "street": "3636 N CENTRAL AVE", "postcode": "85012"}}},
{"geometry": {"type": "Point", "coordinates": [-112.0738845079, 33.502389475]}, "type": "Feature", "properties": {"collection_times": [{"days": "Mon-Fri", "time": "3:00pm"}, {"days": "Sat-Sun", "time": "Closed"}], "id": "8501200021", "name": "USPS COLLECTION BOX - BLUE BOX", "address": {"city": "PHOENIX", "state": "AZ", "street": "4502 N CENTRAL AVE", "postcode": "85012"}}},
{"geometry": {"type": "Point", "coordinates": [-112.0713695371, 33.4839045582]}, "type": "Feature", "properties": {"collection_times": [{"days": "Mon-Fri", "time": "4:30pm"}, {"days": "Sat-Sun", "time": "Closed"}], "id": "8501200057", "name": "USPS COLLECTION BOX - BLUE BOX", "address": {"city": "PHOENIX", "state": "AZ", "street": "202 E EARLL DR", "postcode": "85012"}}},
{"geometry": {"type": "Point", "coordinates": [-112.06591115, 33.494757627]}, "type": "Feature", "properties": {"collection_times": [{"days": "Mon-Fri", "time": "2:15pm"}, {"days": "Sat-Sun", "time": "Closed"}], "id": "8501200067", "name": "USPS COLLECTION BOX - BLUE BOX", "address": {"city": "PHOENIX", "state": "AZ", "street": "650 E INDIAN SCHOOL RD", "postcode": "85012"}}},
{"geometry": {"type": "Point", "coordinates": [-112.0713695371, 33.4839045582]}, "type": "Feature", "properties": {"collection_times": [{"days": "Mon-Fri", "time": "4:30pm"}, {"days": "Sat-Sun", "time": "Closed"}], "id": "8501200068", "name": "USPS COLLECTION BOX - BLUE BOX", "address": {"city": "PHOENIX", "state": "AZ", "street": "202 E EARLL DR", "postcode": "85012"}}},
{"geometry": {"type": "Point", "coordinates": [-112.0722146209, 33.4821818093]}, "type": "Feature", "properties": {"collection_times": [{"days": "Mon-Fri", "time": "4:30pm"}, {"days": "Sat-Sun", "time": "Closed"}], "id": "8501200070", "name": "USPS COLLECTION BOX - BLUE BOX", "address": {"city": "PHOENIX", "state": "AZ", "street": "50 E CATALINA DR", "postcode": "85012"}}},
{"geometry": {"type": "Point", "coordinates": [-112.0736703923, 33.4851596777]}, "type": "Feature", "properties": {"collection_times": [{"days": "Mon-Fri", "time": "2:15pm"}, {"days": "Sat-Sun", "time": "Closed"}], "id": "8501200071", "name": "USPS COLLECTION BOX - BLUE BOX", "address": {"city": "PHOENIX", "state": "AZ", "street": "3110 N CENTRAL AVE", "postcode": "85012"}}},
{"geometry": {"type": "Point", "coordinates": [-112.0736261874, 33.4994834183]}, "type": "Feature", "properties": {"collection_times": [{"days": "Mon-Fri", "time": "1:30pm"}, {"days": "Sat-Sun", "time": "Closed"}], "id": "8501200072", "name": "USPS COLLECTION BOX - BLUE BOX", "address": {"city": "PHOENIX", "state": "AZ", "street": "3330 N 2ND ST", "postcode": "85012"}}},
{"geometry": {"type": "Point", "coordinates": [-112.068760886, 33.523762805]}, "type": "Feature", "properties": {"collection_times": [{"days": "Mon-Fri", "time": "4:45pm"}, {"days": "Sat-Sun", "time": "Closed"}], "id": "8501200075", "name": "USPS COLLECTION BOX - BLUE BOX", "address": {"city": "PHOENIX", "state": "AZ", "street": "301 E BETHANY HOME RD", "postcode": "85012"}}},
{"geometry": {"type": "Point", "coordinates": [-112.0687701505, 33.5237629732]}, "type": "Feature", "properties": {"collection_times": [{"days": "Mon-Fri", "time": "4:45pm"}, {"days": "Sat-Sun", "time": "Closed"}], "id": "8501200076", "name": "USPS COLLECTION BOX - BLUE BOX", "address": {"city": "PHOENIX", "state": "AZ", "street": "301 E BETHANY HOME RD", "postcode": "85012"}}},
{"geometry": {"type": "Point", "coordinates": [-112.0833283839, 33.4925946106]}, "type": "Feature", "properties": {"collection_times": [{"days": "Mon-Fri", "time": "5:00pm"}, {"days": "Sat", "time": "4:00pm"}, {"days": "Sun", "time": "Closed"}], "id": "8501300001", "name": "USPS COLLECTION BOX - BLUE BOX", "address": {"city": "PHOENIX", "state": "AZ", "street": "3905 N 7TH AVE", "postcode": "85013"}}},
{"geometry": {"type": "Point", "coordinates": [-112.0833283839, 33.4925946106]}, "type": "Feature", "properties": {"collection_times": [{"days": "Mon-Fri", "time": "5:00pm"}, {"days": "Sat", "time": "4:00pm"}, {"days": "Sun", "time": "Closed"}], "id": "8501300002", "name": "USPS COLLECTION BOX - BLUE BOX", "address": {"city": "PHOENIX", "state": "AZ", "street": "3905 N 7TH AVE", "postcode": "85013"}}},
{"geometry": {"type": "Point", "coordinates": [-112.0780224983, 33.4875587185]}, "type": "Feature", "properties": {"collection_times": [{"days": "Mon-Fri", "time": "4:00pm"}, {"days": "Sat-Sun", "time": "Closed"}], "id": "8501300007", "name": "USPS COLLECTION BOX - BLUE BOX", "address": {"city": "PHOENIX", "state": "AZ", "street": "244 W OSBORN RD", "postcode": "85013"}}},
{"geometry": {"type": "Point", "coordinates": [-112.0769548287, 33.4803384038]}, "type": "Feature", "properties": {"collection_times": [{"days": "Mon-Fri", "time": "3:15pm"}, {"days": "Sat-Sun", "time": "Closed"}], "id": "8501300008", "name": "USPS COLLECTION BOX - BLUE BOX", "address": {"city": "PHOENIX", "state": "AZ", "street": "222 W THOMAS RD", "postcode": "85013"}}},
{"geometry": {"type": "Point", "coordinates": [-112.0769548287, 33.4803384038]}, "type": "Feature", "properties": {"collection_times": [{"days": "Mon-Fri", "time": "3:15pm"}, {"days": "Sat-Sun", "time": "Closed"}], "id": "8501300009", "name": "USPS COLLECTION BOX - BLUE BOX", "address": {"city": "PHOENIX", "state": "AZ", "street": "222 W THOMAS RD", "postcode": "85013"}}},
{"geometry": {"type": "Point", "coordinates": [-112.0782846476, 33.4867696674]}, "type": "Feature", "properties": {"collection_times": [{"days": "Mon-Fri", "time": "3:00pm"}, {"days": "Sat-Sun", "time": "Closed"}], "id": "8501300012", "name": "USPS COLLECTION BOX - BLUE BOX", "address": {"city": "PHOENIX", "state": "AZ", "street": "3300 N 3RD AVE", "postcode": "85013"}}},
{"geometry": {"type": "Point", "coordinates": [-112.0781870186, 33.5115040195]}, "type": "Feature", "properties": {"collection_times": [{"days": "Mon-Fri", "time": "2:30pm"}, {"days": "Sat", "time": "1:30pm"}, {"days": "Sun", "time": "Closed"}], "id": "8501300013", "name": "USPS COLLECTION BOX - BLUE BOX", "address": {"city": "PHOENIX", "state": "AZ", "street": "5100 N 3RD AVE", "postcode": "85013"}}},
{"geometry": {"type": "Point", "coordinates": [-112.0688616641, 33.4874995705]}, "type": "Feature", "properties": {"collection_times": [{"days": "Mon-Fri", "time": "4:00pm"}, {"days": "Sat-Sun", "time": "Closed"}], "id": "8501300017", "name": "USPS COLLECTION BOX - BLUE BOX", "address": {"city": "PHOENIX", "state": "AZ", "street": "300 W OSBORN RD", "postcode": "85013"}}},
{"geometry": {"type": "Point", "coordinates": [-112.0792203589, 33.4803509471]}, "type": "Feature", "properties": {"collection_times": [{"days": "Mon-Fri", "time": "3:30pm"}, {"days": "Sat-Sun", "time": "Closed"}], "id": "8501300019", "name": "USPS COLLECTION BOX - BLUE BOX", "address": {"city": "PHOENIX", "state": "AZ", "street": "350 W THOMAS RD", "postcode": "85013"}}},
{"geometry": {"type": "Point", "coordinates": [-112.0799672829, 33.5093642011]}, "type": "Feature", "properties": {"collection_times": [{"days": "Mon-Fri", "time": "2:30pm"}, {"days": "Sat-Sun", "time": "Closed"}], "id": "8501300021", "name": "USPS COLLECTION BOX - BLUE BOX", "address": {"city": "PHOENIX", "state": "AZ", "street": "444 W CAMELBACK RD", "postcode": "85013"}}},
{"geometry": {"type": "Point", "coordinates": [-112.0806025318, 33.4886931761]}, "type": "Feature", "properties": {"collection_times": [{"days": "Mon-Fri", "time": "2:30pm"}, {"days": "Sat-Sun", "time": "Closed"}], "id": "8501300023", "name": "USPS COLLECTION BOX - BLUE BOX", "address": {"city": "PHOENIX", "state": "AZ", "street": "3411 N 5TH AVE", "postcode": "85013"}}},
{"geometry": {"type": "Point", "coordinates": [-112.0824807609, 33.5238899995]}, "type": "Feature", "properties": {"collection_times": [{"days": "Mon-Fri", "time": "2:30pm"}, {"days": "Sat-Sun", "time": "Closed"}], "id": "8501300029", "name": "USPS COLLECTION BOX - BLUE BOX", "address": {"city": "PHOENIX", "state": "AZ", "street": "6000 N 7TH AVE", "postcode": "85013"}}},
{"geometry": {"type": "Point", "coordinates": [-112.0831453497, 33.4878910201]}, "type": "Feature", "properties": {"collection_times": [{"days": "Mon-Fri", "time": "2:30pm"}, {"days": "Sat-Sun", "time": "Closed"}], "id": "8501300033", "name": "USPS COLLECTION BOX - BLUE BOX", "address": {"city": "PHOENIX", "state": "AZ", "street": "3427 N 7TH AVE", "postcode": "85013"}}},
{"geometry": {"type": "Point", "coordinates": [-112.0831766505, 33.4868028077]}, "type": "Feature", "properties": {"collection_times": [{"days": "Mon-Fri", "time": "1:15pm"}, {"days": "Sat-Sun", "time": "Closed"}], "id": "8501300035", "name": "USPS COLLECTION BOX - BLUE BOX", "address": {"city": "PHOENIX", "state": "AZ", "street": "3320 N 7TH AVE", "postcode": "85013"}}},
{"geometry": {"type": "Point", "coordinates": [-112.0870739033, 33.4822653162]}, "type": "Feature", "properties": {"collection_times": [{"days": "Mon-Fri", "time": "3:45pm"}, {"days": "Sat", "time": "1:30pm"}, {"days": "Sun", "time": "Closed"}], "id": "8501300036", "name": "USPS COLLECTION BOX - BLUE BOX", "address": {"city": "PHOENIX", "state": "AZ", "street": "3000 N 11TH AVE", "postcode": "85013"}}},
{"geometry": {"type": "Point", "coordinates": [-112.0830311466, 33.4809365142]}, "type": "Feature", "properties": {"collection_times": [{"days": "Mon-Fri", "time": "1:15pm"}, {"days": "Sat-Sun", "time": "Closed"}], "id": "8501300041", "name": "USPS COLLECTION BOX - BLUE BOX", "address": {"city": "PHOENIX", "state": "AZ", "street": "2901 N 7TH AVE", "postcode": "85013"}}},
{"geometry": {"type": "Point", "coordinates": [-112.0833283839, 33.4925946106]}, "type": "Feature", "properties": {"collection_times": [{"days": "Mon-Fri", "time": "3:00pm"}, {"days": "Sat-Sun", "time": "Closed"}], "id": "8501300047", "name": "USPS COLLECTION BOX - EXPRESS", "address": {"city": "PHOENIX", "state": "AZ", "street": "3905 N 7TH AVE", "postcode": "85013"}}},
{"geometry": {"type": "Point", "coordinates": [-112.0833283839, 33.4925946106]}, "type": "Feature", "properties": {"collection_times": [{"days": "Mon-Fri", "time": "5:00pm"}, {"days": "Sat", "time": "4:00pm"}, {"days": "Sun", "time": "Closed"}], "id": "8501300048", "name": "USPS COLLECTION BOX - PO LOBBY", "address": {"city": "PHOENIX", "state": "AZ", "street": "3905 N 7TH AVE", "postcode": "85013"}}},
{"geometry": {"type": "Point", "coordinates": [-112.084200815, 33.5094952422]}, "type": "Feature", "properties": {"collection_times": [{"days": "Mon-Fri", "time": "2:45pm"}, {"days": "Sat-Sun", "time": "Closed"}], "id": "8501300049", "name": "USPS COLLECTION BOX - BLUE BOX", "address": {"city": "PHOENIX", "state": "AZ", "street": "744 W CAMELBACK RD", "postcode": "85013"}}},
{"geometry": {"type": "Point", "coordinates": [-112.0784884853, 33.4843539394]}, "type": "Feature", "properties": {"collection_times": [{"days": "Mon-Fri", "time": "3:00pm"}, {"days": "Sat-Sun", "time": "Closed"}], "id": "8501300053", "name": "USPS COLLECTION BOX - BLUE BOX", "address": {"city": "PHOENIX", "state": "AZ", "street": "3121 N 3RD AVE", "postcode": "85013"}}},
{"geometry": {"type": "Point", "coordinates": [-112.0751880744, 33.4908380498]}, "type": "Feature", "properties": {"collection_times": [{"days": "Mon-Fri", "time": "5:00pm"}, {"days": "Sat-Sun", "time": "Closed"}], "id": "8501300054", "name": "USPS COLLECTION BOX - BLUE BOX", "address": {"city": "PHOENIX", "state": "AZ", "street": "100 W WELDON", "postcode": "85013"}}},
{"geometry": {"type": "Point", "coordinates": [-112.0739383367, 33.4905528338]}, "type": "Feature", "properties": {"collection_times": [{"days": "Mon-Fri", "time": "5:00pm"}, {"days": "Sat-Sun", "time": "Closed"}], "id": "8501300055", "name": "USPS COLLECTION BOX - BLUE BOX", "address": {"city": "PHOENIX", "state": "AZ", "street": "3636 N CENTRAL AVE", "postcode": "85013"}}},
{"geometry": {"type": "Point", "coordinates": [-112.0833283839, 33.4925946106]}, "type": "Feature", "properties": {"collection_times": [{"days": "Mon-Fri", "time": "5:00pm"}, {"days": "Sat", "time": "4:00pm"}, {"days": "Sun", "time": "Closed"}], "id": "8501300058", "name": "USPS COLLECTION BOX - APC", "address": {"city": "PHOENIX", "state": "AZ", "street": "3905 N 7TH AVE", "postcode": "85013"}}},
{"geometry": {"type": "Point", "coordinates": [-112.06493136, 33.5175976483]}, "type": "Feature", "properties": {"collection_times": [{"days": "Mon-Fri", "time": "2:30pm"}, {"days": "Sat-Sun", "time": "Closed"}], "id": "8501400006", "name": "USPS COLLECTION BOX - BLUE BOX", "address": {"city": "PHOENIX", "state": "AZ", "street": "5501 N 7TH ST", "postcode": "85014"}}},
{"geometry": {"type": "Point", "coordinates": [-112.06493136, 33.5175976483]}, "type": "Feature", "properties": {"collection_times": [{"days": "Mon-Fri", "time": "2:30pm"}, {"days": "Sat-Sun", "time": "Closed"}], "id": "8501400007", "name": "USPS COLLECTION BOX - BLUE BOX", "address": {"city": "PHOENIX", "state": "AZ", "street": "5501 N 7TH ST", "postcode": "85014"}}},
{"geometry": {"type": "Point", "coordinates": [-112.0650785613, 33.4808383286]}, "type": "Feature", "properties": {"collection_times": [{"days": "Mon-Fri", "time": "5:00pm"}, {"days": "Sat-Sun", "time": "Closed"}], "id": "8501400010", "name": "USPS COLLECTION BOX - BLUE BOX", "address": {"city": "PHOENIX", "state": "AZ", "street": "2920 N 7TH ST", "postcode": "85014"}}},
{"geometry": {"type": "Point", "coordinates": [-112.0649845018, 33.4903539689]}, "type": "Feature", "properties": {"collection_times": [{"days": "Mon-Fri", "time": "3:00pm"}, {"days": "Sat-Sun", "time": "Closed"}], "id": "8501400011", "name": "USPS COLLECTION BOX - BLUE BOX", "address": {"city": "PHOENIX", "state": "AZ", "street": "3707 N 7TH ST", "postcode": "85014"}}},
{"geometry": {"type": "Point", "coordinates": [-112.0650430726, 33.4924798278]}, "type": "Feature", "properties": {"collection_times": [{"days": "Mon-Fri", "time": "3:15pm"}, {"days": "Sat-Sun", "time": "Closed"}], "id": "8501400014", "name": "USPS COLLECTION BOX - BLUE BOX", "address": {"city": "PHOENIX", "state": "AZ", "street": "3877 N 7TH ST", "postcode": "85014"}}},
{"geometry": {"type": "Point", "coordinates": [-112.0649969372, 33.5225352662]}, "type": "Feature", "properties": {"collection_times": [{"days": "Mon-Fri", "time": "2:45pm"}, {"days": "Sat-Sun", "time": "Closed"}], "id": "8501400015", "name": "USPS COLLECTION BOX - BLUE BOX", "address": {"city": "PHOENIX", "state": "AZ", "street": "5818 N 7TH ST", "postcode": "85014"}}},
{"geometry": {"type": "Point", "coordinates": [-112.0558703551, 33.5164436797]}, "type": "Feature", "properties": {"collection_times": [{"days": "Mon-Fri", "time": "3:00pm"}, {"days": "Sat-Sun", "time": "Closed"}], "id": "8501400022", "name": "USPS COLLECTION BOX - BLUE BOX", "address": {"city": "PHOENIX", "state": "AZ", "street": "1201 E MISSOURI AVE", "postcode": "85014"}}},
{"geometry": {"type": "Point", "coordinates": [-112.0558703551, 33.5164436797]}, "type": "Feature", "properties": {"collection_times": [{"days": "Mon-Fri", "time": "3:00pm"}, {"days": "Sat-Sun", "time": "Closed"}], "id": "8501400023", "name": "USPS COLLECTION BOX - BLUE BOX", "address": {"city": "PHOENIX", "state": "AZ", "street": "1201 E MISSOURI AVE", "postcode": "85014"}}},
{"geometry": {"type": "Point", "coordinates": [-112.0896036666, 33.487745626]}, "type": "Feature", "properties": {"collection_times": [{"days": "Mon-Fri", "time": "1:15pm"}, {"days": "Sat-Sun", "time": "Closed"}], "id": "8501400024", "name": "USPS COLLECTION BOX - BLUE BOX", "address": {"city": "PHOENIX", "state": "AZ", "street": "1313 E OSBORN RD", "postcode": "85014"}}},
{"geometry": {"type": "Point", "coordinates": [-112.0508842367, 33.5164785163]}, "type": "Feature", "properties": {"collection_times": [{"days": "Mon-Fri", "time": "3:15pm"}, {"days": "Sat-Sun", "time": "Closed"}], "id": "8501400026", "name": "USPS COLLECTION BOX - BLUE BOX", "address": {"city": "PHOENIX", "state": "AZ", "street": "1430 E MISSOURI AVE", "postcode": "85014"}}},
{"geometry": {"type": "Point", "coordinates": [-112.0921766024, 33.4877834807]}, "type": "Feature", "properties": {"collection_times": [{"days": "Mon-Fri", "time": "1:30pm"}, {"days": "Sat-Sun", "time": "Closed"}], "id": "8501400029", "name": "USPS COLLECTION BOX - BLUE BOX", "address": {"city": "PHOENIX", "state": "AZ", "street": "1515 E OSBORN RD", "postcode": "85014"}}},
{"geometry": {"type": "Point", "coordinates": [-112.0508842367, 33.5164785163]}, "type": "Feature", "properties": {"collection_times": [{"days": "Mon-Fri", "time": "3:15pm"}, {"days": "Sat-Sun", "time": "Closed"}], "id": "8501400038", "name": "USPS COLLECTION BOX - BLUE BOX", "address": {"city": "PHOENIX", "state": "AZ", "street": "1430 E MISSOURI AVE", "postcode": "85014"}}},
{"geometry": {"type": "Point", "coordinates": [-112.0563080308, 33.5298511122]}, "type": "Feature", "properties": {"collection_times": [{"days": "Mon-Fri", "time": "2:15pm"}, {"days": "Sat-Sun", "time": "Closed"}], "id": "8501400042", "name": "USPS COLLECTION BOX - BLUE BOX", "address": {"city": "PHOENIX", "state": "AZ", "street": "6322 N 12TH ST", "postcode": "85014"}}},
{"geometry": {"type": "Point", "coordinates": [-112.0496397192, 33.5242812388]}, "type": "Feature", "properties": {"collection_times": [{"days": "Mon-Fri", "time": "2:15pm"}, {"days": "Sat-Sun", "time": "Closed"}], "id": "8501400043", "name": "USPS COLLECTION BOX - BLUE BOX", "address": {"city": "PHOENIX", "state": "AZ", "street": "6015 N 15TH ST", "postcode": "85014"}}},
{"geometry": {"type": "Point", "coordinates": [-112.0649845018, 33.4903539689]}, "type": "Feature", "properties": {"collection_times": [{"days": "Mon-Fri", "time": "3:00pm"}, {"days": "Sat-Sun", "time": "Closed"}], "id": "8501400045", "name": "USPS COLLECTION BOX - BLUE BOX", "address": {"city": "PHOENIX", "state": "AZ", "street": "3707 N 7TH ST", "postcode": "85014"}}},
{"geometry": {"type": "Point", "coordinates": [-112.0650253282, 33.5313163706]}, "type": "Feature", "properties": {"collection_times": [{"days": "Mon-Fri", "time": "2:15pm"}, {"days": "Sat-Sun", "time": "Closed"}], "id": "8501400046", "name": "USPS COLLECTION BOX - BLUE BOX", "address": {"city": "PHOENIX", "state": "AZ", "street": "6502 N 7TH ST", "postcode": "85014"}}},
{"geometry": {"type": "Point", "coordinates": [-112.091234967, 33.5107009447]}, "type": "Feature", "properties": {"collection_times": [{"days": "Mon-Fri", "time": "2:45pm"}, {"days": "Sat-Sun", "time": "Closed"}], "id": "8501500003", "name": "USPS COLLECTION BOX - BLUE BOX", "address": {"city": "PHOENIX", "state": "AZ", "street": "5040 N 15TH AVE", "postcode": "85015"}}},
{"geometry": {"type": "Point", "coordinates": [-112.1012386972, 33.5076824439]}, "type": "Feature", "properties": {"collection_times": [{"days": "Mon-Fri", "time": "2:15pm"}, {"days": "Sat-Sun", "time": "Closed"}], "id": "8501500006", "name": "USPS COLLECTION BOX - BLUE BOX", "address": {"city": "PHOENIX", "state": "AZ", "street": "1703 W BETHANY HOME RD STE E6", "postcode": "85015"}}},
{"geometry": {"type": "Point", "coordinates": [-112.1012386972, 33.5076824439]}, "type": "Feature", "properties": {"collection_times": [{"days": "Mon-Fri", "time": "2:45pm"}, {"days": "Sat-Sun", "time": "Closed"}], "id": "8501500012", "name": "USPS COLLECTION BOX - BLUE BOX", "address": {"city": "PHOENIX", "state": "AZ", "street": "1635 W CAMELBACK RD", "postcode": "85015"}}},
{"geometry": {"type": "Point", "coordinates": [-112.1000010436, 33.4878401153]}, "type": "Feature", "properties": {"collection_times": [{"days": "Mon-Fri", "time": "2:00pm"}, {"days": "Sat-Sun", "time": "Closed"}], "id": "8501500026", "name": "USPS COLLECTION BOX - BLUE BOX", "address": {"city": "PHOENIX", "state": "AZ", "street": "3400 N 19TH AVE", "postcode": "85015"}}},
{"geometry": {"type": "Point", "coordinates": [-112.09996551, 33.4951126362]}, "type": "Feature", "properties": {"collection_times": [{"days": "Mon-Fri", "time": "2:00pm"}, {"days": "Sat-Sun", "time": "Closed"}], "id": "8501500037", "name": "USPS COLLECTION BOX - BLUE BOX", "address": {"city": "PHOENIX", "state": "AZ", "street": "4100 N 19TH AVE", "postcode": "85015"}}},
{"geometry": {"type": "Point", "coordinates": [-112.1036749635, 33.5241168823]}, "type": "Feature", "properties": {"collection_times": [{"days": "Mon-Fri", "time": "1:30pm"}, {"days": "Sat-Sun", "time": "Closed"}], "id": "8501500040", "name": "USPS COLLECTION BOX - BLUE BOX", "address": {"city": "PHOENIX", "state": "AZ", "street": "2040 W BETHANY HOME RD", "postcode": "85015"}}},
{"geometry": {"type": "Point", "coordinates": [-112.0983946612, 33.5314319057]}, "type": "Feature", "properties": {"collection_times": [{"days": "Mon-Fri", "time": "1:30pm"}, {"days": "Sat-Sun", "time": "Closed"}], "id": "8501500043", "name": "USPS COLLECTION BOX - BLUE BOX", "address": {"city": "PHOENIX", "state": "AZ", "street": "1820 W MARYLAND AVE", "postcode": "85015"}}},
{"geometry": {"type": "Point", "coordinates": [-112.1083497557, 33.5241302831]}, "type": "Feature", "properties": {"collection_times": [{"days": "Mon-Fri", "time": "1:45pm"}, {"days": "Sat-Sun", "time": "Closed"}], "id": "8501500044", "name": "USPS COLLECTION BOX - BLUE BOX", "address": {"city": "PHOENIX", "state": "AZ", "street": "2316 W BETHANY HOME RD", "postcode": "85015"}}},
{"geometry": {"type": "Point", "coordinates": [-112.1022013228, 33.5096521756]}, "type": "Feature", "properties": {"collection_times": [{"days": "Mon-Fri", "time": "3:00pm"}, {"days": "Sat-Sun", "time": "Closed"}], "id": "8501500045", "name": "USPS COLLECTION BOX - BLUE BOX", "address": {"city": "PHOENIX", "state": "AZ", "street": "1990 W CAMELBACK RD", "postcode": "85015"}}},
{"geometry": {"type": "Point", "coordinates": [-112.0385518895, 33.4008750344]}, "type": "Feature", "properties": {"collection_times": [{"days": "Mon-Sat", "time": "5:00pm"}, {"days": "Sun", "time": "Closed"}], "id": "8501600001", "name": "USPS COLLECTION BOX - BLUE BOX", "address": {"city": "PHOENIX", "state": "AZ", "street": "5021 N 20TH ST", "postcode": "85016"}}},
{"geometry": {"type": "Point", "coordinates": [-112.0385518895, 33.4008750344]}, "type": "Feature", "properties": {"collection_times": [{"days": "Mon-Sat", "time": "5:00pm"}, {"days": "Sun", "time": "Closed"}], "id": "8501600002", "name": "USPS COLLECTION BOX - BLUE BOX", "address": {"city": "PHOENIX", "state": "AZ", "street": "5021 N 20TH ST", "postcode": "85016"}}},
{"geometry": {"type": "Point", "coordinates": [-112.0476500269, 33.4857239491]}, "type": "Feature", "properties": {"collection_times": [{"days": "Mon-Fri", "time": "1:15pm"}, {"days": "Sat-Sun", "time": "Closed"}], "id": "8501600003", "name": "USPS COLLECTION BOX - BLUE BOX", "address": {"city": "PHOENIX", "state": "AZ", "street": "3221 N 16TH ST", "postcode": "85016"}}},
{"geometry": {"type": "Point", "coordinates": [-112.0475269992, 33.5147892509]}, "type": "Feature", "properties": {"collection_times": [{"days": "Mon-Fri", "time": "3:15pm"}, {"days": "Sat-Sun", "time": "Closed"}], "id": "8501600007", "name": "USPS COLLECTION BOX - BLUE BOX", "address": {"city": "PHOENIX", "state": "AZ", "street": "5320 N 16TH ST", "postcode": "85016"}}},
{"geometry": {"type": "Point", "coordinates": [-112.0465250329, 33.4947842318]}, "type": "Feature", "properties": {"collection_times": [{"days": "Mon-Fri", "time": "1:30pm"}, {"days": "Sat-Sun", "time": "Closed"}], "id": "8501600011", "name": "USPS COLLECTION BOX - BLUE BOX", "address": {"city": "PHOENIX", "state": "AZ", "street": "1616 E INDIAN SCHOOL RD", "postcode": "85016"}}},
{"geometry": {"type": "Point", "coordinates": [-112.0475187185, 33.51219029]}, "type": "Feature", "properties": {"collection_times": [{"days": "Mon-Fri", "time": "3:15pm"}, {"days": "Sat-Sun", "time": "Closed"}], "id": "8501600014", "name": "USPS COLLECTION BOX - BLUE BOX", "address": {"city": "PHOENIX", "state": "AZ", "street": "5150 N 16TH ST", "postcode": "85016"}}},
{"geometry": {"type": "Point", "coordinates": [-112.0472868585, 33.4946470086]}, "type": "Feature", "properties": {"collection_times": [{"days": "Mon-Fri", "time": "1:30pm"}, {"days": "Sat-Sun", "time": "Closed"}], "id": "8501600016", "name": "USPS COLLECTION BOX - BLUE BOX", "address": {"city": "PHOENIX", "state": "AZ", "street": "1601 E INDIAN SCHOOL RD", "postcode": "85016"}}},
{"geometry": {"type": "Point", "coordinates": [-112.0451208606, 33.50561777]}, "type": "Feature", "properties": {"collection_times": [{"days": "Mon-Fri", "time": "2:15pm"}, {"days": "Sat-Sun", "time": "Closed"}], "id": "8501600023", "name": "USPS COLLECTION BOX - BLUE BOX", "address": {"city": "PHOENIX", "state": "AZ", "street": "1707 E HIGHLAND AVE", "postcode": "85016"}}},
{"geometry": {"type": "Point", "coordinates": [-112.0389006967, 33.5062289488]}, "type": "Feature", "properties": {"collection_times": [{"days": "Mon-Fri", "time": "2:30pm"}, {"days": "Sat-Sun", "time": "Closed"}], "id": "8501600028", "name": "USPS COLLECTION BOX - BLUE BOX", "address": {"city": "PHOENIX", "state": "AZ", "street": "4750 N 20TH ST", "postcode": "85016"}}},
{"geometry": {"type": "Point", "coordinates": [-112.0356039558, 33.5057313341]}, "type": "Feature", "properties": {"collection_times": [{"days": "Mon-Fri", "time": "2:45pm"}, {"days": "Sat-Sun", "time": "Closed"}], "id": "8501600031", "name": "USPS COLLECTION BOX - BLUE BOX", "address": {"city": "PHOENIX", "state": "AZ", "street": "2122 E HIGHLAND AVE", "postcode": "85016"}}},
{"geometry": {"type": "Point", "coordinates": [-112.1059474277, 33.5059454497]}, "type": "Feature", "properties": {"collection_times": [{"days": "Mon-Fri", "time": "2:45pm"}, {"days": "Sat-Sun", "time": "Closed"}], "id": "8501600033", "name": "USPS COLLECTION BOX - BLUE BOX", "address": {"city": "PHOENIX", "state": "AZ", "street": "2141 E HIGHLAND AVE", "postcode": "85016"}}},
{"geometry": {"type": "Point", "coordinates": [-112.0319966895, 33.5056402913]}, "type": "Feature", "properties": {"collection_times": [{"days": "Mon-Fri", "time": "3:15pm"}, {"days": "Sat-Sun", "time": "Closed"}], "id": "8501600034", "name": "USPS COLLECTION BOX - BLUE BOX", "address": {"city": "PHOENIX", "state": "AZ", "street": "2201 E CAMELBACK RD", "postcode": "85016"}}},
{"geometry": {"type": "Point", "coordinates": [-112.0319966895, 33.5056402913]}, "type": "Feature", "properties": {"collection_times": [{"days": "Mon-Fri", "time": "3:15pm"}, {"days": "Sat-Sun", "time": "Closed"}], "id": "8501600035", "name": "USPS COLLECTION BOX - BLUE BOX", "address": {"city": "PHOENIX", "state": "AZ", "street": "2231 E CAMELBACK RD", "postcode": "85016"}}},
{"geometry": {"type": "Point", "coordinates": [-112.0316729831, 33.5093902262]}, "type": "Feature", "properties": {"collection_times": [{"days": "Mon-Fri", "time": "3:00pm"}, {"days": "Sat-Sun", "time": "Closed"}], "id": "8501600036", "name": "USPS COLLECTION BOX - BLUE BOX", "address": {"city": "PHOENIX", "state": "AZ", "street": "2390 E CAMELBACK RD", "postcode": "85016"}}},
{"geometry": {"type": "Point", "coordinates": [-112.0316729831, 33.5093902262]}, "type": "Feature", "properties": {"collection_times": [{"days": "Mon-Fri", "time": "3:00pm"}, {"days": "Sat-Sun", "time": "Closed"}], "id": "8501600037", "name": "USPS COLLECTION BOX - BLUE BOX", "address": {"city": "PHOENIX", "state": "AZ", "street": "2390 E CAMELBACK RD", "postcode": "85016"}}},
{"geometry": {"type": "Point", "coordinates": [-112.030206114, 33.495270428]}, "type": "Feature", "properties": {"collection_times": [{"days": "Mon-Fri", "time": "1:15pm"}, {"days": "Sat-Sun", "time": "Closed"}], "id": "8501600052", "name": "USPS COLLECTION BOX - BLUE BOX", "address": {"city": "PHOENIX", "state": "AZ", "street": "4111 N 24TH ST", "postcode": "85016"}}},
{"geometry": {"type": "Point", "coordinates": [-112.029008444, 33.526007559]}, "type": "Feature", "properties": {"collection_times": [{"days": "Mon-Fri", "time": "3:15pm"}, {"days": "Sat-Sun", "time": "Closed"}], "id": "8501600055", "name": "USPS COLLECTION BOX - BLUE BOX", "address": {"city": "PHOENIX", "state": "AZ", "street": "2402 E ARIZONA BILTMORE CIR", "postcode": "85016"}}},
{"geometry": {"type": "Point", "coordinates": [-112.0215249105, 33.4950276424]}, "type": "Feature", "properties": {"collection_times": [{"days": "Mon-Fri", "time": "3:30pm"}, {"days": "Sat-Sun", "time": "Closed"}], "id": "8501600063", "name": "USPS COLLECTION BOX - BLUE BOX", "address": {"city": "PHOENIX", "state": "AZ", "street": "4101 N 28TH ST", "postcode": "85016"}}},
{"geometry": {"type": "Point", "coordinates": [-112.0356039558, 33.5057313341]}, "type": "Feature", "properties": {"collection_times": [{"days": "Mon-Fri", "time": "2:45pm"}, {"days": "Sat-Sun", "time": "Closed"}], "id": "8501600066", "name": "USPS COLLECTION BOX - BLUE BOX", "address": {"city": "PHOENIX", "state": "AZ", "street": "2122 E HIGHLAND AVE", "postcode": "85016"}}},
{"geometry": {"type": "Point", "coordinates": [-112.0165677801, 33.4804479521]}, "type": "Feature", "properties": {"collection_times": [{"days": "Mon-Fri", "time": "1:15pm"}, {"days": "Sat-Sun", "time": "Closed"}], "id": "8501600071", "name": "USPS COLLECTION BOX - BLUE BOX", "address": {"city": "PHOENIX", "state": "AZ", "street": "3036 E THOMAS RD", "postcode": "85016"}}},
{"geometry": {"type": "Point", "coordinates": [-112.01452481, 33.5100408536]}, "type": "Feature", "properties": {"collection_times": [{"days": "Mon-Fri", "time": "2:00pm"}, {"days": "Sat-Sun", "time": "Closed"}], "id": "8501600072", "name": "USPS COLLECTION BOX - BLUE BOX", "address": {"city": "PHOENIX", "state": "AZ", "street": "3132 E CAMELBACK RD", "postcode": "85016"}}},
{"geometry": {"type": "Point", "coordinates": [-112.0187350205, 33.5099415064]}, "type": "Feature", "properties": {"collection_times": [{"days": "Mon-Fri", "time": "4:00pm"}, {"days": "Sat-Sun", "time": "Closed"}], "id": "8501600081", "name": "USPS COLLECTION BOX - BLUE BOX", "address": {"city": "PHOENIX", "state": "AZ", "street": "2930 E CAMELBACK RD", "postcode": "85016"}}},
{"geometry": {"type": "Point", "coordinates": [-112.1178527267, 33.5094683015]}, "type": "Feature", "properties": {"collection_times": [{"days": "Mon-Fri", "time": "4:15pm"}, {"days": "Sat-Sun", "time": "Closed"}], "id": "8501600083", "name": "USPS COLLECTION BOX - BLUE BOX", "address": {"city": "PHOENIX", "state": "AZ", "street": "2720 E CAMELBACK RD", "postcode": "85016"}}},
{"geometry": {"type": "Point", "coordinates": [-112.0385518895, 33.4008750344]}, "type": "Feature", "properties": {"collection_times": [{"days": "Mon-Sat", "time": "5:00pm"}, {"days": "Sun", "time": "Closed"}], "id": "8501600086", "name": "USPS COLLECTION BOX - PO LOBBY", "address": {"city": "PHOENIX", "state": "AZ", "street": "5021 N 20TH ST", "postcode": "85016"}}},
{"geometry": {"type": "Point", "coordinates": [-112.0454544551, 33.5092269778]}, "type": "Feature", "properties": {"collection_times": [{"days": "Mon-Fri", "time": "2:15pm"}, {"days": "Sat-Sun", "time": "Closed"}], "id": "8501600091", "name": "USPS COLLECTION BOX - BLUE BOX", "address": {"city": "PHOENIX", "state": "AZ", "street": "1645 E CAMELBACK RD", "postcode": "85016"}}},
{"geometry": {"type": "Point", "coordinates": [-112.0187350205, 33.5099415064]}, "type": "Feature", "properties": {"collection_times": [{"days": "Mon-Fri", "time": "4:00pm"}, {"days": "Sat-Sun", "time": "Closed"}], "id": "8501600093", "name": "USPS COLLECTION BOX - BLUE BOX", "address": {"city": "PHOENIX", "state": "AZ", "street": "2930 E CAMELBACK RD", "postcode": "85016"}}},
{"geometry": {"type": "Point", "coordinates": [-112.0473902914, 33.4802650827]}, "type": "Feature", "properties": {"collection_times": [{"days": "Mon-Fri", "time": "1:00pm"}, {"days": "Sat-Sun", "time": "Closed"}], "id": "8501600095", "name": "USPS COLLECTION BOX - BLUE BOX", "address": {"city": "PHOENIX", "state": "AZ", "street": "1610 E THOMAS RD", "postcode": "85016"}}},
{"geometry": {"type": "Point", "coordinates": [-112.0333977373, 33.5057490785]}, "type": "Feature", "properties": {"collection_times": [{"days": "Mon-Fri", "time": "2:45pm"}, {"days": "Sat-Sun", "time": "Closed"}], "id": "8501600098", "name": "USPS COLLECTION BOX - BLUE BOX", "address": {"city": "PHOENIX", "state": "AZ", "street": "2222 E HIGHLAND AVE", "postcode": "85016"}}},
{"geometry": {"type": "Point", "coordinates": [-112.0385518895, 33.4008750344]}, "type": "Feature", "properties": {"collection_times": [{"days": "Mon-Sat", "time": "5:00pm"}, {"days": "Sun", "time": "Closed"}], "id": "8501600102", "name": "USPS COLLECTION BOX - APC", "address": {"city": "PHOENIX", "state": "AZ", "street": "5021 N 20TH ST", "postcode": "85016"}}},
{"geometry": {"type": "Point", "coordinates": [-112.0183161935, 33.509741565]}, "type": "Feature", "properties": {"collection_times": [{"days": "Mon-Fri", "time": "3:30pm"}, {"days": "Sat-Sun", "time": "Closed"}], "id": "8501600104", "name": "USPS COLLECTION BOX - BLUE BOX", "address": {"city": "PHOENIX", "state": "AZ", "street": "2929 E CAMELBACK RD", "postcode": "85016"}}},
{"geometry": {"type": "Point", "coordinates": [-112.0319966897, 33.5056532804]}, "type": "Feature", "properties": {"collection_times": [{"days": "Mon-Fri", "time": "5:00pm"}, {"days": "Sat-Sun", "time": "Closed"}], "id": "8501600106", "name": "USPS COLLECTION BOX - BLUE BOX", "address": {"city": "PHOENIX", "state": "AZ", "street": "6825 N 16TH ST", "postcode": "85016"}}},
{"geometry": {"type": "Point", "coordinates": [-112.1170524054, 33.5086439277]}, "type": "Feature", "properties": {"collection_times": [{"days": "Mon-Fri", "time": "5:00pm"}, {"days": "Sat", "time": "4:00pm"}, {"days": "Sun", "time": "Closed"}], "id": "8501700004", "name": "USPS COLLECTION BOX - BLUE BOX", "address": {"city": "PHOENIX", "state": "AZ", "street": "4828 N 27TH AVE", "postcode": "85017"}}},
{"geometry": {"type": "Point", "coordinates": [-112.1213169675, 33.5122838045]}, "type": "Feature", "properties": {"collection_times": [{"days": "Mon-Fri", "time": "1:45pm"}, {"days": "Sat-Sun", "time": "Closed"}], "id": "8501700008", "name": "USPS COLLECTION BOX - BLUE BOX", "address": {"city": "PHOENIX", "state": "AZ", "street": "6025 N 27TH AVE", "postcode": "85017"}}},
{"geometry": {"type": "Point", "coordinates": [-112.1193320459, 33.4876875237]}, "type": "Feature", "properties": {"collection_times": [{"days": "Mon-Fri", "time": "4:00pm"}, {"days": "Sat-Sun", "time": "Closed"}], "id": "8501700013", "name": "USPS COLLECTION BOX - BLUE BOX", "address": {"city": "PHOENIX", "state": "AZ", "street": "2801 W OSBORN RD", "postcode": "85017"}}},
{"geometry": {"type": "Point", "coordinates": [-112.1239453202, 33.4928969427]}, "type": "Feature", "properties": {"collection_times": [{"days": "Mon-Fri", "time": "4:00pm"}, {"days": "Sat-Sun", "time": "Closed"}], "id": "8501700020", "name": "USPS COLLECTION BOX - BLUE BOX", "address": {"city": "PHOENIX", "state": "AZ", "street": "3950 N 30TH AVE", "postcode": "85017"}}},
{"geometry": {"type": "Point", "coordinates": [-112.1320576979, 33.4838394955]}, "type": "Feature", "properties": {"collection_times": [{"days": "Mon-Fri", "time": "4:00pm"}, {"days": "Sat-Sun", "time": "Closed"}], "id": "8501700024", "name": "USPS COLLECTION BOX - BLUE BOX", "address": {"city": "PHOENIX", "state": "AZ", "street": "3350 W EARLL DR", "postcode": "85017"}}},
{"geometry": {"type": "Point", "coordinates": [-112.1170524054, 33.5086439277]}, "type": "Feature", "properties": {"collection_times": [{"days": "Mon-Fri", "time": "5:00pm"}, {"days": "Sat", "time": "4:00pm"}, {"days": "Sun", "time": "Closed"}], "id": "8501700036", "name": "USPS COLLECTION BOX - BLUE BOX", "address": {"city": "PHOENIX", "state": "AZ", "street": "4828 N 27TH AVE", "postcode": "85017"}}},
{"geometry": {"type": "Point", "coordinates": [-112.1170524054, 33.5086439277]}, "type": "Feature", "properties": {"collection_times": [{"days": "Mon-Fri", "time": "5:00pm"}, {"days": "Sat", "time": "4:00pm"}, {"days": "Sun", "time": "Closed"}], "id": "8501700046", "name": "USPS COLLECTION BOX - PO LOBBY", "address": {"city": "PHOENIX", "state": "AZ", "street": "4828 N 27TH AVE", "postcode": "85017"}}},
{"geometry": {"type": "Point", "coordinates": [-112.1213256578, 33.5122924488]}, "type": "Feature", "properties": {"collection_times": [{"days": "Mon-Fri", "time": "1:45pm"}, {"days": "Sat-Sun", "time": "Closed"}], "id": "8501700048", "name": "USPS COLLECTION BOX - BLUE BOX", "address": {"city": "PHOENIX", "state": "AZ", "street": "6145 N 35TH AVE", "postcode": "85017"}}},
{"geometry": {"type": "Point", "coordinates": [-112.1438967513, 33.4806041027]}, "type": "Feature", "properties": {"collection_times": [{"days": "Mon-Fri", "time": "5:00pm"}, {"days": "Sat", "time": "4:30pm"}, {"days": "Sun", "time": "Closed"}], "id": "8501800002", "name": "USPS COLLECTION BOX - BLUE BOX", "address": {"city": "PHOENIX", "state": "AZ", "street": "3920 E THOMAS RD", "postcode": "85018"}}},
{"geometry": {"type": "Point", "coordinates": [-112.1438967513, 33.4806041027]}, "type": "Feature", "properties": {"collection_times": [{"days": "Mon-Fri", "time": "5:00pm"}, {"days": "Sat", "time": "4:30pm"}, {"days": "Sun", "time": "Closed"}], "id": "8501800003", "name": "USPS COLLECTION BOX - BLUE BOX", "address": {"city": "PHOENIX", "state": "AZ", "street": "3920 E THOMAS RD", "postcode": "85018"}}},
{"geometry": {"type": "Point", "coordinates": [-112.0128513859, 33.4822837455]}, "type": "Feature", "properties": {"collection_times": [{"days": "Mon-Fri", "time": "1:30pm"}, {"days": "Sat-Sun", "time": "Closed"}], "id": "8501800008", "name": "USPS COLLECTION BOX - BLUE BOX", "address": {"city": "PHOENIX", "state": "AZ", "street": "2999 N 32ND ST", "postcode": "85018"}}},
{"geometry": {"type": "Point", "coordinates": [-112.0039976581, 33.409937683]}, "type": "Feature", "properties": {"collection_times": [{"days": "Mon-Fri", "time": "3:45pm"}, {"days": "Sat-Sun", "time": "Closed"}], "id": "8501800010", "name": "USPS COLLECTION BOX - BLUE BOX", "address": {"city": "PHOENIX", "state": "AZ", "street": "4101 N 36TH ST", "postcode": "85018"}}},
{"geometry": {"type": "Point", "coordinates": [-112.0042769276, 33.4832377536]}, "type": "Feature", "properties": {"collection_times": [{"days": "Mon-Fri", "time": "1:30pm"}, {"days": "Sat", "time": "4:00pm"}, {"days": "Sun", "time": "Closed"}], "id": "8501800011", "name": "USPS COLLECTION BOX - BLUE BOX", "address": {"city": "PHOENIX", "state": "AZ", "street": "3050 N 36TH ST", "postcode": "85018"}}},
{"geometry": {"type": "Point", "coordinates": [-111.9952851654, 33.5123381599]}, "type": "Feature", "properties": {"collection_times": [{"days": "Mon-Fri", "time": "4:45pm"}, {"days": "Sat-Sun", "time": "Closed"}], "id": "8501800020", "name": "USPS COLLECTION BOX - BLUE BOX", "address": {"city": "PHOENIX", "state": "AZ", "street": "5060 N 40TH ST", "postcode": "85018"}}},
{"geometry": {"type": "Point", "coordinates": [-111.9884772365, 33.5096682215]}, "type": "Feature", "properties": {"collection_times": [{"days": "Mon-Fri", "time": "4:15pm"}, {"days": "Sat-Sun", "time": "Closed"}], "id": "8501800029", "name": "USPS COLLECTION BOX - BLUE BOX", "address": {"city": "PHOENIX", "state": "AZ", "street": "4350 E CAMELBACK RD", "postcode": "85018"}}},
{"geometry": {"type": "Point", "coordinates": [-111.986905304, 33.4823619043]}, "type": "Feature", "properties": {"collection_times": [{"days": "Mon-Fri", "time": "4:15pm"}, {"days": "Sat-Sun", "time": "Closed"}], "id": "8501800031", "name": "USPS COLLECTION BOX - BLUE BOX", "address": {"city": "PHOENIX", "state": "AZ", "street": "2999 N 44TH ST", "postcode": "85018"}}},
{"geometry": {"type": "Point", "coordinates": [-111.9839178599, 33.5094548484]}, "type": "Feature", "properties": {"collection_times": [{"days": "Mon-Fri", "time": "5:00pm"}, {"days": "Sat", "time": "1:00pm"}, {"days": "Sun", "time": "Closed"}], "id": "8501800032", "name": "USPS COLLECTION BOX - BLUE BOX", "address": {"city": "PHOENIX", "state": "AZ", "street": "4416 E CAMELBACK RD", "postcode": "85018"}}},
{"geometry": {"type": "Point", "coordinates": [-111.9839178599, 33.5094548484]}, "type": "Feature", "properties": {"collection_times": [{"days": "Mon-Fri", "time": "5:00pm"}, {"days": "Sat", "time": "1:00pm"}, {"days": "Sun", "time": "Closed"}], "id": "8501800033", "name": "USPS COLLECTION BOX - BLUE BOX", "address": {"city": "PHOENIX", "state": "AZ", "street": "4416 E CAMELBACK RD", "postcode": "85018"}}},
{"geometry": {"type": "Point", "coordinates": [-111.9884772365, 33.5096682215]}, "type": "Feature", "properties": {"collection_times": [{"days": "Mon-Fri", "time": "4:15pm"}, {"days": "Sat-Sun", "time": "Closed"}], "id": "8501800043", "name": "USPS COLLECTION BOX - BLUE BOX", "address": {"city": "PHOENIX", "state": "AZ", "street": "4350 E CAMELBACK RD", "postcode": "85018"}}},
{"geometry": {"type": "Point", "coordinates": [-111.9970384363, 33.495067879]}, "type": "Feature", "properties": {"collection_times": [{"days": "Mon-Fri", "time": "5:00pm"}, {"days": "Sat", "time": "12:15pm"}, {"days": "Sun", "time": "Closed"}], "id": "8501800044", "name": "USPS COLLECTION BOX - BLUE BOX", "address": {"city": "PHOENIX", "state": "AZ", "street": "3923 E INDIAN SCHOOL RD", "postcode": "85018"}}},
{"geometry": {"type": "Point", "coordinates": [-111.9869819764, 33.4834100814]}, "type": "Feature", "properties": {"collection_times": [{"days": "Mon-Fri", "time": "4:15pm"}, {"days": "Sat-Sun", "time": "Closed"}], "id": "8501800048", "name": "USPS COLLECTION BOX - BLUE BOX", "address": {"city": "PHOENIX", "state": "AZ", "street": "3033 N 44TH ST", "postcode": "85018"}}},
{"geometry": {"type": "Point", "coordinates": [-111.9952851654, 33.5123381599]}, "type": "Feature", "properties": {"collection_times": [{"days": "Mon-Fri", "time": "4:45pm"}, {"days": "Sat-Sun", "time": "Closed"}], "id": "8501800049", "name": "USPS COLLECTION BOX - BLUE BOX", "address": {"city": "PHOENIX", "state": "AZ", "street": "5060 N 40TH ST", "postcode": "85018"}}},
{"geometry": {"type": "Point", "coordinates": [-112.0042247837, 33.5025921922]}, "type": "Feature", "properties": {"collection_times": [{"days": "Mon-Fri", "time": "1:45pm"}, {"days": "Sat-Sun", "time": "Closed"}], "id": "8501800052", "name": "USPS COLLECTION BOX - BLUE BOX", "address": {"city": "PHOENIX", "state": "AZ", "street": "4500 N 36TH ST", "postcode": "85018"}}},
{"geometry": {"type": "Point", "coordinates": [-111.9942259197, 33.5099498931]}, "type": "Feature", "properties": {"collection_times": [{"days": "Mon-Fri", "time": "4:30pm"}, {"days": "Sat-Sun", "time": "Closed"}], "id": "8501800053", "name": "USPS COLLECTION BOX - BLUE BOX", "address": {"city": "PHOENIX", "state": "AZ", "street": "4040 E CAMELBACK RD", "postcode": "85018"}}},
{"geometry": {"type": "Point", "coordinates": [-111.9910797729, 33.4961203383]}, "type": "Feature", "properties": {"collection_times": [{"days": "Mon-Fri", "time": "3:15pm"}, {"days": "Sat-Sun", "time": "Closed"}], "id": "8501800058", "name": "USPS COLLECTION BOX - EXPRESS", "address": {"city": "PHOENIX", "state": "AZ", "street": "3920 E THOMAS RD", "postcode": "85018"}}},
{"geometry": {"type": "Point", "coordinates": [-112.1438967513, 33.4806041027]}, "type": "Feature", "properties": {"collection_times": [{"days": "Mon-Fri", "time": "5:00pm"}, {"days": "Sat", "time": "4:30pm"}, {"days": "Sun", "time": "Closed"}], "id": "8501800060", "name": "USPS COLLECTION BOX - PO LOBBY", "address": {"city": "PHOENIX", "state": "AZ", "street": "3920 E THOMAS RD", "postcode": "85018"}}},
{"geometry": {"type": "Point", "coordinates": [-112.1314437422, 33.50933581]}, "type": "Feature", "properties": {"collection_times": [{"days": "Mon-Fri", "time": "4:00pm"}, {"days": "Sat-Sun", "time": "Closed"}], "id": "8501800063", "name": "USPS COLLECTION BOX - BLUE BOX", "address": {"city": "PHOENIX", "state": "AZ", "street": "3333 E CAMELBACK RD", "postcode": "85018"}}},
{"geometry": {"type": "Point", "coordinates": [-111.9782126903, 33.4953679045]}, "type": "Feature", "properties": {"collection_times": [{"days": "Mon-Fri", "time": "1:30pm"}, {"days": "Sat-Sun", "time": "Closed"}], "id": "8501800065", "name": "USPS COLLECTION BOX - BLUE BOX", "address": {"city": "PHOENIX", "state": "AZ", "street": "4100 N 48TH ST", "postcode": "85018"}}},
{"geometry": {"type": "Point", "coordinates": [-112.1367646917, 33.4804313907]}, "type": "Feature", "properties": {"collection_times": [{"days": "Mon-Fri", "time": "4:30pm"}, {"days": "Sat-Sun", "time": "Closed"}], "id": "8501900001", "name": "USPS COLLECTION BOX - BLUE BOX", "address": {"city": "PHOENIX", "state": "AZ", "street": "3602 W THOMAS RD", "postcode": "85019"}}},
{"geometry": {"type": "Point", "coordinates": [-112.1450972979, 33.4928207496]}, "type": "Feature", "properties": {"collection_times": [{"days": "Mon-Fri", "time": "4:30pm"}, {"days": "Sat-Sun", "time": "Closed"}], "id": "8501900016", "name": "USPS COLLECTION BOX - BLUE BOX", "address": {"city": "PHOENIX", "state": "AZ", "street": "3835 N 40TH AVE", "postcode": "85019"}}},
{"geometry": {"type": "Point", "coordinates": [-112.0651696492, 33.5743890895]}, "type": "Feature", "properties": {"collection_times": [{"days": "Mon-Fri", "time": "5:00pm"}, {"days": "Sat", "time": "4:45pm"}, {"days": "Sun", "time": "Closed"}], "id": "8502000001", "name": "USPS COLLECTION BOX - BLUE BOX", "address": {"city": "PHOENIX", "state": "AZ", "street": "9635 N 7TH ST", "postcode": "85020"}}},
{"geometry": {"type": "Point", "coordinates": [-112.0651696492, 33.5743890895]}, "type": "Feature", "properties": {"collection_times": [{"days": "Mon-Fri", "time": "5:00pm"}, {"days": "Sat", "time": "4:45pm"}, {"days": "Sun", "time": "Closed"}], "id": "8502000002", "name": "USPS COLLECTION BOX - BLUE BOX", "address": {"city": "PHOENIX", "state": "AZ", "street": "9635 N 7TH ST", "postcode": "85020"}}},
{"geometry": {"type": "Point", "coordinates": [-112.0604421012, 33.5714400466]}, "type": "Feature", "properties": {"collection_times": [{"days": "Mon-Fri", "time": "2:15pm"}, {"days": "Sat-Sun", "time": "Closed"}], "id": "8502000003", "name": "USPS COLLECTION BOX - BLUE BOX", "address": {"city": "PHOENIX", "state": "AZ", "street": "9400 N CAVE CREEK RD", "postcode": "85020"}}},
{"geometry": {"type": "Point", "coordinates": [-112.0555379973, 33.5658043562]}, "type": "Feature", "properties": {"collection_times": [{"days": "Mon-Fri", "time": "2:15pm"}, {"days": "Sat-Sun", "time": "Closed"}], "id": "8502000012", "name": "USPS COLLECTION BOX - BLUE BOX", "address": {"city": "PHOENIX", "state": "AZ", "street": "8849 N 12TH ST", "postcode": "85020"}}},
{"geometry": {"type": "Point", "coordinates": [-112.0541869186, 33.5530858175]}, "type": "Feature", "properties": {"collection_times": [{"days": "Mon-Fri", "time": "2:30pm"}, {"days": "Sat-Sun", "time": "Closed"}], "id": "8502000017", "name": "USPS COLLECTION BOX - BLUE BOX", "address": {"city": "PHOENIX", "state": "AZ", "street": "1309 E NORTHERN AVE", "postcode": "85020"}}},
{"geometry": {"type": "Point", "coordinates": [-112.0475199014, 33.5441727686]}, "type": "Feature", "properties": {"collection_times": [{"days": "Mon-Fri", "time": "4:30pm"}, {"days": "Sat-Sun", "time": "Closed"}], "id": "8502000020", "name": "USPS COLLECTION BOX - BLUE BOX", "address": {"city": "PHOENIX", "state": "AZ", "street": "7310 N 16TH ST", "postcode": "85020"}}},
{"geometry": {"type": "Point", "coordinates": [-112.0477034128, 33.5475536342]}, "type": "Feature", "properties": {"collection_times": [{"days": "Mon-Fri", "time": "4:15pm"}, {"days": "Sat-Sun", "time": "Closed"}], "id": "8502000024", "name": "USPS COLLECTION BOX - BLUE BOX", "address": {"city": "PHOENIX", "state": "AZ", "street": "7600 N 16TH ST", "postcode": "85020"}}},
{"geometry": {"type": "Point", "coordinates": [-112.0475659555, 33.5474454695]}, "type": "Feature", "properties": {"collection_times": [{"days": "Mon-Fri", "time": "2:45pm"}, {"days": "Sat-Sun", "time": "Closed"}], "id": "8502000027", "name": "USPS COLLECTION BOX - BLUE BOX", "address": {"city": "PHOENIX", "state": "AZ", "street": "7599 N 16TH ST", "postcode": "85020"}}},
{"geometry": {"type": "Point", "coordinates": [-112.0426266887, 33.545710693]}, "type": "Feature", "properties": {"collection_times": [{"days": "Mon-Fri", "time": "3:15pm"}, {"days": "Sat-Sun", "time": "Closed"}], "id": "8502000029", "name": "USPS COLLECTION BOX - BLUE BOX", "address": {"city": "PHOENIX", "state": "AZ", "street": "1800 E MORTEN AVE", "postcode": "85020"}}},
{"geometry": {"type": "Point", "coordinates": [-112.0503459007, 33.5421187083]}, "type": "Feature", "properties": {"collection_times": [{"days": "Mon-Fri", "time": "4:30pm"}, {"days": "Sat-Sun", "time": "Closed"}], "id": "8502000033", "name": "USPS COLLECTION BOX - BLUE BOX", "address": {"city": "PHOENIX", "state": "AZ", "street": "7600 N 15TH ST", "postcode": "85020"}}},
{"geometry": {"type": "Point", "coordinates": [-112.0475104378, 33.5428372079]}, "type": "Feature", "properties": {"collection_times": [{"days": "Mon-Fri", "time": "2:45pm"}, {"days": "Sat-Sun", "time": "Closed"}], "id": "8502000042", "name": "USPS COLLECTION BOX - BLUE BOX", "address": {"city": "PHOENIX", "state": "AZ", "street": "7227 N 16TH ST", "postcode": "85020"}}},
{"geometry": {"type": "Point", "coordinates": [-112.0651696492, 33.5743890895]}, "type": "Feature", "properties": {"collection_times": [{"days": "Mon-Fri", "time": "5:00pm"}, {"days": "Sat", "time": "4:45pm"}, {"days": "Sun", "time": "Closed"}], "id": "8502000045", "name": "USPS COLLECTION BOX - PO LOBBY", "address": {"city": "PHOENIX", "state": "AZ", "street": "9635 N 7TH ST", "postcode": "85020"}}},
{"geometry": {"type": "Point", "coordinates": [-112.0475199014, 33.5441727686]}, "type": "Feature", "properties": {"collection_times": [{"days": "Mon-Fri", "time": "4:30pm"}, {"days": "Sat-Sun", "time": "Closed"}], "id": "8502000046", "name": "USPS COLLECTION BOX - BLUE BOX", "address": {"city": "PHOENIX", "state": "AZ", "street": "7310 N 16TH ST", "postcode": "85020"}}},
{"geometry": {"type": "Point", "coordinates": [-112.0624145378, 33.5382674375]}, "type": "Feature", "properties": {"collection_times": [{"days": "Mon-Fri", "time": "2:15pm"}, {"days": "Sat-Sun", "time": "Closed"}], "id": "8502000048", "name": "USPS COLLECTION BOX - BLUE BOX", "address": {"city": "PHOENIX", "state": "AZ", "street": "810 E GLENDALE AVE", "postcode": "85020"}}},
{"geometry": {"type": "Point", "coordinates": [-112.0651696492, 33.5743890895]}, "type": "Feature", "properties": {"collection_times": [{"days": "Mon-Fri", "time": "5:00pm"}, {"days": "Sat", "time": "4:45pm"}, {"days": "Sun", "time": "Closed"}], "id": "8502000049", "name": "USPS COLLECTION BOX - PO LOBBY", "address": {"city": "PHOENIX", "state": "AZ", "street": "9635 N 7TH ST", "postcode": "85020"}}},
{"geometry": {"type": "Point", "coordinates": [-112.1123839074, 33.5566565346]}, "type": "Feature", "properties": {"collection_times": [{"days": "Mon-Fri", "time": "5:00pm"}, {"days": "Sat", "time": "4:30pm"}, {"days": "Sun", "time": "Closed"}], "id": "8502100001", "name": "USPS COLLECTION BOX - BLUE BOX", "address": {"city": "PHOENIX", "state": "AZ", "street": "8155 N BLACK CANYON HWY", "postcode": "85021"}}},
{"geometry": {"type": "Point", "coordinates": [-112.1123839074, 33.5566565346]}, "type": "Feature", "properties": {"collection_times": [{"days": "Mon-Fri", "time": "5:00pm"}, {"days": "Sat", "time": "4:30pm"}, {"days": "Sun", "time": "Closed"}], "id": "8502100002", "name": "USPS COLLECTION BOX - BLUE BOX", "address": {"city": "PHOENIX", "state": "AZ", "street": "8155 N BLACK CANYON HWY", "postcode": "85021"}}},
{"geometry": {"type": "Point", "coordinates": [-112.1123839074, 33.5566565346]}, "type": "Feature", "properties": {"collection_times": [{"days": "Mon-Fri", "time": "5:00pm"}, {"days": "Sat", "time": "4:30pm"}, {"days": "Sun", "time": "Closed"}], "id": "8502100003", "name": "USPS COLLECTION BOX - BLUE BOX", "address": {"city": "PHOENIX", "state": "AZ", "street": "8155 N BLACK CANYON HWY", "postcode": "85021"}}},
{"geometry": {"type": "Point", "coordinates": [-112.1123839074, 33.5566565346]}, "type": "Feature", "properties": {"collection_times": [{"days": "Mon-Fri", "time": "5:00pm"}, {"days": "Sat", "time": "4:30pm"}, {"days": "Sun", "time": "Closed"}], "id": "8502100004", "name": "USPS COLLECTION BOX - BLUE BOX", "address": {"city": "PHOENIX", "state": "AZ", "street": "8155 N BLACK CANYON HWY", "postcode": "85021"}}},
{"geometry": {"type": "Point", "coordinates": [-112.082512253, 33.5383930457]}, "type": "Feature", "properties": {"collection_times": [{"days": "Mon-Fri", "time": "2:30pm"}, {"days": "Sat-Sun", "time": "Closed"}], "id": "8502100007", "name": "USPS COLLECTION BOX - BLUE BOX", "address": {"city": "PHOENIX", "state": "AZ", "street": "7000 N 7TH AVE", "postcode": "85021"}}},
{"geometry": {"type": "Point", "coordinates": [-112.0971142731, 33.5530556075]}, "type": "Feature", "properties": {"collection_times": [{"days": "Mon-Fri", "time": "2:45pm"}, {"days": "Sat-Sun", "time": "Closed"}], "id": "8502100010", "name": "USPS COLLECTION BOX - BLUE BOX", "address": {"city": "PHOENIX", "state": "AZ", "street": "1717 W NORTHERN AVE", "postcode": "85021"}}},
{"geometry": {"type": "Point", "coordinates": [-112.0996400166, 33.5395717851]}, "type": "Feature", "properties": {"collection_times": [{"days": "Mon-Fri", "time": "2:15pm"}, {"days": "Sat-Sun", "time": "Closed"}], "id": "8502100019", "name": "USPS COLLECTION BOX - BLUE BOX", "address": {"city": "PHOENIX", "state": "AZ", "street": "7000 N 19TH AVE", "postcode": "85021"}}},
{"geometry": {"type": "Point", "coordinates": [-112.096198491, 33.5593532034]}, "type": "Feature", "properties": {"collection_times": [{"days": "Mon-Fri", "time": "4:45pm"}, {"days": "Sat-Sun", "time": "Closed"}], "id": "8502100025", "name": "USPS COLLECTION BOX - BLUE BOX", "address": {"city": "PHOENIX", "state": "AZ", "street": "2350 W MISSION LN", "postcode": "85021"}}},
{"geometry": {"type": "Point", "coordinates": [-112.096198491, 33.5593532034]}, "type": "Feature", "properties": {"collection_times": [{"days": "Mon-Fri", "time": "4:45pm"}, {"days": "Sat-Sun", "time": "Closed"}], "id": "8502100028", "name": "USPS COLLECTION BOX - BLUE BOX", "address": {"city": "PHOENIX", "state": "AZ", "street": "2440 W MISSION LN", "postcode": "85021"}}},
{"geometry": {"type": "Point", "coordinates": [-112.1134932915, 33.577861863]}, "type": "Feature", "properties": {"collection_times": [{"days": "Mon-Fri", "time": "4:30pm"}, {"days": "Sat-Sun", "time": "Closed"}], "id": "8502100032", "name": "USPS COLLECTION BOX - BLUE BOX", "address": {"city": "PHOENIX", "state": "AZ", "street": "10030 N 25TH AVE", "postcode": "85021"}}},
{"geometry": {"type": "Point", "coordinates": [-112.0996670985, 33.55494361]}, "type": "Feature", "properties": {"collection_times": [{"days": "Mon-Fri", "time": "2:45pm"}, {"days": "Sat-Sun", "time": "Closed"}], "id": "8502100043", "name": "USPS COLLECTION BOX - BLUE BOX", "address": {"city": "PHOENIX", "state": "AZ", "street": "8101 N 19TH AVE", "postcode": "85021"}}},
{"geometry": {"type": "Point", "coordinates": [-112.096198491, 33.5593532034]}, "type": "Feature", "properties": {"collection_times": [{"days": "Mon-Fri", "time": "3:00pm"}, {"days": "Sat-Sun", "time": "Closed"}], "id": "8502100052", "name": "USPS COLLECTION BOX - EXPRESS", "address": {"city": "PHOENIX", "state": "AZ", "street": "8155 N BLACK CANYON HWY", "postcode": "85021"}}},
{"geometry": {"type": "Point", "coordinates": [-112.096198491, 33.5593532034]}, "type": "Feature", "properties": {"collection_times": [{"days": "Mon-Fri", "time": "4:45pm"}, {"days": "Sat-Sun", "time": "Closed"}], "id": "8502100055", "name": "USPS COLLECTION BOX - BLUE BOX", "address": {"city": "PHOENIX", "state": "AZ", "street": "2440 W MISSION LN", "postcode": "85021"}}},
{"geometry": {"type": "Point", "coordinates": [-112.0996400166, 33.5395717851]}, "type": "Feature", "properties": {"collection_times": [{"days": "Mon-Fri", "time": "2:15pm"}, {"days": "Sat-Sun", "time": "Closed"}], "id": "8502100056", "name": "USPS COLLECTION BOX - BLUE BOX", "address": {"city": "PHOENIX", "state": "AZ", "street": "7000 N 19TH AVE", "postcode": "85021"}}},
{"geometry": {"type": "Point", "coordinates": [-112.1123839074, 33.5566565346]}, "type": "Feature", "properties": {"collection_times": [{"days": "Mon-Fri", "time": "5:00pm"}, {"days": "Sat", "time": "4:30pm"}, {"days": "Sun", "time": "Closed"}], "id": "8502100057", "name": "USPS COLLECTION BOX - APC", "address": {"city": "PHOENIX", "state": "AZ", "street": "8155 N BLACK CANYON HWY", "postcode": "85021"}}},
{"geometry": {"type": "Point", "coordinates": [-112.0346220998, 33.6148167121]}, "type": "Feature", "properties": {"collection_times": [{"days": "Mon-Fri", "time": "12:15pm"}, {"days": "Sat-Sun", "time": "Closed"}], "id": "8502200005", "name": "USPS COLLECTION BOX - BLUE BOX", "address": {"city": "PHOENIX", "state": "AZ", "street": "14040 N CAVE CREEK RD", "postcode": "85022"}}},
{"geometry": {"type": "Point", "coordinates": [-112.0655446472, 33.6271431445]}, "type": "Feature", "properties": {"collection_times": [{"days": "Mon-Fri", "time": "1:15pm"}, {"days": "Sat-Sun", "time": "Closed"}], "id": "8502200008", "name": "USPS COLLECTION BOX - BLUE BOX", "address": {"city": "PHOENIX", "state": "AZ", "street": "15440 N 7TH ST", "postcode": "85022"}}},
{"geometry": {"type": "Point", "coordinates": [-112.0657016065, 33.6377420879]}, "type": "Feature", "properties": {"collection_times": [{"days": "Mon-Fri", "time": "1:15pm"}, {"days": "Sat-Sun", "time": "Closed"}], "id": "8502200009", "name": "USPS COLLECTION BOX - BLUE BOX", "address": {"city": "PHOENIX", "state": "AZ", "street": "690 E GREENWAY PKWY", "postcode": "85022"}}},
{"geometry": {"type": "Point", "coordinates": [-112.0686465378, 33.6404180075]}, "type": "Feature", "properties": {"collection_times": [{"days": "Mon-Fri", "time": "4:00pm"}, {"days": "Sat", "time": "2:30pm"}, {"days": "Sun", "time": "Closed"}], "id": "8502200010", "name": "USPS COLLECTION BOX - BLUE BOX", "address": {"city": "PHOENIX", "state": "AZ", "street": "420 E BELL RD", "postcode": "85022"}}},
{"geometry": {"type": "Point", "coordinates": [-112.0655458301, 33.6510199882]}, "type": "Feature", "properties": {"collection_times": [{"days": "Mon-Fri", "time": "2:00pm"}, {"days": "Sat", "time": "1:45pm"}, {"days": "Sun", "time": "Closed"}], "id": "8502200013", "name": "USPS COLLECTION BOX - BLUE BOX", "address": {"city": "PHOENIX", "state": "AZ", "street": "18030 N 7TH ST", "postcode": "85022"}}},
{"geometry": {"type": "Point", "coordinates": [-112.0652429926, 33.6070825264]}, "type": "Feature", "properties": {"collection_times": [{"days": "Mon-Fri", "time": "1:00pm"}, {"days": "Sat-Sun", "time": "Closed"}], "id": "8502200014", "name": "USPS COLLECTION BOX - BLUE BOX", "address": {"city": "PHOENIX", "state": "AZ", "street": "13240 N 7TH ST", "postcode": "85022"}}},
{"geometry": {"type": "Point", "coordinates": [-112.047800129, 33.64029266]}, "type": "Feature", "properties": {"collection_times": [{"days": "Mon-Fri", "time": "2:00pm"}, {"days": "Sat-Sun", "time": "Closed"}], "id": "8502200019", "name": "USPS COLLECTION BOX - BLUE BOX", "address": {"city": "PHOENIX", "state": "AZ", "street": "1605 E BELL RD", "postcode": "85022"}}},
{"geometry": {"type": "Point", "coordinates": [-112.0655895996, 33.636121803]}, "type": "Feature", "properties": {"collection_times": [{"days": "Mon-Fri", "time": "1:00pm"}, {"days": "Sat", "time": "1:45pm"}, {"days": "Sun", "time": "Closed"}], "id": "8502200020", "name": "USPS COLLECTION BOX - BLUE BOX", "address": {"city": "PHOENIX", "state": "AZ", "street": "16220 N 7TH ST", "postcode": "85022"}}},
{"geometry": {"type": "Point", "coordinates": [-112.0542733333, 33.6059554442]}, "type": "Feature", "properties": {"collection_times": [{"days": "Mon-Fri", "time": "12:30pm"}, {"days": "Sat", "time": "1:45pm"}, {"days": "Sun", "time": "Closed"}], "id": "8502200021", "name": "USPS COLLECTION BOX - BLUE BOX", "address": {"city": "PHOENIX", "state": "AZ", "street": "13074 N POINTE GOLF CLUB DR", "postcode": "85022"}}},
{"geometry": {"type": "Point", "coordinates": [-112.0643356631, 33.6403840042]}, "type": "Feature", "properties": {"collection_times": [{"days": "Mon-Fri", "time": "4:00pm"}, {"days": "Sat-Sun", "time": "Closed"}], "id": "8502200024", "name": "USPS COLLECTION BOX - BLUE BOX", "address": {"city": "PHOENIX", "state": "AZ", "street": "702 E BELL RD", "postcode": "85022"}}},
{"geometry": {"type": "Point", "coordinates": [-112.0375238023, 33.5979847589]}, "type": "Feature", "properties": {"collection_times": [{"days": "Mon-Fri", "time": "12:15pm"}, {"days": "Sat-Sun", "time": "Closed"}], "id": "8502200025", "name": "USPS COLLECTION BOX - BLUE BOX", "address": {"city": "PHOENIX", "state": "AZ", "street": "12228 N CAVE CREEK RD", "postcode": "85022"}}},
{"geometry": {"type": "Point", "coordinates": [-112.110607103, 33.6109508022]}, "type": "Feature", "properties": {"collection_times": [{"days": "Mon-Fri", "time": "1:30pm"}, {"days": "Sat-Sun", "time": "Closed"}], "id": "8502300004", "name": "USPS COLLECTION BOX - BLUE BOX", "address": {"city": "PHOENIX", "state": "AZ", "street": "2510 W THUNDERBIRD RD", "postcode": "85023"}}},
{"geometry": {"type": "Point", "coordinates": [-112.1131114272, 33.6252906308]}, "type": "Feature", "properties": {"collection_times": [{"days": "Mon-Fri", "time": "1:45pm"}, {"days": "Sat-Sun", "time": "Closed"}], "id": "8502300027", "name": "USPS COLLECTION BOX - BLUE BOX", "address": {"city": "PHOENIX", "state": "AZ", "street": "2525 W GREENWAY RD", "postcode": "85023"}}},
{"geometry": {"type": "Point", "coordinates": [-112.0821510251, 33.6402964652]}, "type": "Feature", "properties": {"collection_times": [{"days": "Mon-Fri", "time": "1:30pm"}, {"days": "Sat-Sun", "time": "Closed"}], "id": "8502300031", "name": "USPS COLLECTION BOX - BLUE BOX", "address": {"city": "PHOENIX", "state": "AZ", "street": "660 W BELL RD", "postcode": "85023"}}},
{"geometry": {"type": "Point", "coordinates": [-112.0823473963, 33.6546741485]}, "type": "Feature", "properties": {"collection_times": [{"days": "Mon-Fri", "time": "1:30pm"}, {"days": "Sat-Sun", "time": "Closed"}], "id": "8502300032", "name": "USPS COLLECTION BOX - BLUE BOX", "address": {"city": "PHOENIX", "state": "AZ", "street": "626 W UNION HILLS DR", "postcode": "85023"}}},
{"geometry": {"type": "Point", "coordinates": [-112.1114611994, 33.6339510733]}, "type": "Feature", "properties": {"collection_times": [{"days": "Mon-Fri", "time": "2:45pm"}, {"days": "Sat-Sun", "time": "Closed"}], "id": "8502300033", "name": "USPS COLLECTION BOX - BLUE BOX", "address": {"city": "PHOENIX", "state": "AZ", "street": "2501 W GRANDVIEW RD", "postcode": "85023"}}},
{"geometry": {"type": "Point", "coordinates": [-112.0656037951, 33.660310948]}, "type": "Feature", "properties": {"collection_times": [{"days": "Mon-Sat", "time": "1:45pm"}, {"days": "Sun", "time": "Closed"}], "id": "8502400001", "name": "USPS COLLECTION BOX - BLUE BOX", "address": {"city": "PHOENIX", "state": "AZ", "street": "19401 N 7TH ST", "postcode": "85024"}}},
{"geometry": {"type": "Point", "coordinates": [-112.0309666226, 33.6916575274]}, "type": "Feature", "properties": {"collection_times": [{"days": "Mon-Sat", "time": "2:15pm"}, {"days": "Sun", "time": "Closed"}], "id": "8502400012", "name": "USPS COLLECTION BOX - BLUE BOX", "address": {"city": "PHOENIX", "state": "AZ", "street": "22600 N CAVE CREEK RD", "postcode": "85024"}}},
{"geometry": {"type": "Point", "coordinates": [-112.0657133715, 33.6706532224]}, "type": "Feature", "properties": {"collection_times": [{"days": "Mon-Fri", "time": "1:45pm"}, {"days": "Sat-Sun", "time": "Closed"}], "id": "8502400015", "name": "USPS COLLECTION BOX - BLUE BOX", "address": {"city": "PHOENIX", "state": "AZ", "street": "20190 N 7TH ST", "postcode": "85024"}}},
{"geometry": {"type": "Point", "coordinates": [-111.9761673655, 33.451075081]}, "type": "Feature", "properties": {"collection_times": [{"days": "Mon-Sat", "time": "9:00pm"}, {"days": "Sun", "time": "Closed"}], "id": "8502600000", "name": "USPS COLLECTION BOX - BLUE BOX", "address": {"city": "PHOENIX", "state": "AZ", "street": "4949 E VAN BUREN ST", "postcode": "85026"}}},
{"geometry": {"type": "Point", "coordinates": [-111.9761673655, 33.451075081]}, "type": "Feature", "properties": {"collection_times": [{"days": "Mon-Sat", "time": "9:00pm"}, {"days": "Sun", "time": "Closed"}], "id": "8502600001", "name": "USPS COLLECTION BOX - BLUE BOX", "address": {"city": "PHOENIX", "state": "AZ", "street": "4949 E VAN BUREN ST", "postcode": "85026"}}},
{"geometry": {"type": "Point", "coordinates": [-111.9761673655, 33.451075081]}, "type": "Feature", "properties": {"collection_times": [{"days": "Mon-Sat", "time": "9:00pm"}, {"days": "Sun", "time": "Closed"}], "id": "8502600002", "name": "USPS COLLECTION BOX - BLUE BOX", "address": {"city": "PHOENIX", "state": "AZ", "street": "4949 E VAN BUREN ST", "postcode": "85026"}}},
{"geometry": {"type": "Point", "coordinates": [-111.9761673655, 33.451075081]}, "type": "Feature", "properties": {"collection_times": [{"days": "Mon-Sat", "time": "9:00pm"}, {"days": "Sun", "time": "Closed"}], "id": "8502600003", "name": "USPS COLLECTION BOX - BLUE BOX", "address": {"city": "PHOENIX", "state": "AZ", "street": "4949 E VAN BUREN ST", "postcode": "85026"}}},
{"geometry": {"type": "Point", "coordinates": [-111.9761673655, 33.451075081]}, "type": "Feature", "properties": {"collection_times": [{"days": "Mon-Sat", "time": "9:00pm"}, {"days": "Sun", "time": "Closed"}], "id": "8502600008", "name": "USPS COLLECTION BOX - BLUE BOX", "address": {"city": "PHOENIX", "state": "AZ", "street": "4949 E VAN BUREN ST", "postcode": "85026"}}},
{"geometry": {"type": "Point", "coordinates": [-111.9761673655, 33.451075081]}, "type": "Feature", "properties": {"collection_times": [{"days": "Mon-Sat", "time": "9:00pm"}, {"days": "Sun", "time": "Closed"}], "id": "8502600010", "name": "USPS COLLECTION BOX - APC", "address": {"city": "PHOENIX", "state": "AZ", "street": "4949 E VAN BUREN ST", "postcode": "85026"}}},
{"geometry": {"type": "Point", "coordinates": [-112.0394533042, 33.6666480591]}, "type": "Feature", "properties": {"collection_times": [{"days": "Mon-Fri", "time": "3:45pm"}, {"days": "Sat-Sun", "time": "Closed"}], "id": "8502700001", "name": "USPS COLLECTION BOX - BLUE BOX", "address": {"city": "PHOENIX", "state": "AZ", "street": "2001 W WAHALLA LN", "postcode": "85027"}}},
{"geometry": {"type": "Point", "coordinates": [-112.0998334991, 33.6547822312]}, "type": "Feature", "properties": {"collection_times": [{"days": "Mon-Sat", "time": "5:00pm"}, {"days": "Sun", "time": "Closed"}], "id": "8502700002", "name": "USPS COLLECTION BOX - BLUE BOX", "address": {"city": "PHOENIX", "state": "AZ", "street": "1902 W UNION HILLS DR", "postcode": "85027"}}},
{"geometry": {"type": "Point", "coordinates": [-112.0998334991, 33.6547822312]}, "type": "Feature", "properties": {"collection_times": [{"days": "Mon-Sat", "time": "5:00pm"}, {"days": "Sun", "time": "Closed"}], "id": "8502700003", "name": "USPS COLLECTION BOX - BLUE BOX", "address": {"city": "PHOENIX", "state": "AZ", "street": "1902 W UNION HILLS DR", "postcode": "85027"}}},
{"geometry": {"type": "Point", "coordinates": [-112.0989996514, 33.6765428635]}, "type": "Feature", "properties": {"collection_times": [{"days": "Mon-Fri", "time": "3:30pm"}, {"days": "Sat-Sun", "time": "Closed"}], "id": "8502700009", "name": "USPS COLLECTION BOX - BLUE BOX", "address": {"city": "PHOENIX", "state": "AZ", "street": "1860 W ROSE GARDEN LN", "postcode": "85027"}}},
{"geometry": {"type": "Point", "coordinates": [-112.0999232409, 33.6824598344]}, "type": "Feature", "properties": {"collection_times": [{"days": "Mon-Fri", "time": "3:00pm"}, {"days": "Sat-Sun", "time": "Closed"}], "id": "8502700010", "name": "USPS COLLECTION BOX - BLUE BOX", "address": {"city": "PHOENIX", "state": "AZ", "street": "21620 N 19TH AVE", "postcode": "85027"}}},
{"geometry": {"type": "Point", "coordinates": [-112.1086342047, 33.665788883]}, "type": "Feature", "properties": {"collection_times": [{"days": "Mon-Fri", "time": "2:45pm"}, {"days": "Sat-Sun", "time": "Closed"}], "id": "8502700014", "name": "USPS COLLECTION BOX - BLUE BOX", "address": {"city": "PHOENIX", "state": "AZ", "street": "2301 W BEHREND DR", "postcode": "85027"}}},
{"geometry": {"type": "Point", "coordinates": [-112.1171602322, 33.6664501657]}, "type": "Feature", "properties": {"collection_times": [{"days": "Mon-Fri", "time": "2:30pm"}, {"days": "Sat-Sun", "time": "Closed"}], "id": "8502700015", "name": "USPS COLLECTION BOX - BLUE BOX", "address": {"city": "PHOENIX", "state": "AZ", "street": "19829 N 27TH AVE", "postcode": "85027"}}},
{"geometry": {"type": "Point", "coordinates": [-112.1054881128, 33.6728708171]}, "type": "Feature", "properties": {"collection_times": [{"days": "Mon-Fri", "time": "3:00pm"}, {"days": "Sat-Sun", "time": "Closed"}], "id": "8502700026", "name": "USPS COLLECTION BOX - EXPRESS", "address": {"city": "PHOENIX", "state": "AZ", "street": "1902 W UNION HILLS DR", "postcode": "85027"}}},
{"geometry": {"type": "Point", "coordinates": [-112.0998334991, 33.6547822312]}, "type": "Feature", "properties": {"collection_times": [{"days": "Mon-Sat", "time": "5:00pm"}, {"days": "Sun", "time": "Closed"}], "id": "8502700027", "name": "USPS COLLECTION BOX - PO LOBBY", "address": {"city": "PHOENIX", "state": "AZ", "street": "1902 W UNION HILLS DR", "postcode": "85027"}}},
{"geometry": {"type": "Point", "coordinates": [-112.0828631664, 33.6702667306]}, "type": "Feature", "properties": {"collection_times": [{"days": "Mon-Fri", "time": "1:45pm"}, {"days": "Sat-Sun", "time": "Closed"}], "id": "8502700028", "name": "USPS COLLECTION BOX - BLUE BOX", "address": {"city": "PHOENIX", "state": "AZ", "street": "20202 N 7TH AVE", "postcode": "85027"}}},
{"geometry": {"type": "Point", "coordinates": [-112.1178562756, 33.683834087]}, "type": "Feature", "properties": {"collection_times": [{"days": "Mon-Fri", "time": "2:30pm"}, {"days": "Sat-Sun", "time": "Closed"}], "id": "8502700029", "name": "USPS COLLECTION BOX - BLUE BOX", "address": {"city": "PHOENIX", "state": "AZ", "street": "2702 W DEER VALLEY RD", "postcode": "85027"}}},
{"geometry": {"type": "Point", "coordinates": [-112.1171390584, 33.6749823163]}, "type": "Feature", "properties": {"collection_times": [{"days": "Mon-Fri", "time": "2:30pm"}, {"days": "Sat-Sun", "time": "Closed"}], "id": "8502700030", "name": "USPS COLLECTION BOX - BLUE BOX", "address": {"city": "PHOENIX", "state": "AZ", "street": "20801 N 27TH AVE", "postcode": "85027"}}},
{"geometry": {"type": "Point", "coordinates": [-112.1330667619, 33.6838506484]}, "type": "Feature", "properties": {"collection_times": [{"days": "Mon-Fri", "time": "2:30pm"}, {"days": "Sat-Sun", "time": "Closed"}], "id": "8502700032", "name": "USPS COLLECTION BOX - BLUE BOX", "address": {"city": "PHOENIX", "state": "AZ", "street": "3435 W DEER VALLEY RD", "postcode": "85027"}}},
{"geometry": {"type": "Point", "coordinates": [-112.0998334991, 33.6547822312]}, "type": "Feature", "properties": {"collection_times": [{"days": "Mon-Sat", "time": "5:00pm"}, {"days": "Sun", "time": "Closed"}], "id": "8502700034", "name": "USPS COLLECTION BOX - APC", "address": {"city": "PHOENIX", "state": "AZ", "street": "1902 W UNION HILLS DR", "postcode": "85027"}}},
{"geometry": {"type": "Point", "coordinates": [-112.1116903428, 33.6797335351]}, "type": "Feature", "properties": {"collection_times": [{"days": "Mon-Fri", "time": "3:00pm"}, {"days": "Sat-Sun", "time": "Closed"}], "id": "8502700036", "name": "USPS COLLECTION BOX - BLUE BOX", "address": {"city": "PHOENIX", "state": "AZ", "street": "2411 W LONE CACTUS DR", "postcode": "85027"}}},
{"geometry": {"type": "Point", "coordinates": [-111.9777259578, 33.5882163163]}, "type": "Feature", "properties": {"collection_times": [{"days": "Mon-Fri", "time": "3:30pm"}, {"days": "Sat-Sun", "time": "Closed"}], "id": "8502800003", "name": "USPS COLLECTION BOX - BLUE BOX", "address": {"city": "PHOENIX", "state": "AZ", "street": "11209 N TATUM BLVD", "postcode": "85028"}}},
{"geometry": {"type": "Point", "coordinates": [-111.9793932946, 33.593226528]}, "type": "Feature", "properties": {"collection_times": [{"days": "Mon-Fri", "time": "3:45pm"}, {"days": "Sat-Sun", "time": "Closed"}], "id": "8502800006", "name": "USPS COLLECTION BOX - BLUE BOX", "address": {"city": "PHOENIX", "state": "AZ", "street": "11801 N TATUM BLVD", "postcode": "85028"}}},
{"geometry": {"type": "Point", "coordinates": [-112.0126076351, 33.5825335465]}, "type": "Feature", "properties": {"collection_times": [{"days": "Mon-Fri", "time": "4:30pm"}, {"days": "Sat", "time": "3:45pm"}, {"days": "Sun", "time": "Closed"}], "id": "8502800008", "name": "USPS COLLECTION BOX - BLUE BOX", "address": {"city": "PHOENIX", "state": "AZ", "street": "3226 E SHEA BLVD", "postcode": "85028"}}},
{"geometry": {"type": "Point", "coordinates": [-112.0081983454, 33.5826011906]}, "type": "Feature", "properties": {"collection_times": [{"days": "Mon-Fri", "time": "4:15pm"}, {"days": "Sat-Sun", "time": "Closed"}], "id": "8502800011", "name": "USPS COLLECTION BOX - BLUE BOX", "address": {"city": "PHOENIX", "state": "AZ", "street": "3420 E SHEA BLVD", "postcode": "85028"}}},
{"geometry": {"type": "Point", "coordinates": [-112.0064778357, 33.582520612]}, "type": "Feature", "properties": {"collection_times": [{"days": "Mon-Fri", "time": "2:30pm"}, {"days": "Sat-Sun", "time": "Closed"}], "id": "8502800013", "name": "USPS COLLECTION BOX - BLUE BOX", "address": {"city": "PHOENIX", "state": "AZ", "street": "3519 E SHEA BLVD", "postcode": "85028"}}},
{"geometry": {"type": "Point", "coordinates": [-111.9826913842, 33.5825751655]}, "type": "Feature", "properties": {"collection_times": [{"days": "Mon-Fri", "time": "2:45pm"}, {"days": "Sat-Sun", "time": "Closed"}], "id": "8502800014", "name": "USPS COLLECTION BOX - BLUE BOX", "address": {"city": "PHOENIX", "state": "AZ", "street": "4545 E SHEA BLVD", "postcode": "85028"}}},
{"geometry": {"type": "Point", "coordinates": [-111.9826913842, 33.5825751655]}, "type": "Feature", "properties": {"collection_times": [{"days": "Mon-Fri", "time": "2:45pm"}, {"days": "Sat-Sun", "time": "Closed"}], "id": "8502800015", "name": "USPS COLLECTION BOX - BLUE BOX", "address": {"city": "PHOENIX", "state": "AZ", "street": "4545 E SHEA BLVD", "postcode": "85028"}}},
{"geometry": {"type": "Point", "coordinates": [-111.9790691639, 33.5826118372]}, "type": "Feature", "properties": {"collection_times": [{"days": "Mon-Fri", "time": "3:00pm"}, {"days": "Sat", "time": "1:00pm"}, {"days": "Sun", "time": "Closed"}], "id": "8502800018", "name": "USPS COLLECTION BOX - BLUE BOX", "address": {"city": "PHOENIX", "state": "AZ", "street": "4707 E SHEA BLVD", "postcode": "85028"}}},
{"geometry": {"type": "Point", "coordinates": [-111.9777259578, 33.5882163163]}, "type": "Feature", "properties": {"collection_times": [{"days": "Mon-Fri", "time": "3:30pm"}, {"days": "Sat-Sun", "time": "Closed"}], "id": "8502800020", "name": "USPS COLLECTION BOX - BLUE BOX", "address": {"city": "PHOENIX", "state": "AZ", "street": "11209 N TATUM BLVD", "postcode": "85028"}}},
{"geometry": {"type": "Point", "coordinates": [-111.9778708264, 33.5801997839]}, "type": "Feature", "properties": {"collection_times": [{"days": "Mon-Fri", "time": "3:00pm"}, {"days": "Sat-Sun", "time": "Closed"}], "id": "8502800021", "name": "USPS COLLECTION BOX - BLUE BOX", "address": {"city": "PHOENIX", "state": "AZ", "street": "10214 N TATUM BLVD", "postcode": "85028"}}},
{"geometry": {"type": "Point", "coordinates": [-112.0195488367, 33.5740176403]}, "type": "Feature", "properties": {"collection_times": [{"days": "Mon-Fri", "time": "1:30pm"}, {"days": "Sat-Sun", "time": "Closed"}], "id": "8502800023", "name": "USPS COLLECTION BOX - BLUE BOX", "address": {"city": "PHOENIX", "state": "AZ", "street": "2960 E NORTHERN AVE", "postcode": "85028"}}},
{"geometry": {"type": "Point", "coordinates": [-111.9790691639, 33.5826118372]}, "type": "Feature", "properties": {"collection_times": [{"days": "Mon-Fri", "time": "3:00pm"}, {"days": "Sat", "time": "1:00pm"}, {"days": "Sun", "time": "Closed"}], "id": "8502800026", "name": "USPS COLLECTION BOX - BLUE BOX", "address": {"city": "PHOENIX", "state": "AZ", "street": "4707 E SHEA BLVD", "postcode": "85028"}}},
{"geometry": {"type": "Point", "coordinates": [-111.9777378513, 33.5831238732]}, "type": "Feature", "properties": {"collection_times": [{"days": "Mon-Fri", "time": "3:00pm"}, {"days": "Sat", "time": "1:15pm"}, {"days": "Sun", "time": "Closed"}], "id": "8502800027", "name": "USPS COLLECTION BOX - BLUE BOX", "address": {"city": "PHOENIX", "state": "AZ", "street": "10665 N TATUM BLVD", "postcode": "85028"}}},
{"geometry": {"type": "Point", "coordinates": [-112.0996846211, 33.597375919]}, "type": "Feature", "properties": {"collection_times": [{"days": "Mon-Fri", "time": "5:00pm"}, {"days": "Sat", "time": "4:00pm"}, {"days": "Sun", "time": "Closed"}], "id": "8502900001", "name": "USPS COLLECTION BOX - BLUE BOX", "address": {"city": "PHOENIX", "state": "AZ", "street": "12208 N 19TH AVE", "postcode": "85029"}}},
{"geometry": {"type": "Point", "coordinates": [-112.0996846211, 33.597375919]}, "type": "Feature", "properties": {"collection_times": [{"days": "Mon-Fri", "time": "5:00pm"}, {"days": "Sat", "time": "4:00pm"}, {"days": "Sun", "time": "Closed"}], "id": "8502900002", "name": "USPS COLLECTION BOX - BLUE BOX", "address": {"city": "PHOENIX", "state": "AZ", "street": "12208 N 19TH AVE", "postcode": "85029"}}},
{"geometry": {"type": "Point", "coordinates": [-112.1171181092, 33.6048242577]}, "type": "Feature", "properties": {"collection_times": [{"days": "Mon-Fri", "time": "2:30pm"}, {"days": "Sat-Sun", "time": "Closed"}], "id": "8502900006", "name": "USPS COLLECTION BOX - BLUE BOX", "address": {"city": "PHOENIX", "state": "AZ", "street": "13430 N BLACK CANYON HWY", "postcode": "85029"}}},
{"geometry": {"type": "Point", "coordinates": [-112.1110662439, 33.5858644405]}, "type": "Feature", "properties": {"collection_times": [{"days": "Mon-Fri", "time": "4:15pm"}, {"days": "Sat-Sun", "time": "Closed"}], "id": "8502900012", "name": "USPS COLLECTION BOX - BLUE BOX", "address": {"city": "PHOENIX", "state": "AZ", "street": "10900 N 24TH AVE", "postcode": "85029"}}},
{"geometry": {"type": "Point", "coordinates": [-112.111011675, 33.5819718564]}, "type": "Feature", "properties": {"collection_times": [{"days": "Mon-Fri", "time": "4:30pm"}, {"days": "Sat-Sun", "time": "Closed"}], "id": "8502900013", "name": "USPS COLLECTION BOX - BLUE BOX", "address": {"city": "PHOENIX", "state": "AZ", "street": "2432 W PEORIA AVE", "postcode": "85029"}}},
{"geometry": {"type": "Point", "coordinates": [-112.1214787389, 33.5881672748]}, "type": "Feature", "properties": {"collection_times": [{"days": "Mon-Fri", "time": "3:45pm"}, {"days": "Sat-Sun", "time": "Closed"}], "id": "8502900017", "name": "USPS COLLECTION BOX - BLUE BOX", "address": {"city": "PHOENIX", "state": "AZ", "street": "11024 N 28TH DR", "postcode": "85029"}}},
{"geometry": {"type": "Point", "coordinates": [-112.1272300154, 33.5818333677]}, "type": "Feature", "properties": {"collection_times": [{"days": "Mon-Fri", "time": "3:30pm"}, {"days": "Sat-Sun", "time": "Closed"}], "id": "8502900023", "name": "USPS COLLECTION BOX - BLUE BOX", "address": {"city": "PHOENIX", "state": "AZ", "street": "3131 W PEORIA AVE", "postcode": "85029"}}},
{"geometry": {"type": "Point", "coordinates": [-112.1345963279, 33.5820262725]}, "type": "Feature", "properties": {"collection_times": [{"days": "Mon-Fri", "time": "4:00pm"}, {"days": "Sat", "time": "3:15pm"}, {"days": "Sun", "time": "Closed"}], "id": "8502900025", "name": "USPS COLLECTION BOX - BLUE BOX", "address": {"city": "PHOENIX", "state": "AZ", "street": "3502 W PEORIA AVE", "postcode": "85029"}}},
{"geometry": {"type": "Point", "coordinates": [-112.1501818122, 33.5963471738]}, "type": "Feature", "properties": {"collection_times": [{"days": "Mon-Fri", "time": "4:30pm"}, {"days": "Sat", "time": "3:15pm"}, {"days": "Sun", "time": "Closed"}], "id": "8502900031", "name": "USPS COLLECTION BOX - BLUE BOX", "address": {"city": "PHOENIX", "state": "AZ", "street": "4202 W CACTUS RD", "postcode": "85029"}}},
{"geometry": {"type": "Point", "coordinates": [-112.1206587054, 33.589161881]}, "type": "Feature", "properties": {"collection_times": [{"days": "Mon-Fri", "time": "3:45pm"}, {"days": "Sat-Sun", "time": "Closed"}], "id": "8502900034", "name": "USPS COLLECTION BOX - BLUE BOX", "address": {"city": "PHOENIX", "state": "AZ", "street": "11225 N 28TH DR", "postcode": "85029"}}},
{"geometry": {"type": "Point", "coordinates": [-112.1206587054, 33.589161881]}, "type": "Feature", "properties": {"collection_times": [{"days": "Mon-Fri", "time": "3:45pm"}, {"days": "Sat-Sun", "time": "Closed"}], "id": "8502900037", "name": "USPS COLLECTION BOX - BLUE BOX", "address": {"city": "PHOENIX", "state": "AZ", "street": "11225 N 28TH DR", "postcode": "85029"}}},
{"geometry": {"type": "Point", "coordinates": [-112.1306700871, 33.581868939]}, "type": "Feature", "properties": {"collection_times": [{"days": "Mon-Fri", "time": "3:30pm"}, {"days": "Sat-Sun", "time": "Closed"}], "id": "8502900038", "name": "USPS COLLECTION BOX - BLUE BOX", "address": {"city": "PHOENIX", "state": "AZ", "street": "3233 W PEORIA AVE", "postcode": "85029"}}},
{"geometry": {"type": "Point", "coordinates": [-112.111011675, 33.5819718564]}, "type": "Feature", "properties": {"collection_times": [{"days": "Mon-Fri", "time": "4:30pm"}, {"days": "Sat-Sun", "time": "Closed"}], "id": "8502900041", "name": "USPS COLLECTION BOX - BLUE BOX", "address": {"city": "PHOENIX", "state": "AZ", "street": "2432 W PEORIA AVE", "postcode": "85029"}}},
{"geometry": {"type": "Point", "coordinates": [-112.1197997191, 33.6001101313]}, "type": "Feature", "properties": {"collection_times": [{"days": "Mon-Fri", "time": "2:30pm"}, {"days": "Sat-Sun", "time": "Closed"}], "id": "8502900045", "name": "USPS COLLECTION BOX - BLUE BOX", "address": {"city": "PHOENIX", "state": "AZ", "street": "12600 N 28TH DR", "postcode": "85029"}}},
{"geometry": {"type": "Point", "coordinates": [-112.0996846211, 33.597375919]}, "type": "Feature", "properties": {"collection_times": [{"days": "Mon-Fri", "time": "5:30pm"}, {"days": "Sat", "time": "4:00pm"}, {"days": "Sun", "time": "Closed"}], "id": "8502900049", "name": "USPS COLLECTION BOX - PO LOBBY", "address": {"city": "PHOENIX", "state": "AZ", "street": "12208 N 19TH AVE", "postcode": "85029"}}},
{"geometry": {"type": "Point", "coordinates": [-112.1501818122, 33.5963471738]}, "type": "Feature", "properties": {"collection_times": [{"days": "Mon-Fri", "time": "4:30pm"}, {"days": "Sat", "time": "3:15pm"}, {"days": "Sun", "time": "Closed"}], "id": "8502900050", "name": "USPS COLLECTION BOX - BLUE BOX", "address": {"city": "PHOENIX", "state": "AZ", "street": "4202 W CACTUS RD", "postcode": "85029"}}},
{"geometry": {"type": "Point", "coordinates": [-112.1732412313, 33.5009722902]}, "type": "Feature", "properties": {"collection_times": [{"days": "Mon-Sat", "time": "5:00pm"}, {"days": "Sun", "time": "Closed"}], "id": "8503100001", "name": "USPS COLLECTION BOX - BLUE BOX", "address": {"city": "PHOENIX", "state": "AZ", "street": "4415 N MARYVALE PKWY", "postcode": "85031"}}},
{"geometry": {"type": "Point", "coordinates": [-112.1732412313, 33.5009722902]}, "type": "Feature", "properties": {"collection_times": [{"days": "Mon-Sat", "time": "5:00pm"}, {"days": "Sun", "time": "Closed"}], "id": "8503100002", "name": "USPS COLLECTION BOX - BLUE BOX", "address": {"city": "PHOENIX", "state": "AZ", "street": "4415 N MARYVALE PKWY", "postcode": "85031"}}},
{"geometry": {"type": "Point", "coordinates": [-112.1535104961, 33.4805079741]}, "type": "Feature", "properties": {"collection_times": [{"days": "Mon-Fri", "time": "2:45pm"}, {"days": "Sat-Sun", "time": "Closed"}], "id": "8503100004", "name": "USPS COLLECTION BOX - BLUE BOX", "address": {"city": "PHOENIX", "state": "AZ", "street": "4338 W THOMAS RD", "postcode": "85031"}}},
{"geometry": {"type": "Point", "coordinates": [-112.173593227, 33.5003555206]}, "type": "Feature", "properties": {"collection_times": [{"days": "Mon-Sat", "time": "5:00pm"}, {"days": "Sun", "time": "Closed"}], "id": "8503100021", "name": "USPS COLLECTION BOX - EXPRESS", "address": {"city": "PHOENIX", "state": "AZ", "street": "4415 N MARYVALE PKWY", "postcode": "85031"}}},
{"geometry": {"type": "Point", "coordinates": [-112.1732412313, 33.5009722902]}, "type": "Feature", "properties": {"collection_times": [{"days": "Mon-Sat", "time": "5:00pm"}, {"days": "Sun", "time": "Closed"}], "id": "8503100022", "name": "USPS COLLECTION BOX - PO LOBBY", "address": {"city": "PHOENIX", "state": "AZ", "street": "4415 N MARYVALE PKWY", "postcode": "85031"}}},
{"geometry": {"type": "Point", "coordinates": [-112.019861928, 33.6261912725]}, "type": "Feature", "properties": {"collection_times": [{"days": "Mon-Fri", "time": "5:15pm"}, {"days": "Sat", "time": "4:15pm"}, {"days": "Sun", "time": "Closed"}], "id": "8503200001", "name": "USPS COLLECTION BOX - BLUE BOX", "address": {"city": "PHOENIX", "state": "AZ", "street": "2901 E GREENWAY RD", "postcode": "85032"}}},
{"geometry": {"type": "Point", "coordinates": [-112.019861928, 33.6261912725]}, "type": "Feature", "properties": {"collection_times": [{"days": "Mon-Fri", "time": "5:15pm"}, {"days": "Sat", "time": "4:15pm"}, {"days": "Sun", "time": "Closed"}], "id": "8503200003", "name": "USPS COLLECTION BOX - BLUE BOX", "address": {"city": "PHOENIX", "state": "AZ", "street": "2901 E GREENWAY RD", "postcode": "85032"}}},
{"geometry": {"type": "Point", "coordinates": [-112.0125288465, 33.6407344402]}, "type": "Feature", "properties": {"collection_times": [{"days": "Mon-Fri", "time": "2:30pm"}, {"days": "Sat", "time": "1:45pm"}, {"days": "Sun", "time": "Closed"}], "id": "8503200006", "name": "USPS COLLECTION BOX - BLUE BOX", "address": {"city": "PHOENIX", "state": "AZ", "street": "3246 E BELL RD", "postcode": "85032"}}},
{"geometry": {"type": "Point", "coordinates": [-112.0135595155, 33.6519663554]}, "type": "Feature", "properties": {"collection_times": [{"days": "Mon-Fri", "time": "2:30pm"}, {"days": "Sat-Sun", "time": "Closed"}], "id": "8503200008", "name": "USPS COLLECTION BOX - BLUE BOX", "address": {"city": "PHOENIX", "state": "AZ", "street": "18401 N 32ND ST", "postcode": "85032"}}},
{"geometry": {"type": "Point", "coordinates": [-111.9961009867, 33.6265323843]}, "type": "Feature", "properties": {"collection_times": [{"days": "Mon-Fri", "time": "4:00pm"}, {"days": "Sat-Sun", "time": "Closed"}], "id": "8503200010", "name": "USPS COLLECTION BOX - BLUE BOX", "address": {"city": "PHOENIX", "state": "AZ", "street": "15400 N 40TH ST", "postcode": "85032"}}},
{"geometry": {"type": "Point", "coordinates": [-111.9954152909, 33.6406075834]}, "type": "Feature", "properties": {"collection_times": [{"days": "Mon-Fri", "time": "4:15pm"}, {"days": "Sat-Sun", "time": "Closed"}], "id": "8503200012", "name": "USPS COLLECTION BOX - BLUE BOX", "address": {"city": "PHOENIX", "state": "AZ", "street": "4001 E BELL RD", "postcode": "85032"}}},
{"geometry": {"type": "Point", "coordinates": [-111.9938313088, 33.6118332896]}, "type": "Feature", "properties": {"collection_times": [{"days": "Mon-Fri", "time": "2:45pm"}, {"days": "Sat", "time": "3:00pm"}, {"days": "Sun", "time": "Closed"}], "id": "8503200014", "name": "USPS COLLECTION BOX - BLUE BOX", "address": {"city": "PHOENIX", "state": "AZ", "street": "4025 E THUNDERBIRD RD", "postcode": "85032"}}},
{"geometry": {"type": "Point", "coordinates": [-111.9903273843, 33.5985474774]}, "type": "Feature", "properties": {"collection_times": [{"days": "Mon-Fri", "time": "3:15pm"}, {"days": "Sat-Sun", "time": "Closed"}], "id": "8503200016", "name": "USPS COLLECTION BOX - BLUE BOX", "address": {"city": "PHOENIX", "state": "AZ", "street": "4232 E CACTUS RD", "postcode": "85032"}}},
{"geometry": {"type": "Point", "coordinates": [-111.9816302569, 33.5989333965]}, "type": "Feature", "properties": {"collection_times": [{"days": "Mon-Fri", "time": "3:15pm"}, {"days": "Sat-Sun", "time": "Closed"}], "id": "8503200017", "name": "USPS COLLECTION BOX - BLUE BOX", "address": {"city": "PHOENIX", "state": "AZ", "street": "4647 E CACTUS RD", "postcode": "85032"}}},
{"geometry": {"type": "Point", "coordinates": [-111.9787793389, 33.6115422817]}, "type": "Feature", "properties": {"collection_times": [{"days": "Mon-Fri", "time": "3:00pm"}, {"days": "Sat-Sun", "time": "Closed"}], "id": "8503200018", "name": "USPS COLLECTION BOX - BLUE BOX", "address": {"city": "PHOENIX", "state": "AZ", "street": "4744 E THUNDERBIRD RD", "postcode": "85032"}}},
{"geometry": {"type": "Point", "coordinates": [-111.9801665734, 33.5988282466]}, "type": "Feature", "properties": {"collection_times": [{"days": "Mon-Fri", "time": "3:15pm"}, {"days": "Sat", "time": "1:15pm"}, {"days": "Sun", "time": "Closed"}], "id": "8503200019", "name": "USPS COLLECTION BOX - BLUE BOX", "address": {"city": "PHOENIX", "state": "AZ", "street": "12419 N TATUM BLVD", "postcode": "85032"}}},
{"geometry": {"type": "Point", "coordinates": [-111.9777242453, 33.6404344307]}, "type": "Feature", "properties": {"collection_times": [{"days": "Mon-Fri", "time": "3:45pm"}, {"days": "Sat", "time": "2:30pm"}, {"days": "Sun", "time": "Closed"}], "id": "8503200022", "name": "USPS COLLECTION BOX - BLUE BOX", "address": {"city": "PHOENIX", "state": "AZ", "street": "4799 E BELL RD", "postcode": "85032"}}},
{"geometry": {"type": "Point", "coordinates": [-111.9865289031, 33.5998392686]}, "type": "Feature", "properties": {"collection_times": [{"days": "Mon-Fri", "time": "3:00pm"}, {"days": "Sat-Sun", "time": "Closed"}], "id": "8503200023", "name": "USPS COLLECTION BOX - BLUE BOX", "address": {"city": "PHOENIX", "state": "AZ", "street": "4510 E CACTUS RD", "postcode": "85032"}}},
{"geometry": {"type": "Point", "coordinates": [-111.9865289031, 33.5998392686]}, "type": "Feature", "properties": {"collection_times": [{"days": "Mon-Fri", "time": "3:00pm"}, {"days": "Sat-Sun", "time": "Closed"}], "id": "8503200024", "name": "USPS COLLECTION BOX - BLUE BOX", "address": {"city": "PHOENIX", "state": "AZ", "street": "4510 E CACTUS RD", "postcode": "85032"}}},
{"geometry": {"type": "Point", "coordinates": [-111.9777951171, 33.6119125478]}, "type": "Feature", "properties": {"collection_times": [{"days": "Mon-Fri", "time": "3:30pm"}, {"days": "Sat-Sun", "time": "Closed"}], "id": "8503200025", "name": "USPS COLLECTION BOX - BLUE BOX", "address": {"city": "PHOENIX", "state": "AZ", "street": "13801 N TATUM BLVD", "postcode": "85032"}}},
{"geometry": {"type": "Point", "coordinates": [-111.9961274321, 33.6373225064]}, "type": "Feature", "properties": {"collection_times": [{"days": "Mon-Fri", "time": "4:15pm"}, {"days": "Sat-Sun", "time": "Closed"}], "id": "8503200030", "name": "USPS COLLECTION BOX - BLUE BOX", "address": {"city": "PHOENIX", "state": "AZ", "street": "16601 N 40TH ST", "postcode": "85032"}}},
{"geometry": {"type": "Point", "coordinates": [-111.9777242453, 33.6404344307]}, "type": "Feature", "properties": {"collection_times": [{"days": "Mon-Fri", "time": "3:45pm"}, {"days": "Sat", "time": "2:30pm"}, {"days": "Sun", "time": "Closed"}], "id": "8503200035", "name": "USPS COLLECTION BOX - BLUE BOX", "address": {"city": "PHOENIX", "state": "AZ", "street": "4799 E BELL RD", "postcode": "85032"}}},
{"geometry": {"type": "Point", "coordinates": [-112.0133272438, 33.6115942333]}, "type": "Feature", "properties": {"collection_times": [{"days": "Mon-Fri", "time": "2:45pm"}, {"days": "Sat", "time": "3:15pm"}, {"days": "Sun", "time": "Closed"}], "id": "8503200038", "name": "USPS COLLECTION BOX - BLUE BOX", "address": {"city": "PHOENIX", "state": "AZ", "street": "13800 N 32ND ST", "postcode": "85032"}}},
{"geometry": {"type": "Point", "coordinates": [-112.019861928, 33.6261912725]}, "type": "Feature", "properties": {"collection_times": [{"days": "Mon-Fri", "time": "5:15pm"}, {"days": "Sat", "time": "4:15pm"}, {"days": "Sun", "time": "Closed"}], "id": "8503200041", "name": "USPS COLLECTION BOX - PO LOBBY", "address": {"city": "PHOENIX", "state": "AZ", "street": "2901 E GREENWAY RD", "postcode": "85032"}}},
{"geometry": {"type": "Point", "coordinates": [-111.9790466877, 33.6260358949]}, "type": "Feature", "properties": {"collection_times": [{"days": "Mon-Fri", "time": "3:45pm"}, {"days": "Sat", "time": "2:45pm"}, {"days": "Sun", "time": "Closed"}], "id": "8503200043", "name": "USPS COLLECTION BOX - BLUE BOX", "address": {"city": "PHOENIX", "state": "AZ", "street": "4747 E GREENWAY RD", "postcode": "85032"}}},
{"geometry": {"type": "Point", "coordinates": [-111.9777903852, 33.6129843086]}, "type": "Feature", "properties": {"collection_times": [{"days": "Mon-Fri", "time": "3:30pm"}, {"days": "Sat", "time": "2:45pm"}, {"days": "Sun", "time": "Closed"}], "id": "8503200046", "name": "USPS COLLECTION BOX - BLUE BOX", "address": {"city": "PHOENIX", "state": "AZ", "street": "13835 N TATUM BLVD", "postcode": "85032"}}},
{"geometry": {"type": "Point", "coordinates": [-111.9775277683, 33.6547238328]}, "type": "Feature", "properties": {"collection_times": [{"days": "Mon-Fri", "time": "1:30pm"}, {"days": "Sat-Sun", "time": "Closed"}], "id": "8503200048", "name": "USPS COLLECTION BOX - BLUE BOX", "address": {"city": "PHOENIX", "state": "AZ", "street": "18442 N TATUM BLVD", "postcode": "85032"}}},
{"geometry": {"type": "Point", "coordinates": [-111.9950864283, 33.6407660999]}, "type": "Feature", "properties": {"collection_times": [{"days": "Mon-Fri", "time": "4:30pm"}, {"days": "Sat", "time": "1:30pm"}, {"days": "Sun", "time": "Closed"}], "id": "8503200049", "name": "USPS COLLECTION BOX - BLUE BOX", "address": {"city": "PHOENIX", "state": "AZ", "street": "4030 E BELL RD", "postcode": "85032"}}},
{"geometry": {"type": "Point", "coordinates": [-112.019861928, 33.6261912725]}, "type": "Feature", "properties": {"collection_times": [{"days": "Mon-Fri", "time": "5:15pm"}, {"days": "Sat", "time": "4:15pm"}, {"days": "Sun", "time": "Closed"}], "id": "8503200050", "name": "USPS COLLECTION BOX - APC", "address": {"city": "PHOENIX", "state": "AZ", "street": "2901 E GREENWAY RD", "postcode": "85032"}}},
{"geometry": {"type": "Point", "coordinates": [-112.2010880854, 33.4803521324]}, "type": "Feature", "properties": {"collection_times": [{"days": "Mon-Fri", "time": "2:45pm"}, {"days": "Sat-Sun", "time": "Closed"}], "id": "8503300001", "name": "USPS COLLECTION BOX - BLUE BOX", "address": {"city": "PHOENIX", "state": "AZ", "street": "6544 W THOMAS RD", "postcode": "85033"}}},
{"geometry": {"type": "Point", "coordinates": [-112.2024792451, 33.4948303672]}, "type": "Feature", "properties": {"collection_times": [{"days": "Mon-Fri", "time": "4:00pm"}, {"days": "Sat-Sun", "time": "Closed"}], "id": "8503300002", "name": "USPS COLLECTION BOX - BLUE BOX", "address": {"city": "PHOENIX", "state": "AZ", "street": "6601 W INDIAN SCHOOL RD", "postcode": "85033"}}},
{"geometry": {"type": "Point", "coordinates": [-112.2206287079, 33.4946842792]}, "type": "Feature", "properties": {"collection_times": [{"days": "Mon-Fri", "time": "4:00pm"}, {"days": "Sat-Sun", "time": "Closed"}], "id": "8503300005", "name": "USPS COLLECTION BOX - BLUE BOX", "address": {"city": "PHOENIX", "state": "AZ", "street": "4100 N 75TH AVE", "postcode": "85033"}}},
{"geometry": {"type": "Point", "coordinates": [-112.2233357148, 33.4799945731]}, "type": "Feature", "properties": {"collection_times": [{"days": "Mon-Fri", "time": "3:45pm"}, {"days": "Sat", "time": "12:45pm"}, {"days": "Sun", "time": "Closed"}], "id": "8503300007", "name": "USPS COLLECTION BOX - BLUE BOX", "address": {"city": "PHOENIX", "state": "AZ", "street": "7611 W THOMAS RD", "postcode": "85033"}}},
{"geometry": {"type": "Point", "coordinates": [-112.2376806239, 33.5087299666]}, "type": "Feature", "properties": {"collection_times": [{"days": "Mon-Fri", "time": "1:00pm"}, {"days": "Sat", "time": "12:15pm"}, {"days": "Sun", "time": "Closed"}], "id": "8503300011", "name": "USPS COLLECTION BOX - BLUE BOX", "address": {"city": "PHOENIX", "state": "AZ", "street": "8299 W CAMELBACK RD", "postcode": "85033"}}},
{"geometry": {"type": "Point", "coordinates": [-112.051077059, 33.4368026811]}, "type": "Feature", "properties": {"collection_times": [{"days": "Mon-Fri", "time": "5:00pm"}, {"days": "Sat", "time": "3:45pm"}, {"days": "Sun", "time": "Closed"}], "id": "8503400004", "name": "USPS COLLECTION BOX - BLUE BOX", "address": {"city": "PHOENIX", "state": "AZ", "street": "1441 E BUCKEYE RD", "postcode": "85034"}}},
{"geometry": {"type": "Point", "coordinates": [-112.0072430284, 33.435068637]}, "type": "Feature", "properties": {"collection_times": [{"days": "Mon-Sat", "time": "12:00pm"}, {"days": "Sun", "time": "Closed"}], "id": "8503400015", "name": "USPS COLLECTION BOX - BLUE BOX", "address": {"city": "PHOENIX", "state": "AZ", "street": "3400 E SKY HARBOR BLVD", "postcode": "85034"}}},
{"geometry": {"type": "Point", "coordinates": [-111.9980833659, 33.4359953611]}, "type": "Feature", "properties": {"collection_times": [{"days": "Mon-Sat", "time": "12:00pm"}, {"days": "Sun", "time": "Closed"}], "id": "8503400017", "name": "USPS COLLECTION BOX - BLUE BOX", "address": {"city": "PHOENIX", "state": "AZ", "street": "3800 E SKY HARBOR BLVD", "postcode": "85034"}}},
{"geometry": {"type": "Point", "coordinates": [-112.0634032699, 33.4470844337]}, "type": "Feature", "properties": {"collection_times": [{"days": "Mon-Fri", "time": "5:00pm"}, {"days": "Sat-Sun", "time": "Closed"}], "id": "8503400020", "name": "USPS COLLECTION BOX - BLUE BOX", "address": {"city": "PHOENIX", "state": "AZ", "street": "801 E JEFFERSON ST", "postcode": "85034"}}},
{"geometry": {"type": "Point", "coordinates": [-112.0417652614, 33.441257241]}, "type": "Feature", "properties": {"collection_times": [{"days": "Mon-Fri", "time": "5:00pm"}, {"days": "Sat-Sun", "time": "Closed"}], "id": "8503400022", "name": "USPS COLLECTION BOX - BLUE BOX", "address": {"city": "PHOENIX", "state": "AZ", "street": "1944 E SKY HARBOR CIR N", "postcode": "85034"}}},
{"geometry": {"type": "Point", "coordinates": [-112.032969971, 33.4369239834]}, "type": "Feature", "properties": {"collection_times": [{"days": "Mon-Fri", "time": "5:00pm"}, {"days": "Sat-Sun", "time": "Closed"}], "id": "8503400023", "name": "USPS COLLECTION BOX - BLUE BOX", "address": {"city": "PHOENIX", "state": "AZ", "street": "2615 S 21ST ST", "postcode": "85034"}}},
{"geometry": {"type": "Point", "coordinates": [-112.0236758004, 33.435223706]}, "type": "Feature", "properties": {"collection_times": [{"days": "Mon-Fri", "time": "5:00pm"}, {"days": "Sat-Sun", "time": "Closed"}], "id": "8503400030", "name": "USPS COLLECTION BOX - BLUE BOX", "address": {"city": "PHOENIX", "state": "AZ", "street": "1251 S 25TH PL", "postcode": "85034"}}},
{"geometry": {"type": "Point", "coordinates": [-112.032969971, 33.4369239834]}, "type": "Feature", "properties": {"collection_times": [{"days": "Mon-Fri", "time": "3:00pm"}, {"days": "Sat-Sun", "time": "Closed"}], "id": "8503400033", "name": "USPS COLLECTION BOX - BLUE BOX", "address": {"city": "PHOENIX", "state": "AZ", "street": "3021 S 35TH ST", "postcode": "85034"}}},
{"geometry": {"type": "Point", "coordinates": [-112.0037582218, 33.4470861312]}, "type": "Feature", "properties": {"collection_times": [{"days": "Mon-Fri", "time": "3:00pm"}, {"days": "Sat-Sun", "time": "Closed"}], "id": "8503400036", "name": "USPS COLLECTION BOX - BLUE BOX", "address": {"city": "PHOENIX", "state": "AZ", "street": "102 S 36TH ST", "postcode": "85034"}}},
{"geometry": {"type": "Point", "coordinates": [-111.9793069386, 33.4219553631]}, "type": "Feature", "properties": {"collection_times": [{"days": "Mon-Fri", "time": "2:45pm"}, {"days": "Sat-Sun", "time": "Closed"}], "id": "8503400040", "name": "USPS COLLECTION BOX - BLUE BOX", "address": {"city": "PHOENIX", "state": "AZ", "street": "4740 E UNIVERSITY DR", "postcode": "85034"}}},
{"geometry": {"type": "Point", "coordinates": [-112.051077059, 33.4368026811]}, "type": "Feature", "properties": {"collection_times": [{"days": "Mon-Fri", "time": "5:00pm"}, {"days": "Sat", "time": "3:45pm"}, {"days": "Sun", "time": "Closed"}], "id": "8503400052", "name": "USPS COLLECTION BOX - PO LOBBY", "address": {"city": "PHOENIX", "state": "AZ", "street": "1441 E BUCKEYE RD", "postcode": "85034"}}},
{"geometry": {"type": "Point", "coordinates": [-112.0407167044, 33.4367411672]}, "type": "Feature", "properties": {"collection_times": [{"days": "Mon-Fri", "time": "5:00pm"}, {"days": "Sat-Sun", "time": "Closed"}], "id": "8503400054", "name": "USPS COLLECTION BOX - BLUE BOX", "address": {"city": "PHOENIX", "state": "AZ", "street": "1825 E BUCKEYE RD", "postcode": "85034"}}},
{"geometry": {"type": "Point", "coordinates": [-112.0329699709, 33.436924029]}, "type": "Feature", "properties": {"collection_times": [{"days": "Mon-Fri", "time": "3:15pm"}, {"days": "Sat-Sun", "time": "Closed"}], "id": "8503400055", "name": "USPS COLLECTION BOX - BLUE BOX", "address": {"city": "PHOENIX", "state": "AZ", "street": "3255 E ELWOOD ST", "postcode": "85034"}}},
{"geometry": {"type": "Point", "coordinates": [-112.051077059, 33.4368026811]}, "type": "Feature", "properties": {"collection_times": [{"days": "Mon-Fri", "time": "5:00pm"}, {"days": "Sat", "time": "3:45pm"}, {"days": "Sun", "time": "Closed"}], "id": "8503400060", "name": "USPS COLLECTION BOX - BLUE BOX", "address": {"city": "PHOENIX", "state": "AZ", "street": "1441 E BUCKEYE RD", "postcode": "85034"}}},
{"geometry": {"type": "Point", "coordinates": [-112.051077059, 33.4368026811]}, "type": "Feature", "properties": {"collection_times": [{"days": "Mon-Fri", "time": "5:00pm"}, {"days": "Sat", "time": "3:45pm"}, {"days": "Sun", "time": "Closed"}], "id": "8503400061", "name": "USPS COLLECTION BOX - BLUE BOX", "address": {"city": "PHOENIX", "state": "AZ", "street": "1441 E BUCKEYE RD", "postcode": "85034"}}},
{"geometry": {"type": "Point", "coordinates": [-112.051077059, 33.4368026811]}, "type": "Feature", "properties": {"collection_times": [{"days": "Mon-Fri", "time": "5:00pm"}, {"days": "Sat", "time": "3:45pm"}, {"days": "Sun", "time": "Closed"}], "id": "8503400068", "name": "USPS COLLECTION BOX - BLUE BOX", "address": {"city": "PHOENIX", "state": "AZ", "street": "1441 E BUCKEYE RD", "postcode": "85034"}}},
{"geometry": {"type": "Point", "coordinates": [-112.0099589216, 33.4350686653]}, "type": "Feature", "properties": {"collection_times": [{"days": "Mon-Sat", "time": "12:00pm"}, {"days": "Sun", "time": "Closed"}], "id": "8503400069", "name": "USPS COLLECTION BOX - BLUE BOX", "address": {"city": "PHOENIX", "state": "AZ", "street": "3200 E SKY HARBOR BLVD", "postcode": "85034"}}},
{"geometry": {"type": "Point", "coordinates": [-112.169262435, 33.4659981422]}, "type": "Feature", "properties": {"collection_times": [{"days": "Mon-Fri", "time": "2:00pm"}, {"days": "Sat-Sun", "time": "Closed"}], "id": "8503500001", "name": "USPS COLLECTION BOX - BLUE BOX", "address": {"city": "PHOENIX", "state": "AZ", "street": "1600 N 51ST AVE", "postcode": "85035"}}},
{"geometry": {"type": "Point", "coordinates": [-112.1859852483, 33.4659709003]}, "type": "Feature", "properties": {"collection_times": [{"days": "Mon-Fri", "time": "1:45pm"}, {"days": "Sat-Sun", "time": "Closed"}], "id": "8503500002", "name": "USPS COLLECTION BOX - BLUE BOX", "address": {"city": "PHOENIX", "state": "AZ", "street": "5845 W MCDOWELL RD", "postcode": "85035"}}},
{"geometry": {"type": "Point", "coordinates": [-112.2204790031, 33.4803120549]}, "type": "Feature", "properties": {"collection_times": [{"days": "Mon-Fri", "time": "3:30pm"}, {"days": "Sat-Sun", "time": "Closed"}], "id": "8503500005", "name": "USPS COLLECTION BOX - BLUE BOX", "address": {"city": "PHOENIX", "state": "AZ", "street": "2801 N 75TH AVE", "postcode": "85035"}}},
{"geometry": {"type": "Point", "coordinates": [-112.2550097209, 33.5080889713]}, "type": "Feature", "properties": {"collection_times": [{"days": "Mon-Fri", "time": "12:45pm"}, {"days": "Sat-Sun", "time": "Closed"}], "id": "8503700003", "name": "USPS COLLECTION BOX - BLUE BOX", "address": {"city": "PHOENIX", "state": "AZ", "street": "4930 N 91ST AVE", "postcode": "85037"}}},
{"geometry": {"type": "Point", "coordinates": [-112.2903002329, 33.4939778427]}, "type": "Feature", "properties": {"collection_times": [{"days": "Mon-Fri", "time": "12:30pm"}, {"days": "Sat", "time": "12:15pm"}, {"days": "Sun", "time": "Closed"}], "id": "8503700005", "name": "USPS COLLECTION BOX - BLUE BOX", "address": {"city": "PHOENIX", "state": "AZ", "street": "4100 N 107TH AVE", "postcode": "85037"}}},
{"geometry": {"type": "Point", "coordinates": [-112.2389877247, 33.4942637299]}, "type": "Feature", "properties": {"collection_times": [{"days": "Mon-Fri", "time": "1:00pm"}, {"days": "Sat", "time": "12:30pm"}, {"days": "Sun", "time": "Closed"}], "id": "8503700007", "name": "USPS COLLECTION BOX - BLUE BOX", "address": {"city": "PHOENIX", "state": "AZ", "street": "8325 W INDIAN SCHOOL RD", "postcode": "85037"}}},
{"geometry": {"type": "Point", "coordinates": [-112.2551766713, 33.4940813382]}, "type": "Feature", "properties": {"collection_times": [{"days": "Mon-Fri", "time": "12:45pm"}, {"days": "Sat-Sun", "time": "Closed"}], "id": "8503700009", "name": "USPS COLLECTION BOX - BLUE BOX", "address": {"city": "PHOENIX", "state": "AZ", "street": "4090 N 91ST AVE", "postcode": "85037"}}},
{"geometry": {"type": "Point", "coordinates": [-112.066011916, 33.3777470037]}, "type": "Feature", "properties": {"collection_times": [{"days": "Mon-Fri", "time": "1:00pm"}, {"days": "Sat-Sun", "time": "Closed"}], "id": "8504000007", "name": "USPS COLLECTION BOX - BLUE BOX", "address": {"city": "PHOENIX", "state": "AZ", "street": "520 E BASELINE RD", "postcode": "85040"}}},
{"geometry": {"type": "Point", "coordinates": [-112.0734820872, 33.399109677]}, "type": "Feature", "properties": {"collection_times": [{"days": "Mon-Fri", "time": "12:30pm"}, {"days": "Sat-Sun", "time": "Closed"}], "id": "8504000010", "name": "USPS COLLECTION BOX - BLUE BOX", "address": {"city": "PHOENIX", "state": "AZ", "street": "5200 S CENTRAL AVE", "postcode": "85040"}}},
{"geometry": {"type": "Point", "coordinates": [-112.030841363, 33.4098631566]}, "type": "Feature", "properties": {"collection_times": [{"days": "Mon-Fri", "time": "3:30pm"}, {"days": "Sat-Sun", "time": "Closed"}], "id": "8504000015", "name": "USPS COLLECTION BOX - BLUE BOX", "address": {"city": "PHOENIX", "state": "AZ", "street": "2320 E JONES AVE", "postcode": "85040"}}},
{"geometry": {"type": "Point", "coordinates": [-112.030841363, 33.4098631566]}, "type": "Feature", "properties": {"collection_times": [{"days": "Mon-Fri", "time": "3:30pm"}, {"days": "Sat-Sun", "time": "Closed"}], "id": "8504000016", "name": "USPS COLLECTION BOX - BLUE BOX", "address": {"city": "PHOENIX", "state": "AZ", "street": "2320 E JONES AVE", "postcode": "85040"}}},
{"geometry": {"type": "Point", "coordinates": [-112.0208631041, 33.3975958721]}, "type": "Feature", "properties": {"collection_times": [{"days": "Mon-Fri", "time": "3:15pm"}, {"days": "Sat-Sun", "time": "Closed"}], "id": "8504000019", "name": "USPS COLLECTION BOX - BLUE BOX", "address": {"city": "PHOENIX", "state": "AZ", "street": "2800 E CHAMBERS ST", "postcode": "85040"}}},
{"geometry": {"type": "Point", "coordinates": [-112.007632891, 33.4071021304]}, "type": "Feature", "properties": {"collection_times": [{"days": "Mon-Fri", "time": "3:30pm"}, {"days": "Sat-Sun", "time": "Closed"}], "id": "8504000021", "name": "USPS COLLECTION BOX - BLUE BOX", "address": {"city": "PHOENIX", "state": "AZ", "street": "3401 E BROADWAY RD", "postcode": "85040"}}},
{"geometry": {"type": "Point", "coordinates": [-111.9971103326, 33.3997697744]}, "type": "Feature", "properties": {"collection_times": [{"days": "Mon-Fri", "time": "4:15pm"}, {"days": "Sat-Sun", "time": "Closed"}], "id": "8504000027", "name": "USPS COLLECTION BOX - BLUE BOX", "address": {"city": "PHOENIX", "state": "AZ", "street": "3901 E ROESER RD", "postcode": "85040"}}},
{"geometry": {"type": "Point", "coordinates": [-111.9964639093, 33.3997716656]}, "type": "Feature", "properties": {"collection_times": [{"days": "Mon-Fri", "time": "4:15pm"}, {"days": "Sat-Sun", "time": "Closed"}], "id": "8504000030", "name": "USPS COLLECTION BOX - BLUE BOX", "address": {"city": "PHOENIX", "state": "AZ", "street": "3901 E ROESER RD", "postcode": "85040"}}},
{"geometry": {"type": "Point", "coordinates": [-111.9967709734, 33.3926033432]}, "type": "Feature", "properties": {"collection_times": [{"days": "Mon-Fri", "time": "1:15pm"}, {"days": "Sat-Sun", "time": "Closed"}], "id": "8504000031", "name": "USPS COLLECTION BOX - BLUE BOX", "address": {"city": "PHOENIX", "state": "AZ", "street": "3945 E SOUTHERN AVE", "postcode": "85040"}}},
{"geometry": {"type": "Point", "coordinates": [-111.985183556, 33.4037199304]}, "type": "Feature", "properties": {"collection_times": [{"days": "Mon-Fri", "time": "4:45pm"}, {"days": "Sat-Sun", "time": "Closed"}], "id": "8504000034", "name": "USPS COLLECTION BOX - BLUE BOX", "address": {"city": "PHOENIX", "state": "AZ", "street": "4650 S 44TH PL", "postcode": "85040"}}},
{"geometry": {"type": "Point", "coordinates": [-111.985183556, 33.4037199304]}, "type": "Feature", "properties": {"collection_times": [{"days": "Mon-Fri", "time": "4:45pm"}, {"days": "Sat-Sun", "time": "Closed"}], "id": "8504000035", "name": "USPS COLLECTION BOX - BLUE BOX", "address": {"city": "PHOENIX", "state": "AZ", "street": "4650 S 44TH PL", "postcode": "85040"}}},
{"geometry": {"type": "Point", "coordinates": [-111.9823306828, 33.4130812553]}, "type": "Feature", "properties": {"collection_times": [{"days": "Mon-Fri", "time": "3:45pm"}, {"days": "Sat-Sun", "time": "Closed"}], "id": "8504000040", "name": "USPS COLLECTION BOX - BLUE BOX", "address": {"city": "PHOENIX", "state": "AZ", "street": "4620 E ELWOOD ST", "postcode": "85040"}}},
{"geometry": {"type": "Point", "coordinates": [-111.9823306828, 33.4130812553]}, "type": "Feature", "properties": {"collection_times": [{"days": "Mon-Fri", "time": "3:45pm"}, {"days": "Sat-Sun", "time": "Closed"}], "id": "8504000041", "name": "USPS COLLECTION BOX - BLUE BOX", "address": {"city": "PHOENIX", "state": "AZ", "street": "4620 E ELWOOD ST", "postcode": "85040"}}},
{"geometry": {"type": "Point", "coordinates": [-111.9784058943, 33.3913858632]}, "type": "Feature", "properties": {"collection_times": [{"days": "Mon-Fri", "time": "1:30pm"}, {"days": "Sat-Sun", "time": "Closed"}], "id": "8504000042", "name": "USPS COLLECTION BOX - BLUE BOX", "address": {"city": "PHOENIX", "state": "AZ", "street": "4727 E SOUTHERN AVE", "postcode": "85040"}}},
{"geometry": {"type": "Point", "coordinates": [-111.9904586928, 33.4146600552]}, "type": "Feature", "properties": {"collection_times": [{"days": "Mon-Fri", "time": "4:00pm"}, {"days": "Sat-Sun", "time": "Closed"}], "id": "8504000045", "name": "USPS COLLECTION BOX - BLUE BOX", "address": {"city": "PHOENIX", "state": "AZ", "street": "4202 E ELWOOD ST", "postcode": "85040"}}},
{"geometry": {"type": "Point", "coordinates": [-112.1370911883, 33.4065993728]}, "type": "Feature", "properties": {"collection_times": [{"days": "Mon-Fri", "time": "3:45pm"}, {"days": "Sat-Sun", "time": "Closed"}], "id": "8504000050", "name": "USPS COLLECTION BOX - BLUE BOX", "address": {"city": "PHOENIX", "state": "AZ", "street": "3701 E BROADWAY RD", "postcode": "85040"}}},
{"geometry": {"type": "Point", "coordinates": [-111.9919509787, 33.4072626729]}, "type": "Feature", "properties": {"collection_times": [{"days": "Mon-Fri", "time": "4:30pm"}, {"days": "Sat-Sun", "time": "Closed"}], "id": "8504000056", "name": "USPS COLLECTION BOX - BLUE BOX", "address": {"city": "PHOENIX", "state": "AZ", "street": "4139 E BROADWAY RD", "postcode": "85040"}}},
{"geometry": {"type": "Point", "coordinates": [-111.9937591483, 33.4072831231]}, "type": "Feature", "properties": {"collection_times": [{"days": "Mon-Fri", "time": "4:30pm"}, {"days": "Sat-Sun", "time": "Closed"}], "id": "8504000058", "name": "USPS COLLECTION BOX - BLUE BOX", "address": {"city": "PHOENIX", "state": "AZ", "street": "4001 E BROADWAY RD", "postcode": "85040"}}},
{"geometry": {"type": "Point", "coordinates": [-112.0473996383, 33.3919326387]}, "type": "Feature", "properties": {"collection_times": [{"days": "Mon-Fri", "time": "1:00pm"}, {"days": "Sat-Sun", "time": "Closed"}], "id": "8504000061", "name": "USPS COLLECTION BOX - BLUE BOX", "address": {"city": "PHOENIX", "state": "AZ", "street": "6020 S 16TH ST", "postcode": "85040"}}},
{"geometry": {"type": "Point", "coordinates": [-111.9816077938, 33.4031001802]}, "type": "Feature", "properties": {"collection_times": [{"days": "Mon-Fri", "time": "4:45pm"}, {"days": "Sat-Sun", "time": "Closed"}], "id": "8504000062", "name": "USPS COLLECTION BOX - BLUE BOX", "address": {"city": "PHOENIX", "state": "AZ", "street": "4645 E COTTON CENTER BLVD", "postcode": "85040"}}},
{"geometry": {"type": "Point", "coordinates": [-111.9816077938, 33.4031001802]}, "type": "Feature", "properties": {"collection_times": [{"days": "Mon-Fri", "time": "4:45pm"}, {"days": "Sat-Sun", "time": "Closed"}], "id": "8504000063", "name": "USPS COLLECTION BOX - BLUE BOX", "address": {"city": "PHOENIX", "state": "AZ", "street": "4645 E COTTON CENTER BLVD", "postcode": "85040"}}},
{"geometry": {"type": "Point", "coordinates": [-112.0145880163, 33.4122246812]}, "type": "Feature", "properties": {"collection_times": [{"days": "Mon-Fri", "time": "3:15pm"}, {"days": "Sat-Sun", "time": "Closed"}], "id": "8504000066", "name": "USPS COLLECTION BOX - BLUE BOX", "address": {"city": "PHOENIX", "state": "AZ", "street": "4045 S RIVERPOINT PKWY", "postcode": "85040"}}},
{"geometry": {"type": "Point", "coordinates": [-112.0721325456, 33.3777481866]}, "type": "Feature", "properties": {"collection_times": [{"days": "Mon-Fri", "time": "12:30pm"}, {"days": "Sat-Sun", "time": "Closed"}], "id": "8504100000", "name": "USPS COLLECTION BOX - BLUE BOX", "address": {"city": "PHOENIX", "state": "AZ", "street": "27 W BASELINE RD", "postcode": "85041"}}},
{"geometry": {"type": "Point", "coordinates": [-112.1175286112, 33.3630782703]}, "type": "Feature", "properties": {"collection_times": [{"days": "Mon-Fri", "time": "12:30pm"}, {"days": "Sat-Sun", "time": "Closed"}], "id": "8504100001", "name": "USPS COLLECTION BOX - BLUE BOX", "address": {"city": "PHOENIX", "state": "AZ", "street": "2699 W DOBBINS RD", "postcode": "85041"}}},
{"geometry": {"type": "Point", "coordinates": [-112.0831584227, 33.362351922]}, "type": "Feature", "properties": {"collection_times": [{"days": "Mon-Fri", "time": "12:30pm"}, {"days": "Sat-Sun", "time": "Closed"}], "id": "8504100002", "name": "USPS COLLECTION BOX - BLUE BOX", "address": {"city": "PHOENIX", "state": "AZ", "street": "9189 S 7TH AVE", "postcode": "85041"}}},
{"geometry": {"type": "Point", "coordinates": [-112.0646444154, 33.3843254385]}, "type": "Feature", "properties": {"collection_times": [{"days": "Mon-Fri", "time": "5:00pm"}, {"days": "Sat", "time": "4:15pm"}, {"days": "Sun", "time": "Closed"}], "id": "8504200001", "name": "USPS COLLECTION BOX - BLUE BOX", "address": {"city": "PHOENIX", "state": "AZ", "street": "6825 S 7TH ST", "postcode": "85042"}}},
{"geometry": {"type": "Point", "coordinates": [-112.0646444154, 33.3843254385]}, "type": "Feature", "properties": {"collection_times": [{"days": "Mon-Fri", "time": "5:00pm"}, {"days": "Sat", "time": "4:15pm"}, {"days": "Sun", "time": "Closed"}], "id": "8504200003", "name": "USPS COLLECTION BOX - PO LOBBY", "address": {"city": "PHOENIX", "state": "AZ", "street": "6825 S 7TH ST", "postcode": "85042"}}},
{"geometry": {"type": "Point", "coordinates": [-112.1779298237, 33.4389064009]}, "type": "Feature", "properties": {"collection_times": [{"days": "Mon-Fri", "time": "2:00pm"}, {"days": "Sat-Sun", "time": "Closed"}], "id": "8504300008", "name": "USPS COLLECTION BOX - BLUE BOX", "address": {"city": "PHOENIX", "state": "AZ", "street": "5501 W HADLEY ST", "postcode": "85043"}}},
{"geometry": {"type": "Point", "coordinates": [-112.2386020801, 33.4239723082]}, "type": "Feature", "properties": {"collection_times": [{"days": "Mon-Fri", "time": "1:00pm"}, {"days": "Sat-Sun", "time": "Closed"}], "id": "8504300009", "name": "USPS COLLECTION BOX - BLUE BOX", "address": {"city": "PHOENIX", "state": "AZ", "street": "2626 S 83RD AVE", "postcode": "85043"}}},
{"geometry": {"type": "Point", "coordinates": [-112.1862951835, 33.4615383531]}, "type": "Feature", "properties": {"collection_times": [{"days": "Mon-Fri", "time": "1:30pm"}, {"days": "Sat-Sun", "time": "Closed"}], "id": "8504300010", "name": "USPS COLLECTION BOX - BLUE BOX", "address": {"city": "PHOENIX", "state": "AZ", "street": "1201 N 59TH AVE", "postcode": "85043"}}},
{"geometry": {"type": "Point", "coordinates": [-112.16046876, 33.4549861644]}, "type": "Feature", "properties": {"collection_times": [{"days": "Mon-Fri", "time": "2:30pm"}, {"days": "Sat-Sun", "time": "Closed"}], "id": "8504300012", "name": "USPS COLLECTION BOX - BLUE BOX", "address": {"city": "PHOENIX", "state": "AZ", "street": "620 N 47TH AVE", "postcode": "85043"}}},
{"geometry": {"type": "Point", "coordinates": [-111.9751417401, 33.3469226419]}, "type": "Feature", "properties": {"collection_times": [{"days": "Mon-Fri", "time": "5:00pm"}, {"days": "Sat", "time": "4:15pm"}, {"days": "Sun", "time": "Closed"}], "id": "8504400001", "name": "USPS COLLECTION BOX - BLUE BOX", "address": {"city": "PHOENIX", "state": "AZ", "street": "11010 S 51ST ST", "postcode": "85044"}}},
{"geometry": {"type": "Point", "coordinates": [-111.9751417401, 33.3469226419]}, "type": "Feature", "properties": {"collection_times": [{"days": "Mon-Fri", "time": "5:00pm"}, {"days": "Sat", "time": "4:15pm"}, {"days": "Sun", "time": "Closed"}], "id": "8504400003", "name": "USPS COLLECTION BOX - BLUE BOX", "address": {"city": "PHOENIX", "state": "AZ", "street": "11010 S 51ST ST", "postcode": "85044"}}},
{"geometry": {"type": "Point", "coordinates": [-111.9751417401, 33.3469226419]}, "type": "Feature", "properties": {"collection_times": [{"days": "Mon-Fri", "time": "5:00pm"}, {"days": "Sat", "time": "4:15pm"}, {"days": "Sun", "time": "Closed"}], "id": "8504400005", "name": "USPS COLLECTION BOX - BLUE BOX", "address": {"city": "PHOENIX", "state": "AZ", "street": "11010 S 51ST ST", "postcode": "85044"}}},
{"geometry": {"type": "Point", "coordinates": [-111.9807374058, 33.3488868779]}, "type": "Feature", "properties": {"collection_times": [{"days": "Mon-Fri", "time": "3:45pm"}, {"days": "Sat", "time": "1:00pm"}, {"days": "Sun", "time": "Closed"}], "id": "8504400007", "name": "USPS COLLECTION BOX - BLUE BOX", "address": {"city": "PHOENIX", "state": "AZ", "street": "4799 E ELLIOT RD", "postcode": "85044"}}},
{"geometry": {"type": "Point", "coordinates": [-111.9797931348, 33.3198967614]}, "type": "Feature", "properties": {"collection_times": [{"days": "Mon-Fri", "time": "2:00pm"}, {"days": "Sat", "time": "1:00pm"}, {"days": "Sun", "time": "Closed"}], "id": "8504400009", "name": "USPS COLLECTION BOX - BLUE BOX", "address": {"city": "PHOENIX", "state": "AZ", "street": "4802 E RAY RD", "postcode": "85044"}}},
{"geometry": {"type": "Point", "coordinates": [-111.9797931348, 33.3198967614]}, "type": "Feature", "properties": {"collection_times": [{"days": "Mon-Fri", "time": "2:00pm"}, {"days": "Sat", "time": "1:00pm"}, {"days": "Sun", "time": "Closed"}], "id": "8504400010", "name": "USPS COLLECTION BOX - BLUE BOX", "address": {"city": "PHOENIX", "state": "AZ", "street": "4802 E RAY RD", "postcode": "85044"}}},
{"geometry": {"type": "Point", "coordinates": [-111.980392895, 33.3308320341]}, "type": "Feature", "properties": {"collection_times": [{"days": "Mon-Fri", "time": "3:45pm"}, {"days": "Sat-Sun", "time": "Closed"}], "id": "8504400011", "name": "USPS COLLECTION BOX - BLUE BOX", "address": {"city": "PHOENIX", "state": "AZ", "street": "4855 E WARNER RD", "postcode": "85044"}}},
{"geometry": {"type": "Point", "coordinates": [-111.9728231405, 33.353205337]}, "type": "Feature", "properties": {"collection_times": [{"days": "Mon-Fri", "time": "3:45pm"}, {"days": "Sat-Sun", "time": "Closed"}], "id": "8504400014", "name": "USPS COLLECTION BOX - BLUE BOX", "address": {"city": "PHOENIX", "state": "AZ", "street": "10235 S 51ST ST", "postcode": "85044"}}},
{"geometry": {"type": "Point", "coordinates": [-111.9740069291, 33.3746268407]}, "type": "Feature", "properties": {"collection_times": [{"days": "Mon-Fri", "time": "4:00pm"}, {"days": "Sat-Sun", "time": "Closed"}], "id": "8504400015", "name": "USPS COLLECTION BOX - BLUE BOX", "address": {"city": "PHOENIX", "state": "AZ", "street": "5098 E BEVERLY RD", "postcode": "85044"}}},
{"geometry": {"type": "Point", "coordinates": [-111.9751417401, 33.3469226419]}, "type": "Feature", "properties": {"collection_times": [{"days": "Mon-Fri", "time": "5:00pm"}, {"days": "Sat", "time": "4:15pm"}, {"days": "Sun", "time": "Closed"}], "id": "8504400024", "name": "USPS COLLECTION BOX - BLUE BOX", "address": {"city": "PHOENIX", "state": "AZ", "street": "11010 S 51ST ST", "postcode": "85044"}}},
{"geometry": {"type": "Point", "coordinates": [-111.9896720251, 33.3203876894]}, "type": "Feature", "properties": {"collection_times": [{"days": "Mon-Fri", "time": "2:00pm"}, {"days": "Sat-Sun", "time": "Closed"}], "id": "8504400027", "name": "USPS COLLECTION BOX - BLUE BOX", "address": {"city": "PHOENIX", "state": "AZ", "street": "4350 E RAY RD", "postcode": "85044"}}},
{"geometry": {"type": "Point", "coordinates": [-111.9829670137, 33.3197134028]}, "type": "Feature", "properties": {"collection_times": [{"days": "Mon-Fri", "time": "3:30pm"}, {"days": "Sat", "time": "1:45pm"}, {"days": "Sun", "time": "Closed"}], "id": "8504400028", "name": "USPS COLLECTION BOX - BLUE BOX", "address": {"city": "PHOENIX", "state": "AZ", "street": "4717 E RAY RD", "postcode": "85044"}}},
{"geometry": {"type": "Point", "coordinates": [-112.0052267525, 33.315554119]}, "type": "Feature", "properties": {"collection_times": [{"days": "Mon-Fri", "time": "2:15pm"}, {"days": "Sat", "time": "1:45pm"}, {"days": "Sun", "time": "Closed"}], "id": "8504400029", "name": "USPS COLLECTION BOX - BLUE BOX", "address": {"city": "PHOENIX", "state": "AZ", "street": "3616 E RAY RD", "postcode": "85044"}}},
{"geometry": {"type": "Point", "coordinates": [-112.0007539847, 33.3179082074]}, "type": "Feature", "properties": {"collection_times": [{"days": "Mon-Fri", "time": "2:15pm"}, {"days": "Sat-Sun", "time": "Closed"}], "id": "8504400035", "name": "USPS COLLECTION BOX - BLUE BOX", "address": {"city": "PHOENIX", "state": "AZ", "street": "3930 E RAY RD", "postcode": "85044"}}},
{"geometry": {"type": "Point", "coordinates": [-111.9801508027, 33.3124822628]}, "type": "Feature", "properties": {"collection_times": [{"days": "Mon-Fri", "time": "3:30pm"}, {"days": "Sat-Sun", "time": "Closed"}], "id": "8504400036", "name": "USPS COLLECTION BOX - BLUE BOX", "address": {"city": "PHOENIX", "state": "AZ", "street": "4805 E THISTLE LANDING DR", "postcode": "85044"}}},
{"geometry": {"type": "Point", "coordinates": [-111.9748583667, 33.3463565784]}, "type": "Feature", "properties": {"collection_times": [{"days": "Mon-Fri", "time": "5:00pm"}, {"days": "Sat", "time": "4:15pm"}, {"days": "Sun", "time": "Closed"}], "id": "8504400037", "name": "USPS COLLECTION BOX - APC", "address": {"city": "PHOENIX", "state": "AZ", "street": "11010 S 51ST ST", "postcode": "85044"}}},
{"geometry": {"type": "Point", "coordinates": [-112.0635004941, 33.2931394126]}, "type": "Feature", "properties": {"collection_times": [{"days": "Mon-Fri", "time": "5:00pm"}, {"days": "Sat", "time": "4:30pm"}, {"days": "Sun", "time": "Closed"}], "id": "8504800000", "name": "USPS COLLECTION BOX - BLUE BOX", "address": {"city": "PHOENIX", "state": "AZ", "street": "16825 S DESERT FOOTHILLS PKWY", "postcode": "85048"}}},
{"geometry": {"type": "Point", "coordinates": [-112.0635004941, 33.2931394126]}, "type": "Feature", "properties": {"collection_times": [{"days": "Mon-Fri", "time": "5:00pm"}, {"days": "Sat", "time": "4:30pm"}, {"days": "Sun", "time": "Closed"}], "id": "8504800002", "name": "USPS COLLECTION BOX - PO LOBBY", "address": {"city": "PHOENIX", "state": "AZ", "street": "16825 S DESERT FOOTHILLS PKWY", "postcode": "85048"}}},
{"geometry": {"type": "Point", "coordinates": [-112.0327391156, 33.296581041]}, "type": "Feature", "properties": {"collection_times": [{"days": "Mon-Fri", "time": "3:00pm"}, {"days": "Sat", "time": "1:45pm"}, {"days": "Sun", "time": "Closed"}], "id": "8504800003", "name": "USPS COLLECTION BOX - BLUE BOX", "address": {"city": "PHOENIX", "state": "AZ", "street": "2399 E LIBERTY LN", "postcode": "85048"}}},
{"geometry": {"type": "Point", "coordinates": [-112.0509367091, 33.2918511291]}, "type": "Feature", "properties": {"collection_times": [{"days": "Mon-Fri", "time": "2:45pm"}, {"days": "Sat", "time": "1:45pm"}, {"days": "Sun", "time": "Closed"}], "id": "8504800005", "name": "USPS COLLECTION BOX - BLUE BOX", "address": {"city": "PHOENIX", "state": "AZ", "street": "1501 E LIBERTY LN", "postcode": "85048"}}},
{"geometry": {"type": "Point", "coordinates": [-112.0559685944, 33.3061637908]}, "type": "Feature", "properties": {"collection_times": [{"days": "Mon-Fri", "time": "2:45pm"}, {"days": "Sat-Sun", "time": "Closed"}], "id": "8504800006", "name": "USPS COLLECTION BOX - BLUE BOX", "address": {"city": "PHOENIX", "state": "AZ", "street": "1255 E CHANDLER BLVD", "postcode": "85048"}}},
{"geometry": {"type": "Point", "coordinates": [-112.0751501517, 33.3039161129]}, "type": "Feature", "properties": {"collection_times": [{"days": "Mon-Fri", "time": "2:45pm"}, {"days": "Sat", "time": "1:45pm"}, {"days": "Sun", "time": "Closed"}], "id": "8504800007", "name": "USPS COLLECTION BOX - BLUE BOX", "address": {"city": "PHOENIX", "state": "AZ", "street": "75 E CHANDLER BLVD", "postcode": "85048"}}},
{"geometry": {"type": "Point", "coordinates": [-112.0470642663, 33.3048576926]}, "type": "Feature", "properties": {"collection_times": [{"days": "Mon-Fri", "time": "2:30pm"}, {"days": "Sat", "time": "1:45pm"}, {"days": "Sun", "time": "Closed"}], "id": "8504800008", "name": "USPS COLLECTION BOX - BLUE BOX", "address": {"city": "PHOENIX", "state": "AZ", "street": "1699 W CHANDLER BLVD", "postcode": "85048"}}},
{"geometry": {"type": "Point", "coordinates": [-112.0353045589, 33.3077000582]}, "type": "Feature", "properties": {"collection_times": [{"days": "Mon-Fri", "time": "2:30pm"}, {"days": "Sat", "time": "1:45pm"}, {"days": "Sun", "time": "Closed"}], "id": "8504800011", "name": "USPS COLLECTION BOX - BLUE BOX", "address": {"city": "PHOENIX", "state": "AZ", "street": "2200 E THUNDERHILL PL", "postcode": "85048"}}},
{"geometry": {"type": "Point", "coordinates": [-112.0247512766, 33.3088832383]}, "type": "Feature", "properties": {"collection_times": [{"days": "Mon-Fri", "time": "2:15pm"}, {"days": "Sat", "time": "1:45pm"}, {"days": "Sun", "time": "Closed"}], "id": "8504800012", "name": "USPS COLLECTION BOX - BLUE BOX", "address": {"city": "PHOENIX", "state": "AZ", "street": "2600 E THUNDERHILL PL", "postcode": "85048"}}},
{"geometry": {"type": "Point", "coordinates": [-112.0572874174, 33.3068776833]}, "type": "Feature", "properties": {"collection_times": [{"days": "Mon-Fri", "time": "2:30pm"}, {"days": "Sat-Sun", "time": "Closed"}], "id": "8504800013", "name": "USPS COLLECTION BOX - BLUE BOX", "address": {"city": "PHOENIX", "state": "AZ", "street": "1200 E CHANDLER BLVD", "postcode": "85048"}}},
{"geometry": {"type": "Point", "coordinates": [-112.0635004941, 33.2931394126]}, "type": "Feature", "properties": {"collection_times": [{"days": "Mon-Fri", "time": "5:00pm"}, {"days": "Sat", "time": "4:30pm"}, {"days": "Sun", "time": "Closed"}], "id": "8504800014", "name": "USPS COLLECTION BOX - APC", "address": {"city": "PHOENIX", "state": "AZ", "street": "16825 S DESERT FOOTHILLS PKWY", "postcode": "85048"}}},
{"geometry": {"type": "Point", "coordinates": [-111.98518543, 33.305115284]}, "type": "Feature", "properties": {"collection_times": [{"days": "Mon-Fri", "time": "3:30pm"}, {"days": "Sat-Sun", "time": "Closed"}], "id": "8504800015", "name": "USPS COLLECTION BOX - BLUE BOX", "address": {"city": "PHOENIX", "state": "AZ", "street": "4545 E CHANDLER BLVD", "postcode": "85048"}}},
{"geometry": {"type": "Point", "coordinates": [-111.9946983958, 33.3050663625]}, "type": "Feature", "properties": {"collection_times": [{"days": "Mon-Fri", "time": "3:15pm"}, {"days": "Sat", "time": "2:00pm"}, {"days": "Sun", "time": "Closed"}], "id": "8504800016", "name": "USPS COLLECTION BOX - BLUE BOX", "address": {"city": "PHOENIX", "state": "AZ", "street": "4099 E CHANDLER BLVD", "postcode": "85048"}}},
{"geometry": {"type": "Point", "coordinates": [-112.0139203179, 33.3051334335]}, "type": "Feature", "properties": {"collection_times": [{"days": "Mon-Fri", "time": "3:00pm"}, {"days": "Sat", "time": "2:00pm"}, {"days": "Sun", "time": "Closed"}], "id": "8504800017", "name": "USPS COLLECTION BOX - BLUE BOX", "address": {"city": "PHOENIX", "state": "AZ", "street": "3201 E CHANDLER BLVD", "postcode": "85048"}}},
{"geometry": {"type": "Point", "coordinates": [-111.9996147952, 33.3051251528]}, "type": "Feature", "properties": {"collection_times": [{"days": "Mon-Fri", "time": "3:15pm"}, {"days": "Sat", "time": "2:00pm"}, {"days": "Sun", "time": "Closed"}], "id": "8504800018", "name": "USPS COLLECTION BOX - BLUE BOX", "address": {"city": "PHOENIX", "state": "AZ", "street": "3941 E CHANDLER BLVD", "postcode": "85048"}}},
{"geometry": {"type": "Point", "coordinates": [-112.0138535507, 33.2938205281]}, "type": "Feature", "properties": {"collection_times": [{"days": "Mon-Fri", "time": "3:00pm"}, {"days": "Sat-Sun", "time": "Closed"}], "id": "8504800019", "name": "USPS COLLECTION BOX - BLUE BOX", "address": {"city": "PHOENIX", "state": "AZ", "street": "16802 S 32ND PL", "postcode": "85048"}}},
{"geometry": {"type": "Point", "coordinates": [-112.0269908315, 33.6768711905]}, "type": "Feature", "properties": {"collection_times": [{"days": "Mon-Sat", "time": "5:00pm"}, {"days": "Sun", "time": "Closed"}], "id": "8505000000", "name": "USPS COLLECTION BOX - PO LOBBY", "address": {"city": "PHOENIX", "state": "AZ", "street": "2550 E ROSE GARDEN LN", "postcode": "85050"}}},
{"geometry": {"type": "Point", "coordinates": [-112.0269908315, 33.6768711905]}, "type": "Feature", "properties": {"collection_times": [{"days": "Mon-Sat", "time": "5:00pm"}, {"days": "Sun", "time": "Closed"}], "id": "8505000001", "name": "USPS COLLECTION BOX - BLUE BOX", "address": {"city": "PHOENIX", "state": "AZ", "street": "2550 E ROSE GARDEN LN", "postcode": "85050"}}},
{"geometry": {"type": "Point", "coordinates": [-112.0269908315, 33.6768711905]}, "type": "Feature", "properties": {"collection_times": [{"days": "Mon-Sat", "time": "5:00pm"}, {"days": "Sun", "time": "Closed"}], "id": "8505000002", "name": "USPS COLLECTION BOX - BLUE BOX", "address": {"city": "PHOENIX", "state": "AZ", "street": "2550 E ROSE GARDEN LN", "postcode": "85050"}}},
{"geometry": {"type": "Point", "coordinates": [-112.0269908315, 33.6768711905]}, "type": "Feature", "properties": {"collection_times": [{"days": "Mon-Sat", "time": "5:00pm"}, {"days": "Sun", "time": "Closed"}], "id": "8505000003", "name": "USPS COLLECTION BOX - BLUE BOX", "address": {"city": "PHOENIX", "state": "AZ", "street": "2550 E ROSE GARDEN LN", "postcode": "85050"}}},
{"geometry": {"type": "Point", "coordinates": [-112.014148629, 33.6551071115]}, "type": "Feature", "properties": {"collection_times": [{"days": "Mon-Fri", "time": "2:15pm"}, {"days": "Sat-Sun", "time": "Closed"}], "id": "8505000005", "name": "USPS COLLECTION BOX - BLUE BOX", "address": {"city": "PHOENIX", "state": "AZ", "street": "3196 E UNION HILLS DR", "postcode": "85050"}}},
{"geometry": {"type": "Point", "coordinates": [-111.9774981944, 33.7261142233]}, "type": "Feature", "properties": {"collection_times": [{"days": "Mon-Fri", "time": "2:00pm"}, {"days": "Sat", "time": "2:15pm"}, {"days": "Sun", "time": "Closed"}], "id": "8505000006", "name": "USPS COLLECTION BOX - BLUE BOX", "address": {"city": "PHOENIX", "state": "AZ", "street": "26290 N TATUM BLVD", "postcode": "85050"}}},
{"geometry": {"type": "Point", "coordinates": [-111.9767431028, 33.6824163998]}, "type": "Feature", "properties": {"collection_times": [{"days": "Mon-Fri", "time": "1:45pm"}, {"days": "Sat", "time": "2:00pm"}, {"days": "Sun", "time": "Closed"}], "id": "8505000008", "name": "USPS COLLECTION BOX - BLUE BOX", "address": {"city": "PHOENIX", "state": "AZ", "street": "21601 N TATUM BLVD", "postcode": "85050"}}},
{"geometry": {"type": "Point", "coordinates": [-111.9706973143, 33.6927640159]}, "type": "Feature", "properties": {"collection_times": [{"days": "Mon-Fri", "time": "1:45pm"}, {"days": "Sat", "time": "2:15pm"}, {"days": "Sun", "time": "Closed"}], "id": "8505000009", "name": "USPS COLLECTION BOX - BLUE BOX", "address": {"city": "PHOENIX", "state": "AZ", "street": "22805 N TATUM BLVD", "postcode": "85050"}}},
{"geometry": {"type": "Point", "coordinates": [-111.9958399731, 33.6552088459]}, "type": "Feature", "properties": {"collection_times": [{"days": "Mon-Fri", "time": "1:30pm"}, {"days": "Sat-Sun", "time": "Closed"}], "id": "8505000010", "name": "USPS COLLECTION BOX - BLUE BOX", "address": {"city": "PHOENIX", "state": "AZ", "street": "4005 E UNION HILLS DR", "postcode": "85050"}}},
{"geometry": {"type": "Point", "coordinates": [-112.0302214925, 33.6550491465]}, "type": "Feature", "properties": {"collection_times": [{"days": "Mon-Fri", "time": "2:15pm"}, {"days": "Sat-Sun", "time": "Closed"}], "id": "8505000011", "name": "USPS COLLECTION BOX - BLUE BOX", "address": {"city": "PHOENIX", "state": "AZ", "street": "2415 E UNION HILLS DR", "postcode": "85050"}}},
{"geometry": {"type": "Point", "coordinates": [-112.0269908315, 33.6768711905]}, "type": "Feature", "properties": {"collection_times": [{"days": "Mon-Sat", "time": "5:00pm"}, {"days": "Sun", "time": "Closed"}], "id": "8505000012", "name": "USPS COLLECTION BOX - APC", "address": {"city": "PHOENIX", "state": "AZ", "street": "2550 E ROSE GARDEN LN", "postcode": "85050"}}},
{"geometry": {"type": "Point", "coordinates": [-112.132509702, 33.5592228532]}, "type": "Feature", "properties": {"collection_times": [{"days": "Mon-Fri", "time": "2:00pm"}, {"days": "Sat-Sun", "time": "Closed"}], "id": "8505100019", "name": "USPS COLLECTION BOX - BLUE BOX", "address": {"city": "PHOENIX", "state": "AZ", "street": "7000 N 35TH AVE", "postcode": "85051"}}},
{"geometry": {"type": "Point", "coordinates": [-112.1341755369, 33.5539053793]}, "type": "Feature", "properties": {"collection_times": [{"days": "Mon-Fri", "time": "2:00pm"}, {"days": "Sat-Sun", "time": "Closed"}], "id": "8505100026", "name": "USPS COLLECTION BOX - BLUE BOX", "address": {"city": "PHOENIX", "state": "AZ", "street": "8043 N 35TH AVE", "postcode": "85051"}}},
{"geometry": {"type": "Point", "coordinates": [-112.1339318041, 33.6109410126]}, "type": "Feature", "properties": {"collection_times": [{"days": "Mon-Fri", "time": "4:15pm"}, {"days": "Sat", "time": "3:45pm"}, {"days": "Sun", "time": "Closed"}], "id": "8505300002", "name": "USPS COLLECTION BOX - BLUE BOX", "address": {"city": "PHOENIX", "state": "AZ", "street": "13800 N 35TH AVE", "postcode": "85053"}}},
{"geometry": {"type": "Point", "coordinates": [-112.1493510742, 33.610599761]}, "type": "Feature", "properties": {"collection_times": [{"days": "Mon-Fri", "time": "4:45pm"}, {"days": "Sat", "time": "3:30pm"}, {"days": "Sun", "time": "Closed"}], "id": "8505300005", "name": "USPS COLLECTION BOX - BLUE BOX", "address": {"city": "PHOENIX", "state": "AZ", "street": "4225 W THUNDERBIRD RD", "postcode": "85053"}}},
{"geometry": {"type": "Point", "coordinates": [-112.0230693226, 33.6404668113]}, "type": "Feature", "properties": {"collection_times": [{"days": "Mon-Fri", "time": "3:00pm"}, {"days": "Sat-Sun", "time": "Closed"}], "id": "8505300006", "name": "USPS COLLECTION BOX - BLUE BOX", "address": {"city": "PHOENIX", "state": "AZ", "street": "2727 W BELL RD", "postcode": "85053"}}},
{"geometry": {"type": "Point", "coordinates": [-112.1336227527, 33.6396789606]}, "type": "Feature", "properties": {"collection_times": [{"days": "Mon-Fri", "time": "3:15pm"}, {"days": "Sat-Sun", "time": "Closed"}], "id": "8505300007", "name": "USPS COLLECTION BOX - BLUE BOX", "address": {"city": "PHOENIX", "state": "AZ", "street": "3450 W BELL RD", "postcode": "85053"}}},
{"geometry": {"type": "Point", "coordinates": [-112.1180935131, 33.6308032059]}, "type": "Feature", "properties": {"collection_times": [{"days": "Mon-Fri", "time": "3:00pm"}, {"days": "Sat-Sun", "time": "Closed"}], "id": "8505300008", "name": "USPS COLLECTION BOX - BLUE BOX", "address": {"city": "PHOENIX", "state": "AZ", "street": "15875 N 28TH AVE", "postcode": "85053"}}},
{"geometry": {"type": "Point", "coordinates": [-111.9514623892, 33.66100515]}, "type": "Feature", "properties": {"collection_times": [{"days": "Mon-Fri", "time": "1:45pm"}, {"days": "Sat-Sun", "time": "Closed"}], "id": "8505400003", "name": "USPS COLLECTION BOX - BLUE BOX", "address": {"city": "PHOENIX", "state": "AZ", "street": "5777 E MAYO BLVD", "postcode": "85054"}}},
{"geometry": {"type": "Point", "coordinates": [-112.0680745807, 33.7990152702]}, "type": "Feature", "properties": {"collection_times": [{"days": "Mon-Fri", "time": "1:00pm"}, {"days": "Sat-Sun", "time": "Closed"}], "id": "8508500000", "name": "USPS COLLECTION BOX - BLUE BOX", "address": {"city": "PHOENIX", "state": "AZ", "street": "445 E CAREFREE HWY", "postcode": "85085"}}},
{"geometry": {"type": "Point", "coordinates": [-112.1117971597, 33.7128733636]}, "type": "Feature", "properties": {"collection_times": [{"days": "Mon-Fri", "time": "12:15pm"}, {"days": "Sat-Sun", "time": "Closed"}], "id": "8508500001", "name": "USPS COLLECTION BOX - BLUE BOX", "address": {"city": "PHOENIX", "state": "AZ", "street": "2501 W HAPPY VALLEY RD", "postcode": "85085"}}},
{"geometry": {"type": "Point", "coordinates": [-112.1117971597, 33.7128733636]}, "type": "Feature", "properties": {"collection_times": [{"days": "Mon-Fri", "time": "12:15pm"}, {"days": "Sat-Sun", "time": "Closed"}], "id": "8508500002", "name": "USPS COLLECTION BOX - BLUE BOX", "address": {"city": "PHOENIX", "state": "AZ", "street": "2501 W HAPPY VALLEY RD", "postcode": "85085"}}},
{"geometry": {"type": "Point", "coordinates": [-112.1445032856, 33.8708895606]}, "type": "Feature", "properties": {"collection_times": [{"days": "Mon-Fri", "time": "1:45pm"}, {"days": "Sat-Sun", "time": "Closed"}], "id": "8508600001", "name": "USPS COLLECTION BOX - BLUE BOX", "address": {"city": "ANTHEM", "state": "AZ", "street": "4266 W ANTHEM WAY", "postcode": "85086"}}},
{"geometry": {"type": "Point", "coordinates": [-112.1347432437, 33.8639683245]}, "type": "Feature", "properties": {"collection_times": [{"days": "Mon-Fri", "time": "1:45pm"}, {"days": "Sat-Sun", "time": "Closed"}], "id": "8508600002", "name": "USPS COLLECTION BOX - BLUE BOX", "address": {"city": "ANTHEM", "state": "AZ", "street": "3655 W ANTHEM WAY", "postcode": "85086"}}},
{"geometry": {"type": "Point", "coordinates": [-112.1270419519, 33.7984107605]}, "type": "Feature", "properties": {"collection_times": [{"days": "Mon-Fri", "time": "1:00pm"}, {"days": "Sat-Sun", "time": "Closed"}], "id": "8508600003", "name": "USPS COLLECTION BOX - BLUE BOX", "address": {"city": "ANTHEM", "state": "AZ", "street": "3130 W CAREFREE HWY", "postcode": "85086"}}},
{"geometry": {"type": "Point", "coordinates": [-112.1123355927, 33.8598834503]}, "type": "Feature", "properties": {"collection_times": [{"days": "Mon-Fri", "time": "1:45pm"}, {"days": "Sat-Sun", "time": "Closed"}], "id": "8508600004", "name": "USPS COLLECTION BOX - BLUE BOX", "address": {"city": "ANTHEM", "state": "AZ", "street": "2411 W ANTHEM WAY", "postcode": "85086"}}},
{"geometry": {"type": "Point", "coordinates": [-112.1123355927, 33.8598834503]}, "type": "Feature", "properties": {"collection_times": [{"days": "Mon-Fri", "time": "1:45pm"}, {"days": "Sat-Sun", "time": "Closed"}], "id": "8508600006", "name": "USPS COLLECTION BOX - BLUE BOX", "address": {"city": "ANTHEM", "state": "AZ", "street": "2411 W ANTHEM WAY", "postcode": "85086"}}},
{"geometry": {"type": "Point", "coordinates": [-112.1347432437, 33.8639683245]}, "type": "Feature", "properties": {"collection_times": [{"days": "Mon-Fri", "time": "1:45pm"}, {"days": "Sat-Sun", "time": "Closed"}], "id": "8508600007", "name": "USPS COLLECTION BOX - BLUE BOX", "address": {"city": "ANTHEM", "state": "AZ", "street": "3655 W ANTHEM WAY", "postcode": "85086"}}},
{"geometry": {"type": "Point", "coordinates": [-112.1522127027, 33.8843113561]}, "type": "Feature", "properties": {"collection_times": [{"days": "Mon-Fri", "time": "5:00pm"}, {"days": "Sat", "time": "2:00pm"}, {"days": "Sun", "time": "Closed"}], "id": "8508700005", "name": "USPS COLLECTION BOX - BLUE BOX", "address": {"city": "PHOENIX", "state": "AZ", "street": "44047 N 43RD AVE", "postcode": "85087"}}},
{"geometry": {"type": "Point", "coordinates": [-112.1522127027, 33.8843113561]}, "type": "Feature", "properties": {"collection_times": [{"days": "Mon-Fri", "time": "5:00pm"}, {"days": "Sat", "time": "2:00pm"}, {"days": "Sun", "time": "Closed"}], "id": "8508700006", "name": "USPS COLLECTION BOX - BLUE BOX", "address": {"city": "PHOENIX", "state": "AZ", "street": "44047 N 43RD AVE", "postcode": "85087"}}},
{"geometry": {"type": "Point", "coordinates": [-112.1522127027, 33.8843113561]}, "type": "Feature", "properties": {"collection_times": [{"days": "Mon-Fri", "time": "5:00pm"}, {"days": "Sat", "time": "2:00pm"}, {"days": "Sun", "time": "Closed"}], "id": "8508700007", "name": "USPS COLLECTION BOX - PO LOBBY", "address": {"city": "PHOENIX", "state": "AZ", "street": "44047 N 43RD AVE", "postcode": "85087"}}},
{"geometry": {"type": "Point", "coordinates": [-112.1522127027, 33.8843113561]}, "type": "Feature", "properties": {"collection_times": [{"days": "Mon-Fri", "time": "5:00pm"}, {"days": "Sat", "time": "2:00pm"}, {"days": "Sun", "time": "Closed"}], "id": "8508700008", "name": "USPS COLLECTION BOX - PO LOBBY", "address": {"city": "PHOENIX", "state": "AZ", "street": "44047 N 43RD AVE", "postcode": "85087"}}}
]}
