{"type": "FeatureCollection", "features": [
{"geometry": {"type": "Point", "coordinates": [-111.4577179373, 33.3518530439]}, "type": "Feature", "properties": {"collection_times": [{"days": "Mon-Fri", "time": "2:15pm"}, {"days": "Sat", "time": "1:00pm"}, {"days": "Sun", "time": "Closed"}], "id": "8511800001", "name": "USPS COLLECTION BOX - BLUE BOX", "address": {"city": "APACHE JUNCTION", "state": "AZ", "street": "6951 S KINGS RANCH RD", "postcode": "85118"}}},
{"geometry": {"type": "Point", "coordinates": [-111.5460890661, 33.4231827686]}, "type": "Feature", "properties": {"collection_times": [{"days": "Mon-Fri", "time": "2:15pm"}, {"days": "Sat", "time": "1:00pm"}, {"days": "Sun", "time": "Closed"}], "id": "8511800002", "name": "USPS COLLECTION BOX - BLUE BOX", "address": {"city": "APACHE JUNCTION", "state": "AZ", "street": "5311 S SUPERSTITION MOUNTAIN DR", "postcode": "85118"}}},
{"geometry": {"type": "Point", "coordinates": [-111.463502159, 33.363059172]}, "type": "Feature", "properties": {"collection_times": [{"days": "Mon-Fri", "time": "2:15pm"}, {"days": "Sat", "time": "1:00pm"}, {"days": "Sun", "time": "Closed"}], "id": "8511800003", "name": "USPS COLLECTION BOX - BLUE BOX", "address": {"city": "APACHE JUNCTION", "state": "AZ", "street": "5782 S MOUNTAINBROOK DR", "postcode": "85118"}}},
{"geometry": {"type": "Point", "coordinates": [-111.569266639, 33.4164633525]}, "type": "Feature", "properties": {"collection_times": [{"days": "Mon-Fri", "time": "1:45pm"}, {"days": "Sat", "time": "4:00pm"}, {"days": "Sun", "time": "Closed"}], "id": "8512000001", "name": "USPS COLLECTION BOX - EXPRESS", "address": {"city": "APACHE JUNCTION", "state": "AZ", "street": "151 W SUPERSTITION BLVD", "postcode": "85120"}}},
{"geometry": {"type": "Point", "coordinates": [-111.5487119142, 33.4222463473]}, "type": "Feature", "properties": {"collection_times": [{"days": "Mon-Fri", "time": "5:00pm"}, {"days": "Sat", "time": "4:00pm"}, {"days": "Sun", "time": "Closed"}], "id": "8512000002", "name": "USPS COLLECTION BOX - BLUE BOX", "address": {"city": "APACHE JUNCTION", "state": "AZ", "street": "151 W SUPERSTITION BLVD", "postcode": "85120"}}},
{"geometry": {"type": "Point", "coordinates": [-111.5550080979, 33.4149803721]}, "type": "Feature", "properties": {"collection_times": [{"days": "Mon-Fri", "time": "11:45am"}, {"days": "Sat", "time": "1:00pm"}, {"days": "Sun", "time": "Closed"}], "id": "8512000003", "name": "USPS COLLECTION BOX - BLUE BOX", "address": {"city": "APACHE JUNCTION", "state": "AZ", "street": "725 W APACHE TRL", "postcode": "85120"}}},
{"geometry": {"type": "Point", "coordinates": [-111.5502909096, 33.4150278918]}, "type": "Feature", "properties": {"collection_times": [{"days": "Mon-Fri", "time": "3:15pm"}, {"days": "Sat", "time": "1:00pm"}, {"days": "Sun", "time": "Closed"}], "id": "8512000004", "name": "USPS COLLECTION BOX - BLUE BOX", "address": {"city": "APACHE JUNCTION", "state": "AZ", "street": "350 W APACHE TRL", "postcode": "85120"}}},
{"geometry": {"type": "Point", "coordinates": [-111.6000095939, 33.4150241262]}, "type": "Feature", "properties": {"collection_times": [{"days": "Mon-Fri", "time": "3:00pm"}, {"days": "Sat", "time": "1:00pm"}, {"days": "Sun", "time": "Closed"}], "id": "8512000005", "name": "USPS COLLECTION BOX - BLUE BOX", "address": {"city": "APACHE JUNCTION", "state": "AZ", "street": "10653 E APACHE TRL", "postcode": "85120"}}},
{"geometry": {"type": "Point", "coordinates": [-111.5487119142, 33.4222463473]}, "type": "Feature", "properties": {"collection_times": [{"days": "Mon-Fri", "time": "5:00pm"}, {"days": "Sat", "time": "4:00pm"}, {"days": "Sun", "time": "Closed"}], "id": "8512000006", "name": "USPS COLLECTION BOX - BLUE BOX", "address": {"city": "APACHE JUNCTION", "state": "AZ", "street": "151 W SUPERSTITION BLVD", "postcode": "85120"}}},
{"geometry": {"type": "Point", "coordinates": [-111.5487119142, 33.4222463473]}, "type": "Feature", "properties": {"collection_times": [{"days": "Mon-Fri", "time": "5:00pm"}, {"days": "Sat", "time": "4:00pm"}, {"days": "Sun", "time": "Closed"}], "id": "8512000007", "name": "USPS COLLECTION BOX - PO LOBBY", "address": {"city": "APACHE JUNCTION", "state": "AZ", "street": "151 W SUPERSTITION BLVD", "postcode": "85120"}}},
{"geometry": {"type": "Point", "coordinates": [-111.5478781003, 33.413640925]}, "type": "Feature", "properties": {"collection_times": [{"days": "Mon-Fri", "time": "3:15pm"}, {"days": "Sat", "time": "1:00pm"}, {"days": "Sun", "time": "Closed"}], "id": "8512000008", "name": "USPS COLLECTION BOX - BLUE BOX", "address": {"city": "APACHE JUNCTION", "state": "AZ", "street": "185 W APACHE TRL", "postcode": "85120"}}},
{"geometry": {"type": "Point", "coordinates": [-111.5781265159, 33.4150634442]}, "type": "Feature", "properties": {"collection_times": [{"days": "Mon-Fri", "time": "3:00pm"}, {"days": "Sat", "time": "1:00pm"}, {"days": "Sun", "time": "Closed"}], "id": "8512000009", "name": "USPS COLLECTION BOX - BLUE BOX", "address": {"city": "APACHE JUNCTION", "state": "AZ", "street": "3003 W APACHE TRL", "postcode": "85120"}}},
{"geometry": {"type": "Point", "coordinates": [-111.5487119142, 33.4222463473]}, "type": "Feature", "properties": {"collection_times": [{"days": "Mon-Fri", "time": "5:00pm"}, {"days": "Sat", "time": "4:00pm"}, {"days": "Sun", "time": "Closed"}], "id": "8512000010", "name": "USPS COLLECTION BOX - APC", "address": {"city": "APACHE JUNCTION", "state": "AZ", "street": "151 W SUPERSTITION BLVD", "postcode": "85120"}}},
{"geometry": {"type": "Point", "coordinates": [-111.7430016464, 32.894179886]}, "type": "Feature", "properties": {"collection_times": [{"days": "Mon-Sat", "time": "2:30pm"}, {"days": "Sun", "time": "Closed"}], "id": "8512200001", "name": "USPS COLLECTION BOX - BLUE BOX", "address": {"city": "CASA GRANDE", "state": "AZ", "street": "820 E COTTONWOOD LN", "postcode": "85122"}}},
{"geometry": {"type": "Point", "coordinates": [-111.7430016464, 32.894179886]}, "type": "Feature", "properties": {"collection_times": [{"days": "Mon-Sat", "time": "2:30pm"}, {"days": "Sun", "time": "Closed"}], "id": "8512200002", "name": "USPS COLLECTION BOX - BLUE BOX", "address": {"city": "CASA GRANDE", "state": "AZ", "street": "820 E COTTONWOOD LN", "postcode": "85122"}}},
{"geometry": {"type": "Point", "coordinates": [-111.6885006528, 32.8799377201]}, "type": "Feature", "properties": {"collection_times": [{"days": "Mon-Sat", "time": "11:00am"}, {"days": "Sun", "time": "Closed"}], "id": "8512200003", "name": "USPS COLLECTION BOX - BLUE BOX", "address": {"city": "CASA GRANDE", "state": "AZ", "street": "2300 E TANGER DR", "postcode": "85122"}}},
{"geometry": {"type": "Point", "coordinates": [-111.7375527306, 32.8796329944]}, "type": "Feature", "properties": {"collection_times": [{"days": "Mon-Sat", "time": "2:30pm"}, {"days": "Sun", "time": "Closed"}], "id": "8512200004", "name": "USPS COLLECTION BOX - BLUE BOX", "address": {"city": "CASA GRANDE", "state": "AZ", "street": "1162 E FLORENCE BLVD", "postcode": "85122"}}},
{"geometry": {"type": "Point", "coordinates": [-111.7084375689, 32.8796689293]}, "type": "Feature", "properties": {"collection_times": [{"days": "Mon-Sat", "time": "2:30pm"}, {"days": "Sun", "time": "Closed"}], "id": "8512200005", "name": "USPS COLLECTION BOX - BLUE BOX", "address": {"city": "CASA GRANDE", "state": "AZ", "street": "1800 E FLORENCE BLVD", "postcode": "85122"}}},
{"geometry": {"type": "Point", "coordinates": [-111.7084375689, 32.8796689293]}, "type": "Feature", "properties": {"collection_times": [{"days": "Mon-Sat", "time": "2:30pm"}, {"days": "Sun", "time": "Closed"}], "id": "8512200006", "name": "USPS COLLECTION BOX - BLUE BOX", "address": {"city": "CASA GRANDE", "state": "AZ", "street": "1800 E FLORENCE BLVD", "postcode": "85122"}}},
{"geometry": {"type": "Point", "coordinates": [-111.7280834974, 32.8795203337]}, "type": "Feature", "properties": {"collection_times": [{"days": "Mon-Sat", "time": "2:30pm"}, {"days": "Sun", "time": "Closed"}], "id": "8512200007", "name": "USPS COLLECTION BOX - BLUE BOX", "address": {"city": "CASA GRANDE", "state": "AZ", "street": "1377 E FLORENCE BLVD", "postcode": "85122"}}},
{"geometry": {"type": "Point", "coordinates": [-111.734597563, 32.8758461805]}, "type": "Feature", "properties": {"collection_times": [{"days": "Mon-Sat", "time": "2:30pm"}, {"days": "Sun", "time": "Closed"}], "id": "8512200008", "name": "USPS COLLECTION BOX - BLUE BOX", "address": {"city": "CASA GRANDE", "state": "AZ", "street": "320 N AVENUE A", "postcode": "85122"}}},
{"geometry": {"type": "Point", "coordinates": [-111.739132284, 32.8795298768]}, "type": "Feature", "properties": {"collection_times": [{"days": "Mon-Sat", "time": "2:30pm"}, {"days": "Sun", "time": "Closed"}], "id": "8512200009", "name": "USPS COLLECTION BOX - BLUE BOX", "address": {"city": "CASA GRANDE", "state": "AZ", "street": "1115 E FLORENCE BLVD", "postcode": "85122"}}},
{"geometry": {"type": "Point", "coordinates": [-111.7506598008, 32.8777650993]}, "type": "Feature", "properties": {"collection_times": [{"days": "Mon-Sat", "time": "2:30pm"}, {"days": "Sun", "time": "Closed"}], "id": "8512200010", "name": "USPS COLLECTION BOX - BLUE BOX", "address": {"city": "CASA GRANDE", "state": "AZ", "street": "300 E 4TH ST", "postcode": "85122"}}},
{"geometry": {"type": "Point", "coordinates": [-111.6922926103, 32.8768136905]}, "type": "Feature", "properties": {"collection_times": [{"days": "Mon-Sat", "time": "2:30pm"}, {"days": "Sun", "time": "Closed"}], "id": "8512200011", "name": "USPS COLLECTION BOX - BLUE BOX", "address": {"city": "CASA GRANDE", "state": "AZ", "street": "560 N CAMINO MERCADO", "postcode": "85122"}}},
{"geometry": {"type": "Point", "coordinates": [-111.7547470213, 32.8778037029]}, "type": "Feature", "properties": {"collection_times": [{"days": "Mon-Sat", "time": "2:30pm"}, {"days": "Sun", "time": "Closed"}], "id": "8512200012", "name": "USPS COLLECTION BOX - BLUE BOX", "address": {"city": "CASA GRANDE", "state": "AZ", "street": "200 W 2ND ST", "postcode": "85122"}}},
{"geometry": {"type": "Point", "coordinates": [-111.7529716153, 32.8781689165]}, "type": "Feature", "properties": {"collection_times": [{"days": "Mon-Sat", "time": "2:30pm"}, {"days": "Sun", "time": "Closed"}], "id": "8512200013", "name": "USPS COLLECTION BOX - BLUE BOX", "address": {"city": "CASA GRANDE", "state": "AZ", "street": "423 N FLORENCE ST", "postcode": "85122"}}},
{"geometry": {"type": "Point", "coordinates": [-111.7510622353, 32.8790207362]}, "type": "Feature", "properties": {"collection_times": [{"days": "Mon-Sat", "time": "2:30pm"}, {"days": "Sun", "time": "Closed"}], "id": "8512200014", "name": "USPS COLLECTION BOX - BLUE BOX", "address": {"city": "CASA GRANDE", "state": "AZ", "street": "575 N MARSHALL ST", "postcode": "85122"}}},
{"geometry": {"type": "Point", "coordinates": [-111.7749070079, 32.8793959657]}, "type": "Feature", "properties": {"collection_times": [{"days": "Mon-Sat", "time": "2:30pm"}, {"days": "Sun", "time": "Closed"}], "id": "8512200015", "name": "USPS COLLECTION BOX - BLUE BOX", "address": {"city": "CASA GRANDE", "state": "AZ", "street": "1000 W GILA BEND HWY", "postcode": "85122"}}},
{"geometry": {"type": "Point", "coordinates": [-111.7486524167, 32.8938730175]}, "type": "Feature", "properties": {"collection_times": [{"days": "Mon-Sat", "time": "2:30pm"}, {"days": "Sun", "time": "Closed"}], "id": "8512200016", "name": "USPS COLLECTION BOX - BLUE BOX", "address": {"city": "CASA GRANDE", "state": "AZ", "street": "1592 N CASA GRANDE AVE", "postcode": "85122"}}},
{"geometry": {"type": "Point", "coordinates": [-111.7573069445, 32.8964175622]}, "type": "Feature", "properties": {"collection_times": [{"days": "Mon-Fri", "time": "5:00pm"}, {"days": "Sat", "time": "4:30pm"}, {"days": "Sun", "time": "Closed"}], "id": "8512200017", "name": "USPS COLLECTION BOX - BLUE BOX", "address": {"city": "CASA GRANDE", "state": "AZ", "street": "1670 N PINAL AVE", "postcode": "85122"}}},
{"geometry": {"type": "Point", "coordinates": [-111.7573069445, 32.8964175622]}, "type": "Feature", "properties": {"collection_times": [{"days": "Mon-Fri", "time": "5:00pm"}, {"days": "Sat", "time": "4:30pm"}, {"days": "Sun", "time": "Closed"}], "id": "8512200018", "name": "USPS COLLECTION BOX - BLUE BOX", "address": {"city": "CASA GRANDE", "state": "AZ", "street": "1670 N PINAL AVE", "postcode": "85122"}}},
{"geometry": {"type": "Point", "coordinates": [-111.7151876905, 32.8843762229]}, "type": "Feature", "properties": {"collection_times": [{"days": "Mon-Sat", "time": "2:30pm"}, {"days": "Sun", "time": "Closed"}], "id": "8512200019", "name": "USPS COLLECTION BOX - BLUE BOX", "address": {"city": "CASA GRANDE", "state": "AZ", "street": "1676 E MCMURRAY BLVD", "postcode": "85122"}}},
{"geometry": {"type": "Point", "coordinates": [-111.7573069445, 32.8964175622]}, "type": "Feature", "properties": {"collection_times": [{"days": "Mon-Fri", "time": "5:00pm"}, {"days": "Sat", "time": "4:30pm"}, {"days": "Sun", "time": "Closed"}], "id": "8512200020", "name": "USPS COLLECTION BOX - PO LOBBY", "address": {"city": "CASA GRANDE", "state": "AZ", "street": "1670 N PINAL AVE", "postcode": "85122"}}},
{"geometry": {"type": "Point", "coordinates": [-111.7573069445, 32.8964175622]}, "type": "Feature", "properties": {"collection_times": [{"days": "Mon-Fri", "time": "5:00pm"}, {"days": "Sat", "time": "4:30pm"}, {"days": "Sun", "time": "Closed"}], "id": "8512200021", "name": "USPS COLLECTION BOX - PO LOBBY", "address": {"city": "CASA GRANDE", "state": "AZ", "street": "1670 N PINAL AVE", "postcode": "85122"}}},
{"geometry": {"type": "Point", "coordinates": [-111.7474434178, 32.8796023404]}, "type": "Feature", "properties": {"collection_times": [{"days": "Mon-Sat", "time": "2:30pm"}, {"days": "Sun", "time": "Closed"}], "id": "8512200022", "name": "USPS COLLECTION BOX - BLUE BOX", "address": {"city": "CASA GRANDE", "state": "AZ", "street": "510 E FLORENCE BLVD", "postcode": "85122"}}},
{"geometry": {"type": "Point", "coordinates": [-111.7474434178, 32.8796023404]}, "type": "Feature", "properties": {"collection_times": [{"days": "Mon-Sat", "time": "2:30pm"}, {"days": "Sun", "time": "Closed"}], "id": "8512200023", "name": "USPS COLLECTION BOX - BLUE BOX", "address": {"city": "CASA GRANDE", "state": "AZ", "street": "510 E FLORENCE BLVD", "postcode": "85122"}}},
{"geometry": {"type": "Point", "coordinates": [-111.7573069445, 32.8964175622]}, "type": "Feature", "properties": {"collection_times": [{"days": "Mon-Fri", "time": "5:00pm"}, {"days": "Sat", "time": "4:30pm"}, {"days": "Sun", "time": "Closed"}], "id": "8512200024", "name": "USPS COLLECTION BOX - BLUE BOX", "address": {"city": "CASA GRANDE", "state": "AZ", "street": "1670 N PINAL AVE", "postcode": "85122"}}},
{"geometry": {"type": "Point", "coordinates": [-111.7400571485, 32.8954768623]}, "type": "Feature", "properties": {"collection_times": [{"days": "Mon-Sat", "time": "2:30pm"}, {"days": "Sun", "time": "Closed"}], "id": "8512200025", "name": "USPS COLLECTION BOX - BLUE BOX", "address": {"city": "CASA GRANDE", "state": "AZ", "street": "1637 N TREKELL RD", "postcode": "85122"}}},
{"geometry": {"type": "Point", "coordinates": [-111.7573196648, 32.9094680114]}, "type": "Feature", "properties": {"collection_times": [{"days": "Mon-Sat", "time": "2:30pm"}, {"days": "Sun", "time": "Closed"}], "id": "8512200026", "name": "USPS COLLECTION BOX - BLUE BOX", "address": {"city": "CASA GRANDE", "state": "AZ", "street": "2021 N PINAL AVE", "postcode": "85122"}}},
{"geometry": {"type": "Point", "coordinates": [-111.7398653975, 32.9155199836]}, "type": "Feature", "properties": {"collection_times": [{"days": "Mon-Sat", "time": "2:30pm"}, {"days": "Sun", "time": "Closed"}], "id": "8512200027", "name": "USPS COLLECTION BOX - BLUE BOX", "address": {"city": "CASA GRANDE", "state": "AZ", "street": "2194 N TREKELL RD", "postcode": "85122"}}},
{"geometry": {"type": "Point", "coordinates": [-111.7573069445, 32.8964175622]}, "type": "Feature", "properties": {"collection_times": [{"days": "Mon-Fri", "time": "5:00pm"}, {"days": "Sat", "time": "4:30pm"}, {"days": "Sun", "time": "Closed"}], "id": "8512200028", "name": "USPS COLLECTION BOX - APC", "address": {"city": "CASA GRANDE", "state": "AZ", "street": "1670 N PINAL AVE", "postcode": "85122"}}},
{"geometry": {"type": "Point", "coordinates": [-111.760780344, 32.8969474293]}, "type": "Feature", "properties": {"collection_times": [{"days": "Mon-Sat", "time": "2:30pm"}, {"days": "Sun", "time": "Closed"}], "id": "8512200029", "name": "USPS COLLECTION BOX - BLUE BOX", "address": {"city": "CASA GRANDE", "state": "AZ", "street": "450 W SUNWEST DR", "postcode": "85122"}}},
{"geometry": {"type": "Point", "coordinates": [-111.5241895019, 32.9608474223]}, "type": "Feature", "properties": {"collection_times": [{"days": "Mon-Sat", "time": "12:00pm"}, {"days": "Sun", "time": "Closed"}], "id": "8512800002", "name": "USPS COLLECTION BOX - BLUE BOX", "address": {"city": "COOLIDGE", "state": "AZ", "street": "1925 S ARIZONA BLVD", "postcode": "85128"}}},
{"geometry": {"type": "Point", "coordinates": [-111.5186390585, 32.9776501714]}, "type": "Feature", "properties": {"collection_times": [{"days": "Mon-Fri", "time": "5:10pm"}, {"days": "Sat", "time": "3:00pm"}, {"days": "Sun", "time": "Closed"}], "id": "8512800003", "name": "USPS COLLECTION BOX - BLUE BOX", "address": {"city": "COOLIDGE", "state": "AZ", "street": "229 W CENTRAL AVE", "postcode": "85128"}}},
{"geometry": {"type": "Point", "coordinates": [-111.5186390585, 32.9776501714]}, "type": "Feature", "properties": {"collection_times": [{"days": "Mon-Fri", "time": "5:10pm"}, {"days": "Sat", "time": "3:00pm"}, {"days": "Sun", "time": "Closed"}], "id": "8512800004", "name": "USPS COLLECTION BOX - BLUE BOX", "address": {"city": "COOLIDGE", "state": "AZ", "street": "229 W CENTRAL AVE", "postcode": "85128"}}},
{"geometry": {"type": "Point", "coordinates": [-111.5240215853, 32.9876065776]}, "type": "Feature", "properties": {"collection_times": [{"days": "Mon-Sat", "time": "2:00pm"}, {"days": "Sun", "time": "Closed"}], "id": "8512800005", "name": "USPS COLLECTION BOX - BLUE BOX", "address": {"city": "COOLIDGE", "state": "AZ", "street": "1060 N ARIZONA BLVD", "postcode": "85128"}}},
{"geometry": {"type": "Point", "coordinates": [-111.5186390585, 32.9776501714]}, "type": "Feature", "properties": {"collection_times": [{"days": "Mon-Fri", "time": "4:30pm"}, {"days": "Sat", "time": "3:00pm"}, {"days": "Sun", "time": "Closed"}], "id": "8512800006", "name": "USPS COLLECTION BOX - PO LOBBY", "address": {"city": "COOLIDGE", "state": "AZ", "street": "229 W CENTRAL AVE", "postcode": "85128"}}},
{"geometry": {"type": "Point", "coordinates": [-111.6522973932, 32.9558200425]}, "type": "Feature", "properties": {"collection_times": [{"days": "Mon-Sat", "time": "10:30am"}, {"days": "Sun", "time": "Closed"}], "id": "8512800007", "name": "USPS COLLECTION BOX - BLUE BOX", "address": {"city": "COOLIDGE", "state": "AZ", "street": "8470 N OVERFIELD RD", "postcode": "85128"}}},
{"geometry": {"type": "Point", "coordinates": [-111.5406032998, 32.9764359029]}, "type": "Feature", "properties": {"collection_times": [{"days": "Mon-Sat", "time": "1:30pm"}, {"days": "Sun", "time": "Closed"}], "id": "8512800008", "name": "USPS COLLECTION BOX - BLUE BOX", "address": {"city": "COOLIDGE", "state": "AZ", "street": "102 N CHOLLA", "postcode": "85128"}}},
{"geometry": {"type": "Point", "coordinates": [-111.554908648, 32.7562552925]}, "type": "Feature", "properties": {"collection_times": [{"days": "Mon-Fri", "time": "4:45pm"}, {"days": "Sat", "time": "4:00pm"}, {"days": "Sun", "time": "Closed"}], "id": "8513100001", "name": "USPS COLLECTION BOX - BLUE BOX", "address": {"city": "ELOY", "state": "AZ", "street": "620 N MAIN ST", "postcode": "85131"}}},
{"geometry": {"type": "Point", "coordinates": [-111.554908648, 32.7562552925]}, "type": "Feature", "properties": {"collection_times": [{"days": "Mon-Fri", "time": "4:45pm"}, {"days": "Sat", "time": "4:00pm"}, {"days": "Sun", "time": "Closed"}], "id": "8513100002", "name": "USPS COLLECTION BOX - BLUE BOX", "address": {"city": "ELOY", "state": "AZ", "street": "620 N MAIN ST", "postcode": "85131"}}},
{"geometry": {"type": "Point", "coordinates": [-111.5504221545, 32.7594990134]}, "type": "Feature", "properties": {"collection_times": [{"days": "Mon-Sat", "time": "12:45pm"}, {"days": "Sun", "time": "Closed"}], "id": "8513100003", "name": "USPS COLLECTION BOX - BLUE BOX", "address": {"city": "ELOY", "state": "AZ", "street": "1005 S SUNSHINE BLVD", "postcode": "85131"}}},
{"geometry": {"type": "Point", "coordinates": [-111.6192967204, 32.7736809381]}, "type": "Feature", "properties": {"collection_times": [{"days": "Mon-Fri", "time": "11:00am"}, {"days": "Sat", "time": "10:45am"}, {"days": "Sun", "time": "Closed"}], "id": "8513100004", "name": "USPS COLLECTION BOX - BLUE BOX", "address": {"city": "ELOY", "state": "AZ", "street": "2949 S TOLTEC RD", "postcode": "85131"}}},
{"geometry": {"type": "Point", "coordinates": [-111.554908648, 32.7562552925]}, "type": "Feature", "properties": {"collection_times": [{"days": "Mon-Fri", "time": "4:30pm"}, {"days": "Sat-Sun", "time": "Closed"}], "id": "8513100005", "name": "USPS COLLECTION BOX - PO LOBBY", "address": {"city": "ELOY", "state": "AZ", "street": "620 N MAIN ST", "postcode": "85131"}}},
{"geometry": {"type": "Point", "coordinates": [-111.6711130593, 32.812998359]}, "type": "Feature", "properties": {"collection_times": [{"days": "Mon-Sat", "time": "10:15am"}, {"days": "Sun", "time": "Closed"}], "id": "8513100006", "name": "USPS COLLECTION BOX - BLUE BOX", "address": {"city": "ELOY", "state": "AZ", "street": "5300 N SUNLAND GIN RD", "postcode": "85131"}}},
{"geometry": {"type": "Point", "coordinates": [-111.4857619803, 33.0619974444]}, "type": "Feature", "properties": {"collection_times": [{"days": "Mon-Sat", "time": "12:00pm"}, {"days": "Sun", "time": "Closed"}], "id": "8513200002", "name": "USPS COLLECTION BOX - BLUE BOX", "address": {"city": "FLORENCE", "state": "AZ", "street": "3325 N HUNT HWY", "postcode": "85132"}}},
{"geometry": {"type": "Point", "coordinates": [-111.3873570738, 33.036623515]}, "type": "Feature", "properties": {"collection_times": [{"days": "Mon-Fri", "time": "4:45pm"}, {"days": "Sat", "time": "12:00pm"}, {"days": "Sun", "time": "Closed"}], "id": "8513200003", "name": "USPS COLLECTION BOX - BLUE BOX", "address": {"city": "FLORENCE", "state": "AZ", "street": "501 N MAIN ST", "postcode": "85132"}}},
{"geometry": {"type": "Point", "coordinates": [-111.3873570738, 33.036623515]}, "type": "Feature", "properties": {"collection_times": [{"days": "Mon-Fri", "time": "4:45pm"}, {"days": "Sat", "time": "12:00pm"}, {"days": "Sun", "time": "Closed"}], "id": "8513200004", "name": "USPS COLLECTION BOX - BLUE BOX", "address": {"city": "FLORENCE", "state": "AZ", "street": "501 N MAIN ST", "postcode": "85132"}}},
{"geometry": {"type": "Point", "coordinates": [-111.3873570738, 33.036623515]}, "type": "Feature", "properties": {"collection_times": [{"days": "Mon-Fri", "time": "4:45pm"}, {"days": "Sat", "time": "12:00pm"}, {"days": "Sun", "time": "Closed"}], "id": "8513200005", "name": "USPS COLLECTION BOX - PO LOBBY", "address": {"city": "FLORENCE", "state": "AZ", "street": "501 N MAIN ST", "postcode": "85132"}}},
{"geometry": {"type": "Point", "coordinates": [-110.7839771155, 33.0062949824]}, "type": "Feature", "properties": {"collection_times": [{"days": "Mon-Fri", "time": "4:00pm"}, {"days": "Sat", "time": "9:00am"}, {"days": "Sun", "time": "Closed"}], "id": "8513500001", "name": "USPS COLLECTION BOX - BLUE BOX", "address": {"city": "HAYDEN", "state": "AZ", "street": "154 PARK LN", "postcode": "85135"}}},
{"geometry": {"type": "Point", "coordinates": [-110.7839771155, 33.0062949824]}, "type": "Feature", "properties": {"collection_times": [{"days": "Mon-Fri", "time": "1:00pm"}, {"days": "Sat", "time": "9:00am"}, {"days": "Sun", "time": "Closed"}], "id": "8513500002", "name": "USPS COLLECTION BOX - PO LOBBY", "address": {"city": "HAYDEN", "state": "AZ", "street": "154 PARK LN", "postcode": "85135"}}},
{"geometry": {"type": "Point", "coordinates": [-110.9065831877, 33.059994762]}, "type": "Feature", "properties": {"collection_times": [{"days": "Mon-Fri", "time": "4:30pm"}, {"days": "Sat", "time": "9:00am"}, {"days": "Sun", "time": "Closed"}], "id": "8513700001", "name": "USPS COLLECTION BOX - BLUE BOX", "address": {"city": "KEARNY", "state": "AZ", "street": "388 ALDEN RD", "postcode": "85137"}}},
{"geometry": {"type": "Point", "coordinates": [-110.9065831877, 33.059994762]}, "type": "Feature", "properties": {"collection_times": [{"days": "Mon-Fri", "time": "4:30pm"}, {"days": "Sat", "time": "9:00am"}, {"days": "Sun", "time": "Closed"}], "id": "8513700002", "name": "USPS COLLECTION BOX - PO LOBBY", "address": {"city": "KEARNY", "state": "AZ", "street": "388 ALDEN RD", "postcode": "85137"}}},
{"geometry": {"type": "Point", "coordinates": [-112.0506074243, 33.0625925399]}, "type": "Feature", "properties": {"collection_times": [{"days": "Mon-Fri", "time": "4:45pm"}, {"days": "Sat", "time": "4:00pm"}, {"days": "Sun", "time": "Closed"}], "id": "8513900001", "name": "USPS COLLECTION BOX - BLUE BOX", "address": {"city": "MARICOPA", "state": "AZ", "street": "44920 W HATHAWAY AVE", "postcode": "85139"}}},
{"geometry": {"type": "Point", "coordinates": [-112.0506074243, 33.0625925399]}, "type": "Feature", "properties": {"collection_times": [{"days": "Mon-Fri", "time": "4:45pm"}, {"days": "Sat", "time": "4:00pm"}, {"days": "Sun", "time": "Closed"}], "id": "8513900002", "name": "USPS COLLECTION BOX - PO LOBBY", "address": {"city": "MARICOPA", "state": "AZ", "street": "44920 W HATHAWAY AVE", "postcode": "85139"}}},
{"geometry": {"type": "Point", "coordinates": [-111.6379722899, 33.244540572]}, "type": "Feature", "properties": {"collection_times": [{"days": "Mon-Sat", "time": "5:00pm"}, {"days": "Sun", "time": "Closed"}], "id": "8514200004", "name": "USPS COLLECTION BOX - PO LOBBY", "address": {"city": "QUEEN CREEK", "state": "AZ", "street": "22424 S ELLSWORTH LOOP RD", "postcode": "85142"}}},
{"geometry": {"type": "Point", "coordinates": [-111.6379722899, 33.244540572]}, "type": "Feature", "properties": {"collection_times": [{"days": "Mon-Sat", "time": "5:00pm"}, {"days": "Sun", "time": "Closed"}], "id": "8514200005", "name": "USPS COLLECTION BOX - BLUE BOX", "address": {"city": "QUEEN CREEK", "state": "AZ", "street": "22424 S ELLSWORTH LOOP RD", "postcode": "85142"}}},
{"geometry": {"type": "Point", "coordinates": [-111.6379722899, 33.244540572]}, "type": "Feature", "properties": {"collection_times": [{"days": "Mon-Sat", "time": "5:00pm"}, {"days": "Sun", "time": "Closed"}], "id": "8514200006", "name": "USPS COLLECTION BOX - BLUE BOX", "address": {"city": "QUEEN CREEK", "state": "AZ", "street": "22424 S ELLSWORTH LOOP RD", "postcode": "85142"}}},
{"geometry": {"type": "Point", "coordinates": [-111.6379722899, 33.244540572]}, "type": "Feature", "properties": {"collection_times": [{"days": "Mon-Sat", "time": "5:00pm"}, {"days": "Sun", "time": "Closed"}], "id": "8514200007", "name": "USPS COLLECTION BOX - BLUE BOX", "address": {"city": "QUEEN CREEK", "state": "AZ", "street": "22424 S ELLSWORTH LOOP RD", "postcode": "85142"}}},
{"geometry": {"type": "Point", "coordinates": [-111.3288841598, 32.5795324295]}, "type": "Feature", "properties": {"collection_times": [{"days": "Mon-Fri", "time": "2:00pm"}, {"days": "Sat", "time": "9:00am"}, {"days": "Sun", "time": "Closed"}], "id": "8514500001", "name": "USPS COLLECTION BOX - BLUE BOX", "address": {"city": "RED ROCK", "state": "AZ", "street": "22187 E CAMINO CORREO", "postcode": "85145"}}},
{"geometry": {"type": "Point", "coordinates": [-111.3288841598, 32.5795324295]}, "type": "Feature", "properties": {"collection_times": [{"days": "Mon-Fri", "time": "2:00pm"}, {"days": "Sat", "time": "9:00am"}, {"days": "Sun", "time": "Closed"}], "id": "8514500002", "name": "USPS COLLECTION BOX - PO LOBBY", "address": {"city": "RED ROCK", "state": "AZ", "street": "22187 E CAMINO CORREO", "postcode": "85145"}}},
{"geometry": {"type": "Point", "coordinates": [-111.874270619, 33.2181204924]}, "type": "Feature", "properties": {"collection_times": [{"days": "Mon-Fri", "time": "4:45pm"}, {"days": "Sat", "time": "11:30am"}, {"days": "Sun", "time": "Closed"}], "id": "8514700001", "name": "USPS COLLECTION BOX - BLUE BOX", "address": {"city": "SACATON", "state": "AZ", "street": "190 W PIMA ST", "postcode": "85147"}}},
{"geometry": {"type": "Point", "coordinates": [-111.874270619, 33.2181204924]}, "type": "Feature", "properties": {"collection_times": [{"days": "Mon-Fri", "time": "5:00pm"}, {"days": "Sat", "time": "11:30am"}, {"days": "Sun", "time": "Closed"}], "id": "8514700002", "name": "USPS COLLECTION BOX - PO LOBBY", "address": {"city": "SACATON", "state": "AZ", "street": "190 W PIMA ST", "postcode": "85147"}}},
{"geometry": {"type": "Point", "coordinates": [-111.9633310778, 32.8794397352]}, "type": "Feature", "properties": {"collection_times": [{"days": "Mon-Fri", "time": "4:00pm"}, {"days": "Sat", "time": "9:00am"}, {"days": "Sun", "time": "Closed"}], "id": "8517200001", "name": "USPS COLLECTION BOX - BLUE BOX", "address": {"city": "STANFIELD", "state": "AZ", "street": "36840 W HIGHWAY 84", "postcode": "85172"}}},
{"geometry": {"type": "Point", "coordinates": [-111.9633310778, 32.8794397352]}, "type": "Feature", "properties": {"collection_times": [{"days": "Mon-Fri", "time": "4:00pm"}, {"days": "Sat", "time": "9:00am"}, {"days": "Sun", "time": "Closed"}], "id": "8517200002", "name": "USPS COLLECTION BOX - PO LOBBY", "address": {"city": "STANFIELD", "state": "AZ", "street": "36840 W HIGHWAY 84", "postcode": "85172"}}},
{"geometry": {"type": "Point", "coordinates": [-111.0954407711, 33.2941727474]}, "type": "Feature", "properties": {"collection_times": [{"days": "Mon-Fri", "time": "5:00pm"}, {"days": "Sat", "time": "9:00am"}, {"days": "Sun", "time": "Closed"}], "id": "8517300001", "name": "USPS COLLECTION BOX - BLUE BOX", "address": {"city": "SUPERIOR", "state": "AZ", "street": "25 N HIGH SCHOOL AVE", "postcode": "85173"}}},
{"geometry": {"type": "Point", "coordinates": [-111.0954407711, 33.2941727474]}, "type": "Feature", "properties": {"collection_times": [{"days": "Mon-Fri", "time": "5:00pm"}, {"days": "Sat", "time": "9:00am"}, {"days": "Sun", "time": "Closed"}], "id": "8517300002", "name": "USPS COLLECTION BOX - PO LOBBY", "address": {"city": "SUPERIOR", "state": "AZ", "street": "25 N HIGH SCHOOL AVE", "postcode": "85173"}}},
{"geometry": {"type": "Point", "coordinates": [-111.4488392796, 32.9883113582]}, "type": "Feature", "properties": {"collection_times": [{"days": "Mon-Fri", "time": "12:00pm"}, {"days": "Sat-Sun", "time": "Closed"}], "id": "8519100001", "name": "USPS COLLECTION BOX - PO LOBBY", "address": {"city": "VALLEY FARMS", "state": "AZ", "street": "10995 E VAH KI INN RD", "postcode": "85191"}}},
{"geometry": {"type": "Point", "coordinates": [-111.4488392796, 32.9883113582]}, "type": "Feature", "properties": {"collection_times": [{"days": "Mon-Fri", "time": "3:30pm"}, {"days": "Sat", "time": "8:00am"}, {"days": "Sun", "time": "Closed"}], "id": "8519100002", "name": "USPS COLLECTION BOX - BLUE BOX", "address": {"city": "VALLEY FARMS", "state": "AZ", "street": "10995 E VAH KI INN RD", "postcode": "85191"}}},
{"geometry": {"type": "Point", "coordinates": [-110.7722428479, 32.9858594085]}, "type": "Feature", "properties": {"collection_times": [{"days": "Mon-Fri", "time": "4:30pm"}, {"days": "Sat", "time": "9:00am"}, {"days": "Sun", "time": "Closed"}], "id": "8519200001", "name": "USPS COLLECTION BOX - BLUE BOX", "address": {"city": "WINKELMAN", "state": "AZ", "street": "301 GIFFIN AVE", "postcode": "85192"}}},
{"geometry": {"type": "Point", "coordinates": [-110.7722428479, 32.9858594085]}, "type": "Feature", "properties": {"collection_times": [{"days": "Mon-Fri", "time": "4:30pm"}, {"days": "Sat", "time": "9:00am"}, {"days": "Sun", "time": "Closed"}], "id": "8519200002", "name": "USPS COLLECTION BOX - PO LOBBY", "address": {"city": "WINKELMAN", "state": "AZ", "street": "301 GIFFIN AVE", "postcode": "85192"}}},
{"geometry": {"type": "Point", "coordinates": [-111.6829970292, 32.7628987742]}, "type": "Feature", "properties": {"collection_times": [{"days": "Mon-Fri", "time": "11:00am"}, {"days": "Sat", "time": "10:00am"}, {"days": "Sun", "time": "Closed"}], "id": "8519300001", "name": "USPS COLLECTION BOX - BLUE BOX", "address": {"city": "CASA GRANDE", "state": "AZ", "street": "10601 W BATTAGLIA DR", "postcode": "85193"}}},
{"geometry": {"type": "Point", "coordinates": [-111.6832209107, 32.882712754]}, "type": "Feature", "properties": {"collection_times": [{"days": "Mon-Sat", "time": "2:30pm"}, {"days": "Sun", "time": "Closed"}], "id": "8519400001", "name": "USPS COLLECTION BOX - BLUE BOX", "address": {"city": "CASA GRANDE", "state": "AZ", "street": "1004 N PROMENADE PKWY STE 119", "postcode": "85194"}}}
]}
