{"type": "FeatureCollection", "features": [
{"geometry": {"type": "Point", "coordinates": [-112.1786058653, 33.5318102135]}, "type": "Feature", "properties": {"collection_times": [{"days": "Mon-Fri", "time": "4:15pm"}, {"days": "Sat-Sun", "time": "Closed"}], "id": "8530100001", "name": "USPS COLLECTION BOX - BLUE BOX", "address": {"city": "GLENDALE", "state": "AZ", "street": "5800 W GLENN DR", "postcode": "85301"}}},
{"geometry": {"type": "Point", "coordinates": [-112.1786058653, 33.5318102135]}, "type": "Feature", "properties": {"collection_times": [{"days": "Mon-Fri", "time": "9:30am"}, {"days": "Sat-Sun", "time": "Closed"}], "id": "8530100002", "name": "USPS COLLECTION BOX - BLUE BOX", "address": {"city": "GLENDALE", "state": "AZ", "street": "7002 N 55TH AVE", "postcode": "85301"}}},
{"geometry": {"type": "Point", "coordinates": [-112.1586119844, 33.5241380537]}, "type": "Feature", "properties": {"collection_times": [{"days": "Mon-Fri", "time": "2:00pm"}, {"days": "Sat", "time": "12:15pm"}, {"days": "Sun", "time": "Closed"}], "id": "8530100003", "name": "USPS COLLECTION BOX - BLUE BOX", "address": {"city": "GLENDALE", "state": "AZ", "street": "4648 W BETHANY HOME RD", "postcode": "85301"}}},
{"geometry": {"type": "Point", "coordinates": [-112.1896938246, 33.5167860856]}, "type": "Feature", "properties": {"collection_times": [{"days": "Mon-Fri", "time": "2:30pm"}, {"days": "Sat", "time": "12:30pm"}, {"days": "Sun", "time": "Closed"}], "id": "8530100007", "name": "USPS COLLECTION BOX - BLUE BOX", "address": {"city": "GLENDALE", "state": "AZ", "street": "5950 W MISSOURI AVE", "postcode": "85301"}}},
{"geometry": {"type": "Point", "coordinates": [-112.1695079377, 33.5531556263]}, "type": "Feature", "properties": {"collection_times": [{"days": "Mon-Sat", "time": "9:30am"}, {"days": "Sun", "time": "Closed"}], "id": "8530100011", "name": "USPS COLLECTION BOX - BLUE BOX", "address": {"city": "GLENDALE", "state": "AZ", "street": "5128 W NORTHERN AVE", "postcode": "85301"}}},
{"geometry": {"type": "Point", "coordinates": [-112.1610922428, 33.5504270727]}, "type": "Feature", "properties": {"collection_times": [{"days": "Mon-Fri", "time": "1:30pm"}, {"days": "Sat", "time": "12:15pm"}, {"days": "Sun", "time": "Closed"}], "id": "8530100012", "name": "USPS COLLECTION BOX - BLUE BOX", "address": {"city": "GLENDALE", "state": "AZ", "street": "7727 N 47TH DR", "postcode": "85301"}}},
{"geometry": {"type": "Point", "coordinates": [-112.1773467031, 33.5328071526]}, "type": "Feature", "properties": {"collection_times": [{"days": "Mon-Sat", "time": "5:00pm"}, {"days": "Sun", "time": "Closed"}], "id": "8530100014", "name": "USPS COLLECTION BOX - BLUE BOX", "address": {"city": "GLENDALE", "state": "AZ", "street": "6537 N 55TH AVE", "postcode": "85301"}}},
{"geometry": {"type": "Point", "coordinates": [-112.1520221136, 33.5383311157]}, "type": "Feature", "properties": {"collection_times": [{"days": "Mon-Fri", "time": "1:45pm"}, {"days": "Sat", "time": "12:15pm"}, {"days": "Sun", "time": "Closed"}], "id": "8530100016", "name": "USPS COLLECTION BOX - BLUE BOX", "address": {"city": "GLENDALE", "state": "AZ", "street": "4327 W GLENDALE AVE", "postcode": "85301"}}},
{"geometry": {"type": "Point", "coordinates": [-112.1530859765, 33.5239311578]}, "type": "Feature", "properties": {"collection_times": [{"days": "Mon-Fri", "time": "1:45pm"}, {"days": "Sat", "time": "12:15pm"}, {"days": "Sun", "time": "Closed"}], "id": "8530100017", "name": "USPS COLLECTION BOX - BLUE BOX", "address": {"city": "GLENDALE", "state": "AZ", "street": "4353 W BETHANY HOME RD", "postcode": "85301"}}},
{"geometry": {"type": "Point", "coordinates": [-112.1754764869, 33.5101996489]}, "type": "Feature", "properties": {"collection_times": [{"days": "Mon-Fri", "time": "2:30pm"}, {"days": "Sat", "time": "12:30pm"}, {"days": "Sun", "time": "Closed"}], "id": "8530100019", "name": "USPS COLLECTION BOX - BLUE BOX", "address": {"city": "GLENDALE", "state": "AZ", "street": "5022 N 54TH AVE", "postcode": "85301"}}},
{"geometry": {"type": "Point", "coordinates": [-112.1863411825, 33.5254199934]}, "type": "Feature", "properties": {"collection_times": [{"days": "Mon-Fri", "time": "2:30pm"}, {"days": "Sat", "time": "12:30pm"}, {"days": "Sun", "time": "Closed"}], "id": "8530100021", "name": "USPS COLLECTION BOX - BLUE BOX", "address": {"city": "GLENDALE", "state": "AZ", "street": "6020 N 59TH AVE", "postcode": "85301"}}},
{"geometry": {"type": "Point", "coordinates": [-112.2032242262, 33.5239614369]}, "type": "Feature", "properties": {"collection_times": [{"days": "Mon-Fri", "time": "2:45pm"}, {"days": "Sat", "time": "12:45pm"}, {"days": "Sun", "time": "Closed"}], "id": "8530100025", "name": "USPS COLLECTION BOX - BLUE BOX", "address": {"city": "GLENDALE", "state": "AZ", "street": "6002 N 67TH AVE", "postcode": "85301"}}},
{"geometry": {"type": "Point", "coordinates": [-112.1773467031, 33.5328071526]}, "type": "Feature", "properties": {"collection_times": [{"days": "Mon-Sat", "time": "5:00pm"}, {"days": "Sun", "time": "Closed"}], "id": "8530100026", "name": "USPS COLLECTION BOX - BLUE BOX", "address": {"city": "GLENDALE", "state": "AZ", "street": "6537 N 55TH AVE", "postcode": "85301"}}},
{"geometry": {"type": "Point", "coordinates": [-112.1522592147, 33.5530573181]}, "type": "Feature", "properties": {"collection_times": [{"days": "Mon-Fri", "time": "1:45pm"}, {"days": "Sat", "time": "12:00pm"}, {"days": "Sun", "time": "Closed"}], "id": "8530100027", "name": "USPS COLLECTION BOX - BLUE BOX", "address": {"city": "GLENDALE", "state": "AZ", "street": "4329 W NORTHERN AVE", "postcode": "85301"}}},
{"geometry": {"type": "Point", "coordinates": [-112.1773467031, 33.5328071526]}, "type": "Feature", "properties": {"collection_times": [{"days": "Mon-Sat", "time": "5:00pm"}, {"days": "Sun", "time": "Closed"}], "id": "8530100030", "name": "USPS COLLECTION BOX - BLUE BOX", "address": {"city": "GLENDALE", "state": "AZ", "street": "6537 N 55TH AVE", "postcode": "85301"}}},
{"geometry": {"type": "Point", "coordinates": [-112.1773467031, 33.5328071526]}, "type": "Feature", "properties": {"collection_times": [{"days": "Mon-Sat", "time": "5:00pm"}, {"days": "Sun", "time": "Closed"}], "id": "8530100032", "name": "USPS COLLECTION BOX - PO LOBBY", "address": {"city": "GLENDALE", "state": "AZ", "street": "6537 N 55TH AVE", "postcode": "85301"}}},
{"geometry": {"type": "Point", "coordinates": [-112.1697799352, 33.5675991793]}, "type": "Feature", "properties": {"collection_times": [{"days": "Mon-Fri", "time": "1:15pm"}, {"days": "Sat", "time": "1:00pm"}, {"days": "Sun", "time": "Closed"}], "id": "8530200002", "name": "USPS COLLECTION BOX - BLUE BOX", "address": {"city": "GLENDALE", "state": "AZ", "street": "5120 W OLIVE AVE", "postcode": "85302"}}},
{"geometry": {"type": "Point", "coordinates": [-112.1849921681, 33.5675679644]}, "type": "Feature", "properties": {"collection_times": [{"days": "Mon-Fri", "time": "1:00pm"}, {"days": "Sat-Sun", "time": "Closed"}], "id": "8530200005", "name": "USPS COLLECTION BOX - BLUE BOX", "address": {"city": "GLENDALE", "state": "AZ", "street": "5802 W OLIVE AVE", "postcode": "85302"}}},
{"geometry": {"type": "Point", "coordinates": [-112.202945331, 33.5617290626]}, "type": "Feature", "properties": {"collection_times": [{"days": "Mon-Fri", "time": "2:00pm"}, {"days": "Sat", "time": "12:45pm"}, {"days": "Sun", "time": "Closed"}], "id": "8530200011", "name": "USPS COLLECTION BOX - BLUE BOX", "address": {"city": "GLENDALE", "state": "AZ", "street": "8611 N 67TH AVE", "postcode": "85302"}}},
{"geometry": {"type": "Point", "coordinates": [-112.1516104102, 33.5794207573]}, "type": "Feature", "properties": {"collection_times": [{"days": "Mon-Fri", "time": "1:00pm"}, {"days": "Sat", "time": "12:00pm"}, {"days": "Sun", "time": "Closed"}], "id": "8530200013", "name": "USPS COLLECTION BOX - BLUE BOX", "address": {"city": "GLENDALE", "state": "AZ", "street": "10222 N 43RD AVE", "postcode": "85302"}}},
{"geometry": {"type": "Point", "coordinates": [-112.1543081634, 33.5674573925]}, "type": "Feature", "properties": {"collection_times": [{"days": "Mon-Fri", "time": "1:15pm"}, {"days": "Sat", "time": "12:00pm"}, {"days": "Sun", "time": "Closed"}], "id": "8530200014", "name": "USPS COLLECTION BOX - BLUE BOX", "address": {"city": "GLENDALE", "state": "AZ", "street": "4425 W OLIVE AVE", "postcode": "85302"}}},
{"geometry": {"type": "Point", "coordinates": [-112.1681270853, 33.5676047701]}, "type": "Feature", "properties": {"collection_times": [{"days": "Mon-Sat", "time": "1:00pm"}, {"days": "Sun", "time": "Closed"}], "id": "8530200016", "name": "USPS COLLECTION BOX - BLUE BOX", "address": {"city": "GLENDALE", "state": "AZ", "street": "5060 W OLIVE AVE", "postcode": "85302"}}},
{"geometry": {"type": "Point", "coordinates": [-112.1879115856, 33.5817800253]}, "type": "Feature", "properties": {"collection_times": [{"days": "Mon-Sat", "time": "5:00pm"}, {"days": "Sun", "time": "Closed"}], "id": "8530200019", "name": "USPS COLLECTION BOX - BLUE BOX", "address": {"city": "GLENDALE", "state": "AZ", "street": "5955 W PEORIA AVE", "postcode": "85302"}}},
{"geometry": {"type": "Point", "coordinates": [-112.1879115856, 33.5817800253]}, "type": "Feature", "properties": {"collection_times": [{"days": "Mon-Sat", "time": "5:00pm"}, {"days": "Sun", "time": "Closed"}], "id": "8530200020", "name": "USPS COLLECTION BOX - BLUE BOX", "address": {"city": "GLENDALE", "state": "AZ", "street": "5955 W PEORIA AVE", "postcode": "85302"}}},
{"geometry": {"type": "Point", "coordinates": [-112.1879115856, 33.5817800253]}, "type": "Feature", "properties": {"collection_times": [{"days": "Mon-Sat", "time": "5:00pm"}, {"days": "Sun", "time": "Closed"}], "id": "8530200022", "name": "USPS COLLECTION BOX - PO LOBBY", "address": {"city": "GLENDALE", "state": "AZ", "street": "5955 W PEORIA AVE", "postcode": "85302"}}},
{"geometry": {"type": "Point", "coordinates": [-112.1878552867, 33.5818057774]}, "type": "Feature", "properties": {"collection_times": [{"days": "Mon-Sat", "time": "5:00pm"}, {"days": "Sun", "time": "Closed"}], "id": "8530200023", "name": "USPS COLLECTION BOX - APC", "address": {"city": "GLENDALE", "state": "AZ", "street": "5955 W PEORIA AVE", "postcode": "85302"}}},
{"geometry": {"type": "Point", "coordinates": [-112.2017961089, 33.6105446649]}, "type": "Feature", "properties": {"collection_times": [{"days": "Mon-Fri", "time": "2:00pm"}, {"days": "Sat-Sun", "time": "Closed"}], "id": "8530200024", "name": "USPS COLLECTION BOX - BLUE BOX", "address": {"city": "GLENDALE", "state": "AZ", "street": "6677 W THUNDERBIRD RD", "postcode": "85302"}}},
{"geometry": {"type": "Point", "coordinates": [-112.1674033289, 33.5963329783]}, "type": "Feature", "properties": {"collection_times": [{"days": "Mon-Fri", "time": "1:30pm"}, {"days": "Sat", "time": "2:00pm"}, {"days": "Sun", "time": "Closed"}], "id": "8530400002", "name": "USPS COLLECTION BOX - BLUE BOX", "address": {"city": "GLENDALE", "state": "AZ", "street": "5040 W CACTUS RD", "postcode": "85304"}}},
{"geometry": {"type": "Point", "coordinates": [-112.2028081077, 33.5846051231]}, "type": "Feature", "properties": {"collection_times": [{"days": "Mon-Fri", "time": "2:00pm"}, {"days": "Sat", "time": "1:45pm"}, {"days": "Sun", "time": "Closed"}], "id": "8530400003", "name": "USPS COLLECTION BOX - BLUE BOX", "address": {"city": "GLENDALE", "state": "AZ", "street": "10960 N 67TH AVE", "postcode": "85304"}}},
{"geometry": {"type": "Point", "coordinates": [-112.2017110262, 33.5962835981]}, "type": "Feature", "properties": {"collection_times": [{"days": "Mon-Fri", "time": "2:00pm"}, {"days": "Sat", "time": "1:45pm"}, {"days": "Sun", "time": "Closed"}], "id": "8530400004", "name": "USPS COLLECTION BOX - BLUE BOX", "address": {"city": "GLENDALE", "state": "AZ", "street": "6660 W CACTUS RD", "postcode": "85304"}}},
{"geometry": {"type": "Point", "coordinates": [-112.1795561897, 33.6073116788]}, "type": "Feature", "properties": {"collection_times": [{"days": "Mon-Fri", "time": "4:15pm"}, {"days": "Sat-Sun", "time": "Closed"}], "id": "8530400005", "name": "USPS COLLECTION BOX - BLUE BOX", "address": {"city": "GLENDALE", "state": "AZ", "street": "5601 W EUGIE AVE", "postcode": "85304"}}},
{"geometry": {"type": "Point", "coordinates": [-112.1795561897, 33.6073116788]}, "type": "Feature", "properties": {"collection_times": [{"days": "Mon-Fri", "time": "4:15pm"}, {"days": "Sat-Sun", "time": "Closed"}], "id": "8530400006", "name": "USPS COLLECTION BOX - BLUE BOX", "address": {"city": "GLENDALE", "state": "AZ", "street": "5601 W EUGIE AVE", "postcode": "85304"}}},
{"geometry": {"type": "Point", "coordinates": [-112.1801284184, 33.6107366866]}, "type": "Feature", "properties": {"collection_times": [{"days": "Mon-Fri", "time": "4:00pm"}, {"days": "Sat", "time": "2:00pm"}, {"days": "Sun", "time": "Closed"}], "id": "8530600001", "name": "USPS COLLECTION BOX - BLUE BOX", "address": {"city": "GLENDALE", "state": "AZ", "street": "5620 W THUNDERBIRD RD", "postcode": "85306"}}},
{"geometry": {"type": "Point", "coordinates": [-112.1702246866, 33.6107705975]}, "type": "Feature", "properties": {"collection_times": [{"days": "Mon-Fri", "time": "1:45pm"}, {"days": "Sat", "time": "2:00pm"}, {"days": "Sun", "time": "Closed"}], "id": "8530600002", "name": "USPS COLLECTION BOX - BLUE BOX", "address": {"city": "GLENDALE", "state": "AZ", "street": "5130 W THUNDERBIRD RD", "postcode": "85306"}}},
{"geometry": {"type": "Point", "coordinates": [-112.1748039201, 33.610724857]}, "type": "Feature", "properties": {"collection_times": [{"days": "Mon-Fri", "time": "3:45pm"}, {"days": "Sat-Sun", "time": "Closed"}], "id": "8530600003", "name": "USPS COLLECTION BOX - BLUE BOX", "address": {"city": "GLENDALE", "state": "AZ", "street": "5310 W THUNDERBIRD RD", "postcode": "85306"}}},
{"geometry": {"type": "Point", "coordinates": [-112.1828149183, 33.6106941001]}, "type": "Feature", "properties": {"collection_times": [{"days": "Mon-Fri", "time": "4:15pm"}, {"days": "Sat-Sun", "time": "Closed"}], "id": "8530600004", "name": "USPS COLLECTION BOX - BLUE BOX", "address": {"city": "GLENDALE", "state": "AZ", "street": "5757 W THUNDERBIRD RD", "postcode": "85306"}}},
{"geometry": {"type": "Point", "coordinates": [-112.1828149183, 33.6106941001]}, "type": "Feature", "properties": {"collection_times": [{"days": "Mon-Fri", "time": "4:15pm"}, {"days": "Sat-Sun", "time": "Closed"}], "id": "8530600005", "name": "USPS COLLECTION BOX - BLUE BOX", "address": {"city": "GLENDALE", "state": "AZ", "street": "5757 W THUNDERBIRD RD", "postcode": "85306"}}},
{"geometry": {"type": "Point", "coordinates": [-112.1850685737, 33.6107006503]}, "type": "Feature", "properties": {"collection_times": [{"days": "Mon-Fri", "time": "4:00pm"}, {"days": "Sat", "time": "2:15pm"}, {"days": "Sun", "time": "Closed"}], "id": "8530600006", "name": "USPS COLLECTION BOX - BLUE BOX", "address": {"city": "GLENDALE", "state": "AZ", "street": "5863 W THUNDERBIRD RD", "postcode": "85306"}}},
{"geometry": {"type": "Point", "coordinates": [-112.176737278, 33.6247349551]}, "type": "Feature", "properties": {"collection_times": [{"days": "Mon-Fri", "time": "2:00pm"}, {"days": "Sat-Sun", "time": "Closed"}], "id": "8530600009", "name": "USPS COLLECTION BOX - BLUE BOX", "address": {"city": "GLENDALE", "state": "AZ", "street": "1 GLOBAL PL", "postcode": "85306"}}},
{"geometry": {"type": "Point", "coordinates": [-112.1757298321, 33.6107841312]}, "type": "Feature", "properties": {"collection_times": [{"days": "Mon-Fri", "time": "3:45pm"}, {"days": "Sat-Sun", "time": "Closed"}], "id": "8530600011", "name": "USPS COLLECTION BOX - BLUE BOX", "address": {"city": "GLENDALE", "state": "AZ", "street": "5410 W THUNDERBIRD RD", "postcode": "85306"}}},
{"geometry": {"type": "Point", "coordinates": [-112.1801284184, 33.6107366866]}, "type": "Feature", "properties": {"collection_times": [{"days": "Mon-Fri", "time": "4:00pm"}, {"days": "Sat", "time": "2:00pm"}, {"days": "Sun", "time": "Closed"}], "id": "8530600015", "name": "USPS COLLECTION BOX - BLUE BOX", "address": {"city": "GLENDALE", "state": "AZ", "street": "5620 W THUNDERBIRD RD", "postcode": "85306"}}},
{"geometry": {"type": "Point", "coordinates": [-112.1651332306, 33.6107993834]}, "type": "Feature", "properties": {"collection_times": [{"days": "Mon-Fri", "time": "1:45pm"}, {"days": "Sat-Sun", "time": "Closed"}], "id": "8530600018", "name": "USPS COLLECTION BOX - BLUE BOX", "address": {"city": "GLENDALE", "state": "AZ", "street": "4920 W THUNDERBIRD RD", "postcode": "85306"}}},
{"geometry": {"type": "Point", "coordinates": [-112.1748039201, 33.610724857]}, "type": "Feature", "properties": {"collection_times": [{"days": "Mon-Fri", "time": "3:45pm"}, {"days": "Sat-Sun", "time": "Closed"}], "id": "8530600019", "name": "USPS COLLECTION BOX - BLUE BOX", "address": {"city": "GLENDALE", "state": "AZ", "street": "5310 W THUNDERBIRD RD", "postcode": "85306"}}},
{"geometry": {"type": "Point", "coordinates": [-112.1757298321, 33.6107841312]}, "type": "Feature", "properties": {"collection_times": [{"days": "Mon-Fri", "time": "3:45pm"}, {"days": "Sat-Sun", "time": "Closed"}], "id": "8530600020", "name": "USPS COLLECTION BOX - BLUE BOX", "address": {"city": "GLENDALE", "state": "AZ", "street": "5410 W THUNDERBIRD RD", "postcode": "85306"}}},
{"geometry": {"type": "Point", "coordinates": [-112.1868204173, 33.6251557734]}, "type": "Feature", "properties": {"collection_times": [{"days": "Mon-Fri", "time": "3:30pm"}, {"days": "Sat-Sun", "time": "Closed"}], "id": "8530600022", "name": "USPS COLLECTION BOX - BLUE BOX", "address": {"city": "GLENDALE", "state": "AZ", "street": "5930 W GREENWAY RD STE 10", "postcode": "85306"}}},
{"geometry": {"type": "Point", "coordinates": [-112.16119448, 33.6105838518]}, "type": "Feature", "properties": {"collection_times": [{"days": "Mon-Fri", "time": "1:00pm"}, {"days": "Sat-Sun", "time": "Closed"}], "id": "8530600023", "name": "USPS COLLECTION BOX - BLUE BOX", "address": {"city": "GLENDALE", "state": "AZ", "street": "4701 W THUNDERBIRD RD", "postcode": "85306"}}},
{"geometry": {"type": "Point", "coordinates": [-112.3123364442, 33.5365202458]}, "type": "Feature", "properties": {"collection_times": [{"days": "Mon-Fri", "time": "3:15pm"}, {"days": "Sat-Sun", "time": "Closed"}], "id": "8530700002", "name": "USPS COLLECTION BOX - BLUE BOX", "address": {"city": "GLENDALE", "state": "AZ", "street": "14708 W SUPER SABRE", "postcode": "85307"}}},
{"geometry": {"type": "Point", "coordinates": [-112.3582536994, 33.5395793242]}, "type": "Feature", "properties": {"collection_times": [{"days": "Mon-Fri", "time": "3:15pm"}, {"days": "Sat-Sun", "time": "Closed"}], "id": "8530700003", "name": "USPS COLLECTION BOX - BLUE BOX", "address": {"city": "GLENDALE", "state": "AZ", "street": "7383 W LITCHFIELD RD", "postcode": "85307"}}},
{"geometry": {"type": "Point", "coordinates": [-112.1862761896, 33.5385836629]}, "type": "Feature", "properties": {"collection_times": [{"days": "Mon-Fri", "time": "3:15pm"}, {"days": "Sat-Sun", "time": "Closed"}], "id": "8530700009", "name": "USPS COLLECTION BOX - BLUE BOX", "address": {"city": "GLENDALE", "state": "AZ", "street": "14158 W LIGHTNING ST", "postcode": "85307"}}},
{"geometry": {"type": "Point", "coordinates": [-112.3239593343, 33.5331832352]}, "type": "Feature", "properties": {"collection_times": [{"days": "Mon-Fri", "time": "3:15pm"}, {"days": "Sat-Sun", "time": "Closed"}], "id": "8530700010", "name": "USPS COLLECTION BOX - BLUE BOX", "address": {"city": "GLENDALE", "state": "AZ", "street": "14032 W MUSTANG", "postcode": "85307"}}},
{"geometry": {"type": "Point", "coordinates": [-112.2001287057, 33.6563906219]}, "type": "Feature", "properties": {"collection_times": [{"days": "Mon-Fri", "time": "2:30pm"}, {"days": "Sat-Sun", "time": "Closed"}], "id": "8530800001", "name": "USPS COLLECTION BOX - BLUE BOX", "address": {"city": "GLENDALE", "state": "AZ", "street": "6525 W SACK DR", "postcode": "85308"}}},
{"geometry": {"type": "Point", "coordinates": [-112.1522128994, 33.639210134]}, "type": "Feature", "properties": {"collection_times": [{"days": "Mon-Fri", "time": "2:15pm"}, {"days": "Sat", "time": "2:30pm"}, {"days": "Sun", "time": "Closed"}], "id": "8530800002", "name": "USPS COLLECTION BOX - BLUE BOX", "address": {"city": "GLENDALE", "state": "AZ", "street": "4303 W BELL RD", "postcode": "85308"}}},
{"geometry": {"type": "Point", "coordinates": [-112.1966686323, 33.6386347058]}, "type": "Feature", "properties": {"collection_times": [{"days": "Mon-Fri", "time": "12:00pm"}, {"days": "Sat-Sun", "time": "Closed"}], "id": "8530800003", "name": "USPS COLLECTION BOX - BLUE BOX", "address": {"city": "GLENDALE", "state": "AZ", "street": "6376 W BELL RD", "postcode": "85308"}}},
{"geometry": {"type": "Point", "coordinates": [-112.1864620535, 33.6643498088]}, "type": "Feature", "properties": {"collection_times": [{"days": "Mon-Sat", "time": "5:00pm"}, {"days": "Sun", "time": "Closed"}], "id": "8530800005", "name": "USPS COLLECTION BOX - BLUE BOX", "address": {"city": "GLENDALE", "state": "AZ", "street": "19801 N 59TH AVE", "postcode": "85308"}}},
{"geometry": {"type": "Point", "coordinates": [-112.2028790853, 33.6552727257]}, "type": "Feature", "properties": {"collection_times": [{"days": "Mon-Fri", "time": "2:30pm"}, {"days": "Sat-Sun", "time": "Closed"}], "id": "8530800008", "name": "USPS COLLECTION BOX - BLUE BOX", "address": {"city": "GLENDALE", "state": "AZ", "street": "18701 N 67TH AVE", "postcode": "85308"}}},
{"geometry": {"type": "Point", "coordinates": [-112.2028790853, 33.6552727257]}, "type": "Feature", "properties": {"collection_times": [{"days": "Mon-Fri", "time": "2:30pm"}, {"days": "Sat-Sun", "time": "Closed"}], "id": "8530800009", "name": "USPS COLLECTION BOX - BLUE BOX", "address": {"city": "GLENDALE", "state": "AZ", "street": "18701 N 67TH AVE", "postcode": "85308"}}},
{"geometry": {"type": "Point", "coordinates": [-112.1912950025, 33.6387529959]}, "type": "Feature", "properties": {"collection_times": [{"days": "Mon-Fri", "time": "2:15pm"}, {"days": "Sat-Sun", "time": "Closed"}], "id": "8530800011", "name": "USPS COLLECTION BOX - BLUE BOX", "address": {"city": "GLENDALE", "state": "AZ", "street": "6120 W BELL RD", "postcode": "85308"}}},
{"geometry": {"type": "Point", "coordinates": [-112.1349182343, 33.6397138716]}, "type": "Feature", "properties": {"collection_times": [{"days": "Mon-Fri", "time": "4:30pm"}, {"days": "Sat", "time": "4:00pm"}, {"days": "Sun", "time": "Closed"}], "id": "8530800013", "name": "USPS COLLECTION BOX - BLUE BOX", "address": {"city": "GLENDALE", "state": "AZ", "street": "3510 W BELL RD", "postcode": "85308"}}},
{"geometry": {"type": "Point", "coordinates": [-112.1863283064, 33.6580136416]}, "type": "Feature", "properties": {"collection_times": [{"days": "Mon-Fri", "time": "2:45pm"}, {"days": "Sat-Sun", "time": "Closed"}], "id": "8530800014", "name": "USPS COLLECTION BOX - BLUE BOX", "address": {"city": "GLENDALE", "state": "AZ", "street": "19019 N 59TH AVE", "postcode": "85308"}}},
{"geometry": {"type": "Point", "coordinates": [-112.2298192451, 33.6426750411]}, "type": "Feature", "properties": {"collection_times": [{"days": "Mon-Fri", "time": "3:15pm"}, {"days": "Sat", "time": "2:15pm"}, {"days": "Sun", "time": "Closed"}], "id": "8530800015", "name": "USPS COLLECTION BOX - BLUE BOX", "address": {"city": "GLENDALE", "state": "AZ", "street": "7760 W ARROWHEAD TOWNE CTR", "postcode": "85308"}}},
{"geometry": {"type": "Point", "coordinates": [-112.2001287057, 33.6563906219]}, "type": "Feature", "properties": {"collection_times": [{"days": "Mon-Fri", "time": "2:30pm"}, {"days": "Sat-Sun", "time": "Closed"}], "id": "8530800016", "name": "USPS COLLECTION BOX - BLUE BOX", "address": {"city": "GLENDALE", "state": "AZ", "street": "6525 W SACK DR", "postcode": "85308"}}},
{"geometry": {"type": "Point", "coordinates": [-112.1349182343, 33.6397138716]}, "type": "Feature", "properties": {"collection_times": [{"days": "Mon-Fri", "time": "4:30pm"}, {"days": "Sat", "time": "4:00pm"}, {"days": "Sun", "time": "Closed"}], "id": "8530800017", "name": "USPS COLLECTION BOX - BLUE BOX", "address": {"city": "GLENDALE", "state": "AZ", "street": "3510 W BELL RD", "postcode": "85308"}}},
{"geometry": {"type": "Point", "coordinates": [-112.1869104365, 33.6388200006]}, "type": "Feature", "properties": {"collection_times": [{"days": "Mon-Sat", "time": "9:30am"}, {"days": "Sun", "time": "Closed"}], "id": "8530800018", "name": "USPS COLLECTION BOX - BLUE BOX", "address": {"city": "GLENDALE", "state": "AZ", "street": "5932 W BELL RD", "postcode": "85308"}}},
{"geometry": {"type": "Point", "coordinates": [-112.2010324863, 33.6382712395]}, "type": "Feature", "properties": {"collection_times": [{"days": "Mon-Fri", "time": "2:00pm"}, {"days": "Sat", "time": "2:30pm"}, {"days": "Sun", "time": "Closed"}], "id": "8530800019", "name": "USPS COLLECTION BOX - BLUE BOX", "address": {"city": "GLENDALE", "state": "AZ", "street": "6655 W BELL RD", "postcode": "85308"}}},
{"geometry": {"type": "Point", "coordinates": [-112.1533793503, 33.6545641333]}, "type": "Feature", "properties": {"collection_times": [{"days": "Mon-Sat", "time": "2:30pm"}, {"days": "Sun", "time": "Closed"}], "id": "8530800020", "name": "USPS COLLECTION BOX - BLUE BOX", "address": {"city": "GLENDALE", "state": "AZ", "street": "4410 W UNION HILLS DR", "postcode": "85308"}}},
{"geometry": {"type": "Point", "coordinates": [-112.1531403926, 33.6393595617]}, "type": "Feature", "properties": {"collection_times": [{"days": "Mon-Fri", "time": "9:30am"}, {"days": "Sat-Sun", "time": "Closed"}], "id": "8530800021", "name": "USPS COLLECTION BOX - BLUE BOX", "address": {"city": "GLENDALE", "state": "AZ", "street": "4316 W BELL RD", "postcode": "85308"}}},
{"geometry": {"type": "Point", "coordinates": [-112.1653033, 33.638992497]}, "type": "Feature", "properties": {"collection_times": [{"days": "Mon-Sat", "time": "9:30am"}, {"days": "Sun", "time": "Closed"}], "id": "8530800026", "name": "USPS COLLECTION BOX - BLUE BOX", "address": {"city": "GLENDALE", "state": "AZ", "street": "4915 W BELL RD", "postcode": "85308"}}},
{"geometry": {"type": "Point", "coordinates": [-112.1864620535, 33.6643498088]}, "type": "Feature", "properties": {"collection_times": [{"days": "Mon-Sat", "time": "5:00pm"}, {"days": "Sun", "time": "Closed"}], "id": "8530800028", "name": "USPS COLLECTION BOX - BLUE BOX", "address": {"city": "GLENDALE", "state": "AZ", "street": "19801 N 59TH AVE", "postcode": "85308"}}},
{"geometry": {"type": "Point", "coordinates": [-112.2048583765, 33.6817583408]}, "type": "Feature", "properties": {"collection_times": [{"days": "Mon-Sat", "time": "3:00pm"}, {"days": "Sun", "time": "Closed"}], "id": "8530800032", "name": "USPS COLLECTION BOX - BLUE BOX", "address": {"city": "GLENDALE", "state": "AZ", "street": "6760 W DEER VALLEY RD", "postcode": "85308"}}},
{"geometry": {"type": "Point", "coordinates": [-112.2028754143, 33.668629818]}, "type": "Feature", "properties": {"collection_times": [{"days": "Mon-Sat", "time": "2:45pm"}, {"days": "Sun", "time": "Closed"}], "id": "8530800033", "name": "USPS COLLECTION BOX - BLUE BOX", "address": {"city": "GLENDALE", "state": "AZ", "street": "20205 N 67TH AVE", "postcode": "85308"}}},
{"geometry": {"type": "Point", "coordinates": [-112.1864620535, 33.6643498088]}, "type": "Feature", "properties": {"collection_times": [{"days": "Mon-Sat", "time": "5:00pm"}, {"days": "Sun", "time": "Closed"}], "id": "8530800036", "name": "USPS COLLECTION BOX - PO LOBBY", "address": {"city": "GLENDALE", "state": "AZ", "street": "19801 N 59TH AVE", "postcode": "85308"}}},
{"geometry": {"type": "Point", "coordinates": [-112.1864620535, 33.6643498088]}, "type": "Feature", "properties": {"collection_times": [{"days": "Mon-Sat", "time": "5:00pm"}, {"days": "Sun", "time": "Closed"}], "id": "8530800037", "name": "USPS COLLECTION BOX - PO LOBBY", "address": {"city": "GLENDALE", "state": "AZ", "street": "19801 N 59TH AVE", "postcode": "85308"}}},
{"geometry": {"type": "Point", "coordinates": [-112.2370299276, 33.6503031151]}, "type": "Feature", "properties": {"collection_times": [{"days": "Mon-Fri", "time": "3:30pm"}, {"days": "Sat-Sun", "time": "Closed"}], "id": "8530800038", "name": "USPS COLLECTION BOX - BLUE BOX", "address": {"city": "GLENDALE", "state": "AZ", "street": "18551 N 83RD AVE", "postcode": "85308"}}},
{"geometry": {"type": "Point", "coordinates": [-112.2028754143, 33.668629818]}, "type": "Feature", "properties": {"collection_times": [{"days": "Mon-Sat", "time": "2:45pm"}, {"days": "Sun", "time": "Closed"}], "id": "8530800040", "name": "USPS COLLECTION BOX - BLUE BOX", "address": {"city": "GLENDALE", "state": "AZ", "street": "20205 N 67TH AVE", "postcode": "85308"}}},
{"geometry": {"type": "Point", "coordinates": [-112.2204905982, 33.6621608661]}, "type": "Feature", "properties": {"collection_times": [{"days": "Mon-Sat", "time": "2:00pm"}, {"days": "Sun", "time": "Closed"}], "id": "8530800041", "name": "USPS COLLECTION BOX - BLUE BOX", "address": {"city": "GLENDALE", "state": "AZ", "street": "19650 N 75TH AVE", "postcode": "85308"}}},
{"geometry": {"type": "Point", "coordinates": [-112.1864620535, 33.6643498088]}, "type": "Feature", "properties": {"collection_times": [{"days": "Mon-Sat", "time": "5:00pm"}, {"days": "Sun", "time": "Closed"}], "id": "8530800042", "name": "USPS COLLECTION BOX - APC", "address": {"city": "GLENDALE", "state": "AZ", "street": "19801 N 59TH AVE", "postcode": "85308"}}},
{"geometry": {"type": "Point", "coordinates": [-112.2028651706, 33.6670468539]}, "type": "Feature", "properties": {"collection_times": [{"days": "Mon-Sat", "time": "2:45pm"}, {"days": "Sun", "time": "Closed"}], "id": "8530800043", "name": "USPS COLLECTION BOX - BLUE BOX", "address": {"city": "GLENDALE", "state": "AZ", "street": "20165 N 67TH AVE", "postcode": "85308"}}},
{"geometry": {"type": "Point", "coordinates": [-112.1864620535, 33.6643498088]}, "type": "Feature", "properties": {"collection_times": [{"days": "Mon-Sat", "time": "5:00pm"}, {"days": "Sun", "time": "Closed"}], "id": "8530800044", "name": "USPS COLLECTION BOX - APC", "address": {"city": "GLENDALE", "state": "AZ", "street": "19801 N 59TH AVE", "postcode": "85308"}}},
{"geometry": {"type": "Point", "coordinates": [-112.1435501443, 33.6993840826]}, "type": "Feature", "properties": {"collection_times": [{"days": "Mon-Fri", "time": "4:00pm"}, {"days": "Sat", "time": "3:30pm"}, {"days": "Sun", "time": "Closed"}], "id": "8531000001", "name": "USPS COLLECTION BOX - BLUE BOX", "address": {"city": "GLENDALE", "state": "AZ", "street": "23425 N 39TH DR", "postcode": "85310"}}},
{"geometry": {"type": "Point", "coordinates": [-112.1439571535, 33.7104087996]}, "type": "Feature", "properties": {"collection_times": [{"days": "Mon-Fri", "time": "4:00pm"}, {"days": "Sat", "time": "3:30pm"}, {"days": "Sun", "time": "Closed"}], "id": "8531000002", "name": "USPS COLLECTION BOX - BLUE BOX", "address": {"city": "GLENDALE", "state": "AZ", "street": "24750 N 39TH DR", "postcode": "85310"}}},
{"geometry": {"type": "Point", "coordinates": [-113.1665612558, 33.9429581199]}, "type": "Feature", "properties": {"collection_times": [{"days": "Mon-Fri", "time": "4:00pm"}, {"days": "Sat", "time": "9:15am"}, {"days": "Sun", "time": "Closed"}], "id": "8532000001", "name": "USPS COLLECTION BOX - BLUE BOX", "address": {"city": "AGUILA", "state": "AZ", "street": "51227 HIGHWAY 60", "postcode": "85320"}}},
{"geometry": {"type": "Point", "coordinates": [-113.1665612558, 33.9429581199]}, "type": "Feature", "properties": {"collection_times": [{"days": "Mon-Fri", "time": "4:00pm"}, {"days": "Sat", "time": "9:15am"}, {"days": "Sun", "time": "Closed"}], "id": "8532000002", "name": "USPS COLLECTION BOX - PO LOBBY", "address": {"city": "AGUILA", "state": "AZ", "street": "51227 HIGHWAY 60", "postcode": "85320"}}},
{"geometry": {"type": "Point", "coordinates": [-112.8619780298, 32.3738877216]}, "type": "Feature", "properties": {"collection_times": [{"days": "Mon-Fri", "time": "5:00pm"}, {"days": "Sat", "time": "3:30pm"}, {"days": "Sun", "time": "Closed"}], "id": "8532100001", "name": "USPS COLLECTION BOX - BLUE BOX", "address": {"city": "AJO", "state": "AZ", "street": "20 N PLAZA ST", "postcode": "85321"}}},
{"geometry": {"type": "Point", "coordinates": [-112.8724551527, 32.3759073369]}, "type": "Feature", "properties": {"collection_times": [{"days": "Mon-Sat", "time": "2:30pm"}, {"days": "Sun", "time": "Closed"}], "id": "8532100005", "name": "USPS COLLECTION BOX - BLUE BOX", "address": {"city": "AJO", "state": "AZ", "street": "561 N 2ND AVE", "postcode": "85321"}}},
{"geometry": {"type": "Point", "coordinates": [-112.8619780298, 32.3738877216]}, "type": "Feature", "properties": {"collection_times": [{"days": "Mon-Fri", "time": "5:00pm"}, {"days": "Sat", "time": "3:30pm"}, {"days": "Sun", "time": "Closed"}], "id": "8532100008", "name": "USPS COLLECTION BOX - PO LOBBY", "address": {"city": "AJO", "state": "AZ", "street": "20 N PLAZA ST", "postcode": "85321"}}},
{"geometry": {"type": "Point", "coordinates": [-112.7601062422, 33.3278396785]}, "type": "Feature", "properties": {"collection_times": [{"days": "Mon-Fri", "time": "4:00pm"}, {"days": "Sat", "time": "10:00am"}, {"days": "Sun", "time": "Closed"}], "id": "8532200001", "name": "USPS COLLECTION BOX - BLUE BOX", "address": {"city": "ARLINGTON", "state": "AZ", "street": "33039 W OLD US HIGHWAY 80", "postcode": "85322"}}},
{"geometry": {"type": "Point", "coordinates": [-112.7601062422, 33.3278396785]}, "type": "Feature", "properties": {"collection_times": [{"days": "Mon-Fri", "time": "12:00pm"}, {"days": "Sat", "time": "10:00am"}, {"days": "Sun", "time": "Closed"}], "id": "8532200002", "name": "USPS COLLECTION BOX - PO LOBBY", "address": {"city": "ARLINGTON", "state": "AZ", "street": "33039 W OLD US HIGHWAY 80", "postcode": "85322"}}},
{"geometry": {"type": "Point", "coordinates": [-112.3540968931, 33.4352902213]}, "type": "Feature", "properties": {"collection_times": [{"days": "Mon-Fri", "time": "5:00pm"}, {"days": "Sat", "time": "1:45pm"}, {"days": "Sun", "time": "Closed"}], "id": "8532300008", "name": "USPS COLLECTION BOX - BLUE BOX", "address": {"city": "AVONDALE", "state": "AZ", "street": "401 W WESTERN AVE", "postcode": "85323"}}},
{"geometry": {"type": "Point", "coordinates": [-112.3540968931, 33.4352902213]}, "type": "Feature", "properties": {"collection_times": [{"days": "Mon-Fri", "time": "5:00pm"}, {"days": "Sat", "time": "1:45pm"}, {"days": "Sun", "time": "Closed"}], "id": "8532300009", "name": "USPS COLLECTION BOX - BLUE BOX", "address": {"city": "AVONDALE", "state": "AZ", "street": "401 W WESTERN AVE", "postcode": "85323"}}},
{"geometry": {"type": "Point", "coordinates": [-112.3540968931, 33.4352902213]}, "type": "Feature", "properties": {"collection_times": [{"days": "Mon-Fri", "time": "5:00pm"}, {"days": "Sat", "time": "12:00pm"}, {"days": "Sun", "time": "Closed"}], "id": "8532300014", "name": "USPS COLLECTION BOX - PO LOBBY", "address": {"city": "AVONDALE", "state": "AZ", "street": "401 W WESTERN AVE", "postcode": "85323"}}},
{"geometry": {"type": "Point", "coordinates": [-112.3540968931, 33.4352902213]}, "type": "Feature", "properties": {"collection_times": [{"days": "Mon-Fri", "time": "5:00pm"}, {"days": "Sat", "time": "1:45pm"}, {"days": "Sun", "time": "Closed"}], "id": "8532300015", "name": "USPS COLLECTION BOX - BLUE BOX", "address": {"city": "AVONDALE", "state": "AZ", "street": "401 W WESTERN AVE", "postcode": "85323"}}},
{"geometry": {"type": "Point", "coordinates": [-112.2897959722, 33.4499859591]}, "type": "Feature", "properties": {"collection_times": [{"days": "Mon-Sat", "time": "1:45pm"}, {"days": "Sun", "time": "Closed"}], "id": "8532300017", "name": "USPS COLLECTION BOX - BLUE BOX", "address": {"city": "AVONDALE", "state": "AZ", "street": "10700 W VAN BUREN ST", "postcode": "85323"}}},
{"geometry": {"type": "Point", "coordinates": [-112.3496569529, 33.4405025043]}, "type": "Feature", "properties": {"collection_times": [{"days": "Mon-Sat", "time": "1:45pm"}, {"days": "Sun", "time": "Closed"}], "id": "8532300018", "name": "USPS COLLECTION BOX - BLUE BOX", "address": {"city": "AVONDALE", "state": "AZ", "street": "11465 W CIVIC CENTER DR", "postcode": "85323"}}},
{"geometry": {"type": "Point", "coordinates": [-112.3265359227, 33.4327441339]}, "type": "Feature", "properties": {"collection_times": [{"days": "Mon-Sat", "time": "1:45pm"}, {"days": "Sun", "time": "Closed"}], "id": "8532300020", "name": "USPS COLLECTION BOX - BLUE BOX", "address": {"city": "AVONDALE", "state": "AZ", "street": "12115 W VAN BUREN ST", "postcode": "85323"}}},
{"geometry": {"type": "Point", "coordinates": [-112.3409954592, 33.4521563055]}, "type": "Feature", "properties": {"collection_times": [{"days": "Mon-Sat", "time": "1:45pm"}, {"days": "Sun", "time": "Closed"}], "id": "8532300021", "name": "USPS COLLECTION BOX - BLUE BOX", "address": {"city": "AVONDALE", "state": "AZ", "street": "1461 N DYSART RD", "postcode": "85323"}}},
{"geometry": {"type": "Point", "coordinates": [-112.1509791266, 34.0655347244]}, "type": "Feature", "properties": {"collection_times": [{"days": "Mon-Fri", "time": "4:30pm"}, {"days": "Sat", "time": "9:30am"}, {"days": "Sun", "time": "Closed"}], "id": "8532400001", "name": "USPS COLLECTION BOX - BLUE BOX", "address": {"city": "BLACK CNYN CITY", "state": "AZ", "street": "19060 E K MINE RD", "postcode": "85324"}}},
{"geometry": {"type": "Point", "coordinates": [-112.1376585335, 34.0747229957]}, "type": "Feature", "properties": {"collection_times": [{"days": "Mon-Fri", "time": "4:30pm"}, {"days": "Sat", "time": "9:30am"}, {"days": "Sun", "time": "Closed"}], "id": "8532400002", "name": "USPS COLLECTION BOX - PO LOBBY", "address": {"city": "BLACK CNYN CITY", "state": "AZ", "street": "19060 E K MINE RD", "postcode": "85324"}}},
{"geometry": {"type": "Point", "coordinates": [-114.0044754706, 33.9333362817]}, "type": "Feature", "properties": {"collection_times": [{"days": "Mon-Fri", "time": "4:00pm"}, {"days": "Sat", "time": "10:00am"}, {"days": "Sun", "time": "Closed"}], "id": "8532500000", "name": "USPS COLLECTION BOX - BLUE BOX", "address": {"city": "BOUSE", "state": "AZ", "street": "27665 SANTA FE", "postcode": "85325"}}},
{"geometry": {"type": "Point", "coordinates": [-114.0044754706, 33.9333362817]}, "type": "Feature", "properties": {"collection_times": [{"days": "Mon-Fri", "time": "4:30pm"}, {"days": "Sat", "time": "10:00am"}, {"days": "Sun", "time": "Closed"}], "id": "8532500001", "name": "USPS COLLECTION BOX - PO LOBBY", "address": {"city": "BOUSE", "state": "AZ", "street": "27665 SANTA FE", "postcode": "85325"}}},
{"geometry": {"type": "Point", "coordinates": [-112.5903832605, 33.3704124032]}, "type": "Feature", "properties": {"collection_times": [{"days": "Mon-Fri", "time": "5:00pm"}, {"days": "Sat", "time": "12:00pm"}, {"days": "Sun", "time": "Closed"}], "id": "8532600001", "name": "USPS COLLECTION BOX - BLUE BOX", "address": {"city": "BUCKEYE", "state": "AZ", "street": "51 E MONROE AVE", "postcode": "85326"}}},
{"geometry": {"type": "Point", "coordinates": [-112.5903832605, 33.3704124032]}, "type": "Feature", "properties": {"collection_times": [{"days": "Mon-Fri", "time": "5:00pm"}, {"days": "Sat", "time": "12:00pm"}, {"days": "Sun", "time": "Closed"}], "id": "8532600004", "name": "USPS COLLECTION BOX - BLUE BOX", "address": {"city": "BUCKEYE", "state": "AZ", "street": "51 E MONROE AVE", "postcode": "85326"}}},
{"geometry": {"type": "Point", "coordinates": [-112.5903832605, 33.3704124032]}, "type": "Feature", "properties": {"collection_times": [{"days": "Mon-Fri", "time": "5:00pm"}, {"days": "Sat", "time": "3:30pm"}, {"days": "Sun", "time": "Closed"}], "id": "8532600009", "name": "USPS COLLECTION BOX - PO LOBBY", "address": {"city": "BUCKEYE", "state": "AZ", "street": "51 E MONROE AVE", "postcode": "85326"}}},
{"geometry": {"type": "Point", "coordinates": [-112.5566191773, 33.4619214592]}, "type": "Feature", "properties": {"collection_times": [{"days": "Mon-Fri", "time": "1:30pm"}, {"days": "Sat", "time": "12:00pm"}, {"days": "Sun", "time": "Closed"}], "id": "8532600011", "name": "USPS COLLECTION BOX - BLUE BOX", "address": {"city": "BUCKEYE", "state": "AZ", "street": "1300 S WATSON RD", "postcode": "85326"}}},
{"geometry": {"type": "Point", "coordinates": [-112.2991151743, 33.4347603703]}, "type": "Feature", "properties": {"collection_times": [{"days": "Mon-Fri", "time": "5:15pm"}, {"days": "Sat", "time": "9:00am"}, {"days": "Sun", "time": "Closed"}], "id": "8532900002", "name": "USPS COLLECTION BOX - BLUE BOX", "address": {"city": "CASHION", "state": "AZ", "street": "1216 S 111TH DR", "postcode": "85329"}}},
{"geometry": {"type": "Point", "coordinates": [-112.2991151743, 33.4347603703]}, "type": "Feature", "properties": {"collection_times": [{"days": "Mon-Fri", "time": "5:15pm"}, {"days": "Sat", "time": "9:00am"}, {"days": "Sun", "time": "Closed"}], "id": "8532900003", "name": "USPS COLLECTION BOX - PO LOBBY", "address": {"city": "CASHION", "state": "AZ", "street": "1216 S 111TH DR", "postcode": "85329"}}},
{"geometry": {"type": "Point", "coordinates": [-111.9902493091, 33.7555746334]}, "type": "Feature", "properties": {"collection_times": [{"days": "Mon-Sat", "time": "10:30am"}, {"days": "Sun", "time": "Closed"}], "id": "8533100000", "name": "USPS COLLECTION BOX - BLUE BOX", "address": {"city": "CAVE CREEK", "state": "AZ", "street": "29660 N TATUM BLVD", "postcode": "85331"}}},
{"geometry": {"type": "Point", "coordinates": [-111.9432775574, 33.8331353379]}, "type": "Feature", "properties": {"collection_times": [{"days": "Mon-Fri", "time": "5:00pm"}, {"days": "Sat", "time": "12:00pm"}, {"days": "Sun", "time": "Closed"}], "id": "8533100002", "name": "USPS COLLECTION BOX - BLUE BOX", "address": {"city": "CAVE CREEK", "state": "AZ", "street": "38400 N SCHOOL HOUSE RD", "postcode": "85331"}}},
{"geometry": {"type": "Point", "coordinates": [-111.9432775574, 33.8331353379]}, "type": "Feature", "properties": {"collection_times": [{"days": "Mon-Fri", "time": "5:00pm"}, {"days": "Sat", "time": "12:00pm"}, {"days": "Sun", "time": "Closed"}], "id": "8533100003", "name": "USPS COLLECTION BOX - BLUE BOX", "address": {"city": "CAVE CREEK", "state": "AZ", "street": "38400 N SCHOOL HOUSE RD", "postcode": "85331"}}},
{"geometry": {"type": "Point", "coordinates": [-111.9899713137, 33.7569291214]}, "type": "Feature", "properties": {"collection_times": [{"days": "Mon-Sat", "time": "10:30am"}, {"days": "Sun", "time": "Closed"}], "id": "8533100004", "name": "USPS COLLECTION BOX - BLUE BOX", "address": {"city": "CAVE CREEK", "state": "AZ", "street": "29834 N CAVE CREEK RD", "postcode": "85331"}}},
{"geometry": {"type": "Point", "coordinates": [-111.9768806898, 33.7991347314]}, "type": "Feature", "properties": {"collection_times": [{"days": "Mon-Sat", "time": "10:30am"}, {"days": "Sun", "time": "Closed"}], "id": "8533100006", "name": "USPS COLLECTION BOX - BLUE BOX", "address": {"city": "CAVE CREEK", "state": "AZ", "street": "4815 E CAREFREE HWY", "postcode": "85331"}}},
{"geometry": {"type": "Point", "coordinates": [-111.9899713137, 33.7569291214]}, "type": "Feature", "properties": {"collection_times": [{"days": "Mon-Sat", "time": "10:30am"}, {"days": "Sun", "time": "Closed"}], "id": "8533100007", "name": "USPS COLLECTION BOX - BLUE BOX", "address": {"city": "CAVE CREEK", "state": "AZ", "street": "29834 N CAVE CREEK RD", "postcode": "85331"}}},
{"geometry": {"type": "Point", "coordinates": [-111.9432775574, 33.8331353379]}, "type": "Feature", "properties": {"collection_times": [{"days": "Mon-Fri", "time": "5:00pm"}, {"days": "Sat", "time": "12:00pm"}, {"days": "Sun", "time": "Closed"}], "id": "8533100008", "name": "USPS COLLECTION BOX - BLUE BOX", "address": {"city": "CAVE CREEK", "state": "AZ", "street": "38400 N SCHOOL HOUSE RD", "postcode": "85331"}}},
{"geometry": {"type": "Point", "coordinates": [-111.9432775574, 33.8331353379]}, "type": "Feature", "properties": {"collection_times": [{"days": "Mon-Fri", "time": "5:00pm"}, {"days": "Sat", "time": "12:00pm"}, {"days": "Sun", "time": "Closed"}], "id": "8533100009", "name": "USPS COLLECTION BOX - PO LOBBY", "address": {"city": "CAVE CREEK", "state": "AZ", "street": "38400 N SCHOOL HOUSE RD", "postcode": "85331"}}},
{"geometry": {"type": "Point", "coordinates": [-112.8560486948, 34.1609167057]}, "type": "Feature", "properties": {"collection_times": [{"days": "Mon-Fri", "time": "4:00pm"}, {"days": "Sat", "time": "9:00am"}, {"days": "Sun", "time": "Closed"}], "id": "8533200001", "name": "USPS COLLECTION BOX - BLUE BOX", "address": {"city": "CONGRESS", "state": "AZ", "street": "22850 W HIGHWAY 71", "postcode": "85332"}}},
{"geometry": {"type": "Point", "coordinates": [-113.5409933819, 32.8073213846]}, "type": "Feature", "properties": {"collection_times": [{"days": "Mon-Sat", "time": "9:00am"}, {"days": "Sun", "time": "Closed"}], "id": "8533300001", "name": "USPS COLLECTION BOX - BLUE BOX", "address": {"city": "DATELAND", "state": "AZ", "street": "1300 S AVENUE 64 E", "postcode": "85333"}}},
{"geometry": {"type": "Point", "coordinates": [-114.5178282065, 33.6088942136]}, "type": "Feature", "properties": {"collection_times": [{"days": "Mon-Fri", "time": "3:45pm"}, {"days": "Sat", "time": "10:00am"}, {"days": "Sun", "time": "Closed"}], "id": "8533400001", "name": "USPS COLLECTION BOX - BLUE BOX", "address": {"city": "EHRENBERG", "state": "AZ", "street": "49440 EHRENBERG RD", "postcode": "85334"}}},
{"geometry": {"type": "Point", "coordinates": [-114.5178282065, 33.6088942136]}, "type": "Feature", "properties": {"collection_times": [{"days": "Mon-Fri", "time": "3:45pm"}, {"days": "Sat", "time": "10:00am"}, {"days": "Sun", "time": "Closed"}], "id": "8533400002", "name": "USPS COLLECTION BOX - PO LOBBY", "address": {"city": "EHRENBERG", "state": "AZ", "street": "49440 EHRENBERG RD", "postcode": "85334"}}},
{"geometry": {"type": "Point", "coordinates": [-112.3170094104, 33.608858117]}, "type": "Feature", "properties": {"collection_times": [{"days": "Mon-Fri", "time": "4:00pm"}, {"days": "Sat", "time": "9:00am"}, {"days": "Sun", "time": "Closed"}], "id": "8533500001", "name": "USPS COLLECTION BOX - BLUE BOX", "address": {"city": "EL MIRAGE", "state": "AZ", "street": "11925 W THUNDERBIRD RD", "postcode": "85335"}}},
{"geometry": {"type": "Point", "coordinates": [-112.3170094104, 33.608858117]}, "type": "Feature", "properties": {"collection_times": [{"days": "Mon-Fri", "time": "4:00pm"}, {"days": "Sat", "time": "9:00am"}, {"days": "Sun", "time": "Closed"}], "id": "8533500004", "name": "USPS COLLECTION BOX - PO LOBBY", "address": {"city": "EL MIRAGE", "state": "AZ", "street": "11925 W THUNDERBIRD RD", "postcode": "85335"}}},
{"geometry": {"type": "Point", "coordinates": [-112.7177335838, 32.9483258016]}, "type": "Feature", "properties": {"collection_times": [{"days": "Mon-Fri", "time": "4:30pm"}, {"days": "Sat", "time": "9:30am"}, {"days": "Sun", "time": "Closed"}], "id": "8533700001", "name": "USPS COLLECTION BOX - BLUE BOX", "address": {"city": "GILA BEND", "state": "AZ", "street": "109 W PAPAGO ST", "postcode": "85337"}}},
{"geometry": {"type": "Point", "coordinates": [-112.7177335838, 32.9483258016]}, "type": "Feature", "properties": {"collection_times": [{"days": "Mon-Fri", "time": "4:30pm"}, {"days": "Sat", "time": "9:30am"}, {"days": "Sun", "time": "Closed"}], "id": "8533700002", "name": "USPS COLLECTION BOX - PO LOBBY", "address": {"city": "GILA BEND", "state": "AZ", "street": "109 W PAPAGO ST", "postcode": "85337"}}},
{"geometry": {"type": "Point", "coordinates": [-112.3580433294, 33.4373792338]}, "type": "Feature", "properties": {"collection_times": [{"days": "Mon-Sat", "time": "1:45pm"}, {"days": "Sun", "time": "Closed"}], "id": "8533800001", "name": "USPS COLLECTION BOX - BLUE BOX", "address": {"city": "GOODYEAR", "state": "AZ", "street": "251 N LITCHFIELD RD", "postcode": "85338"}}},
{"geometry": {"type": "Point", "coordinates": [-112.3582926852, 33.4503972455]}, "type": "Feature", "properties": {"collection_times": [{"days": "Mon-Sat", "time": "1:45pm"}, {"days": "Sun", "time": "Closed"}], "id": "8533800002", "name": "USPS COLLECTION BOX - BLUE BOX", "address": {"city": "GOODYEAR", "state": "AZ", "street": "390 N LITCHFIELD RD", "postcode": "85338"}}},
{"geometry": {"type": "Point", "coordinates": [-112.3923505702, 33.4527291456]}, "type": "Feature", "properties": {"collection_times": [{"days": "Mon-Sat", "time": "5:00pm"}, {"days": "Sun", "time": "Closed"}], "id": "8533800009", "name": "USPS COLLECTION BOX - BLUE BOX", "address": {"city": "GOODYEAR", "state": "AZ", "street": "875 S ESTRELLA PKWY", "postcode": "85338"}}},
{"geometry": {"type": "Point", "coordinates": [-112.3923505702, 33.4527291456]}, "type": "Feature", "properties": {"collection_times": [{"days": "Mon-Sat", "time": "5:00pm"}, {"days": "Sun", "time": "Closed"}], "id": "8533800010", "name": "USPS COLLECTION BOX - BLUE BOX", "address": {"city": "GOODYEAR", "state": "AZ", "street": "875 S ESTRELLA PKWY", "postcode": "85338"}}},
{"geometry": {"type": "Point", "coordinates": [-112.3923505702, 33.4527291456]}, "type": "Feature", "properties": {"collection_times": [{"days": "Mon-Sat", "time": "5:00pm"}, {"days": "Sun", "time": "Closed"}], "id": "8533800011", "name": "USPS COLLECTION BOX - PO LOBBY", "address": {"city": "GOODYEAR", "state": "AZ", "street": "875 S ESTRELLA PKWY", "postcode": "85338"}}},
{"geometry": {"type": "Point", "coordinates": [-112.169003276, 33.3617456518]}, "type": "Feature", "properties": {"collection_times": [{"days": "Mon-Fri", "time": "4:30pm"}, {"days": "Sat", "time": "8:00am"}, {"days": "Sun", "time": "Closed"}], "id": "8533900001", "name": "USPS COLLECTION BOX - BLUE BOX", "address": {"city": "LAVEEN", "state": "AZ", "street": "9307 S 51ST AVE", "postcode": "85339"}}},
{"geometry": {"type": "Point", "coordinates": [-112.169003276, 33.3617456518]}, "type": "Feature", "properties": {"collection_times": [{"days": "Mon-Fri", "time": "4:30pm"}, {"days": "Sat", "time": "8:00am"}, {"days": "Sun", "time": "Closed"}], "id": "8533900002", "name": "USPS COLLECTION BOX - PO LOBBY", "address": {"city": "LAVEEN", "state": "AZ", "street": "9307 S 51ST AVE", "postcode": "85339"}}},
{"geometry": {"type": "Point", "coordinates": [-112.350673767, 33.4865496008]}, "type": "Feature", "properties": {"collection_times": [{"days": "Mon-Fri", "time": "5:00pm"}, {"days": "Sat", "time": "1:15pm"}, {"days": "Sun", "time": "Closed"}], "id": "8534000001", "name": "USPS COLLECTION BOX - BLUE BOX", "address": {"city": "LITCHFIELD PARK", "state": "AZ", "street": "591 E PLAZA CIR", "postcode": "85340"}}},
{"geometry": {"type": "Point", "coordinates": [-112.350673767, 33.4865496008]}, "type": "Feature", "properties": {"collection_times": [{"days": "Mon-Fri", "time": "4:45pm"}, {"days": "Sat", "time": "1:15pm"}, {"days": "Sun", "time": "Closed"}], "id": "8534000006", "name": "USPS COLLECTION BOX - PO LOBBY", "address": {"city": "LITCHFIELD PARK", "state": "AZ", "street": "591 E PLAZA CIR", "postcode": "85340"}}},
{"geometry": {"type": "Point", "coordinates": [-112.3579424851, 33.4936080019]}, "type": "Feature", "properties": {"collection_times": [{"days": "Mon-Fri", "time": "3:30pm"}, {"days": "Sat-Sun", "time": "Closed"}], "id": "8534000007", "name": "USPS COLLECTION BOX - BLUE BOX", "address": {"city": "LITCHFIELD PARK", "state": "AZ", "street": "115 N OLD LITCHFIELD RD", "postcode": "85340"}}},
{"geometry": {"type": "Point", "coordinates": [-112.3579424851, 33.4936080019]}, "type": "Feature", "properties": {"collection_times": [{"days": "Mon-Fri", "time": "3:30pm"}, {"days": "Sat-Sun", "time": "Closed"}], "id": "8534000008", "name": "USPS COLLECTION BOX - BLUE BOX", "address": {"city": "LITCHFIELD PARK", "state": "AZ", "street": "115 N OLD LITCHFIELD RD", "postcode": "85340"}}},
{"geometry": {"type": "Point", "coordinates": [-112.350673767, 33.4865496008]}, "type": "Feature", "properties": {"collection_times": [{"days": "Mon-Fri", "time": "4:45pm"}, {"days": "Sat", "time": "1:15pm"}, {"days": "Sun", "time": "Closed"}], "id": "8534000009", "name": "USPS COLLECTION BOX - APC", "address": {"city": "LITCHFIELD PARK", "state": "AZ", "street": "591 E PLAZA CIR", "postcode": "85340"}}},
{"geometry": {"type": "Point", "coordinates": [-112.8165699879, 31.8812034541]}, "type": "Feature", "properties": {"collection_times": [{"days": "Mon-Fri", "time": "3:30pm"}, {"days": "Sat", "time": "9:45am"}, {"days": "Sun", "time": "Closed"}], "id": "8534100001", "name": "USPS COLLECTION BOX - BLUE BOX", "address": {"city": "LUKEVILLE", "state": "AZ", "street": "175 HWY 85", "postcode": "85341"}}},
{"geometry": {"type": "Point", "coordinates": [-112.8165699879, 31.8812034541]}, "type": "Feature", "properties": {"collection_times": [{"days": "Mon-Fri", "time": "3:30pm"}, {"days": "Sat", "time": "9:45am"}, {"days": "Sun", "time": "Closed"}], "id": "8534100002", "name": "USPS COLLECTION BOX - PO LOBBY", "address": {"city": "LUKEVILLE", "state": "AZ", "street": "175 HWY 85", "postcode": "85341"}}},
{"geometry": {"type": "Point", "coordinates": [-112.6260183214, 33.8577529715]}, "type": "Feature", "properties": {"collection_times": [{"days": "Mon-Fri", "time": "4:30pm"}, {"days": "Sat", "time": "9:00am"}, {"days": "Sun", "time": "Closed"}], "id": "8534200001", "name": "USPS COLLECTION BOX - BLUE BOX", "address": {"city": "MORRISTOWN", "state": "AZ", "street": "41009 GRAND AVE", "postcode": "85342"}}},
{"geometry": {"type": "Point", "coordinates": [-112.6260183214, 33.8577529715]}, "type": "Feature", "properties": {"collection_times": [{"days": "Mon-Fri", "time": "4:30pm"}, {"days": "Sat", "time": "9:00am"}, {"days": "Sun", "time": "Closed"}], "id": "8534200002", "name": "USPS COLLECTION BOX - PO LOBBY", "address": {"city": "MORRISTOWN", "state": "AZ", "street": "41009 GRAND AVE", "postcode": "85342"}}},
{"geometry": {"type": "Point", "coordinates": [-114.2804971407, 34.1539747069]}, "type": "Feature", "properties": {"collection_times": [{"days": "Mon-Sat", "time": "11:00am"}, {"days": "Sun", "time": "Closed"}], "id": "8534400005", "name": "USPS COLLECTION BOX - BLUE BOX", "address": {"city": "PARKER", "state": "AZ", "street": "121 W RIVERSIDE DR", "postcode": "85344"}}},
{"geometry": {"type": "Point", "coordinates": [-114.2859985679, 34.1454505147]}, "type": "Feature", "properties": {"collection_times": [{"days": "Mon-Fri", "time": "3:45pm"}, {"days": "Sat", "time": "2:00pm"}, {"days": "Sun", "time": "Closed"}], "id": "8534400006", "name": "USPS COLLECTION BOX - BLUE BOX", "address": {"city": "PARKER", "state": "AZ", "street": "1500 S CALIFORNIA AVE", "postcode": "85344"}}},
{"geometry": {"type": "Point", "coordinates": [-114.2859985679, 34.1454505147]}, "type": "Feature", "properties": {"collection_times": [{"days": "Mon-Fri", "time": "3:45pm"}, {"days": "Sat", "time": "2:00pm"}, {"days": "Sun", "time": "Closed"}], "id": "8534400007", "name": "USPS COLLECTION BOX - BLUE BOX", "address": {"city": "PARKER", "state": "AZ", "street": "1500 S CALIFORNIA AVE", "postcode": "85344"}}},
{"geometry": {"type": "Point", "coordinates": [-114.2859985679, 34.1454505147]}, "type": "Feature", "properties": {"collection_times": [{"days": "Mon-Fri", "time": "3:30pm"}, {"days": "Sat", "time": "2:00pm"}, {"days": "Sun", "time": "Closed"}], "id": "8534400008", "name": "USPS COLLECTION BOX - PO LOBBY", "address": {"city": "PARKER", "state": "AZ", "street": "1500 S CALIFORNIA AVE", "postcode": "85344"}}},
{"geometry": {"type": "Point", "coordinates": [-114.2859985679, 34.1454505147]}, "type": "Feature", "properties": {"collection_times": [{"days": "Mon-Fri", "time": "3:30pm"}, {"days": "Sat", "time": "2:00pm"}, {"days": "Sun", "time": "Closed"}], "id": "8534400009", "name": "USPS COLLECTION BOX - PO LOBBY", "address": {"city": "PARKER", "state": "AZ", "street": "1500 S CALIFORNIA AVE", "postcode": "85344"}}},
{"geometry": {"type": "Point", "coordinates": [-114.2859985679, 34.1454505147]}, "type": "Feature", "properties": {"collection_times": [{"days": "Mon-Sat", "time": "2:00pm"}, {"days": "Sun", "time": "Closed"}], "id": "8534400010", "name": "USPS COLLECTION BOX - PO LOBBY", "address": {"city": "PARKER", "state": "AZ", "street": "1500 S CALIFORNIA AVE", "postcode": "85344"}}},
{"geometry": {"type": "Point", "coordinates": [-112.264579859, 33.5805582205]}, "type": "Feature", "properties": {"collection_times": [{"days": "Mon-Fri", "time": "3:30pm"}, {"days": "Sat", "time": "2:00pm"}, {"days": "Sun", "time": "Closed"}], "id": "8534500001", "name": "USPS COLLECTION BOX - BLUE BOX", "address": {"city": "PEORIA", "state": "AZ", "street": "9501 W PEORIA AVE", "postcode": "85345"}}},
{"geometry": {"type": "Point", "coordinates": [-112.203435076, 33.5671446488]}, "type": "Feature", "properties": {"collection_times": [{"days": "Mon-Sat", "time": "12:00pm"}, {"days": "Sun", "time": "Closed"}], "id": "8534500002", "name": "USPS COLLECTION BOX - BLUE BOX", "address": {"city": "PEORIA", "state": "AZ", "street": "6720 W OLIVE AVE", "postcode": "85345"}}},
{"geometry": {"type": "Point", "coordinates": [-112.2084830144, 33.5816639378]}, "type": "Feature", "properties": {"collection_times": [{"days": "Mon-Fri", "time": "2:45pm"}, {"days": "Sat", "time": "1:00pm"}, {"days": "Sun", "time": "Closed"}], "id": "8534500008", "name": "USPS COLLECTION BOX - BLUE BOX", "address": {"city": "PEORIA", "state": "AZ", "street": "6960 W PEORIA AVE", "postcode": "85345"}}},
{"geometry": {"type": "Point", "coordinates": [-112.2312255805, 33.5810852718]}, "type": "Feature", "properties": {"collection_times": [{"days": "Mon-Fri", "time": "2:45pm"}, {"days": "Sat", "time": "1:00pm"}, {"days": "Sun", "time": "Closed"}], "id": "8534500009", "name": "USPS COLLECTION BOX - BLUE BOX", "address": {"city": "PEORIA", "state": "AZ", "street": "7975 W PEORIA AVE", "postcode": "85345"}}},
{"geometry": {"type": "Point", "coordinates": [-112.2058148024, 33.5815462835]}, "type": "Feature", "properties": {"collection_times": [{"days": "Mon-Sat", "time": "11:00am"}, {"days": "Sun", "time": "Closed"}], "id": "8534500011", "name": "USPS COLLECTION BOX - BLUE BOX", "address": {"city": "PEORIA", "state": "AZ", "street": "6817 W PEORIA AVE", "postcode": "85345"}}},
{"geometry": {"type": "Point", "coordinates": [-112.2551019917, 33.5878180396]}, "type": "Feature", "properties": {"collection_times": [{"days": "Mon-Fri", "time": "3:15pm"}, {"days": "Sat", "time": "1:45pm"}, {"days": "Sun", "time": "Closed"}], "id": "8534500012", "name": "USPS COLLECTION BOX - BLUE BOX", "address": {"city": "PEORIA", "state": "AZ", "street": "11411 N 91ST AVE", "postcode": "85345"}}},
{"geometry": {"type": "Point", "coordinates": [-112.2550499415, 33.5839012625]}, "type": "Feature", "properties": {"collection_times": [{"days": "Mon-Sat", "time": "10:00am"}, {"days": "Sun", "time": "Closed"}], "id": "8534500013", "name": "USPS COLLECTION BOX - BLUE BOX", "address": {"city": "PEORIA", "state": "AZ", "street": "10951 N 91ST AVE", "postcode": "85345"}}},
{"geometry": {"type": "Point", "coordinates": [-112.2420679361, 33.5820119159]}, "type": "Feature", "properties": {"collection_times": [{"days": "Mon-Sat", "time": "5:00pm"}, {"days": "Sun", "time": "Closed"}], "id": "8534500018", "name": "USPS COLLECTION BOX - BLUE BOX", "address": {"city": "PEORIA", "state": "AZ", "street": "10700 N 85TH AVE", "postcode": "85345"}}},
{"geometry": {"type": "Point", "coordinates": [-112.2420679361, 33.5820119159]}, "type": "Feature", "properties": {"collection_times": [{"days": "Mon-Sat", "time": "5:00pm"}, {"days": "Sun", "time": "Closed"}], "id": "8534500027", "name": "USPS COLLECTION BOX - BLUE BOX", "address": {"city": "PEORIA", "state": "AZ", "street": "10700 N 85TH AVE", "postcode": "85345"}}},
{"geometry": {"type": "Point", "coordinates": [-112.2420679361, 33.5820119159]}, "type": "Feature", "properties": {"collection_times": [{"days": "Mon-Sat", "time": "5:00pm"}, {"days": "Sun", "time": "Closed"}], "id": "8534500028", "name": "USPS COLLECTION BOX - BLUE BOX", "address": {"city": "PEORIA", "state": "AZ", "street": "10700 N 85TH AVE", "postcode": "85345"}}},
{"geometry": {"type": "Point", "coordinates": [-112.3047228179, 33.5651203075]}, "type": "Feature", "properties": {"collection_times": [{"days": "Mon-Sat", "time": "8:30am"}, {"days": "Sun", "time": "Closed"}], "id": "8534500029", "name": "USPS COLLECTION BOX - BLUE BOX", "address": {"city": "PEORIA", "state": "AZ", "street": "8945 N 114TH AVE", "postcode": "85345"}}},
{"geometry": {"type": "Point", "coordinates": [-112.2879008203, 33.5655849021]}, "type": "Feature", "properties": {"collection_times": [{"days": "Mon-Fri", "time": "3:30pm"}, {"days": "Sat", "time": "1:30pm"}, {"days": "Sun", "time": "Closed"}], "id": "8534500030", "name": "USPS COLLECTION BOX - BLUE BOX", "address": {"city": "PEORIA", "state": "AZ", "street": "10641 W OLIVE AVE", "postcode": "85345"}}},
{"geometry": {"type": "Point", "coordinates": [-112.2535495512, 33.5662500763]}, "type": "Feature", "properties": {"collection_times": [{"days": "Mon-Fri", "time": "4:15pm"}, {"days": "Sat", "time": "1:45pm"}, {"days": "Sun", "time": "Closed"}], "id": "8534500031", "name": "USPS COLLECTION BOX - BLUE BOX", "address": {"city": "PEORIA", "state": "AZ", "street": "9043 W OLIVE AVE", "postcode": "85345"}}},
{"geometry": {"type": "Point", "coordinates": [-112.2724877086, 33.5826013703]}, "type": "Feature", "properties": {"collection_times": [{"days": "Mon-Fri", "time": "3:00pm"}, {"days": "Sat", "time": "2:00pm"}, {"days": "Sun", "time": "Closed"}], "id": "8534500033", "name": "USPS COLLECTION BOX - BLUE BOX", "address": {"city": "PEORIA", "state": "AZ", "street": "11001 N 99TH AVE", "postcode": "85345"}}},
{"geometry": {"type": "Point", "coordinates": [-112.2464357462, 33.5749821882]}, "type": "Feature", "properties": {"collection_times": [{"days": "Mon-Fri", "time": "2:30pm"}, {"days": "Sat", "time": "1:00pm"}, {"days": "Sun", "time": "Closed"}], "id": "8534500035", "name": "USPS COLLECTION BOX - BLUE BOX", "address": {"city": "PEORIA", "state": "AZ", "street": "11973 N 87TH DR", "postcode": "85345"}}},
{"geometry": {"type": "Point", "coordinates": [-112.2420679361, 33.5820119159]}, "type": "Feature", "properties": {"collection_times": [{"days": "Mon-Sat", "time": "4:45pm"}, {"days": "Sun", "time": "Closed"}], "id": "8534500036", "name": "USPS COLLECTION BOX - PO LOBBY", "address": {"city": "PEORIA", "state": "AZ", "street": "10700 N 85TH AVE", "postcode": "85345"}}},
{"geometry": {"type": "Point", "coordinates": [-112.2420679361, 33.5820119159]}, "type": "Feature", "properties": {"collection_times": [{"days": "Mon-Sat", "time": "5:00pm"}, {"days": "Sun", "time": "Closed"}], "id": "8534500037", "name": "USPS COLLECTION BOX - BLUE BOX", "address": {"city": "PEORIA", "state": "AZ", "street": "10700 N 85TH AVE", "postcode": "85345"}}},
{"geometry": {"type": "Point", "coordinates": [-114.2177666031, 33.6666676535]}, "type": "Feature", "properties": {"collection_times": [{"days": "Mon-Fri", "time": "3:45pm"}, {"days": "Sat", "time": "9:45am"}, {"days": "Sun", "time": "Closed"}], "id": "8534600001", "name": "USPS COLLECTION BOX - BLUE BOX", "address": {"city": "QUARTZSITE", "state": "AZ", "street": "80 W MAIN", "postcode": "85346"}}},
{"geometry": {"type": "Point", "coordinates": [-114.2175996313, 33.6666618042]}, "type": "Feature", "properties": {"collection_times": [{"days": "Mon-Fri", "time": "3:00pm"}, {"days": "Sat", "time": "9:00am"}, {"days": "Sun", "time": "Closed"}], "id": "8534600002", "name": "USPS COLLECTION BOX - BLUE BOX", "address": {"city": "QUARTZSITE", "state": "AZ", "street": "POB N PLYMOUTH AVE 309", "postcode": "85346"}}},
{"geometry": {"type": "Point", "coordinates": [-114.2177666031, 33.6666676535]}, "type": "Feature", "properties": {"collection_times": [{"days": "Mon-Fri", "time": "4:00pm"}, {"days": "Sat", "time": "9:30am"}, {"days": "Sun", "time": "Closed"}], "id": "8534600005", "name": "USPS COLLECTION BOX - PO LOBBY", "address": {"city": "QUARTZSITE", "state": "AZ", "street": "80 W MAIN", "postcode": "85346"}}},
{"geometry": {"type": "Point", "coordinates": [-113.4260618074, 33.8588062632]}, "type": "Feature", "properties": {"collection_times": [{"days": "Mon-Fri", "time": "4:00pm"}, {"days": "Sat", "time": "10:00am"}, {"days": "Sun", "time": "Closed"}], "id": "8534800002", "name": "USPS COLLECTION BOX - BLUE BOX", "address": {"city": "SALOME", "state": "AZ", "street": "66830 HIGHWAY 60", "postcode": "85348"}}},
{"geometry": {"type": "Point", "coordinates": [-113.4260618074, 33.8588062632]}, "type": "Feature", "properties": {"collection_times": [{"days": "Mon-Fri", "time": "4:00pm"}, {"days": "Sat", "time": "10:00am"}, {"days": "Sun", "time": "Closed"}], "id": "8534800003", "name": "USPS COLLECTION BOX - PO LOBBY", "address": {"city": "SALOME", "state": "AZ", "street": "66830 HIGHWAY 60", "postcode": "85348"}}},
{"geometry": {"type": "Point", "coordinates": [-114.7823433281, 32.4906274177]}, "type": "Feature", "properties": {"collection_times": [{"days": "Mon-Fri", "time": "2:30pm"}, {"days": "Sat", "time": "12:00pm"}, {"days": "Sun", "time": "Closed"}], "id": "8534900001", "name": "USPS COLLECTION BOX - BLUE BOX", "address": {"city": "SAN LUIS", "state": "AZ", "street": "874 S MAIN ST", "postcode": "85349"}}},
{"geometry": {"type": "Point", "coordinates": [-114.7823433281, 32.4906274177]}, "type": "Feature", "properties": {"collection_times": [{"days": "Mon-Fri", "time": "2:30pm"}, {"days": "Sat", "time": "12:00pm"}, {"days": "Sun", "time": "Closed"}], "id": "8534900002", "name": "USPS COLLECTION BOX - BLUE BOX", "address": {"city": "SAN LUIS", "state": "AZ", "street": "874 S MAIN ST", "postcode": "85349"}}},
{"geometry": {"type": "Point", "coordinates": [-114.7823433281, 32.4906274177]}, "type": "Feature", "properties": {"collection_times": [{"days": "Mon-Fri", "time": "2:30pm"}, {"days": "Sat", "time": "12:00pm"}, {"days": "Sun", "time": "Closed"}], "id": "8534900004", "name": "USPS COLLECTION BOX - PO LOBBY", "address": {"city": "SAN LUIS", "state": "AZ", "street": "874 S MAIN ST", "postcode": "85349"}}},
{"geometry": {"type": "Point", "coordinates": [-114.7823433281, 32.4906274177]}, "type": "Feature", "properties": {"collection_times": [{"days": "Mon-Fri", "time": "2:30pm"}, {"days": "Sat", "time": "12:00pm"}, {"days": "Sun", "time": "Closed"}], "id": "8534900005", "name": "USPS COLLECTION BOX - BLUE BOX", "address": {"city": "SAN LUIS", "state": "AZ", "street": "874 S MAIN ST", "postcode": "85349"}}},
{"geometry": {"type": "Point", "coordinates": [-114.7091347895, 32.596599703]}, "type": "Feature", "properties": {"collection_times": [{"days": "Mon-Sat", "time": "3:00pm"}, {"days": "Sun", "time": "Closed"}], "id": "8535000001", "name": "USPS COLLECTION BOX - BLUE BOX", "address": {"city": "SOMERTON", "state": "AZ", "street": "450 E MAIN ST", "postcode": "85350"}}},
{"geometry": {"type": "Point", "coordinates": [-114.7091347895, 32.596599703]}, "type": "Feature", "properties": {"collection_times": [{"days": "Mon-Sat", "time": "3:00pm"}, {"days": "Sun", "time": "Closed"}], "id": "8535000003", "name": "USPS COLLECTION BOX - PO LOBBY", "address": {"city": "SOMERTON", "state": "AZ", "street": "450 E MAIN ST", "postcode": "85350"}}},
{"geometry": {"type": "Point", "coordinates": [-112.2803094091, 33.6050105212]}, "type": "Feature", "properties": {"collection_times": [{"days": "Mon-Sat", "time": "2:00pm"}, {"days": "Sun", "time": "Closed"}], "id": "8535100001", "name": "USPS COLLECTION BOX - BLUE BOX", "address": {"city": "SUN CITY", "state": "AZ", "street": "10903 W CAMEO DR", "postcode": "85351"}}},
{"geometry": {"type": "Point", "coordinates": [-112.269022308, 33.6054987496]}, "type": "Feature", "properties": {"collection_times": [{"days": "Mon-Sat", "time": "5:15pm"}, {"days": "Sun", "time": "Closed"}], "id": "8535100002", "name": "USPS COLLECTION BOX - BLUE BOX", "address": {"city": "SUN CITY", "state": "AZ", "street": "13632 N 99TH AVE", "postcode": "85351"}}},
{"geometry": {"type": "Point", "coordinates": [-112.2704893597, 33.6381794546]}, "type": "Feature", "properties": {"collection_times": [{"days": "Mon-Sat", "time": "5:15pm"}, {"days": "Sun", "time": "Closed"}], "id": "8535100003", "name": "USPS COLLECTION BOX - BLUE BOX", "address": {"city": "SUN CITY", "state": "AZ", "street": "9802 W BELL RD", "postcode": "85351"}}},
{"geometry": {"type": "Point", "coordinates": [-112.2704893597, 33.6381794546]}, "type": "Feature", "properties": {"collection_times": [{"days": "Mon-Sat", "time": "5:15pm"}, {"days": "Sun", "time": "Closed"}], "id": "8535100004", "name": "USPS COLLECTION BOX - BLUE BOX", "address": {"city": "SUN CITY", "state": "AZ", "street": "9802 W BELL RD", "postcode": "85351"}}},
{"geometry": {"type": "Point", "coordinates": [-112.2704893597, 33.6381794546]}, "type": "Feature", "properties": {"collection_times": [{"days": "Mon-Sat", "time": "5:15pm"}, {"days": "Sun", "time": "Closed"}], "id": "8535100006", "name": "USPS COLLECTION BOX - BLUE BOX", "address": {"city": "SUN CITY", "state": "AZ", "street": "9802 W BELL RD", "postcode": "85351"}}},
{"geometry": {"type": "Point", "coordinates": [-112.2889049998, 33.6339256029]}, "type": "Feature", "properties": {"collection_times": [{"days": "Mon-Sat", "time": "10:30am"}, {"days": "Sun", "time": "Closed"}], "id": "8535100007", "name": "USPS COLLECTION BOX - BLUE BOX", "address": {"city": "SUN CITY", "state": "AZ", "street": "16401 N DEL WEBB BLVD", "postcode": "85351"}}},
{"geometry": {"type": "Point", "coordinates": [-112.2784873318, 33.6282278543]}, "type": "Feature", "properties": {"collection_times": [{"days": "Mon-Sat", "time": "10:15am"}, {"days": "Sun", "time": "Closed"}], "id": "8535100009", "name": "USPS COLLECTION BOX - BLUE BOX", "address": {"city": "SUN CITY", "state": "AZ", "street": "15675 N BOSWELL BLVD", "postcode": "85351"}}},
{"geometry": {"type": "Point", "coordinates": [-112.2803094091, 33.6050105212]}, "type": "Feature", "properties": {"collection_times": [{"days": "Mon-Sat", "time": "2:00pm"}, {"days": "Sun", "time": "Closed"}], "id": "8535100010", "name": "USPS COLLECTION BOX - BLUE BOX", "address": {"city": "SUN CITY", "state": "AZ", "street": "10551 W PRAIRIE HILLS CIR", "postcode": "85351"}}},
{"geometry": {"type": "Point", "coordinates": [-112.269022308, 33.6054987496]}, "type": "Feature", "properties": {"collection_times": [{"days": "Mon-Sat", "time": "5:15pm"}, {"days": "Sun", "time": "Closed"}], "id": "8535100011", "name": "USPS COLLECTION BOX - BLUE BOX", "address": {"city": "SUN CITY", "state": "AZ", "street": "13632 N 99TH AVE", "postcode": "85351"}}},
{"geometry": {"type": "Point", "coordinates": [-112.2812347382, 33.6040754447]}, "type": "Feature", "properties": {"collection_times": [{"days": "Mon-Sat", "time": "5:00pm"}, {"days": "Sun", "time": "Closed"}], "id": "8535100012", "name": "USPS COLLECTION BOX - BLUE BOX", "address": {"city": "SUN CITY", "state": "AZ", "street": "13203 N 103RD AVE", "postcode": "85351"}}},
{"geometry": {"type": "Point", "coordinates": [-112.2823503893, 33.602773083]}, "type": "Feature", "properties": {"collection_times": [{"days": "Mon-Sat", "time": "2:30pm"}, {"days": "Sun", "time": "Closed"}], "id": "8535100016", "name": "USPS COLLECTION BOX - BLUE BOX", "address": {"city": "SUN CITY", "state": "AZ", "street": "13188 N 103RD DR", "postcode": "85351"}}},
{"geometry": {"type": "Point", "coordinates": [-112.2805483839, 33.6047411768]}, "type": "Feature", "properties": {"collection_times": [{"days": "Mon-Sat", "time": "5:00pm"}, {"days": "Sun", "time": "Closed"}], "id": "8535100019", "name": "USPS COLLECTION BOX - BLUE BOX", "address": {"city": "SUN CITY", "state": "AZ", "street": "10619 W SANTA FE DR", "postcode": "85351"}}},
{"geometry": {"type": "Point", "coordinates": [-112.299261178, 33.6119818799]}, "type": "Feature", "properties": {"collection_times": [{"days": "Mon-Sat", "time": "3:45pm"}, {"days": "Sun", "time": "Closed"}], "id": "8535100020", "name": "USPS COLLECTION BOX - BLUE BOX", "address": {"city": "SUN CITY", "state": "AZ", "street": "14075 N THUNDERBIRD BLVD", "postcode": "85351"}}},
{"geometry": {"type": "Point", "coordinates": [-112.291117337, 33.6168027054]}, "type": "Feature", "properties": {"collection_times": [{"days": "Mon-Sat", "time": "4:45pm"}, {"days": "Sun", "time": "Closed"}], "id": "8535100021", "name": "USPS COLLECTION BOX - BLUE BOX", "address": {"city": "SUN CITY", "state": "AZ", "street": "14625 N DEL WEBB BLVD", "postcode": "85351"}}},
{"geometry": {"type": "Point", "coordinates": [-112.2913402853, 33.6182032342]}, "type": "Feature", "properties": {"collection_times": [{"days": "Mon-Sat", "time": "4:45pm"}, {"days": "Sun", "time": "Closed"}], "id": "8535100022", "name": "USPS COLLECTION BOX - BLUE BOX", "address": {"city": "SUN CITY", "state": "AZ", "street": "14802 N DEL WEBB BLVD", "postcode": "85351"}}},
{"geometry": {"type": "Point", "coordinates": [-112.2886615062, 33.6024492306]}, "type": "Feature", "properties": {"collection_times": [{"days": "Mon-Sat", "time": "5:00pm"}, {"days": "Sun", "time": "Closed"}], "id": "8535100023", "name": "USPS COLLECTION BOX - BLUE BOX", "address": {"city": "SUN CITY", "state": "AZ", "street": "10660 GRAND AVE", "postcode": "85351"}}},
{"geometry": {"type": "Point", "coordinates": [-112.2803094091, 33.6050105212]}, "type": "Feature", "properties": {"collection_times": [{"days": "Mon-Sat", "time": "4:45pm"}, {"days": "Sun", "time": "Closed"}], "id": "8535100024", "name": "USPS COLLECTION BOX - BLUE BOX", "address": {"city": "SUN CITY", "state": "AZ", "street": "10763 GRAND AVE", "postcode": "85351"}}},
{"geometry": {"type": "Point", "coordinates": [-112.2803094091, 33.6050105212]}, "type": "Feature", "properties": {"collection_times": [{"days": "Mon-Sat", "time": "4:45pm"}, {"days": "Sun", "time": "Closed"}], "id": "8535100025", "name": "USPS COLLECTION BOX - BLUE BOX", "address": {"city": "SUN CITY", "state": "AZ", "street": "10763 GRAND AVE", "postcode": "85351"}}},
{"geometry": {"type": "Point", "coordinates": [-112.2915824018, 33.579955714]}, "type": "Feature", "properties": {"collection_times": [{"days": "Mon-Sat", "time": "4:45pm"}, {"days": "Sun", "time": "Closed"}], "id": "8535100027", "name": "USPS COLLECTION BOX - BLUE BOX", "address": {"city": "SUN CITY", "state": "AZ", "street": "10743 W PEORIA AVE", "postcode": "85351"}}},
{"geometry": {"type": "Point", "coordinates": [-112.2886932945, 33.5800448163]}, "type": "Feature", "properties": {"collection_times": [{"days": "Mon-Sat", "time": "4:45pm"}, {"days": "Sun", "time": "Closed"}], "id": "8535100028", "name": "USPS COLLECTION BOX - BLUE BOX", "address": {"city": "SUN CITY", "state": "AZ", "street": "10615 W PEORIA AVE", "postcode": "85351"}}},
{"geometry": {"type": "Point", "coordinates": [-112.2898703387, 33.5694490528]}, "type": "Feature", "properties": {"collection_times": [{"days": "Mon-Sat", "time": "2:15pm"}, {"days": "Sun", "time": "Closed"}], "id": "8535100030", "name": "USPS COLLECTION BOX - BLUE BOX", "address": {"city": "SUN CITY", "state": "AZ", "street": "9433 N 107TH AVE", "postcode": "85351"}}},
{"geometry": {"type": "Point", "coordinates": [-112.2807266286, 33.5747180279]}, "type": "Feature", "properties": {"collection_times": [{"days": "Mon-Sat", "time": "2:30pm"}, {"days": "Sun", "time": "Closed"}], "id": "8535100031", "name": "USPS COLLECTION BOX - BLUE BOX", "address": {"city": "SUN CITY", "state": "AZ", "street": "10246 W ANDOVER AVE", "postcode": "85351"}}},
{"geometry": {"type": "Point", "coordinates": [-112.2803094091, 33.6050105212]}, "type": "Feature", "properties": {"collection_times": [{"days": "Mon-Sat", "time": "2:30pm"}, {"days": "Sun", "time": "Closed"}], "id": "8535100032", "name": "USPS COLLECTION BOX - BLUE BOX", "address": {"city": "SUN CITY", "state": "AZ", "street": "10233 W PEORIA AVE", "postcode": "85351"}}},
{"geometry": {"type": "Point", "coordinates": [-112.2813258592, 33.5989854289]}, "type": "Feature", "properties": {"collection_times": [{"days": "Mon-Sat", "time": "5:00pm"}, {"days": "Sun", "time": "Closed"}], "id": "8535100034", "name": "USPS COLLECTION BOX - BLUE BOX", "address": {"city": "SUN CITY", "state": "AZ", "street": "10295 W COGGINS DR", "postcode": "85351"}}},
{"geometry": {"type": "Point", "coordinates": [-112.2697578815, 33.6234952943]}, "type": "Feature", "properties": {"collection_times": [{"days": "Mon-Sat", "time": "5:00pm"}, {"days": "Sun", "time": "Closed"}], "id": "8535100035", "name": "USPS COLLECTION BOX - BLUE BOX", "address": {"city": "SUN CITY", "state": "AZ", "street": "15470 N 99TH AVE", "postcode": "85351"}}},
{"geometry": {"type": "Point", "coordinates": [-112.2697578815, 33.6234952943]}, "type": "Feature", "properties": {"collection_times": [{"days": "Mon-Sat", "time": "5:00pm"}, {"days": "Sun", "time": "Closed"}], "id": "8535100036", "name": "USPS COLLECTION BOX - BLUE BOX", "address": {"city": "SUN CITY", "state": "AZ", "street": "15470 N 99TH AVE", "postcode": "85351"}}},
{"geometry": {"type": "Point", "coordinates": [-112.2803094091, 33.6050105212]}, "type": "Feature", "properties": {"collection_times": [{"days": "Mon-Sat", "time": "12:00pm"}, {"days": "Sun", "time": "Closed"}], "id": "8535100037", "name": "USPS COLLECTION BOX - BLUE BOX", "address": {"city": "SUN CITY", "state": "AZ", "street": "9350 W GREENWAY RD", "postcode": "85351"}}},
{"geometry": {"type": "Point", "coordinates": [-112.2606740881, 33.6323254822]}, "type": "Feature", "properties": {"collection_times": [{"days": "Mon-Sat", "time": "12:15pm"}, {"days": "Sun", "time": "Closed"}], "id": "8535100038", "name": "USPS COLLECTION BOX - BLUE BOX", "address": {"city": "SUN CITY", "state": "AZ", "street": "9400 W HUTTON DR", "postcode": "85351"}}},
{"geometry": {"type": "Point", "coordinates": [-112.2908132158, 33.6381627659]}, "type": "Feature", "properties": {"collection_times": [{"days": "Mon-Sat", "time": "4:30pm"}, {"days": "Sun", "time": "Closed"}], "id": "8535100039", "name": "USPS COLLECTION BOX - BLUE BOX", "address": {"city": "SUN CITY", "state": "AZ", "street": "10730 W BELL RD", "postcode": "85351"}}},
{"geometry": {"type": "Point", "coordinates": [-112.2753992016, 33.6379849634]}, "type": "Feature", "properties": {"collection_times": [{"days": "Mon-Sat", "time": "5:15pm"}, {"days": "Sun", "time": "Closed"}], "id": "8535100040", "name": "USPS COLLECTION BOX - BLUE BOX", "address": {"city": "SUN CITY", "state": "AZ", "street": "9949 W BELL RD", "postcode": "85351"}}},
{"geometry": {"type": "Point", "coordinates": [-112.2704893597, 33.6381794546]}, "type": "Feature", "properties": {"collection_times": [{"days": "Mon-Sat", "time": "5:15pm"}, {"days": "Sun", "time": "Closed"}], "id": "8535100041", "name": "USPS COLLECTION BOX - BLUE BOX", "address": {"city": "SUN CITY", "state": "AZ", "street": "9802 W BELL RD", "postcode": "85351"}}},
{"geometry": {"type": "Point", "coordinates": [-112.2774386229, 33.6381553095]}, "type": "Feature", "properties": {"collection_times": [{"days": "Mon-Sat", "time": "3:00pm"}, {"days": "Sun", "time": "Closed"}], "id": "8535100042", "name": "USPS COLLECTION BOX - BLUE BOX", "address": {"city": "SUN CITY", "state": "AZ", "street": "10050 W BELL RD", "postcode": "85351"}}},
{"geometry": {"type": "Point", "coordinates": [-112.2803094091, 33.6050105212]}, "type": "Feature", "properties": {"collection_times": [{"days": "Mon-Sat", "time": "1:00pm"}, {"days": "Sun", "time": "Closed"}], "id": "8535100043", "name": "USPS COLLECTION BOX - EXPRESS", "address": {"city": "SUN CITY", "state": "AZ", "street": "9802 W BELL RD", "postcode": "85351"}}},
{"geometry": {"type": "Point", "coordinates": [-112.2798092727, 33.638170688]}, "type": "Feature", "properties": {"collection_times": [{"days": "Mon-Sat", "time": "4:30pm"}, {"days": "Sun", "time": "Closed"}], "id": "8535100044", "name": "USPS COLLECTION BOX - BLUE BOX", "address": {"city": "SUN CITY", "state": "AZ", "street": "10240 W BELL RD", "postcode": "85351"}}},
{"geometry": {"type": "Point", "coordinates": [-112.2704893597, 33.6381794546]}, "type": "Feature", "properties": {"collection_times": [{"days": "Mon-Sat", "time": "5:15pm"}, {"days": "Sun", "time": "Closed"}], "id": "8535100047", "name": "USPS COLLECTION BOX - PO LOBBY", "address": {"city": "SUN CITY", "state": "AZ", "street": "9802 W BELL RD", "postcode": "85351"}}},
{"geometry": {"type": "Point", "coordinates": [-112.2704893597, 33.6381794546]}, "type": "Feature", "properties": {"collection_times": [{"days": "Mon-Sat", "time": "5:15pm"}, {"days": "Sun", "time": "Closed"}], "id": "8535100048", "name": "USPS COLLECTION BOX - APC", "address": {"city": "SUN CITY", "state": "AZ", "street": "9802 W BELL RD", "postcode": "85351"}}},
{"geometry": {"type": "Point", "coordinates": [-113.9532939616, 32.6971356777]}, "type": "Feature", "properties": {"collection_times": [{"days": "Mon-Fri", "time": "4:15pm"}, {"days": "Sat", "time": "8:45am"}, {"days": "Sun", "time": "Closed"}], "id": "8535200000", "name": "USPS COLLECTION BOX - BLUE BOX", "address": {"city": "TACNA", "state": "AZ", "street": "40140 E HWY 80", "postcode": "85352"}}},
{"geometry": {"type": "Point", "coordinates": [-113.9532939616, 32.6971356777]}, "type": "Feature", "properties": {"collection_times": [{"days": "Mon-Fri", "time": "4:15pm"}, {"days": "Sat", "time": "8:45am"}, {"days": "Sun", "time": "Closed"}], "id": "8535200001", "name": "USPS COLLECTION BOX - PO LOBBY", "address": {"city": "TACNA", "state": "AZ", "street": "40140 E HWY 80", "postcode": "85352"}}},
{"geometry": {"type": "Point", "coordinates": [-112.251549566, 33.4506894364]}, "type": "Feature", "properties": {"collection_times": [{"days": "Mon-Fri", "time": "5:00pm"}, {"days": "Sat", "time": "1:00pm"}, {"days": "Sun", "time": "Closed"}], "id": "8535300001", "name": "USPS COLLECTION BOX - BLUE BOX", "address": {"city": "TOLLESON", "state": "AZ", "street": "8805 W VAN BUREN ST", "postcode": "85353"}}},
{"geometry": {"type": "Point", "coordinates": [-112.251549566, 33.4506894364]}, "type": "Feature", "properties": {"collection_times": [{"days": "Mon-Fri", "time": "5:00pm"}, {"days": "Sat", "time": "1:00pm"}, {"days": "Sun", "time": "Closed"}], "id": "8535300002", "name": "USPS COLLECTION BOX - BLUE BOX", "address": {"city": "TOLLESON", "state": "AZ", "street": "8805 W VAN BUREN ST", "postcode": "85353"}}},
{"geometry": {"type": "Point", "coordinates": [-112.264959821, 33.4503425052]}, "type": "Feature", "properties": {"collection_times": [{"days": "Mon-Sat", "time": "11:00am"}, {"days": "Sun", "time": "Closed"}], "id": "8535300003", "name": "USPS COLLECTION BOX - BLUE BOX", "address": {"city": "TOLLESON", "state": "AZ", "street": "9550 W VAN BUREN ST", "postcode": "85353"}}},
{"geometry": {"type": "Point", "coordinates": [-112.251549566, 33.4506894364]}, "type": "Feature", "properties": {"collection_times": [{"days": "Mon-Fri", "time": "4:45pm"}, {"days": "Sat", "time": "1:00pm"}, {"days": "Sun", "time": "Closed"}], "id": "8535300004", "name": "USPS COLLECTION BOX - PO LOBBY", "address": {"city": "TOLLESON", "state": "AZ", "street": "8805 W VAN BUREN ST", "postcode": "85353"}}},
{"geometry": {"type": "Point", "coordinates": [-112.9369394289, 33.492126123]}, "type": "Feature", "properties": {"collection_times": [{"days": "Mon-Fri", "time": "5:00pm"}, {"days": "Sat", "time": "9:00am"}, {"days": "Sun", "time": "Closed"}], "id": "8535400001", "name": "USPS COLLECTION BOX - BLUE BOX", "address": {"city": "TONOPAH", "state": "AZ", "street": "3939 N 411TH AVE", "postcode": "85354"}}},
{"geometry": {"type": "Point", "coordinates": [-112.9369394289, 33.492126123]}, "type": "Feature", "properties": {"collection_times": [{"days": "Mon-Fri", "time": "5:00pm"}, {"days": "Sat", "time": "9:00am"}, {"days": "Sun", "time": "Closed"}], "id": "8535400002", "name": "USPS COLLECTION BOX - PO LOBBY", "address": {"city": "TONOPAH", "state": "AZ", "street": "3939 N 411TH AVE", "postcode": "85354"}}},
{"geometry": {"type": "Point", "coordinates": [-112.426872387, 33.5374918536]}, "type": "Feature", "properties": {"collection_times": [{"days": "Mon-Fri", "time": "4:45pm"}, {"days": "Sat", "time": "11:45am"}, {"days": "Sun", "time": "Closed"}], "id": "8535500003", "name": "USPS COLLECTION BOX - PO LOBBY", "address": {"city": "WADDELL", "state": "AZ", "street": "7000 N COTTON LN", "postcode": "85355"}}},
{"geometry": {"type": "Point", "coordinates": [-112.426872387, 33.5374918536]}, "type": "Feature", "properties": {"collection_times": [{"days": "Mon-Fri", "time": "4:45pm"}, {"days": "Sat", "time": "11:45am"}, {"days": "Sun", "time": "Closed"}], "id": "8535500004", "name": "USPS COLLECTION BOX - BLUE BOX", "address": {"city": "WADDELL", "state": "AZ", "street": "7000 N COTTON LN", "postcode": "85355"}}},
{"geometry": {"type": "Point", "coordinates": [-114.1486171204, 32.6727276065]}, "type": "Feature", "properties": {"collection_times": [{"days": "Mon-Fri", "time": "4:15pm"}, {"days": "Sat", "time": "8:00am"}, {"days": "Sun", "time": "Closed"}], "id": "8535600001", "name": "USPS COLLECTION BOX - BLUE BOX", "address": {"city": "WELLTON", "state": "AZ", "street": "28610 OAKLAND AVE", "postcode": "85356"}}},
{"geometry": {"type": "Point", "coordinates": [-114.1486171204, 32.6727276065]}, "type": "Feature", "properties": {"collection_times": [{"days": "Mon-Fri", "time": "4:15pm"}, {"days": "Sat", "time": "8:00am"}, {"days": "Sun", "time": "Closed"}], "id": "8535600002", "name": "USPS COLLECTION BOX - PO LOBBY", "address": {"city": "WELLTON", "state": "AZ", "street": "28610 OAKLAND AVE", "postcode": "85356"}}},
{"geometry": {"type": "Point", "coordinates": [-113.5413777353, 33.8224215614]}, "type": "Feature", "properties": {"collection_times": [{"days": "Mon-Fri", "time": "4:00pm"}, {"days": "Sat", "time": "8:30am"}, {"days": "Sun", "time": "Closed"}], "id": "8535700001", "name": "USPS COLLECTION BOX - BLUE BOX", "address": {"city": "WENDEN", "state": "AZ", "street": "70948 US HIGHWAY 60", "postcode": "85357"}}},
{"geometry": {"type": "Point", "coordinates": [-113.5413777353, 33.8224215614]}, "type": "Feature", "properties": {"collection_times": [{"days": "Mon-Fri", "time": "4:00pm"}, {"days": "Sat", "time": "8:30am"}, {"days": "Sun", "time": "Closed"}], "id": "8535700002", "name": "USPS COLLECTION BOX - PO LOBBY", "address": {"city": "WENDEN", "state": "AZ", "street": "70948 US HIGHWAY 60", "postcode": "85357"}}},
{"geometry": {"type": "Point", "coordinates": [-112.7728653279, 33.962170396]}, "type": "Feature", "properties": {"collection_times": [{"days": "Mon-Fri", "time": "4:30pm"}, {"days": "Sat", "time": "12:30pm"}, {"days": "Sun", "time": "Closed"}], "id": "8535800009", "name": "USPS COLLECTION BOX - BLUE BOX", "address": {"city": "WICKENBURG", "state": "AZ", "street": "2029 W WICKENBURG WAY", "postcode": "85358"}}},
{"geometry": {"type": "Point", "coordinates": [-112.7728653279, 33.962170396]}, "type": "Feature", "properties": {"collection_times": [{"days": "Mon-Fri", "time": "4:30pm"}, {"days": "Sat", "time": "12:30pm"}, {"days": "Sun", "time": "Closed"}], "id": "8535800010", "name": "USPS COLLECTION BOX - BLUE BOX", "address": {"city": "WICKENBURG", "state": "AZ", "street": "2029 W WICKENBURG WAY", "postcode": "85358"}}},
{"geometry": {"type": "Point", "coordinates": [-112.7728653279, 33.962170396]}, "type": "Feature", "properties": {"collection_times": [{"days": "Mon-Fri", "time": "4:30pm"}, {"days": "Sat", "time": "12:30pm"}, {"days": "Sun", "time": "Closed"}], "id": "8535800012", "name": "USPS COLLECTION BOX - PO LOBBY", "address": {"city": "WICKENBURG", "state": "AZ", "street": "2029 W WICKENBURG WAY", "postcode": "85358"}}},
{"geometry": {"type": "Point", "coordinates": [-112.7728653279, 33.962170396]}, "type": "Feature", "properties": {"collection_times": [{"days": "Mon-Fri", "time": "5:00pm"}, {"days": "Sat", "time": "12:30pm"}, {"days": "Sun", "time": "Closed"}], "id": "8535800013", "name": "USPS COLLECTION BOX - PO LOBBY", "address": {"city": "WICKENBURG", "state": "AZ", "street": "2029 W WICKENBURG WAY", "postcode": "85358"}}},
{"geometry": {"type": "Point", "coordinates": [-113.6098684735, 34.7004089289]}, "type": "Feature", "properties": {"collection_times": [{"days": "Mon-Fri", "time": "4:15pm"}, {"days": "Sat", "time": "10:15am"}, {"days": "Sun", "time": "Closed"}], "id": "8536000001", "name": "USPS COLLECTION BOX - BLUE BOX", "address": {"city": "WIKIEUP", "state": "AZ", "street": "18152 US HIGHWAY 93", "postcode": "85360"}}},
{"geometry": {"type": "Point", "coordinates": [-113.6098684735, 34.7004089289]}, "type": "Feature", "properties": {"collection_times": [{"days": "Mon-Fri", "time": "4:15pm"}, {"days": "Sat", "time": "10:15am"}, {"days": "Sun", "time": "Closed"}], "id": "8536000002", "name": "USPS COLLECTION BOX - PO LOBBY", "address": {"city": "WIKIEUP", "state": "AZ", "street": "18152 US HIGHWAY 93", "postcode": "85360"}}},
{"geometry": {"type": "Point", "coordinates": [-112.5335837426, 33.7805213518]}, "type": "Feature", "properties": {"collection_times": [{"days": "Mon-Fri", "time": "4:30pm"}, {"days": "Sat", "time": "9:30am"}, {"days": "Sun", "time": "Closed"}], "id": "8536100001", "name": "USPS COLLECTION BOX - BLUE BOX", "address": {"city": "WITTMANN", "state": "AZ", "street": "32808 N CROZIER RD", "postcode": "85361"}}},
{"geometry": {"type": "Point", "coordinates": [-112.5335837426, 33.7805213518]}, "type": "Feature", "properties": {"collection_times": [{"days": "Mon-Fri", "time": "4:30pm"}, {"days": "Sat", "time": "9:30am"}, {"days": "Sun", "time": "Closed"}], "id": "8536100002", "name": "USPS COLLECTION BOX - PO LOBBY", "address": {"city": "WITTMANN", "state": "AZ", "street": "32808 N CROZIER RD", "postcode": "85361"}}},
{"geometry": {"type": "Point", "coordinates": [-112.7473442296, 34.2217669319]}, "type": "Feature", "properties": {"collection_times": [{"days": "Mon-Fri", "time": "4:00pm"}, {"days": "Sat", "time": "10:00am"}, {"days": "Sun", "time": "Closed"}], "id": "8536200001", "name": "USPS COLLECTION BOX - BLUE BOX", "address": {"city": "YARNELL", "state": "AZ", "street": "22610 HIGHWAY 89", "postcode": "85362"}}},
{"geometry": {"type": "Point", "coordinates": [-112.7473442296, 34.2217669319]}, "type": "Feature", "properties": {"collection_times": [{"days": "Mon-Fri", "time": "4:00pm"}, {"days": "Sat", "time": "10:00am"}, {"days": "Sun", "time": "Closed"}], "id": "8536200002", "name": "USPS COLLECTION BOX - PO LOBBY", "address": {"city": "YARNELL", "state": "AZ", "street": "22610 HIGHWAY 89", "postcode": "85362"}}},
{"geometry": {"type": "Point", "coordinates": [-112.2993133536, 33.5928099331]}, "type": "Feature", "properties": {"collection_times": [{"days": "Mon-Fri", "time": "5:00pm"}, {"days": "Sat", "time": "12:00pm"}, {"days": "Sun", "time": "Closed"}], "id": "8536300001", "name": "USPS COLLECTION BOX - BLUE BOX", "address": {"city": "YOUNGTOWN", "state": "AZ", "street": "11129 W ARIZONA AVE", "postcode": "85363"}}},
{"geometry": {"type": "Point", "coordinates": [-112.2986987614, 33.6037832538]}, "type": "Feature", "properties": {"collection_times": [{"days": "Mon-Sat", "time": "2:15pm"}, {"days": "Sun", "time": "Closed"}], "id": "8536300004", "name": "USPS COLLECTION BOX - BLUE BOX", "address": {"city": "YOUNGTOWN", "state": "AZ", "street": "13216 N 111TH AVE", "postcode": "85363"}}},
{"geometry": {"type": "Point", "coordinates": [-112.2993133536, 33.5928099331]}, "type": "Feature", "properties": {"collection_times": [{"days": "Mon-Fri", "time": "5:00pm"}, {"days": "Sat", "time": "12:00pm"}, {"days": "Sun", "time": "Closed"}], "id": "8536300008", "name": "USPS COLLECTION BOX - PO LOBBY", "address": {"city": "YOUNGTOWN", "state": "AZ", "street": "11129 W ARIZONA AVE", "postcode": "85363"}}},
{"geometry": {"type": "Point", "coordinates": [-114.6336044686, 32.7130501407]}, "type": "Feature", "properties": {"collection_times": [{"days": "Mon-Sat", "time": "12:00pm"}, {"days": "Sun", "time": "Closed"}], "id": "8536400001", "name": "USPS COLLECTION BOX - BLUE BOX", "address": {"city": "YUMA", "state": "AZ", "street": "1215 W 8TH ST", "postcode": "85364"}}},
{"geometry": {"type": "Point", "coordinates": [-114.6246825691, 32.6871862319]}, "type": "Feature", "properties": {"collection_times": [{"days": "Mon-Fri", "time": "5:30pm"}, {"days": "Sat", "time": "3:30pm"}, {"days": "Sun", "time": "Closed"}], "id": "8536400003", "name": "USPS COLLECTION BOX - BLUE BOX", "address": {"city": "YUMA", "state": "AZ", "street": "2222 S 4TH AVE", "postcode": "85364"}}},
{"geometry": {"type": "Point", "coordinates": [-114.6159113743, 32.690282262]}, "type": "Feature", "properties": {"collection_times": [{"days": "Mon-Sat", "time": "12:00pm"}, {"days": "Sun", "time": "Closed"}], "id": "8536400007", "name": "USPS COLLECTION BOX - BLUE BOX", "address": {"city": "YUMA", "state": "AZ", "street": "2055 S ARIZONA AVE", "postcode": "85364"}}},
{"geometry": {"type": "Point", "coordinates": [-114.6245952863, 32.7036842979]}, "type": "Feature", "properties": {"collection_times": [{"days": "Mon-Fri", "time": "3:00pm"}, {"days": "Sat", "time": "12:00pm"}, {"days": "Sun", "time": "Closed"}], "id": "8536400010", "name": "USPS COLLECTION BOX - BLUE BOX", "address": {"city": "YUMA", "state": "AZ", "street": "1315 S 4TH AVE", "postcode": "85364"}}},
{"geometry": {"type": "Point", "coordinates": [-114.623270687, 32.7140380863]}, "type": "Feature", "properties": {"collection_times": [{"days": "Mon-Fri", "time": "3:00pm"}, {"days": "Sat", "time": "12:00pm"}, {"days": "Sun", "time": "Closed"}], "id": "8536400011", "name": "USPS COLLECTION BOX - BLUE BOX", "address": {"city": "YUMA", "state": "AZ", "street": "773 S ORANGE AVE", "postcode": "85364"}}},
{"geometry": {"type": "Point", "coordinates": [-114.6195077915, 32.722446816]}, "type": "Feature", "properties": {"collection_times": [{"days": "Mon-Fri", "time": "3:00pm"}, {"days": "Sat", "time": "12:00pm"}, {"days": "Sun", "time": "Closed"}], "id": "8536400013", "name": "USPS COLLECTION BOX - BLUE BOX", "address": {"city": "YUMA", "state": "AZ", "street": "102 E 3RD ST", "postcode": "85364"}}},
{"geometry": {"type": "Point", "coordinates": [-114.6257657483, 32.7072609666]}, "type": "Feature", "properties": {"collection_times": [{"days": "Mon-Fri", "time": "3:30pm"}, {"days": "Sat", "time": "2:15pm"}, {"days": "Sun", "time": "Closed"}], "id": "8536400016", "name": "USPS COLLECTION BOX - BLUE BOX", "address": {"city": "YUMA", "state": "AZ", "street": "1107 S 5TH AVE", "postcode": "85364"}}},
{"geometry": {"type": "Point", "coordinates": [-114.6250172707, 32.6839963879]}, "type": "Feature", "properties": {"collection_times": [{"days": "Mon-Sat", "time": "12:00pm"}, {"days": "Sun", "time": "Closed"}], "id": "8536400020", "name": "USPS COLLECTION BOX - BLUE BOX", "address": {"city": "YUMA", "state": "AZ", "street": "500 W 24TH ST", "postcode": "85364"}}},
{"geometry": {"type": "Point", "coordinates": [-114.6331602739, 32.6829619153]}, "type": "Feature", "properties": {"collection_times": [{"days": "Mon-Fri", "time": "12:00pm"}, {"days": "Sat-Sun", "time": "Closed"}], "id": "8536400024", "name": "USPS COLLECTION BOX - BLUE BOX", "address": {"city": "YUMA", "state": "AZ", "street": "2451 S AVENUE A", "postcode": "85364"}}},
{"geometry": {"type": "Point", "coordinates": [-114.624672425, 32.6830341793]}, "type": "Feature", "properties": {"collection_times": [{"days": "Mon-Sat", "time": "12:00pm"}, {"days": "Sun", "time": "Closed"}], "id": "8536400026", "name": "USPS COLLECTION BOX - BLUE BOX", "address": {"city": "YUMA", "state": "AZ", "street": "2450 S 4TH AVE", "postcode": "85364"}}},
{"geometry": {"type": "Point", "coordinates": [-114.647537663, 32.7216011712]}, "type": "Feature", "properties": {"collection_times": [{"days": "Mon-Sat", "time": "12:00pm"}, {"days": "Sun", "time": "Closed"}], "id": "8536400038", "name": "USPS COLLECTION BOX - BLUE BOX", "address": {"city": "YUMA", "state": "AZ", "street": "2200 W 3RD ST", "postcode": "85364"}}},
{"geometry": {"type": "Point", "coordinates": [-114.654779689, 32.6985512405]}, "type": "Feature", "properties": {"collection_times": [{"days": "Mon-Sat", "time": "12:00pm"}, {"days": "Sun", "time": "Closed"}], "id": "8536400039", "name": "USPS COLLECTION BOX - BLUE BOX", "address": {"city": "YUMA", "state": "AZ", "street": "2704 W 16TH ST", "postcode": "85364"}}},
{"geometry": {"type": "Point", "coordinates": [-114.6230608223, 32.6931484421]}, "type": "Feature", "properties": {"collection_times": [{"days": "Mon-Fri", "time": "3:00pm"}, {"days": "Sat-Sun", "time": "Closed"}], "id": "8536400040", "name": "USPS COLLECTION BOX - BLUE BOX", "address": {"city": "YUMA", "state": "AZ", "street": "324 W 19TH ST", "postcode": "85364"}}},
{"geometry": {"type": "Point", "coordinates": [-114.6237375498, 32.6986136702]}, "type": "Feature", "properties": {"collection_times": [{"days": "Mon-Fri", "time": "12:00pm"}, {"days": "Sat-Sun", "time": "Closed"}], "id": "8536400049", "name": "USPS COLLECTION BOX - BLUE BOX", "address": {"city": "YUMA", "state": "AZ", "street": "350 W 16TH ST", "postcode": "85364"}}},
{"geometry": {"type": "Point", "coordinates": [-114.6237375498, 32.6986136702]}, "type": "Feature", "properties": {"collection_times": [{"days": "Mon-Fri", "time": "12:00pm"}, {"days": "Sat-Sun", "time": "Closed"}], "id": "8536400050", "name": "USPS COLLECTION BOX - BLUE BOX", "address": {"city": "YUMA", "state": "AZ", "street": "350 W 16TH ST", "postcode": "85364"}}},
{"geometry": {"type": "Point", "coordinates": [-114.6180380312, 32.7238990692]}, "type": "Feature", "properties": {"collection_times": [{"days": "Mon-Fri", "time": "3:00pm"}, {"days": "Sat-Sun", "time": "Closed"}], "id": "8536400052", "name": "USPS COLLECTION BOX - BLUE BOX", "address": {"city": "YUMA", "state": "AZ", "street": "198 S MAIN ST", "postcode": "85364"}}},
{"geometry": {"type": "Point", "coordinates": [-114.6180380312, 32.7238990692]}, "type": "Feature", "properties": {"collection_times": [{"days": "Mon-Fri", "time": "3:00pm"}, {"days": "Sat-Sun", "time": "Closed"}], "id": "8536400053", "name": "USPS COLLECTION BOX - BLUE BOX", "address": {"city": "YUMA", "state": "AZ", "street": "198 S MAIN ST", "postcode": "85364"}}},
{"geometry": {"type": "Point", "coordinates": [-114.6499429031, 32.7130366467]}, "type": "Feature", "properties": {"collection_times": [{"days": "Mon-Sat", "time": "12:00pm"}, {"days": "Sun", "time": "Closed"}], "id": "8536400058", "name": "USPS COLLECTION BOX - BLUE BOX", "address": {"city": "YUMA", "state": "AZ", "street": "2505 W 8TH ST", "postcode": "85364"}}},
{"geometry": {"type": "Point", "coordinates": [-114.6203760636, 32.6952891316]}, "type": "Feature", "properties": {"collection_times": [{"days": "Mon-Sat", "time": "12:00pm"}, {"days": "Sun", "time": "Closed"}], "id": "8536400066", "name": "USPS COLLECTION BOX - BLUE BOX", "address": {"city": "YUMA", "state": "AZ", "street": "1780 S 1ST AVE", "postcode": "85364"}}},
{"geometry": {"type": "Point", "coordinates": [-114.6246825691, 32.6871862319]}, "type": "Feature", "properties": {"collection_times": [{"days": "Mon-Sat", "time": "3:30pm"}, {"days": "Sun", "time": "Closed"}], "id": "8536400068", "name": "USPS COLLECTION BOX - PO LOBBY", "address": {"city": "YUMA", "state": "AZ", "street": "2222 S 4TH AVE", "postcode": "85364"}}},
{"geometry": {"type": "Point", "coordinates": [-114.6246825691, 32.6871862319]}, "type": "Feature", "properties": {"collection_times": [{"days": "Mon-Sat", "time": "3:30pm"}, {"days": "Sun", "time": "Closed"}], "id": "8536400074", "name": "USPS COLLECTION BOX - APC", "address": {"city": "YUMA", "state": "AZ", "street": "2222 S 4TH AVE", "postcode": "85364"}}},
{"geometry": {"type": "Point", "coordinates": [-114.6246825691, 32.6871862319]}, "type": "Feature", "properties": {"collection_times": [{"days": "Mon-Fri", "time": "5:40pm"}, {"days": "Sat", "time": "3:30pm"}, {"days": "Sun", "time": "Closed"}], "id": "8536400076", "name": "USPS COLLECTION BOX - BLUE BOX", "address": {"city": "YUMA", "state": "AZ", "street": "2222 S 4TH AVE", "postcode": "85364"}}},
{"geometry": {"type": "Point", "coordinates": [-114.633186562, 32.6867747058]}, "type": "Feature", "properties": {"collection_times": [{"days": "Mon-Sat", "time": "12:00pm"}, {"days": "Sun", "time": "Closed"}], "id": "8536400078", "name": "USPS COLLECTION BOX - BLUE BOX", "address": {"city": "YUMA", "state": "AZ", "street": "2241 S AVENUE A", "postcode": "85364"}}},
{"geometry": {"type": "Point", "coordinates": [-114.6503100719, 32.6824450087]}, "type": "Feature", "properties": {"collection_times": [{"days": "Mon-Sat", "time": "12:00pm"}, {"days": "Sun", "time": "Closed"}], "id": "8536400079", "name": "USPS COLLECTION BOX - BLUE BOX", "address": {"city": "YUMA", "state": "AZ", "street": "2501 S AVENUE B", "postcode": "85364"}}},
{"geometry": {"type": "Point", "coordinates": [-114.6253982263, 32.66944749]}, "type": "Feature", "properties": {"collection_times": [{"days": "Mon-Sat", "time": "12:00pm"}, {"days": "Sun", "time": "Closed"}], "id": "8536400080", "name": "USPS COLLECTION BOX - BLUE BOX", "address": {"city": "YUMA", "state": "AZ", "street": "500 E 32ND ST", "postcode": "85364"}}},
{"geometry": {"type": "Point", "coordinates": [-114.6204605661, 32.6985035788]}, "type": "Feature", "properties": {"collection_times": [{"days": "Mon-Sat", "time": "12:00pm"}, {"days": "Sun", "time": "Closed"}], "id": "8536400081", "name": "USPS COLLECTION BOX - BLUE BOX", "address": {"city": "YUMA", "state": "AZ", "street": "105 W 16TH ST", "postcode": "85364"}}},
{"geometry": {"type": "Point", "coordinates": [-114.6221730327, 32.7233838856]}, "type": "Feature", "properties": {"collection_times": [{"days": "Mon-Fri", "time": "3:00pm"}, {"days": "Sat", "time": "12:00pm"}, {"days": "Sun", "time": "Closed"}], "id": "8536400082", "name": "USPS COLLECTION BOX - BLUE BOX", "address": {"city": "YUMA", "state": "AZ", "street": "200 S 2ND AVE", "postcode": "85364"}}},
{"geometry": {"type": "Point", "coordinates": [-114.6221730327, 32.7233838856]}, "type": "Feature", "properties": {"collection_times": [{"days": "Mon-Fri", "time": "3:00pm"}, {"days": "Sat", "time": "12:00pm"}, {"days": "Sun", "time": "Closed"}], "id": "8536400083", "name": "USPS COLLECTION BOX - BLUE BOX", "address": {"city": "YUMA", "state": "AZ", "street": "200 S 2ND AVE", "postcode": "85364"}}},
{"geometry": {"type": "Point", "coordinates": [-114.6246825691, 32.6871862319]}, "type": "Feature", "properties": {"collection_times": [{"days": "Mon-Sat", "time": "3:30pm"}, {"days": "Sun", "time": "Closed"}], "id": "8536400084", "name": "USPS COLLECTION BOX - PO LOBBY", "address": {"city": "YUMA", "state": "AZ", "street": "2222 S 4TH AVE", "postcode": "85364"}}},
{"geometry": {"type": "Point", "coordinates": [-114.5815928818, 32.6982290489]}, "type": "Feature", "properties": {"collection_times": [{"days": "Mon-Fri", "time": "3:30pm"}, {"days": "Sat", "time": "2:30pm"}, {"days": "Sun", "time": "Closed"}], "id": "8536500001", "name": "USPS COLLECTION BOX - BLUE BOX", "address": {"city": "YUMA", "state": "AZ", "street": "3939 S AVENUE 3 E", "postcode": "85365"}}},
{"geometry": {"type": "Point", "coordinates": [-114.5989422421, 32.6765196388]}, "type": "Feature", "properties": {"collection_times": [{"days": "Mon-Sat", "time": "12:00pm"}, {"days": "Sun", "time": "Closed"}], "id": "8536500004", "name": "USPS COLLECTION BOX - BLUE BOX", "address": {"city": "YUMA", "state": "AZ", "street": "2850 S PACIFIC AVE", "postcode": "85365"}}},
{"geometry": {"type": "Point", "coordinates": [-114.6244590107, 32.659801153]}, "type": "Feature", "properties": {"collection_times": [{"days": "Mon-Sat", "time": "12:00pm"}, {"days": "Sun", "time": "Closed"}], "id": "8536500013", "name": "USPS COLLECTION BOX - BLUE BOX", "address": {"city": "YUMA", "state": "AZ", "street": "3780 S 4TH AVE", "postcode": "85365"}}},
{"geometry": {"type": "Point", "coordinates": [-111.6647517583, 34.2930183245]}, "type": "Feature", "properties": {"collection_times": [{"days": "Mon-Fri", "time": "3:00pm"}, {"days": "Sat", "time": "2:30pm"}, {"days": "Sun", "time": "Closed"}], "id": "8536500014", "name": "USPS COLLECTION BOX - BLUE BOX", "address": {"city": "YUMA", "state": "AZ", "street": "3901 S AVENUE 3 E", "postcode": "85365"}}},
{"geometry": {"type": "Point", "coordinates": [-114.5516957942, 32.6698914725]}, "type": "Feature", "properties": {"collection_times": [{"days": "Mon-Fri", "time": "3:00pm"}, {"days": "Sat", "time": "2:30pm"}, {"days": "Sun", "time": "Closed"}], "id": "8536500017", "name": "USPS COLLECTION BOX - BLUE BOX", "address": {"city": "YUMA", "state": "AZ", "street": "699 HART ST", "postcode": "85365"}}},
{"geometry": {"type": "Point", "coordinates": [-114.5355600754, 32.6821066139]}, "type": "Feature", "properties": {"collection_times": [{"days": "Mon-Sat", "time": "11:00am"}, {"days": "Sun", "time": "Closed"}], "id": "8536500018", "name": "USPS COLLECTION BOX - BLUE BOX", "address": {"city": "YUMA", "state": "AZ", "street": "11176 N FISHERS LANDING RD", "postcode": "85365"}}},
{"geometry": {"type": "Point", "coordinates": [-114.5355600754, 32.6821066139]}, "type": "Feature", "properties": {"collection_times": [{"days": "Mon-Fri", "time": "3:00pm"}, {"days": "Sat", "time": "2:00pm"}, {"days": "Sun", "time": "Closed"}], "id": "8536500019", "name": "USPS COLLECTION BOX - BLUE BOX", "address": {"city": "YUMA", "state": "AZ", "street": "301 C ST", "postcode": "85365"}}},
{"geometry": {"type": "Point", "coordinates": [-114.5516957942, 32.6698914725]}, "type": "Feature", "properties": {"collection_times": [{"days": "Mon-Fri", "time": "3:00pm"}, {"days": "Sat-Sun", "time": "Closed"}], "id": "8536500026", "name": "USPS COLLECTION BOX - PO LOBBY", "address": {"city": "YUMA", "state": "AZ", "street": "699 HART ST", "postcode": "85365"}}},
{"geometry": {"type": "Point", "coordinates": [-114.5334569012, 32.6699647411]}, "type": "Feature", "properties": {"collection_times": [{"days": "Mon-Sat", "time": "12:00pm"}, {"days": "Sun", "time": "Closed"}], "id": "8536700001", "name": "USPS COLLECTION BOX - BLUE BOX", "address": {"city": "YUMA", "state": "AZ", "street": "5707 E 32ND ST", "postcode": "85367"}}},
{"geometry": {"type": "Point", "coordinates": [-114.4099170381, 32.6677622877]}, "type": "Feature", "properties": {"collection_times": [{"days": "Mon-Sat", "time": "12:00pm"}, {"days": "Sun", "time": "Closed"}], "id": "8536700002", "name": "USPS COLLECTION BOX - BLUE BOX", "address": {"city": "YUMA", "state": "AZ", "street": "11242 S FOOTHILLS BLVD", "postcode": "85367"}}},
{"geometry": {"type": "Point", "coordinates": [-114.4120299374, 32.6565740306]}, "type": "Feature", "properties": {"collection_times": [{"days": "Mon-Fri", "time": "4:00pm"}, {"days": "Sat", "time": "3:30pm"}, {"days": "Sun", "time": "Closed"}], "id": "8536700003", "name": "USPS COLLECTION BOX - BLUE BOX", "address": {"city": "YUMA", "state": "AZ", "street": "11692 S FORTUNA RD", "postcode": "85367"}}},
{"geometry": {"type": "Point", "coordinates": [-114.444184526, 32.6584019037]}, "type": "Feature", "properties": {"collection_times": [{"days": "Mon-Fri", "time": "4:00pm"}, {"days": "Sat", "time": "3:30pm"}, {"days": "Sun", "time": "Closed"}], "id": "8536700004", "name": "USPS COLLECTION BOX - PO LOBBY", "address": {"city": "YUMA", "state": "AZ", "street": "11692 S FORTUNA RD", "postcode": "85367"}}},
{"geometry": {"type": "Point", "coordinates": [-114.4442185772, 32.6633155709]}, "type": "Feature", "properties": {"collection_times": [{"days": "Mon-Sat", "time": "12:00pm"}, {"days": "Sun", "time": "Closed"}], "id": "8536700005", "name": "USPS COLLECTION BOX - BLUE BOX", "address": {"city": "YUMA", "state": "AZ", "street": "11274 S FORTUNA RD", "postcode": "85367"}}},
{"geometry": {"type": "Point", "coordinates": [-114.5223496646, 32.6701445245]}, "type": "Feature", "properties": {"collection_times": [{"days": "Mon-Sat", "time": "12:00pm"}, {"days": "Sun", "time": "Closed"}], "id": "8536700006", "name": "USPS COLLECTION BOX - BLUE BOX", "address": {"city": "YUMA", "state": "AZ", "street": "6544 E 32ND ST", "postcode": "85367"}}},
{"geometry": {"type": "Point", "coordinates": [-112.2890298351, 33.6615216627]}, "type": "Feature", "properties": {"collection_times": [{"days": "Mon-Sat", "time": "10:00am"}, {"days": "Sun", "time": "Closed"}], "id": "8537300001", "name": "USPS COLLECTION BOX - BLUE BOX", "address": {"city": "SUN CITY", "state": "AZ", "street": "9860 W UNION HILLS DR", "postcode": "85373"}}},
{"geometry": {"type": "Point", "coordinates": [-112.2800979147, 33.6587352466]}, "type": "Feature", "properties": {"collection_times": [{"days": "Mon-Sat", "time": "10:00am"}, {"days": "Sun", "time": "Closed"}], "id": "8537300002", "name": "USPS COLLECTION BOX - BLUE BOX", "address": {"city": "SUN CITY", "state": "AZ", "street": "19280 N 99TH AVE", "postcode": "85373"}}},
{"geometry": {"type": "Point", "coordinates": [-112.2898389295, 33.6526033839]}, "type": "Feature", "properties": {"collection_times": [{"days": "Mon-Sat", "time": "10:00am"}, {"days": "Sun", "time": "Closed"}], "id": "8537300003", "name": "USPS COLLECTION BOX - BLUE BOX", "address": {"city": "SUN CITY", "state": "AZ", "street": "18601 N 107TH AVE", "postcode": "85373"}}},
{"geometry": {"type": "Point", "coordinates": [-112.2806018552, 33.6412522961]}, "type": "Feature", "properties": {"collection_times": [{"days": "Mon-Sat", "time": "3:00pm"}, {"days": "Sun", "time": "Closed"}], "id": "8537300004", "name": "USPS COLLECTION BOX - BLUE BOX", "address": {"city": "SUN CITY", "state": "AZ", "street": "10451 W PALMERAS DR", "postcode": "85373"}}},
{"geometry": {"type": "Point", "coordinates": [-112.2806018552, 33.6412522961]}, "type": "Feature", "properties": {"collection_times": [{"days": "Mon-Sat", "time": "3:00pm"}, {"days": "Sun", "time": "Closed"}], "id": "8537300005", "name": "USPS COLLECTION BOX - BLUE BOX", "address": {"city": "SUN CITY", "state": "AZ", "street": "10451 W PALMERAS DR", "postcode": "85373"}}},
{"geometry": {"type": "Point", "coordinates": [-112.2789028708, 33.6403712467]}, "type": "Feature", "properties": {"collection_times": [{"days": "Mon-Sat", "time": "3:15pm"}, {"days": "Sun", "time": "Closed"}], "id": "8537300006", "name": "USPS COLLECTION BOX - BLUE BOX", "address": {"city": "SUN CITY", "state": "AZ", "street": "17220 N BOSWELL BLVD", "postcode": "85373"}}},
{"geometry": {"type": "Point", "coordinates": [-112.3360372801, 33.6384291002]}, "type": "Feature", "properties": {"collection_times": [{"days": "Mon-Sat", "time": "4:30pm"}, {"days": "Sun", "time": "Closed"}], "id": "8537400001", "name": "USPS COLLECTION BOX - BLUE BOX", "address": {"city": "SURPRISE", "state": "AZ", "street": "12801 W BELL RD", "postcode": "85374"}}},
{"geometry": {"type": "Point", "coordinates": [-112.3247591514, 33.633916652]}, "type": "Feature", "properties": {"collection_times": [{"days": "Mon-Sat", "time": "3:30pm"}, {"days": "Sun", "time": "Closed"}], "id": "8537400003", "name": "USPS COLLECTION BOX - BLUE BOX", "address": {"city": "SURPRISE", "state": "AZ", "street": "16501 N EL MIRAGE RD", "postcode": "85374"}}},
{"geometry": {"type": "Point", "coordinates": [-112.4295726375, 33.6389406729]}, "type": "Feature", "properties": {"collection_times": [{"days": "Mon-Sat", "time": "3:00pm"}, {"days": "Sun", "time": "Closed"}], "id": "8537400004", "name": "USPS COLLECTION BOX - BLUE BOX", "address": {"city": "SURPRISE", "state": "AZ", "street": "17200 W BELL RD", "postcode": "85374"}}},
{"geometry": {"type": "Point", "coordinates": [-112.4295726375, 33.6389406729]}, "type": "Feature", "properties": {"collection_times": [{"days": "Mon-Sat", "time": "3:00pm"}, {"days": "Sun", "time": "Closed"}], "id": "8537400005", "name": "USPS COLLECTION BOX - BLUE BOX", "address": {"city": "SURPRISE", "state": "AZ", "street": "17200 W BELL RD", "postcode": "85374"}}},
{"geometry": {"type": "Point", "coordinates": [-112.364496122, 33.6387089343]}, "type": "Feature", "properties": {"collection_times": [{"days": "Mon-Sat", "time": "10:15am"}, {"days": "Sun", "time": "Closed"}], "id": "8537400006", "name": "USPS COLLECTION BOX - BLUE BOX", "address": {"city": "SURPRISE", "state": "AZ", "street": "14300 W BELL RD", "postcode": "85374"}}},
{"geometry": {"type": "Point", "coordinates": [-112.323073516, 33.6385499148]}, "type": "Feature", "properties": {"collection_times": [{"days": "Mon-Sat", "time": "3:30pm"}, {"days": "Sun", "time": "Closed"}], "id": "8537400007", "name": "USPS COLLECTION BOX - BLUE BOX", "address": {"city": "SURPRISE", "state": "AZ", "street": "12211 W BELL RD", "postcode": "85374"}}},
{"geometry": {"type": "Point", "coordinates": [-112.3421634981, 33.6349294724]}, "type": "Feature", "properties": {"collection_times": [{"days": "Mon-Sat", "time": "4:30pm"}, {"days": "Sun", "time": "Closed"}], "id": "8537400008", "name": "USPS COLLECTION BOX - BLUE BOX", "address": {"city": "SURPRISE", "state": "AZ", "street": "16554 N DYSART RD", "postcode": "85374"}}},
{"geometry": {"type": "Point", "coordinates": [-112.4033829254, 33.6580453553]}, "type": "Feature", "properties": {"collection_times": [{"days": "Mon-Sat", "time": "2:00pm"}, {"days": "Sun", "time": "Closed"}], "id": "8537400009", "name": "USPS COLLECTION BOX - BLUE BOX", "address": {"city": "SURPRISE", "state": "AZ", "street": "19725 N REMINGTON DR", "postcode": "85374"}}},
{"geometry": {"type": "Point", "coordinates": [-112.3421634981, 33.6349294724]}, "type": "Feature", "properties": {"collection_times": [{"days": "Mon-Fri", "time": "4:30pm"}, {"days": "Sat-Sun", "time": "Closed"}], "id": "8537400010", "name": "USPS COLLECTION BOX - PO LOBBY", "address": {"city": "SURPRISE", "state": "AZ", "street": "16554 N DYSART RD", "postcode": "85374"}}},
{"geometry": {"type": "Point", "coordinates": [-112.3421634981, 33.6349294724]}, "type": "Feature", "properties": {"collection_times": [{"days": "Mon-Sat", "time": "4:30pm"}, {"days": "Sun", "time": "Closed"}], "id": "8537400011", "name": "USPS COLLECTION BOX - BLUE BOX", "address": {"city": "SURPRISE", "state": "AZ", "street": "16554 N DYSART RD", "postcode": "85374"}}},
{"geometry": {"type": "Point", "coordinates": [-112.3540898028, 33.6387690176]}, "type": "Feature", "properties": {"collection_times": [{"days": "Mon-Sat", "time": "10:00am"}, {"days": "Sun", "time": "Closed"}], "id": "8537400012", "name": "USPS COLLECTION BOX - BLUE BOX", "address": {"city": "SURPRISE", "state": "AZ", "street": "13750 W BELL RD", "postcode": "85374"}}},
{"geometry": {"type": "Point", "coordinates": [-112.4445768693, 33.6411537986]}, "type": "Feature", "properties": {"collection_times": [{"days": "Mon-Sat", "time": "2:15pm"}, {"days": "Sun", "time": "Closed"}], "id": "8537400013", "name": "USPS COLLECTION BOX - BLUE BOX", "address": {"city": "SURPRISE", "state": "AZ", "street": "17221 N CITRUS RD", "postcode": "85374"}}},
{"geometry": {"type": "Point", "coordinates": [-112.3933035387, 33.63877518]}, "type": "Feature", "properties": {"collection_times": [{"days": "Mon-Sat", "time": "10:15am"}, {"days": "Sun", "time": "Closed"}], "id": "8537400014", "name": "USPS COLLECTION BOX - BLUE BOX", "address": {"city": "SURPRISE", "state": "AZ", "street": "15490 W BELL RD", "postcode": "85374"}}},
{"geometry": {"type": "Point", "coordinates": [-112.3540898028, 33.6387690176]}, "type": "Feature", "properties": {"collection_times": [{"days": "Mon-Sat", "time": "10:00am"}, {"days": "Sun", "time": "Closed"}], "id": "8537400015", "name": "USPS COLLECTION BOX - BLUE BOX", "address": {"city": "SURPRISE", "state": "AZ", "street": "13750 W BELL RD", "postcode": "85374"}}},
{"geometry": {"type": "Point", "coordinates": [-112.3734585723, 33.6565370643]}, "type": "Feature", "properties": {"collection_times": [{"days": "Mon-Sat", "time": "3:45pm"}, {"days": "Sun", "time": "Closed"}], "id": "8537400016", "name": "USPS COLLECTION BOX - BLUE BOX", "address": {"city": "SURPRISE", "state": "AZ", "street": "14545 N GRAND AVE", "postcode": "85374"}}},
{"geometry": {"type": "Point", "coordinates": [-112.3939660629, 33.6441937808]}, "type": "Feature", "properties": {"collection_times": [{"days": "Mon-Fri", "time": "12:45pm"}, {"days": "Sat", "time": "12:00pm"}, {"days": "Sun", "time": "Closed"}], "id": "8537400017", "name": "USPS COLLECTION BOX - EXPRESS", "address": {"city": "SURPRISE", "state": "AZ", "street": "14955 W BELL RD", "postcode": "85374"}}},
{"geometry": {"type": "Point", "coordinates": [-112.381935413, 33.6385265843]}, "type": "Feature", "properties": {"collection_times": [{"days": "Mon-Sat", "time": "5:15pm"}, {"days": "Sun", "time": "Closed"}], "id": "8537400018", "name": "USPS COLLECTION BOX - BLUE BOX", "address": {"city": "SURPRISE", "state": "AZ", "street": "14955 W BELL RD", "postcode": "85374"}}},
{"geometry": {"type": "Point", "coordinates": [-112.381935413, 33.6385265843]}, "type": "Feature", "properties": {"collection_times": [{"days": "Mon-Sat", "time": "5:15pm"}, {"days": "Sun", "time": "Closed"}], "id": "8537400019", "name": "USPS COLLECTION BOX - BLUE BOX", "address": {"city": "SURPRISE", "state": "AZ", "street": "14955 W BELL RD", "postcode": "85374"}}},
{"geometry": {"type": "Point", "coordinates": [-112.381935413, 33.6385265843]}, "type": "Feature", "properties": {"collection_times": [{"days": "Mon-Sat", "time": "5:15pm"}, {"days": "Sun", "time": "Closed"}], "id": "8537400020", "name": "USPS COLLECTION BOX - PO LOBBY", "address": {"city": "SURPRISE", "state": "AZ", "street": "14955 W BELL RD", "postcode": "85374"}}},
{"geometry": {"type": "Point", "coordinates": [-112.381935413, 33.6385265843]}, "type": "Feature", "properties": {"collection_times": [{"days": "Mon-Sat", "time": "5:15pm"}, {"days": "Sun", "time": "Closed"}], "id": "8537400022", "name": "USPS COLLECTION BOX - PO LOBBY", "address": {"city": "SURPRISE", "state": "AZ", "street": "14955 W BELL RD", "postcode": "85374"}}},
{"geometry": {"type": "Point", "coordinates": [-112.3726066074, 33.6558732845]}, "type": "Feature", "properties": {"collection_times": [{"days": "Mon-Sat", "time": "4:00pm"}, {"days": "Sun", "time": "Closed"}], "id": "8537400023", "name": "USPS COLLECTION BOX - BLUE BOX", "address": {"city": "SURPRISE", "state": "AZ", "street": "14505 N GRAND AVE", "postcode": "85374"}}},
{"geometry": {"type": "Point", "coordinates": [-112.3042480219, 33.6421004777]}, "type": "Feature", "properties": {"collection_times": [{"days": "Mon-Sat", "time": "9:45am"}, {"days": "Sun", "time": "Closed"}], "id": "8537400024", "name": "USPS COLLECTION BOX - BLUE BOX", "address": {"city": "SURPRISE", "state": "AZ", "street": "17447 N AVENUE OF THE ARTS", "postcode": "85374"}}},
{"geometry": {"type": "Point", "coordinates": [-112.3939660629, 33.6441937808]}, "type": "Feature", "properties": {"collection_times": [{"days": "Mon-Sat", "time": "2:15pm"}, {"days": "Sun", "time": "Closed"}], "id": "8537400025", "name": "USPS COLLECTION BOX - BLUE BOX", "address": {"city": "SURPRISE", "state": "AZ", "street": "16810 W TONBRIDGE ST", "postcode": "85374"}}},
{"geometry": {"type": "Point", "coordinates": [-112.3939660629, 33.6441937808]}, "type": "Feature", "properties": {"collection_times": [{"days": "Mon-Sat", "time": "11:15am"}, {"days": "Sun", "time": "Closed"}], "id": "8537400026", "name": "USPS COLLECTION BOX - BLUE BOX", "address": {"city": "SURPRISE", "state": "AZ", "street": "15116 W GELDING DR", "postcode": "85374"}}},
{"geometry": {"type": "Point", "coordinates": [-112.3988480674, 33.6160564531]}, "type": "Feature", "properties": {"collection_times": [{"days": "Mon-Sat", "time": "11:00am"}, {"days": "Sun", "time": "Closed"}], "id": "8537400027", "name": "USPS COLLECTION BOX - BLUE BOX", "address": {"city": "SURPRISE", "state": "AZ", "street": "14533 N 157TH DR", "postcode": "85374"}}},
{"geometry": {"type": "Point", "coordinates": [-112.3939660629, 33.6441937808]}, "type": "Feature", "properties": {"collection_times": [{"days": "Mon-Sat", "time": "11:30am"}, {"days": "Sun", "time": "Closed"}], "id": "8537400029", "name": "USPS COLLECTION BOX - BLUE BOX", "address": {"city": "SURPRISE", "state": "AZ", "street": "13449 W RIMROCK ST", "postcode": "85374"}}},
{"geometry": {"type": "Point", "coordinates": [-112.3939660629, 33.6441937808]}, "type": "Feature", "properties": {"collection_times": [{"days": "Mon-Sat", "time": "12:45pm"}, {"days": "Sun", "time": "Closed"}], "id": "8537400030", "name": "USPS COLLECTION BOX - BLUE BOX", "address": {"city": "SURPRISE", "state": "AZ", "street": "15533 W PARADISE LN", "postcode": "85374"}}},
{"geometry": {"type": "Point", "coordinates": [-112.4278289171, 33.6638130426]}, "type": "Feature", "properties": {"collection_times": [{"days": "Mon-Sat", "time": "2:00pm"}, {"days": "Sun", "time": "Closed"}], "id": "8537400031", "name": "USPS COLLECTION BOX - BLUE BOX", "address": {"city": "SURPRISE", "state": "AZ", "street": "17100 W CLEARVIEW BLVD", "postcode": "85374"}}},
{"geometry": {"type": "Point", "coordinates": [-112.381935413, 33.6385265843]}, "type": "Feature", "properties": {"collection_times": [{"days": "Mon-Sat", "time": "5:15pm"}, {"days": "Sun", "time": "Closed"}], "id": "8537400032", "name": "USPS COLLECTION BOX - APC", "address": {"city": "SURPRISE", "state": "AZ", "street": "14955 W BELL RD", "postcode": "85374"}}},
{"geometry": {"type": "Point", "coordinates": [-112.3421634981, 33.6349294724]}, "type": "Feature", "properties": {"collection_times": [{"days": "Mon-Sat", "time": "4:30pm"}, {"days": "Sun", "time": "Closed"}], "id": "8537400038", "name": "USPS COLLECTION BOX - BLUE BOX", "address": {"city": "SURPRISE", "state": "AZ", "street": "16554 N DYSART RD", "postcode": "85374"}}},
{"geometry": {"type": "Point", "coordinates": [-112.381935413, 33.6385265843]}, "type": "Feature", "properties": {"collection_times": [{"days": "Mon-Sat", "time": "5:15pm"}, {"days": "Sun", "time": "Closed"}], "id": "8537400039", "name": "USPS COLLECTION BOX - APC", "address": {"city": "SURPRISE", "state": "AZ", "street": "14955 W BELL RD", "postcode": "85374"}}},
{"geometry": {"type": "Point", "coordinates": [-112.3316945001, 33.6660198585]}, "type": "Feature", "properties": {"collection_times": [{"days": "Mon-Sat", "time": "4:00pm"}, {"days": "Sun", "time": "Closed"}], "id": "8537500004", "name": "USPS COLLECTION BOX - BLUE BOX", "address": {"city": "SUN CITY WEST", "state": "AZ", "street": "12801 W BEARDSLEY RD", "postcode": "85375"}}},
{"geometry": {"type": "Point", "coordinates": [-112.3589974587, 33.6718236707]}, "type": "Feature", "properties": {"collection_times": [{"days": "Mon-Sat", "time": "4:15pm"}, {"days": "Sun", "time": "Closed"}], "id": "8537500005", "name": "USPS COLLECTION BOX - BLUE BOX", "address": {"city": "SUN CITY WEST", "state": "AZ", "street": "13459 W STARDUST BLVD", "postcode": "85375"}}},
{"geometry": {"type": "Point", "coordinates": [-112.3729318931, 33.671150722]}, "type": "Feature", "properties": {"collection_times": [{"days": "Mon-Sat", "time": "4:30pm"}, {"days": "Sun", "time": "Closed"}], "id": "8537500006", "name": "USPS COLLECTION BOX - BLUE BOX", "address": {"city": "SUN CITY WEST", "state": "AZ", "street": "14449 W R H JOHNSON BLVD", "postcode": "85375"}}},
{"geometry": {"type": "Point", "coordinates": [-112.3719357509, 33.6610680417]}, "type": "Feature", "properties": {"collection_times": [{"days": "Mon-Sat", "time": "12:30pm"}, {"days": "Sun", "time": "Closed"}], "id": "8537500007", "name": "USPS COLLECTION BOX - BLUE BOX", "address": {"city": "SUN CITY WEST", "state": "AZ", "street": "14300 W GRANITE VALLEY DR", "postcode": "85375"}}},
{"geometry": {"type": "Point", "coordinates": [-112.3536969797, 33.6549563593]}, "type": "Feature", "properties": {"collection_times": [{"days": "Mon-Sat", "time": "4:45pm"}, {"days": "Sun", "time": "Closed"}], "id": "8537500014", "name": "USPS COLLECTION BOX - BLUE BOX", "address": {"city": "SUN CITY WEST", "state": "AZ", "street": "13583 W CAMINO DEL SOL", "postcode": "85375"}}},
{"geometry": {"type": "Point", "coordinates": [-112.3524488679, 33.6558429119]}, "type": "Feature", "properties": {"collection_times": [{"days": "Mon-Sat", "time": "4:45pm"}, {"days": "Sun", "time": "Closed"}], "id": "8537500015", "name": "USPS COLLECTION BOX - BLUE BOX", "address": {"city": "SUN CITY WEST", "state": "AZ", "street": "13551 W CAMINO DEL SOL", "postcode": "85375"}}},
{"geometry": {"type": "Point", "coordinates": [-112.3586948369, 33.6601487277]}, "type": "Feature", "properties": {"collection_times": [{"days": "Mon-Sat", "time": "5:00pm"}, {"days": "Sun", "time": "Closed"}], "id": "8537500024", "name": "USPS COLLECTION BOX - BLUE BOX", "address": {"city": "SUN CITY WEST", "state": "AZ", "street": "19437 N NEW TRADITION RD", "postcode": "85375"}}},
{"geometry": {"type": "Point", "coordinates": [-112.3581195067, 33.6866354739]}, "type": "Feature", "properties": {"collection_times": [{"days": "Mon-Sat", "time": "4:15pm"}, {"days": "Sun", "time": "Closed"}], "id": "8537500025", "name": "USPS COLLECTION BOX - BLUE BOX", "address": {"city": "SUN CITY WEST", "state": "AZ", "street": "13830 W DEER VALLEY DR", "postcode": "85375"}}},
{"geometry": {"type": "Point", "coordinates": [-112.3586948369, 33.6601487277]}, "type": "Feature", "properties": {"collection_times": [{"days": "Mon-Sat", "time": "5:00pm"}, {"days": "Sun", "time": "Closed"}], "id": "8537500027", "name": "USPS COLLECTION BOX - PO LOBBY", "address": {"city": "SUN CITY WEST", "state": "AZ", "street": "19437 N NEW TRADITION RD", "postcode": "85375"}}},
{"geometry": {"type": "Point", "coordinates": [-112.3586948369, 33.6601487277]}, "type": "Feature", "properties": {"collection_times": [{"days": "Mon-Sat", "time": "5:00pm"}, {"days": "Sun", "time": "Closed"}], "id": "8537500028", "name": "USPS COLLECTION BOX - PO LOBBY", "address": {"city": "SUN CITY WEST", "state": "AZ", "street": "19437 N NEW TRADITION RD", "postcode": "85375"}}},
{"geometry": {"type": "Point", "coordinates": [-112.3589974587, 33.6718236707]}, "type": "Feature", "properties": {"collection_times": [{"days": "Mon-Sat", "time": "12:30pm"}, {"days": "Sun", "time": "Closed"}], "id": "8537500030", "name": "USPS COLLECTION BOX - BLUE BOX", "address": {"city": "SUN CITY WEST", "state": "AZ", "street": "19419 N 133RD AVE", "postcode": "85375"}}},
{"geometry": {"type": "Point", "coordinates": [-112.3719622491, 33.658362879]}, "type": "Feature", "properties": {"collection_times": [{"days": "Mon-Sat", "time": "4:45pm"}, {"days": "Sun", "time": "Closed"}], "id": "8537500031", "name": "USPS COLLECTION BOX - BLUE BOX", "address": {"city": "SUN CITY WEST", "state": "AZ", "street": "14502 W MEEKER BLVD", "postcode": "85375"}}},
{"geometry": {"type": "Point", "coordinates": [-112.3589974587, 33.6718236707]}, "type": "Feature", "properties": {"collection_times": [{"days": "Mon-Fri", "time": "12:00pm"}, {"days": "Sat", "time": "12:30pm"}, {"days": "Sun", "time": "Closed"}], "id": "8537500032", "name": "USPS COLLECTION BOX - EXPRESS", "address": {"city": "SUN CITY WEST", "state": "AZ", "street": "19437 N NEW TRADITION RD", "postcode": "85375"}}},
{"geometry": {"type": "Point", "coordinates": [-112.3490496915, 33.6880977178]}, "type": "Feature", "properties": {"collection_times": [{"days": "Mon-Sat", "time": "4:15pm"}, {"days": "Sun", "time": "Closed"}], "id": "8537500035", "name": "USPS COLLECTION BOX - BLUE BOX", "address": {"city": "SUN CITY WEST", "state": "AZ", "street": "22155 N MISSION DR", "postcode": "85375"}}},
{"geometry": {"type": "Point", "coordinates": [-111.9228097321, 33.8235475663]}, "type": "Feature", "properties": {"collection_times": [{"days": "Mon-Fri", "time": "4:00pm"}, {"days": "Sat", "time": "11:00am"}, {"days": "Sun", "time": "Closed"}], "id": "8537700000", "name": "USPS COLLECTION BOX - PO LOBBY", "address": {"city": "CAREFREE", "state": "AZ", "street": "100 EASY ST", "postcode": "85377"}}},
{"geometry": {"type": "Point", "coordinates": [-111.9228097321, 33.8235475663]}, "type": "Feature", "properties": {"collection_times": [{"days": "Mon-Fri", "time": "4:00pm"}, {"days": "Sat", "time": "11:00am"}, {"days": "Sun", "time": "Closed"}], "id": "8537700001", "name": "USPS COLLECTION BOX - BLUE BOX", "address": {"city": "CAREFREE", "state": "AZ", "street": "100 EASY ST", "postcode": "85377"}}},
{"geometry": {"type": "Point", "coordinates": [-111.9228097321, 33.8235475663]}, "type": "Feature", "properties": {"collection_times": [{"days": "Mon-Fri", "time": "4:00pm"}, {"days": "Sat", "time": "11:00am"}, {"days": "Sun", "time": "Closed"}], "id": "8537700002", "name": "USPS COLLECTION BOX - BLUE BOX", "address": {"city": "CAREFREE", "state": "AZ", "street": "100 EASY ST", "postcode": "85377"}}},
{"geometry": {"type": "Point", "coordinates": [-112.4353009423, 33.6278393638]}, "type": "Feature", "properties": {"collection_times": [{"days": "Mon-Sat", "time": "10:30am"}, {"days": "Sun", "time": "Closed"}], "id": "8537900001", "name": "USPS COLLECTION BOX - BLUE BOX", "address": {"city": "SURPRISE", "state": "AZ", "street": "17510 W SAGUARO LN", "postcode": "85379"}}},
{"geometry": {"type": "Point", "coordinates": [-112.3787498537, 33.605662272]}, "type": "Feature", "properties": {"collection_times": [{"days": "Mon-Sat", "time": "11:00am"}, {"days": "Sun", "time": "Closed"}], "id": "8537900002", "name": "USPS COLLECTION BOX - BLUE BOX", "address": {"city": "SURPRISE", "state": "AZ", "street": "11658 N 153RD AVE", "postcode": "85379"}}},
{"geometry": {"type": "Point", "coordinates": [-112.3787498537, 33.605662272]}, "type": "Feature", "properties": {"collection_times": [{"days": "Mon-Sat", "time": "11:00am"}, {"days": "Sun", "time": "Closed"}], "id": "8537900003", "name": "USPS COLLECTION BOX - BLUE BOX", "address": {"city": "SURPRISE", "state": "AZ", "street": "15409 W CORRINE DR", "postcode": "85379"}}},
{"geometry": {"type": "Point", "coordinates": [-112.3787498537, 33.605662272]}, "type": "Feature", "properties": {"collection_times": [{"days": "Mon-Sat", "time": "10:45am"}, {"days": "Sun", "time": "Closed"}], "id": "8537900004", "name": "USPS COLLECTION BOX - BLUE BOX", "address": {"city": "SURPRISE", "state": "AZ", "street": "11357 N 161ST AVE", "postcode": "85379"}}},
{"geometry": {"type": "Point", "coordinates": [-112.3787498537, 33.605662272]}, "type": "Feature", "properties": {"collection_times": [{"days": "Mon-Sat", "time": "10:30am"}, {"days": "Sun", "time": "Closed"}], "id": "8537900005", "name": "USPS COLLECTION BOX - BLUE BOX", "address": {"city": "SURPRISE", "state": "AZ", "street": "14313 N 177TH AVE", "postcode": "85379"}}},
{"geometry": {"type": "Point", "coordinates": [-112.2613067136, 33.6094987971]}, "type": "Feature", "properties": {"collection_times": [{"days": "Mon-Fri", "time": "2:30pm"}, {"days": "Sat", "time": "1:00pm"}, {"days": "Sun", "time": "Closed"}], "id": "8538100004", "name": "USPS COLLECTION BOX - BLUE BOX", "address": {"city": "PEORIA", "state": "AZ", "street": "9403 W THUNDERBIRD RD", "postcode": "85381"}}},
{"geometry": {"type": "Point", "coordinates": [-112.2188667757, 33.5958893686]}, "type": "Feature", "properties": {"collection_times": [{"days": "Mon-Fri", "time": "4:00pm"}, {"days": "Sat", "time": "2:00pm"}, {"days": "Sun", "time": "Closed"}], "id": "8538100005", "name": "USPS COLLECTION BOX - BLUE BOX", "address": {"city": "PEORIA", "state": "AZ", "street": "7455 W CACTUS RD", "postcode": "85381"}}},
{"geometry": {"type": "Point", "coordinates": [-112.219055772, 33.6104124463]}, "type": "Feature", "properties": {"collection_times": [{"days": "Mon-Fri", "time": "3:15pm"}, {"days": "Sat", "time": "2:00pm"}, {"days": "Sun", "time": "Closed"}], "id": "8538100010", "name": "USPS COLLECTION BOX - BLUE BOX", "address": {"city": "PEORIA", "state": "AZ", "street": "7448 W THUNDERBIRD RD", "postcode": "85381"}}},
{"geometry": {"type": "Point", "coordinates": [-112.2393704465, 33.6064179917]}, "type": "Feature", "properties": {"collection_times": [{"days": "Mon-Fri", "time": "5:15pm"}, {"days": "Sat", "time": "4:45pm"}, {"days": "Sun", "time": "Closed"}], "id": "8538100011", "name": "USPS COLLECTION BOX - PO LOBBY", "address": {"city": "PEORIA", "state": "AZ", "street": "8380 W EMILE ZOLA AVE", "postcode": "85381"}}},
{"geometry": {"type": "Point", "coordinates": [-112.2517901219, 33.638233049]}, "type": "Feature", "properties": {"collection_times": [{"days": "Mon-Fri", "time": "2:45pm"}, {"days": "Sat", "time": "1:15pm"}, {"days": "Sun", "time": "Closed"}], "id": "8538100012", "name": "USPS COLLECTION BOX - BLUE BOX", "address": {"city": "PEORIA", "state": "AZ", "street": "8950 W BELL RD", "postcode": "85381"}}},
{"geometry": {"type": "Point", "coordinates": [-112.2393704465, 33.6064179917]}, "type": "Feature", "properties": {"collection_times": [{"days": "Mon-Fri", "time": "5:15pm"}, {"days": "Sat", "time": "4:45pm"}, {"days": "Sun", "time": "Closed"}], "id": "8538100013", "name": "USPS COLLECTION BOX - BLUE BOX", "address": {"city": "PEORIA", "state": "AZ", "street": "8380 W EMILE ZOLA AVE", "postcode": "85381"}}},
{"geometry": {"type": "Point", "coordinates": [-112.2393704465, 33.6064179917]}, "type": "Feature", "properties": {"collection_times": [{"days": "Mon-Fri", "time": "5:15pm"}, {"days": "Sat", "time": "4:45pm"}, {"days": "Sun", "time": "Closed"}], "id": "8538100014", "name": "USPS COLLECTION BOX - BLUE BOX", "address": {"city": "PEORIA", "state": "AZ", "street": "8380 W EMILE ZOLA AVE", "postcode": "85381"}}},
{"geometry": {"type": "Point", "coordinates": [-112.2393704465, 33.6064179917]}, "type": "Feature", "properties": {"collection_times": [{"days": "Mon-Fri", "time": "5:15pm"}, {"days": "Sat", "time": "4:45pm"}, {"days": "Sun", "time": "Closed"}], "id": "8538100015", "name": "USPS COLLECTION BOX - APC", "address": {"city": "PEORIA", "state": "AZ", "street": "8380 W EMILE ZOLA AVE", "postcode": "85381"}}},
{"geometry": {"type": "Point", "coordinates": [-112.2375900578, 33.6124302189]}, "type": "Feature", "properties": {"collection_times": [{"days": "Mon-Fri", "time": "2:45pm"}, {"days": "Sat", "time": "12:45pm"}, {"days": "Sun", "time": "Closed"}], "id": "8538100016", "name": "USPS COLLECTION BOX - BLUE BOX", "address": {"city": "PEORIA", "state": "AZ", "street": "14050 N 83RD AVE", "postcode": "85381"}}},
{"geometry": {"type": "Point", "coordinates": [-112.2690329182, 33.6556020312]}, "type": "Feature", "properties": {"collection_times": [{"days": "Mon-Fri", "time": "3:15pm"}, {"days": "Sat", "time": "1:15pm"}, {"days": "Sun", "time": "Closed"}], "id": "8538200001", "name": "USPS COLLECTION BOX - BLUE BOX", "address": {"city": "PEORIA", "state": "AZ", "street": "19281 N WESTBROOK PKWY", "postcode": "85382"}}},
{"geometry": {"type": "Point", "coordinates": [-112.2461709105, 33.6562582939]}, "type": "Feature", "properties": {"collection_times": [{"days": "Mon-Fri", "time": "3:15pm"}, {"days": "Sat", "time": "1:15pm"}, {"days": "Sun", "time": "Closed"}], "id": "8538200002", "name": "USPS COLLECTION BOX - BLUE BOX", "address": {"city": "PEORIA", "state": "AZ", "street": "18827 N COUNTRY CLUB PKWY", "postcode": "85382"}}},
{"geometry": {"type": "Point", "coordinates": [-112.2307557439, 33.6379994011]}, "type": "Feature", "properties": {"collection_times": [{"days": "Mon-Sat", "time": "11:00am"}, {"days": "Sun", "time": "Closed"}], "id": "8538200003", "name": "USPS COLLECTION BOX - BLUE BOX", "address": {"city": "PEORIA", "state": "AZ", "street": "8055 W BELL RD", "postcode": "85382"}}},
{"geometry": {"type": "Point", "coordinates": [-112.2281365708, 33.6379878616]}, "type": "Feature", "properties": {"collection_times": [{"days": "Mon-Sat", "time": "11:00am"}, {"days": "Sun", "time": "Closed"}], "id": "8538200004", "name": "USPS COLLECTION BOX - BLUE BOX", "address": {"city": "PEORIA", "state": "AZ", "street": "7865 W BELL RD", "postcode": "85382"}}},
{"geometry": {"type": "Point", "coordinates": [-112.2541982111, 33.6962610706]}, "type": "Feature", "properties": {"collection_times": [{"days": "Mon-Fri", "time": "3:00pm"}, {"days": "Sat", "time": "1:30pm"}, {"days": "Sun", "time": "Closed"}], "id": "8538200005", "name": "USPS COLLECTION BOX - BLUE BOX", "address": {"city": "PEORIA", "state": "AZ", "street": "9098 W PINNACLE PEAK RD", "postcode": "85382"}}},
{"geometry": {"type": "Point", "coordinates": [-112.235408848, 33.635348541]}, "type": "Feature", "properties": {"collection_times": [{"days": "Mon-Fri", "time": "4:30pm"}, {"days": "Sat", "time": "2:30pm"}, {"days": "Sun", "time": "Closed"}], "id": "8538200006", "name": "USPS COLLECTION BOX - BLUE BOX", "address": {"city": "PEORIA", "state": "AZ", "street": "8400 W PARADISE LN", "postcode": "85382"}}},
{"geometry": {"type": "Point", "coordinates": [-112.2372440432, 33.6815497932]}, "type": "Feature", "properties": {"collection_times": [{"days": "Mon-Fri", "time": "3:45pm"}, {"days": "Sat", "time": "1:45pm"}, {"days": "Sun", "time": "Closed"}], "id": "8538200009", "name": "USPS COLLECTION BOX - BLUE BOX", "address": {"city": "PEORIA", "state": "AZ", "street": "8248 W DEER VALLEY RD", "postcode": "85382"}}},
{"geometry": {"type": "Point", "coordinates": [-112.2461709105, 33.6562582939]}, "type": "Feature", "properties": {"collection_times": [{"days": "Mon-Fri", "time": "3:15pm"}, {"days": "Sat", "time": "1:15pm"}, {"days": "Sun", "time": "Closed"}], "id": "8538200010", "name": "USPS COLLECTION BOX - BLUE BOX", "address": {"city": "PEORIA", "state": "AZ", "street": "18827 N COUNTRY CLUB PKWY", "postcode": "85382"}}},
{"geometry": {"type": "Point", "coordinates": [-112.2372440432, 33.6815497932]}, "type": "Feature", "properties": {"collection_times": [{"days": "Mon-Fri", "time": "3:45pm"}, {"days": "Sat", "time": "1:45pm"}, {"days": "Sun", "time": "Closed"}], "id": "8538200011", "name": "USPS COLLECTION BOX - BLUE BOX", "address": {"city": "PEORIA", "state": "AZ", "street": "8248 W DEER VALLEY RD", "postcode": "85382"}}},
{"geometry": {"type": "Point", "coordinates": [-112.2800411326, 33.6677659554]}, "type": "Feature", "properties": {"collection_times": [{"days": "Mon-Fri", "time": "3:30pm"}, {"days": "Sat", "time": "1:30pm"}, {"days": "Sun", "time": "Closed"}], "id": "8538200012", "name": "USPS COLLECTION BOX - BLUE BOX", "address": {"city": "PEORIA", "state": "AZ", "street": "20266 N LAKE PLEASANT RD", "postcode": "85382"}}},
{"geometry": {"type": "Point", "coordinates": [-112.2690329182, 33.6556020312]}, "type": "Feature", "properties": {"collection_times": [{"days": "Mon-Fri", "time": "2:45pm"}, {"days": "Sat", "time": "1:15pm"}, {"days": "Sun", "time": "Closed"}], "id": "8538200013", "name": "USPS COLLECTION BOX - BLUE BOX", "address": {"city": "PEORIA", "state": "AZ", "street": "19281 N WESTBROOK PKWY", "postcode": "85382"}}},
{"geometry": {"type": "Point", "coordinates": [-112.3295960646, 33.7367996119]}, "type": "Feature", "properties": {"collection_times": [{"days": "Mon-Fri", "time": "1:00pm"}, {"days": "Sat-Sun", "time": "Closed"}], "id": "8538300001", "name": "USPS COLLECTION BOX - BLUE BOX", "address": {"city": "PEORIA", "state": "AZ", "street": "27980 N TRILOGY BLVD", "postcode": "85383"}}},
{"geometry": {"type": "Point", "coordinates": [-112.7333423461, 33.9672233128]}, "type": "Feature", "properties": {"collection_times": [{"days": "Mon-Sat", "time": "10:30am"}, {"days": "Sun", "time": "Closed"}], "id": "8539000001", "name": "USPS COLLECTION BOX - BLUE BOX", "address": {"city": "WICKENBURG", "state": "AZ", "street": "165 E APACHE ST", "postcode": "85390"}}},
{"geometry": {"type": "Point", "coordinates": [-112.7327808271, 33.9696138751]}, "type": "Feature", "properties": {"collection_times": [{"days": "Mon-Sat", "time": "10:30am"}, {"days": "Sun", "time": "Closed"}], "id": "8539000002", "name": "USPS COLLECTION BOX - BLUE BOX", "address": {"city": "WICKENBURG", "state": "AZ", "street": "216 N FRONTIER ST", "postcode": "85390"}}},
{"geometry": {"type": "Point", "coordinates": [-112.275443789, 33.4648216094]}, "type": "Feature", "properties": {"collection_times": [{"days": "Mon-Sat", "time": "1:45pm"}, {"days": "Sun", "time": "Closed"}], "id": "8539200001", "name": "USPS COLLECTION BOX - BLUE BOX", "address": {"city": "AVONDALE", "state": "AZ", "street": "10002 W MCDOWELL RD", "postcode": "85392"}}},
{"geometry": {"type": "Point", "coordinates": [-112.3049487323, 33.4847410473]}, "type": "Feature", "properties": {"collection_times": [{"days": "Mon-Sat", "time": "1:45pm"}, {"days": "Sun", "time": "Closed"}], "id": "8539200002", "name": "USPS COLLECTION BOX - BLUE BOX", "address": {"city": "AVONDALE", "state": "AZ", "street": "3300 N LAKESHORE CT", "postcode": "85392"}}},
{"geometry": {"type": "Point", "coordinates": [-112.3496569529, 33.4405025043]}, "type": "Feature", "properties": {"collection_times": [{"days": "Mon-Sat", "time": "1:45pm"}, {"days": "Sun", "time": "Closed"}], "id": "8539200003", "name": "USPS COLLECTION BOX - BLUE BOX", "address": {"city": "AVONDALE", "state": "AZ", "street": "11778 W ENCANTO BLVD", "postcode": "85392"}}},
{"geometry": {"type": "Point", "coordinates": [-111.6647517583, 34.2930183245]}, "type": "Feature", "properties": {"collection_times": [{"days": "Mon-Sat", "time": "1:45pm"}, {"days": "Sun", "time": "Closed"}], "id": "8539500002", "name": "USPS COLLECTION BOX - BLUE BOX", "address": {"city": "GOODYEAR", "state": "AZ", "street": "2626 N 133RD DR", "postcode": "85395"}}},
{"geometry": {"type": "Point", "coordinates": [-112.3506854824, 33.4642074386]}, "type": "Feature", "properties": {"collection_times": [{"days": "Mon-Sat", "time": "1:45pm"}, {"days": "Sun", "time": "Closed"}], "id": "8539500003", "name": "USPS COLLECTION BOX - BLUE BOX", "address": {"city": "GOODYEAR", "state": "AZ", "street": "13555 W MCDOWELL RD", "postcode": "85395"}}},
{"geometry": {"type": "Point", "coordinates": [-112.712428896, 33.5449017151]}, "type": "Feature", "properties": {"collection_times": [{"days": "Mon-Fri", "time": "1:30pm"}, {"days": "Sat", "time": "12:00pm"}, {"days": "Sun", "time": "Closed"}], "id": "8539600001", "name": "USPS COLLECTION BOX - BLUE BOX", "address": {"city": "BUCKEYE", "state": "AZ", "street": "4240 N VERRADO WAY", "postcode": "85396"}}}
]}
