{"type": "FeatureCollection", "features": [
{"geometry": {"type": "Point", "coordinates": [-110.7882138388, 33.3961318254]}, "type": "Feature", "properties": {"collection_times": [{"days": "Mon-Sat", "time": "1:00pm"}, {"days": "Sun", "time": "Closed"}], "id": "8550100002", "name": "USPS COLLECTION BOX - BLUE BOX", "address": {"city": "GLOBE", "state": "AZ", "street": "150 N PINE ST", "postcode": "85501"}}},
{"geometry": {"type": "Point", "coordinates": [-110.7744450348, 33.3953436322]}, "type": "Feature", "properties": {"collection_times": [{"days": "Mon-Sat", "time": "1:00pm"}, {"days": "Sun", "time": "Closed"}], "id": "8550100007", "name": "USPS COLLECTION BOX - BLUE BOX", "address": {"city": "GLOBE", "state": "AZ", "street": "1400 E ASH ST", "postcode": "85501"}}},
{"geometry": {"type": "Point", "coordinates": [-110.7744450348, 33.3953436322]}, "type": "Feature", "properties": {"collection_times": [{"days": "Mon-Sat", "time": "1:00pm"}, {"days": "Sun", "time": "Closed"}], "id": "8550100014", "name": "USPS COLLECTION BOX - BLUE BOX", "address": {"city": "GLOBE", "state": "AZ", "street": "1400 E ASH ST", "postcode": "85501"}}},
{"geometry": {"type": "Point", "coordinates": [-110.7860152473, 33.3963518359]}, "type": "Feature", "properties": {"collection_times": [{"days": "Mon-Fri", "time": "5:00pm"}, {"days": "Sat", "time": "1:00pm"}, {"days": "Sun", "time": "Closed"}], "id": "8550100015", "name": "USPS COLLECTION BOX - BLUE BOX", "address": {"city": "GLOBE", "state": "AZ", "street": "101 S HILL ST", "postcode": "85501"}}},
{"geometry": {"type": "Point", "coordinates": [-110.7855130333, 33.3955214292]}, "type": "Feature", "properties": {"collection_times": [{"days": "Mon-Fri", "time": "5:00pm"}, {"days": "Sat", "time": "1:00pm"}, {"days": "Sun", "time": "Closed"}], "id": "8550100016", "name": "USPS COLLECTION BOX - BLUE BOX", "address": {"city": "GLOBE", "state": "AZ", "street": "200 E SYCAMORE ST", "postcode": "85501"}}},
{"geometry": {"type": "Point", "coordinates": [-110.7860152473, 33.3963518359]}, "type": "Feature", "properties": {"collection_times": [{"days": "Mon-Fri", "time": "5:00pm"}, {"days": "Sat", "time": "1:00pm"}, {"days": "Sun", "time": "Closed"}], "id": "8550100025", "name": "USPS COLLECTION BOX - PO LOBBY", "address": {"city": "GLOBE", "state": "AZ", "street": "101 S HILL ST", "postcode": "85501"}}},
{"geometry": {"type": "Point", "coordinates": [-110.8261878859, 33.4077524566]}, "type": "Feature", "properties": {"collection_times": [{"days": "Mon-Sat", "time": "9:00am"}, {"days": "Sun", "time": "Closed"}], "id": "8550100026", "name": "USPS COLLECTION BOX - BLUE BOX", "address": {"city": "GLOBE", "state": "AZ", "street": "5860 S HOSPITAL DR", "postcode": "85501"}}},
{"geometry": {"type": "Point", "coordinates": [-110.2567097239, 33.0917132497]}, "type": "Feature", "properties": {"collection_times": [{"days": "Mon-Fri", "time": "3:00pm"}, {"days": "Sat", "time": "9:30am"}, {"days": "Sun", "time": "Closed"}], "id": "8553000001", "name": "USPS COLLECTION BOX - BLUE BOX", "address": {"city": "BYLAS", "state": "AZ", "street": "297 E US HIGHWAY 70", "postcode": "85530"}}},
{"geometry": {"type": "Point", "coordinates": [-110.2567097239, 33.0917132497]}, "type": "Feature", "properties": {"collection_times": [{"days": "Mon-Fri", "time": "3:00pm"}, {"days": "Sat", "time": "9:30am"}, {"days": "Sun", "time": "Closed"}], "id": "8553000002", "name": "USPS COLLECTION BOX - PO LOBBY", "address": {"city": "BYLAS", "state": "AZ", "street": "297 E US HIGHWAY 70", "postcode": "85530"}}},
{"geometry": {"type": "Point", "coordinates": [-109.7916058045, 32.8693888111]}, "type": "Feature", "properties": {"collection_times": [{"days": "Mon-Fri", "time": "2:30pm"}, {"days": "Sat", "time": "10:15am"}, {"days": "Sun", "time": "Closed"}], "id": "8553100001", "name": "USPS COLLECTION BOX - BLUE BOX", "address": {"city": "CENTRAL", "state": "AZ", "street": "5442 W COOMBS ST", "postcode": "85531"}}},
{"geometry": {"type": "Point", "coordinates": [-109.7916058045, 32.8693888111]}, "type": "Feature", "properties": {"collection_times": [{"days": "Mon-Fri", "time": "2:30pm"}, {"days": "Sat", "time": "10:15am"}, {"days": "Sun", "time": "Closed"}], "id": "8553100002", "name": "USPS COLLECTION BOX - PO LOBBY", "address": {"city": "CENTRAL", "state": "AZ", "street": "5442 W COOMBS ST", "postcode": "85531"}}},
{"geometry": {"type": "Point", "coordinates": [-110.861985451, 33.4030470281]}, "type": "Feature", "properties": {"collection_times": [{"days": "Mon-Fri", "time": "4:30pm"}, {"days": "Sat", "time": "11:00am"}, {"days": "Sun", "time": "Closed"}], "id": "8553200002", "name": "USPS COLLECTION BOX - BLUE BOX", "address": {"city": "CLAYPOOL", "state": "AZ", "street": "4281 E BROADWAY", "postcode": "85532"}}},
{"geometry": {"type": "Point", "coordinates": [-110.861985451, 33.4030470281]}, "type": "Feature", "properties": {"collection_times": [{"days": "Mon-Fri", "time": "4:30pm"}, {"days": "Sat", "time": "11:00am"}, {"days": "Sun", "time": "Closed"}], "id": "8553200003", "name": "USPS COLLECTION BOX - PO LOBBY", "address": {"city": "CLAYPOOL", "state": "AZ", "street": "4281 E BROADWAY", "postcode": "85532"}}},
{"geometry": {"type": "Point", "coordinates": [-109.2959590635, 33.0535564146]}, "type": "Feature", "properties": {"collection_times": [{"days": "Mon-Fri", "time": "11:30am"}, {"days": "Sat", "time": "11:15am"}, {"days": "Sun", "time": "Closed"}], "id": "8553300001", "name": "USPS COLLECTION BOX - BLUE BOX", "address": {"city": "CLIFTON", "state": "AZ", "street": "100 N CORONADO BLVD", "postcode": "85533"}}},
{"geometry": {"type": "Point", "coordinates": [-109.2661554626, 33.3951218893]}, "type": "Feature", "properties": {"collection_times": [{"days": "Mon-Fri", "time": "11:30am"}, {"days": "Sat", "time": "11:00am"}, {"days": "Sun", "time": "Closed"}], "id": "8553300002", "name": "USPS COLLECTION BOX - BLUE BOX", "address": {"city": "CLIFTON", "state": "AZ", "street": "154577 AZ HWY 78", "postcode": "85533"}}},
{"geometry": {"type": "Point", "coordinates": [-109.30789782, 33.0558611293]}, "type": "Feature", "properties": {"collection_times": [{"days": "Mon-Fri", "time": "1:35pm"}, {"days": "Sat", "time": "12:00pm"}, {"days": "Sun", "time": "Closed"}], "id": "8553300003", "name": "USPS COLLECTION BOX - BLUE BOX", "address": {"city": "CLIFTON", "state": "AZ", "street": "494 N CORONADO BLVD", "postcode": "85533"}}},
{"geometry": {"type": "Point", "coordinates": [-109.30789782, 33.0558611293]}, "type": "Feature", "properties": {"collection_times": [{"days": "Mon-Fri", "time": "1:35pm"}, {"days": "Sat", "time": "12:00pm"}, {"days": "Sun", "time": "Closed"}], "id": "8553300005", "name": "USPS COLLECTION BOX - PO LOBBY", "address": {"city": "CLIFTON", "state": "AZ", "street": "494 N CORONADO BLVD", "postcode": "85533"}}},
{"geometry": {"type": "Point", "coordinates": [-109.099757073, 32.7247391722]}, "type": "Feature", "properties": {"collection_times": [{"days": "Mon-Fri", "time": "1:10pm"}, {"days": "Sat", "time": "10:45am"}, {"days": "Sun", "time": "Closed"}], "id": "8553400001", "name": "USPS COLLECTION BOX - BLUE BOX", "address": {"city": "DUNCAN", "state": "AZ", "street": "209 MAIN ST", "postcode": "85534"}}},
{"geometry": {"type": "Point", "coordinates": [-109.099757073, 32.7247391722]}, "type": "Feature", "properties": {"collection_times": [{"days": "Mon-Fri", "time": "1:10pm"}, {"days": "Sat", "time": "10:45am"}, {"days": "Sun", "time": "Closed"}], "id": "8553400003", "name": "USPS COLLECTION BOX - PO LOBBY", "address": {"city": "DUNCAN", "state": "AZ", "street": "209 MAIN ST", "postcode": "85534"}}},
{"geometry": {"type": "Point", "coordinates": [-110.0239697779, 33.018730239]}, "type": "Feature", "properties": {"collection_times": [{"days": "Mon-Fri", "time": "3:10pm"}, {"days": "Sat", "time": "9:30am"}, {"days": "Sun", "time": "Closed"}], "id": "8553600001", "name": "USPS COLLECTION BOX - BLUE BOX", "address": {"city": "FORT THOMAS", "state": "AZ", "street": "15550 W US HIGHWAY 70", "postcode": "85536"}}},
{"geometry": {"type": "Point", "coordinates": [-110.0239697779, 33.018730239]}, "type": "Feature", "properties": {"collection_times": [{"days": "Mon-Fri", "time": "3:10pm"}, {"days": "Sat", "time": "9:30am"}, {"days": "Sun", "time": "Closed"}], "id": "8553600002", "name": "USPS COLLECTION BOX - PO LOBBY", "address": {"city": "FORT THOMAS", "state": "AZ", "street": "15550 W US HIGHWAY 70", "postcode": "85536"}}},
{"geometry": {"type": "Point", "coordinates": [-110.8252255464, 33.417859185]}, "type": "Feature", "properties": {"collection_times": [{"days": "Mon-Fri", "time": "1:00pm"}, {"days": "Sat", "time": "12:00pm"}, {"days": "Sun", "time": "Closed"}], "id": "8553900005", "name": "USPS COLLECTION BOX - BLUE BOX", "address": {"city": "MIAMI", "state": "AZ", "street": "2250 HIGHWAY 60", "postcode": "85539"}}},
{"geometry": {"type": "Point", "coordinates": [-110.8793383691, 33.3915759339]}, "type": "Feature", "properties": {"collection_times": [{"days": "Mon-Fri", "time": "4:30pm"}, {"days": "Sat", "time": "12:00pm"}, {"days": "Sun", "time": "Closed"}], "id": "8553900006", "name": "USPS COLLECTION BOX - PO LOBBY", "address": {"city": "MIAMI", "state": "AZ", "street": "161 W LIVE OAK ST", "postcode": "85539"}}},
{"geometry": {"type": "Point", "coordinates": [-110.8175005445, 33.4187508523]}, "type": "Feature", "properties": {"collection_times": [{"days": "Mon-Fri", "time": "1:00pm"}, {"days": "Sat", "time": "12:00pm"}, {"days": "Sun", "time": "Closed"}], "id": "8553900007", "name": "USPS COLLECTION BOX - BLUE BOX", "address": {"city": "MIAMI", "state": "AZ", "street": "2115 HIGHWAY 60", "postcode": "85539"}}},
{"geometry": {"type": "Point", "coordinates": [-109.3218864092, 33.0466338644]}, "type": "Feature", "properties": {"collection_times": [{"days": "Mon-Fri", "time": "1:15pm"}, {"days": "Sat", "time": "12:00pm"}, {"days": "Sun", "time": "Closed"}], "id": "8554000001", "name": "USPS COLLECTION BOX - BLUE BOX", "address": {"city": "MORENCI", "state": "AZ", "street": "9 MORENCI MALL", "postcode": "85540"}}},
{"geometry": {"type": "Point", "coordinates": [-109.3218864092, 33.0466338644]}, "type": "Feature", "properties": {"collection_times": [{"days": "Mon-Fri", "time": "1:15pm"}, {"days": "Sat", "time": "12:00pm"}, {"days": "Sun", "time": "Closed"}], "id": "8554000002", "name": "USPS COLLECTION BOX - PO LOBBY", "address": {"city": "MORENCI", "state": "AZ", "street": "9 MORENCI MALL", "postcode": "85540"}}},
{"geometry": {"type": "Point", "coordinates": [-111.311738163, 34.2417841122]}, "type": "Feature", "properties": {"collection_times": [{"days": "Mon-Sat", "time": "1:30pm"}, {"days": "Sun", "time": "Closed"}], "id": "8554100001", "name": "USPS COLLECTION BOX - BLUE BOX", "address": {"city": "PAYSON", "state": "AZ", "street": "401 E STATE HIGHWAY 260", "postcode": "85541"}}},
{"geometry": {"type": "Point", "coordinates": [-111.3224292021, 34.2407026404]}, "type": "Feature", "properties": {"collection_times": [{"days": "Mon-Sat", "time": "1:30pm"}, {"days": "Sun", "time": "Closed"}], "id": "8554100002", "name": "USPS COLLECTION BOX - BLUE BOX", "address": {"city": "PAYSON", "state": "AZ", "street": "142 E STATE HIGHWAY 260", "postcode": "85541"}}},
{"geometry": {"type": "Point", "coordinates": [-111.3227048806, 34.2487278903]}, "type": "Feature", "properties": {"collection_times": [{"days": "Mon-Sat", "time": "1:30pm"}, {"days": "Sun", "time": "Closed"}], "id": "8554100003", "name": "USPS COLLECTION BOX - BLUE BOX", "address": {"city": "PAYSON", "state": "AZ", "street": "700 N BEELINE HWY", "postcode": "85541"}}},
{"geometry": {"type": "Point", "coordinates": [-111.3241859316, 34.2320346219]}, "type": "Feature", "properties": {"collection_times": [{"days": "Mon-Fri", "time": "5:00pm"}, {"days": "Sat", "time": "3:00pm"}, {"days": "Sun", "time": "Closed"}], "id": "8554100005", "name": "USPS COLLECTION BOX - BLUE BOX", "address": {"city": "PAYSON", "state": "AZ", "street": "100 W FRONTIER ST", "postcode": "85541"}}},
{"geometry": {"type": "Point", "coordinates": [-111.1656910345, 34.0811834522]}, "type": "Feature", "properties": {"collection_times": [{"days": "Mon-Sat", "time": "10:00am"}, {"days": "Sun", "time": "Closed"}], "id": "8554100006", "name": "USPS COLLECTION BOX - BLUE BOX", "address": {"city": "PAYSON", "state": "AZ", "street": "1101 E CHRISTOPHER CREEK LOOP", "postcode": "85541"}}},
{"geometry": {"type": "Point", "coordinates": [-111.311729473, 34.241784158]}, "type": "Feature", "properties": {"collection_times": [{"days": "Mon-Fri", "time": "5:00pm"}, {"days": "Sat", "time": "3:00pm"}, {"days": "Sun", "time": "Closed"}], "id": "8554100007", "name": "USPS COLLECTION BOX - BLUE BOX", "address": {"city": "PAYSON", "state": "AZ", "street": "100 W FRONTIER ST", "postcode": "85541"}}},
{"geometry": {"type": "Point", "coordinates": [-111.3241859316, 34.2320346219]}, "type": "Feature", "properties": {"collection_times": [{"days": "Mon-Fri", "time": "5:00pm"}, {"days": "Sat", "time": "3:00pm"}, {"days": "Sun", "time": "Closed"}], "id": "8554100010", "name": "USPS COLLECTION BOX - BLUE BOX", "address": {"city": "PAYSON", "state": "AZ", "street": "100 W FRONTIER ST", "postcode": "85541"}}},
{"geometry": {"type": "Point", "coordinates": [-111.3227894759, 34.2432009633]}, "type": "Feature", "properties": {"collection_times": [{"days": "Mon-Sat", "time": "1:30pm"}, {"days": "Sun", "time": "Closed"}], "id": "8554100011", "name": "USPS COLLECTION BOX - BLUE BOX", "address": {"city": "PAYSON", "state": "AZ", "street": "303 N BEELINE HWY", "postcode": "85541"}}},
{"geometry": {"type": "Point", "coordinates": [-111.3241859316, 34.2320346219]}, "type": "Feature", "properties": {"collection_times": [{"days": "Mon-Fri", "time": "5:00pm"}, {"days": "Sat", "time": "3:30pm"}, {"days": "Sun", "time": "Closed"}], "id": "8554100013", "name": "USPS COLLECTION BOX - PO LOBBY", "address": {"city": "PAYSON", "state": "AZ", "street": "100 W FRONTIER ST", "postcode": "85541"}}},
{"geometry": {"type": "Point", "coordinates": [-111.3229843472, 34.243181528]}, "type": "Feature", "properties": {"collection_times": [{"days": "Mon-Sat", "time": "1:30pm"}, {"days": "Sun", "time": "Closed"}], "id": "8554100014", "name": "USPS COLLECTION BOX - BLUE BOX", "address": {"city": "PAYSON", "state": "AZ", "street": "300 N BEELINE HWY", "postcode": "85541"}}},
{"geometry": {"type": "Point", "coordinates": [-111.3227894759, 34.2432009633]}, "type": "Feature", "properties": {"collection_times": [{"days": "Mon-Sat", "time": "1:30pm"}, {"days": "Sun", "time": "Closed"}], "id": "8554100015", "name": "USPS COLLECTION BOX - BLUE BOX", "address": {"city": "PAYSON", "state": "AZ", "street": "303 N BEELINE HWY", "postcode": "85541"}}},
{"geometry": {"type": "Point", "coordinates": [-110.4563977603, 33.3503931989]}, "type": "Feature", "properties": {"collection_times": [{"days": "Mon-Fri", "time": "4:05pm"}, {"days": "Sat", "time": "11:45am"}, {"days": "Sun", "time": "Closed"}], "id": "8554200003", "name": "USPS COLLECTION BOX - PO LOBBY", "address": {"city": "PERIDOT", "state": "AZ", "street": "261 STATE HIGHWAY 170", "postcode": "85542"}}},
{"geometry": {"type": "Point", "coordinates": [-109.8296282805, 32.8962948379]}, "type": "Feature", "properties": {"collection_times": [{"days": "Mon-Fri", "time": "2:50pm"}, {"days": "Sat", "time": "10:00am"}, {"days": "Sun", "time": "Closed"}], "id": "8554300001", "name": "USPS COLLECTION BOX - BLUE BOX", "address": {"city": "PIMA", "state": "AZ", "street": "110 W CENTER ST", "postcode": "85543"}}},
{"geometry": {"type": "Point", "coordinates": [-109.8262984616, 32.8961616399]}, "type": "Feature", "properties": {"collection_times": [{"days": "Mon-Fri", "time": "2:50pm"}, {"days": "Sat", "time": "10:00am"}, {"days": "Sun", "time": "Closed"}], "id": "8554300002", "name": "USPS COLLECTION BOX - PO LOBBY", "address": {"city": "PIMA", "state": "AZ", "street": "41 E CENTER ST", "postcode": "85543"}}},
{"geometry": {"type": "Point", "coordinates": [-111.4546888415, 34.3867030471]}, "type": "Feature", "properties": {"collection_times": [{"days": "Mon-Fri", "time": "2:00pm"}, {"days": "Sat", "time": "10:30am"}, {"days": "Sun", "time": "Closed"}], "id": "8554400001", "name": "USPS COLLECTION BOX - BLUE BOX", "address": {"city": "PINE", "state": "AZ", "street": "3847 N HIGHWAY 87", "postcode": "85544"}}},
{"geometry": {"type": "Point", "coordinates": [-111.4546888415, 34.3867030471]}, "type": "Feature", "properties": {"collection_times": [{"days": "Mon-Fri", "time": "2:00pm"}, {"days": "Sat", "time": "10:30am"}, {"days": "Sun", "time": "Closed"}], "id": "8554400002", "name": "USPS COLLECTION BOX - PO LOBBY", "address": {"city": "PINE", "state": "AZ", "street": "3847 N HIGHWAY 87", "postcode": "85544"}}},
{"geometry": {"type": "Point", "coordinates": [-111.4546888415, 34.3867030471]}, "type": "Feature", "properties": {"collection_times": [{"days": "Mon-Fri", "time": "2:00pm"}, {"days": "Sat", "time": "10:30am"}, {"days": "Sun", "time": "Closed"}], "id": "8554400003", "name": "USPS COLLECTION BOX - BLUE BOX", "address": {"city": "PINE", "state": "AZ", "street": "3847 N HIGHWAY 87", "postcode": "85544"}}},
{"geometry": {"type": "Point", "coordinates": [-111.2222254909, 33.6934782172]}, "type": "Feature", "properties": {"collection_times": [{"days": "Mon-Fri", "time": "3:50pm"}, {"days": "Sat", "time": "10:00am"}, {"days": "Sun", "time": "Closed"}], "id": "8554500001", "name": "USPS COLLECTION BOX - BLUE BOX", "address": {"city": "ROOSEVELT", "state": "AZ", "street": "18762 N AZ HIGHWAY 188", "postcode": "85545"}}},
{"geometry": {"type": "Point", "coordinates": [-111.2222254909, 33.6934782172]}, "type": "Feature", "properties": {"collection_times": [{"days": "Mon-Fri", "time": "3:50pm"}, {"days": "Sat", "time": "10:00am"}, {"days": "Sun", "time": "Closed"}], "id": "8554500002", "name": "USPS COLLECTION BOX - PO LOBBY", "address": {"city": "ROOSEVELT", "state": "AZ", "street": "18762 N AZ HIGHWAY 188", "postcode": "85545"}}},
{"geometry": {"type": "Point", "coordinates": [-109.7055373599, 32.8024228302]}, "type": "Feature", "properties": {"collection_times": [{"days": "Mon-Sat", "time": "2:55pm"}, {"days": "Sun", "time": "Closed"}], "id": "8554600010", "name": "USPS COLLECTION BOX - BLUE BOX", "address": {"city": "SAFFORD", "state": "AZ", "street": "504 S 5TH AVE", "postcode": "85546"}}},
{"geometry": {"type": "Point", "coordinates": [-109.7055373599, 32.8024228302]}, "type": "Feature", "properties": {"collection_times": [{"days": "Mon-Sat", "time": "2:55pm"}, {"days": "Sun", "time": "Closed"}], "id": "8554600013", "name": "USPS COLLECTION BOX - BLUE BOX", "address": {"city": "SAFFORD", "state": "AZ", "street": "504 S 5TH AVE", "postcode": "85546"}}},
{"geometry": {"type": "Point", "coordinates": [-109.7125830825, 32.8343093515]}, "type": "Feature", "properties": {"collection_times": [{"days": "Mon-Sat", "time": "2:55pm"}, {"days": "Sun", "time": "Closed"}], "id": "8554600014", "name": "USPS COLLECTION BOX - PO LOBBY", "address": {"city": "SAFFORD", "state": "AZ", "street": "504 S 5TH AVE", "postcode": "85546"}}},
{"geometry": {"type": "Point", "coordinates": [-109.892846202, 33.3242753708]}, "type": "Feature", "properties": {"collection_times": [{"days": "Mon-Fri", "time": "4:15pm"}, {"days": "Sat", "time": "11:00am"}, {"days": "Sun", "time": "Closed"}], "id": "8555000000", "name": "USPS COLLECTION BOX - PO LOBBY", "address": {"city": "SAN CARLOS", "state": "AZ", "street": "9998 SAN CARLOS AVE", "postcode": "85550"}}},
{"geometry": {"type": "Point", "coordinates": [-109.6307118474, 32.8151077197]}, "type": "Feature", "properties": {"collection_times": [{"days": "Mon-Fri", "time": "1:50pm"}, {"days": "Sat", "time": "9:30am"}, {"days": "Sun", "time": "Closed"}], "id": "8555100001", "name": "USPS COLLECTION BOX - BLUE BOX", "address": {"city": "SOLOMON", "state": "AZ", "street": "2106 S BOWIE AVE", "postcode": "85551"}}},
{"geometry": {"type": "Point", "coordinates": [-109.6307118474, 32.8151077197]}, "type": "Feature", "properties": {"collection_times": [{"days": "Mon-Fri", "time": "1:50pm"}, {"days": "Sat", "time": "9:30am"}, {"days": "Sun", "time": "Closed"}], "id": "8555100002", "name": "USPS COLLECTION BOX - PO LOBBY", "address": {"city": "SOLOMON", "state": "AZ", "street": "2106 S BOWIE AVE", "postcode": "85551"}}},
{"geometry": {"type": "Point", "coordinates": [-109.7631295912, 32.8478658036]}, "type": "Feature", "properties": {"collection_times": [{"days": "Mon-Fri", "time": "2:20pm"}, {"days": "Sat", "time": "1:30pm"}, {"days": "Sun", "time": "Closed"}], "id": "8555200001", "name": "USPS COLLECTION BOX - BLUE BOX", "address": {"city": "THATCHER", "state": "AZ", "street": "1122 N STADIUM AVE", "postcode": "85552"}}},
{"geometry": {"type": "Point", "coordinates": [-109.7631295912, 32.8478658036]}, "type": "Feature", "properties": {"collection_times": [{"days": "Mon-Fri", "time": "2:20pm"}, {"days": "Sat", "time": "1:30pm"}, {"days": "Sun", "time": "Closed"}], "id": "8555200004", "name": "USPS COLLECTION BOX - PO LOBBY", "address": {"city": "THATCHER", "state": "AZ", "street": "1122 N STADIUM AVE", "postcode": "85552"}}},
{"geometry": {"type": "Point", "coordinates": [-111.3166697443, 33.9350006539]}, "type": "Feature", "properties": {"collection_times": [{"days": "Mon-Fri", "time": "3:20pm"}, {"days": "Sat", "time": "9:15am"}, {"days": "Sun", "time": "Closed"}], "id": "8555300001", "name": "USPS COLLECTION BOX - BLUE BOX", "address": {"city": "TONTO BASIN", "state": "AZ", "street": "77 OLD HIGHWAY 188", "postcode": "85553"}}},
{"geometry": {"type": "Point", "coordinates": [-111.3166697443, 33.9350006539]}, "type": "Feature", "properties": {"collection_times": [{"days": "Mon-Fri", "time": "3:20pm"}, {"days": "Sat", "time": "9:15am"}, {"days": "Sun", "time": "Closed"}], "id": "8555300002", "name": "USPS COLLECTION BOX - PO LOBBY", "address": {"city": "TONTO BASIN", "state": "AZ", "street": "77 OLD HIGHWAY 188", "postcode": "85553"}}},
{"geometry": {"type": "Point", "coordinates": [-110.9461276752, 34.1046818087]}, "type": "Feature", "properties": {"collection_times": [{"days": "Mon-Fri", "time": "2:20pm"}, {"days": "Sat", "time": "11:00am"}, {"days": "Sun", "time": "Closed"}], "id": "8555400001", "name": "USPS COLLECTION BOX - BLUE BOX", "address": {"city": "YOUNG", "state": "AZ", "street": "48951 N ARIZONA HIGHWAY 288", "postcode": "85554"}}},
{"geometry": {"type": "Point", "coordinates": [-110.9461276752, 34.1046818087]}, "type": "Feature", "properties": {"collection_times": [{"days": "Mon-Fri", "time": "2:20pm"}, {"days": "Sat", "time": "11:00am"}, {"days": "Sun", "time": "Closed"}], "id": "8555400002", "name": "USPS COLLECTION BOX - PO LOBBY", "address": {"city": "YOUNG", "state": "AZ", "street": "48951 N ARIZONA HIGHWAY 288", "postcode": "85554"}}}
]}
