{"type": "FeatureCollection", "features": [
{"geometry": {"type": "Point", "coordinates": [-111.3316794918, 31.5748489294]}, "type": "Feature", "properties": {"collection_times": [{"days": "Mon-Sat", "time": "10:30am"}, {"days": "Sun", "time": "Closed"}], "id": "8560100001", "name": "USPS COLLECTION BOX - BLUE BOX", "address": {"city": "ARIVACA", "state": "AZ", "street": "17245 W 5TH ST", "postcode": "85601"}}},
{"geometry": {"type": "Point", "coordinates": [-111.3316794918, 31.5748489294]}, "type": "Feature", "properties": {"collection_times": [{"days": "Mon-Sat", "time": "10:30am"}, {"days": "Sun", "time": "Closed"}], "id": "8560100002", "name": "USPS COLLECTION BOX - PO LOBBY", "address": {"city": "ARIVACA", "state": "AZ", "street": "17245 W 5TH ST", "postcode": "85601"}}},
{"geometry": {"type": "Point", "coordinates": [-110.3071724877, 31.9679182759]}, "type": "Feature", "properties": {"collection_times": [{"days": "Mon-Fri", "time": "4:00pm"}, {"days": "Sat", "time": "1:00pm"}, {"days": "Sun", "time": "Closed"}], "id": "8560200001", "name": "USPS COLLECTION BOX - BLUE BOX", "address": {"city": "BENSON", "state": "AZ", "street": "250 S OCOTILLO AVE", "postcode": "85602"}}},
{"geometry": {"type": "Point", "coordinates": [-110.3071724877, 31.9679182759]}, "type": "Feature", "properties": {"collection_times": [{"days": "Mon-Fri", "time": "4:00pm"}, {"days": "Sat", "time": "1:00pm"}, {"days": "Sun", "time": "Closed"}], "id": "8560200002", "name": "USPS COLLECTION BOX - BLUE BOX", "address": {"city": "BENSON", "state": "AZ", "street": "250 S OCOTILLO AVE", "postcode": "85602"}}},
{"geometry": {"type": "Point", "coordinates": [-110.3440359181, 31.9628504525]}, "type": "Feature", "properties": {"collection_times": [{"days": "Mon-Sat", "time": "11:00am"}, {"days": "Sun", "time": "Closed"}], "id": "8560200003", "name": "USPS COLLECTION BOX - BLUE BOX", "address": {"city": "BENSON", "state": "AZ", "street": "62 N OAK DR", "postcode": "85602"}}},
{"geometry": {"type": "Point", "coordinates": [-110.2941870909, 31.943112333]}, "type": "Feature", "properties": {"collection_times": [{"days": "Mon-Sat", "time": "11:00am"}, {"days": "Sun", "time": "Closed"}], "id": "8560200006", "name": "USPS COLLECTION BOX - BLUE BOX", "address": {"city": "BENSON", "state": "AZ", "street": "600 E SAGUARO DR", "postcode": "85602"}}},
{"geometry": {"type": "Point", "coordinates": [-110.3071724877, 31.9679182759]}, "type": "Feature", "properties": {"collection_times": [{"days": "Mon-Fri", "time": "4:00pm"}, {"days": "Sat", "time": "1:00pm"}, {"days": "Sun", "time": "Closed"}], "id": "8560200007", "name": "USPS COLLECTION BOX - PO LOBBY", "address": {"city": "BENSON", "state": "AZ", "street": "250 S OCOTILLO AVE", "postcode": "85602"}}},
{"geometry": {"type": "Point", "coordinates": [-110.3071724877, 31.9679182759]}, "type": "Feature", "properties": {"collection_times": [{"days": "Mon-Fri", "time": "4:00pm"}, {"days": "Sat", "time": "1:00pm"}, {"days": "Sun", "time": "Closed"}], "id": "8560200008", "name": "USPS COLLECTION BOX - PO LOBBY", "address": {"city": "BENSON", "state": "AZ", "street": "250 S OCOTILLO AVE", "postcode": "85602"}}},
{"geometry": {"type": "Point", "coordinates": [-109.9008947819, 31.4106894028]}, "type": "Feature", "properties": {"collection_times": [{"days": "Mon-Fri", "time": "2:15pm"}, {"days": "Sat", "time": "2:00pm"}, {"days": "Sun", "time": "Closed"}], "id": "8560300001", "name": "USPS COLLECTION BOX - BLUE BOX", "address": {"city": "BISBEE", "state": "AZ", "street": "1248 W HIGHWAY 92", "postcode": "85603"}}},
{"geometry": {"type": "Point", "coordinates": [-109.8772730944, 31.4129661804]}, "type": "Feature", "properties": {"collection_times": [{"days": "Mon-Sat", "time": "1:00pm"}, {"days": "Sun", "time": "Closed"}], "id": "8560300002", "name": "USPS COLLECTION BOX - BLUE BOX", "address": {"city": "BISBEE", "state": "AZ", "street": "401 W VISTA ST", "postcode": "85603"}}},
{"geometry": {"type": "Point", "coordinates": [-109.9096657182, 31.4048300861]}, "type": "Feature", "properties": {"collection_times": [{"days": "Mon-Fri", "time": "1:30pm"}, {"days": "Sat", "time": "2:00pm"}, {"days": "Sun", "time": "Closed"}], "id": "8560300006", "name": "USPS COLLECTION BOX - BLUE BOX", "address": {"city": "BISBEE", "state": "AZ", "street": "6 MAIN ST", "postcode": "85603"}}},
{"geometry": {"type": "Point", "coordinates": [-109.8700415856, 31.4322404216]}, "type": "Feature", "properties": {"collection_times": [{"days": "Mon-Sat", "time": "1:00pm"}, {"days": "Sun", "time": "Closed"}], "id": "8560300007", "name": "USPS COLLECTION BOX - BLUE BOX", "address": {"city": "BISBEE", "state": "AZ", "street": "203 N JUDD DR", "postcode": "85603"}}},
{"geometry": {"type": "Point", "coordinates": [-109.9008947819, 31.4106894028]}, "type": "Feature", "properties": {"collection_times": [{"days": "Mon-Fri", "time": "2:15pm"}, {"days": "Sat", "time": "2:00pm"}, {"days": "Sun", "time": "Closed"}], "id": "8560300008", "name": "USPS COLLECTION BOX - PO LOBBY", "address": {"city": "BISBEE", "state": "AZ", "street": "1248 W HIGHWAY 92", "postcode": "85603"}}},
{"geometry": {"type": "Point", "coordinates": [-109.4865273576, 32.3260538072]}, "type": "Feature", "properties": {"collection_times": [{"days": "Mon-Fri", "time": "12:30pm"}, {"days": "Sat", "time": "8:00am"}, {"days": "Sun", "time": "Closed"}], "id": "8560500001", "name": "USPS COLLECTION BOX - BLUE BOX", "address": {"city": "BOWIE", "state": "AZ", "street": "118 E LOOP I 10", "postcode": "85605"}}},
{"geometry": {"type": "Point", "coordinates": [-109.4865273576, 32.3260538072]}, "type": "Feature", "properties": {"collection_times": [{"days": "Mon-Fri", "time": "12:30pm"}, {"days": "Sat", "time": "8:00am"}, {"days": "Sun", "time": "Closed"}], "id": "8560500002", "name": "USPS COLLECTION BOX - PO LOBBY", "address": {"city": "BOWIE", "state": "AZ", "street": "118 E LOOP I 10", "postcode": "85605"}}},
{"geometry": {"type": "Point", "coordinates": [-109.9209352834, 32.1142642025]}, "type": "Feature", "properties": {"collection_times": [{"days": "Mon-Fri", "time": "10:00am"}, {"days": "Sat", "time": "8:45am"}, {"days": "Sun", "time": "Closed"}], "id": "8560600001", "name": "USPS COLLECTION BOX - BLUE BOX", "address": {"city": "COCHISE", "state": "AZ", "street": "5066 N DOS CABEZAS ST", "postcode": "85606"}}},
{"geometry": {"type": "Point", "coordinates": [-109.5323545524, 31.3477151387]}, "type": "Feature", "properties": {"collection_times": [{"days": "Mon-Sat", "time": "1:00pm"}, {"days": "Sun", "time": "Closed"}], "id": "8560700010", "name": "USPS COLLECTION BOX - BLUE BOX", "address": {"city": "DOUGLAS", "state": "AZ", "street": "1310 N SAN ANTONIO AVE", "postcode": "85607"}}},
{"geometry": {"type": "Point", "coordinates": [-109.5455672924, 31.3627313278]}, "type": "Feature", "properties": {"collection_times": [{"days": "Mon-Sat", "time": "1:00pm"}, {"days": "Sun", "time": "Closed"}], "id": "8560700014", "name": "USPS COLLECTION BOX - BLUE BOX", "address": {"city": "DOUGLAS", "state": "AZ", "street": "1600 N PAN AMERICAN AVE", "postcode": "85607"}}},
{"geometry": {"type": "Point", "coordinates": [-109.5528687513, 31.3444223127]}, "type": "Feature", "properties": {"collection_times": [{"days": "Mon-Fri", "time": "2:00pm"}, {"days": "Sat", "time": "1:00pm"}, {"days": "Sun", "time": "Closed"}], "id": "8560700021", "name": "USPS COLLECTION BOX - BLUE BOX", "address": {"city": "DOUGLAS", "state": "AZ", "street": "601 E 10TH ST", "postcode": "85607"}}},
{"geometry": {"type": "Point", "coordinates": [-109.5556812709, 31.34443312]}, "type": "Feature", "properties": {"collection_times": [{"days": "Mon-Sat", "time": "1:00pm"}, {"days": "Sun", "time": "Closed"}], "id": "8560700022", "name": "USPS COLLECTION BOX - BLUE BOX", "address": {"city": "DOUGLAS", "state": "AZ", "street": "425 E 10TH ST", "postcode": "85607"}}},
{"geometry": {"type": "Point", "coordinates": [-109.5528687513, 31.3444223127]}, "type": "Feature", "properties": {"collection_times": [{"days": "Mon-Fri", "time": "2:00pm"}, {"days": "Sat", "time": "1:00pm"}, {"days": "Sun", "time": "Closed"}], "id": "8560700025", "name": "USPS COLLECTION BOX - PO LOBBY", "address": {"city": "DOUGLAS", "state": "AZ", "street": "601 E 10TH ST", "postcode": "85607"}}},
{"geometry": {"type": "Point", "coordinates": [-110.0393466664, 32.0284844144]}, "type": "Feature", "properties": {"collection_times": [{"days": "Mon-Fri", "time": "10:00am"}, {"days": "Sat", "time": "8:45am"}, {"days": "Sun", "time": "Closed"}], "id": "8560900002", "name": "USPS COLLECTION BOX - BLUE BOX", "address": {"city": "DRAGOON", "state": "AZ", "street": "4752 DRAGOON RD", "postcode": "85609"}}},
{"geometry": {"type": "Point", "coordinates": [-110.0393466664, 32.0284844144]}, "type": "Feature", "properties": {"collection_times": [{"days": "Mon-Fri", "time": "12:00pm"}, {"days": "Sat", "time": "8:45am"}, {"days": "Sun", "time": "Closed"}], "id": "8560900003", "name": "USPS COLLECTION BOX - PO LOBBY", "address": {"city": "DRAGOON", "state": "AZ", "street": "4752 DRAGOON RD", "postcode": "85609"}}},
{"geometry": {"type": "Point", "coordinates": [-109.4562010866, 31.712135265]}, "type": "Feature", "properties": {"collection_times": [{"days": "Mon-Fri", "time": "2:00pm"}, {"days": "Sat", "time": "9:00am"}, {"days": "Sun", "time": "Closed"}], "id": "8561000001", "name": "USPS COLLECTION BOX - BLUE BOX", "address": {"city": "ELFRIDA", "state": "AZ", "street": "10341 N HIGHWAY 191", "postcode": "85610"}}},
{"geometry": {"type": "Point", "coordinates": [-109.4562010866, 31.712135265]}, "type": "Feature", "properties": {"collection_times": [{"days": "Mon-Fri", "time": "2:00pm"}, {"days": "Sat", "time": "9:00am"}, {"days": "Sun", "time": "Closed"}], "id": "8561000002", "name": "USPS COLLECTION BOX - PO LOBBY", "address": {"city": "ELFRIDA", "state": "AZ", "street": "10341 N HIGHWAY 191", "postcode": "85610"}}},
{"geometry": {"type": "Point", "coordinates": [-110.3524323599, 31.5545959734]}, "type": "Feature", "properties": {"collection_times": [{"days": "Mon-Fri", "time": "11:00am"}, {"days": "Sat", "time": "11:30am"}, {"days": "Sun", "time": "Closed"}], "id": "8561300006", "name": "USPS COLLECTION BOX - PO LOBBY", "address": {"city": "FORT HUACHUCA", "state": "AZ", "street": "47 ARIZONA ST", "postcode": "85613"}}},
{"geometry": {"type": "Point", "coordinates": [-110.3524323599, 31.5545959734]}, "type": "Feature", "properties": {"collection_times": [{"days": "Mon-Sat", "time": "11:00am"}, {"days": "Sun", "time": "Closed"}], "id": "8561300008", "name": "USPS COLLECTION BOX - BLUE BOX", "address": {"city": "FORT HUACHUCA", "state": "AZ", "street": "47 ARIZONA ST", "postcode": "85613"}}},
{"geometry": {"type": "Point", "coordinates": [-110.9908756356, 31.8516923134]}, "type": "Feature", "properties": {"collection_times": [{"days": "Mon-Fri", "time": "4:00pm"}, {"days": "Sat", "time": "3:00pm"}, {"days": "Sun", "time": "Closed"}], "id": "8561400001", "name": "USPS COLLECTION BOX - BLUE BOX", "address": {"city": "GREEN VALLEY", "state": "AZ", "street": "50 E CONTINENTAL RD", "postcode": "85614"}}},
{"geometry": {"type": "Point", "coordinates": [-110.9908756356, 31.8516923134]}, "type": "Feature", "properties": {"collection_times": [{"days": "Mon-Fri", "time": "4:00pm"}, {"days": "Sat", "time": "3:00pm"}, {"days": "Sun", "time": "Closed"}], "id": "8561400002", "name": "USPS COLLECTION BOX - BLUE BOX", "address": {"city": "GREEN VALLEY", "state": "AZ", "street": "50 E CONTINENTAL RD", "postcode": "85614"}}},
{"geometry": {"type": "Point", "coordinates": [-110.9862968776, 31.8995132003]}, "type": "Feature", "properties": {"collection_times": [{"days": "Mon-Fri", "time": "1:00pm"}, {"days": "Sat", "time": "12:30pm"}, {"days": "Sun", "time": "Closed"}], "id": "8561400004", "name": "USPS COLLECTION BOX - BLUE BOX", "address": {"city": "GREEN VALLEY", "state": "AZ", "street": "25 W DUVAL RD", "postcode": "85614"}}},
{"geometry": {"type": "Point", "coordinates": [-110.9852073724, 31.9096890133]}, "type": "Feature", "properties": {"collection_times": [{"days": "Mon-Fri", "time": "1:00pm"}, {"days": "Sat", "time": "12:45pm"}, {"days": "Sun", "time": "Closed"}], "id": "8561400005", "name": "USPS COLLECTION BOX - BLUE BOX", "address": {"city": "GREEN VALLEY", "state": "AZ", "street": "18745 S I 19 FRONTAGE RD", "postcode": "85614"}}},
{"geometry": {"type": "Point", "coordinates": [-111.0871585637, 31.8258861547]}, "type": "Feature", "properties": {"collection_times": [{"days": "Mon-Fri", "time": "1:00pm"}, {"days": "Sat", "time": "12:30pm"}, {"days": "Sun", "time": "Closed"}], "id": "8561400006", "name": "USPS COLLECTION BOX - BLUE BOX", "address": {"city": "GREEN VALLEY", "state": "AZ", "street": "277 W CALLE DE LAS TIENDAS", "postcode": "85614"}}},
{"geometry": {"type": "Point", "coordinates": [-110.988617484, 31.8730000837]}, "type": "Feature", "properties": {"collection_times": [{"days": "Mon-Sat", "time": "3:00pm"}, {"days": "Sun", "time": "Closed"}], "id": "8561400007", "name": "USPS COLLECTION BOX - EXPRESS", "address": {"city": "GREEN VALLEY", "state": "AZ", "street": "50 E CONTINENTAL RD", "postcode": "85614"}}},
{"geometry": {"type": "Point", "coordinates": [-110.9923477127, 31.8703887506]}, "type": "Feature", "properties": {"collection_times": [{"days": "Mon-Fri", "time": "1:00pm"}, {"days": "Sat", "time": "12:00pm"}, {"days": "Sun", "time": "Closed"}], "id": "8561400010", "name": "USPS COLLECTION BOX - BLUE BOX", "address": {"city": "GREEN VALLEY", "state": "AZ", "street": "115 W ESPERANZA BLVD", "postcode": "85614"}}},
{"geometry": {"type": "Point", "coordinates": [-110.99556891, 31.8680725169]}, "type": "Feature", "properties": {"collection_times": [{"days": "Mon-Fri", "time": "1:00pm"}, {"days": "Sat", "time": "12:30pm"}, {"days": "Sun", "time": "Closed"}], "id": "8561400013", "name": "USPS COLLECTION BOX - BLUE BOX", "address": {"city": "GREEN VALLEY", "state": "AZ", "street": "101 S LA CANADA DR STE 16", "postcode": "85614"}}},
{"geometry": {"type": "Point", "coordinates": [-110.9943693896, 31.8703934824]}, "type": "Feature", "properties": {"collection_times": [{"days": "Mon-Fri", "time": "1:00pm"}, {"days": "Sat", "time": "12:00pm"}, {"days": "Sun", "time": "Closed"}], "id": "8561400014", "name": "USPS COLLECTION BOX - BLUE BOX", "address": {"city": "GREEN VALLEY", "state": "AZ", "street": "231 W ESPERANZA BLVD", "postcode": "85614"}}},
{"geometry": {"type": "Point", "coordinates": [-110.9955629952, 31.8681091886]}, "type": "Feature", "properties": {"collection_times": [{"days": "Mon-Fri", "time": "1:00pm"}, {"days": "Sat", "time": "12:30pm"}, {"days": "Sun", "time": "Closed"}], "id": "8561400015", "name": "USPS COLLECTION BOX - BLUE BOX", "address": {"city": "GREEN VALLEY", "state": "AZ", "street": "175 S LA CANADA DR", "postcode": "85614"}}},
{"geometry": {"type": "Point", "coordinates": [-110.9908756356, 31.8516923134]}, "type": "Feature", "properties": {"collection_times": [{"days": "Mon-Fri", "time": "4:00pm"}, {"days": "Sat", "time": "3:00pm"}, {"days": "Sun", "time": "Closed"}], "id": "8561400025", "name": "USPS COLLECTION BOX - BLUE BOX", "address": {"city": "GREEN VALLEY", "state": "AZ", "street": "50 E CONTINENTAL RD", "postcode": "85614"}}},
{"geometry": {"type": "Point", "coordinates": [-111.0871585637, 31.8258861547]}, "type": "Feature", "properties": {"collection_times": [{"days": "Mon-Fri", "time": "1:00pm"}, {"days": "Sat", "time": "12:45pm"}, {"days": "Sun", "time": "Closed"}], "id": "8561400027", "name": "USPS COLLECTION BOX - BLUE BOX", "address": {"city": "GREEN VALLEY", "state": "AZ", "street": "19001 S RICHFIELD AVE", "postcode": "85614"}}},
{"geometry": {"type": "Point", "coordinates": [-110.9908756356, 31.8516923134]}, "type": "Feature", "properties": {"collection_times": [{"days": "Mon-Fri", "time": "4:00pm"}, {"days": "Sat", "time": "3:00pm"}, {"days": "Sun", "time": "Closed"}], "id": "8561400029", "name": "USPS COLLECTION BOX - BLUE BOX", "address": {"city": "GREEN VALLEY", "state": "AZ", "street": "50 E CONTINENTAL RD", "postcode": "85614"}}},
{"geometry": {"type": "Point", "coordinates": [-110.9908756356, 31.8516923134]}, "type": "Feature", "properties": {"collection_times": [{"days": "Mon-Fri", "time": "4:00pm"}, {"days": "Sat", "time": "3:00pm"}, {"days": "Sun", "time": "Closed"}], "id": "8561400030", "name": "USPS COLLECTION BOX - BLUE BOX", "address": {"city": "GREEN VALLEY", "state": "AZ", "street": "50 E CONTINENTAL RD", "postcode": "85614"}}},
{"geometry": {"type": "Point", "coordinates": [-110.9949857112, 31.8861504958]}, "type": "Feature", "properties": {"collection_times": [{"days": "Mon-Fri", "time": "1:00pm"}, {"days": "Sat", "time": "12:45pm"}, {"days": "Sun", "time": "Closed"}], "id": "8561400031", "name": "USPS COLLECTION BOX - BLUE BOX", "address": {"city": "GREEN VALLEY", "state": "AZ", "street": "1055 N LA CANADA DR", "postcode": "85614"}}},
{"geometry": {"type": "Point", "coordinates": [-110.9908756356, 31.8516923134]}, "type": "Feature", "properties": {"collection_times": [{"days": "Mon-Sat", "time": "3:00pm"}, {"days": "Sun", "time": "Closed"}], "id": "8561400032", "name": "USPS COLLECTION BOX - PO LOBBY", "address": {"city": "GREEN VALLEY", "state": "AZ", "street": "50 E CONTINENTAL RD", "postcode": "85614"}}},
{"geometry": {"type": "Point", "coordinates": [-110.2472663905, 31.43713399]}, "type": "Feature", "properties": {"collection_times": [{"days": "Mon-Sat", "time": "2:45pm"}, {"days": "Sun", "time": "Closed"}], "id": "8561500001", "name": "USPS COLLECTION BOX - BLUE BOX", "address": {"city": "HEREFORD", "state": "AZ", "street": "7268 S HIGHWAY 92", "postcode": "85615"}}},
{"geometry": {"type": "Point", "coordinates": [-110.2472663905, 31.43713399]}, "type": "Feature", "properties": {"collection_times": [{"days": "Mon-Sat", "time": "2:45pm"}, {"days": "Sun", "time": "Closed"}], "id": "8561500003", "name": "USPS COLLECTION BOX - PO LOBBY", "address": {"city": "HEREFORD", "state": "AZ", "street": "7268 S HIGHWAY 92", "postcode": "85615"}}},
{"geometry": {"type": "Point", "coordinates": [-110.3369728448, 31.637333777]}, "type": "Feature", "properties": {"collection_times": [{"days": "Mon-Fri", "time": "3:30pm"}, {"days": "Sat", "time": "10:30am"}, {"days": "Sun", "time": "Closed"}], "id": "8561600001", "name": "USPS COLLECTION BOX - BLUE BOX", "address": {"city": "HUACHUCA CITY", "state": "AZ", "street": "690 N GONZALES BLVD", "postcode": "85616"}}},
{"geometry": {"type": "Point", "coordinates": [-110.3369728448, 31.637333777]}, "type": "Feature", "properties": {"collection_times": [{"days": "Mon-Fri", "time": "3:30pm"}, {"days": "Sat", "time": "10:30am"}, {"days": "Sun", "time": "Closed"}], "id": "8561600002", "name": "USPS COLLECTION BOX - PO LOBBY", "address": {"city": "HUACHUCA CITY", "state": "AZ", "street": "690 N GONZALES BLVD", "postcode": "85616"}}},
{"geometry": {"type": "Point", "coordinates": [-109.6701688556, 31.6005930686]}, "type": "Feature", "properties": {"collection_times": [{"days": "Mon-Fri", "time": "1:00pm"}, {"days": "Sat", "time": "10:00am"}, {"days": "Sun", "time": "Closed"}], "id": "8561700001", "name": "USPS COLLECTION BOX - BLUE BOX", "address": {"city": "MCNEAL", "state": "AZ", "street": "9103 N HIGHWAY 191", "postcode": "85617"}}},
{"geometry": {"type": "Point", "coordinates": [-109.6701232315, 31.6006456202]}, "type": "Feature", "properties": {"collection_times": [{"days": "Mon-Fri", "time": "1:00pm"}, {"days": "Sat-Sun", "time": "Closed"}], "id": "8561700002", "name": "USPS COLLECTION BOX - PO LOBBY", "address": {"city": "MCNEAL", "state": "AZ", "street": "9103 N HIGHWAY 191", "postcode": "85617"}}},
{"geometry": {"type": "Point", "coordinates": [-110.6381655884, 32.7188062579]}, "type": "Feature", "properties": {"collection_times": [{"days": "Mon-Fri", "time": "2:15pm"}, {"days": "Sat", "time": "10:00am"}, {"days": "Sun", "time": "Closed"}], "id": "8561800001", "name": "USPS COLLECTION BOX - BLUE BOX", "address": {"city": "MAMMOTH", "state": "AZ", "street": "230 S MAIN ST", "postcode": "85618"}}},
{"geometry": {"type": "Point", "coordinates": [-110.6381655884, 32.7188062579]}, "type": "Feature", "properties": {"collection_times": [{"days": "Mon-Fri", "time": "2:15pm"}, {"days": "Sat", "time": "10:00am"}, {"days": "Sun", "time": "Closed"}], "id": "8561800002", "name": "USPS COLLECTION BOX - PO LOBBY", "address": {"city": "MAMMOTH", "state": "AZ", "street": "230 S MAIN ST", "postcode": "85618"}}},
{"geometry": {"type": "Point", "coordinates": [-110.7602861648, 32.4454622602]}, "type": "Feature", "properties": {"collection_times": [{"days": "Mon-Fri", "time": "3:00pm"}, {"days": "Sat-Sun", "time": "Closed"}], "id": "8561900000", "name": "USPS COLLECTION BOX - BLUE BOX", "address": {"city": "MOUNT LEMMON", "state": "AZ", "street": "12984 N SABINO CANYON PKWY", "postcode": "85619"}}},
{"geometry": {"type": "Point", "coordinates": [-109.9471122064, 31.335688854]}, "type": "Feature", "properties": {"collection_times": [{"days": "Mon-Fri", "time": "1:00pm"}, {"days": "Sat", "time": "11:00am"}, {"days": "Sun", "time": "Closed"}], "id": "8562000001", "name": "USPS COLLECTION BOX - BLUE BOX", "address": {"city": "NACO", "state": "AZ", "street": "3833 S GIESLER AVE", "postcode": "85620"}}},
{"geometry": {"type": "Point", "coordinates": [-109.9471122064, 31.335688854]}, "type": "Feature", "properties": {"collection_times": [{"days": "Mon-Fri", "time": "1:00pm"}, {"days": "Sat", "time": "11:00am"}, {"days": "Sun", "time": "Closed"}], "id": "8562000002", "name": "USPS COLLECTION BOX - PO LOBBY", "address": {"city": "NACO", "state": "AZ", "street": "3833 S GIESLER AVE", "postcode": "85620"}}},
{"geometry": {"type": "Point", "coordinates": [-110.9371588231, 31.3382251236]}, "type": "Feature", "properties": {"collection_times": [{"days": "Mon-Sat", "time": "2:30pm"}, {"days": "Sun", "time": "Closed"}], "id": "8562100003", "name": "USPS COLLECTION BOX - BLUE BOX", "address": {"city": "NOGALES", "state": "AZ", "street": "300 N MORLEY AVE", "postcode": "85621"}}},
{"geometry": {"type": "Point", "coordinates": [-110.9315430951, 31.3703368553]}, "type": "Feature", "properties": {"collection_times": [{"days": "Mon-Sat", "time": "12:00pm"}, {"days": "Sun", "time": "Closed"}], "id": "8562100012", "name": "USPS COLLECTION BOX - BLUE BOX", "address": {"city": "NOGALES", "state": "AZ", "street": "2077 N GRAND AVE", "postcode": "85621"}}},
{"geometry": {"type": "Point", "coordinates": [-110.93682157, 31.3666929156]}, "type": "Feature", "properties": {"collection_times": [{"days": "Mon-Sat", "time": "12:00pm"}, {"days": "Sun", "time": "Closed"}], "id": "8562100015", "name": "USPS COLLECTION BOX - BLUE BOX", "address": {"city": "NOGALES", "state": "AZ", "street": "475 W MARIPOSA RD", "postcode": "85621"}}},
{"geometry": {"type": "Point", "coordinates": [-110.933759259, 31.3644581078]}, "type": "Feature", "properties": {"collection_times": [{"days": "Mon-Sat", "time": "12:00pm"}, {"days": "Sun", "time": "Closed"}], "id": "8562100016", "name": "USPS COLLECTION BOX - BLUE BOX", "address": {"city": "NOGALES", "state": "AZ", "street": "1857 N MASTICK WAY", "postcode": "85621"}}},
{"geometry": {"type": "Point", "coordinates": [-110.935797017, 31.3882532513]}, "type": "Feature", "properties": {"collection_times": [{"days": "Mon-Fri", "time": "12:00pm"}, {"days": "Sat-Sun", "time": "Closed"}], "id": "8562100022", "name": "USPS COLLECTION BOX - BLUE BOX", "address": {"city": "NOGALES", "state": "AZ", "street": "555 W GOLD HILL RD", "postcode": "85621"}}},
{"geometry": {"type": "Point", "coordinates": [-110.9356907108, 31.366987991]}, "type": "Feature", "properties": {"collection_times": [{"days": "Mon-Sat", "time": "12:00pm"}, {"days": "Sun", "time": "Closed"}], "id": "8562100023", "name": "USPS COLLECTION BOX - BLUE BOX", "address": {"city": "NOGALES", "state": "AZ", "street": "420 W MARIPOSA RD", "postcode": "85621"}}},
{"geometry": {"type": "Point", "coordinates": [-110.951694155, 31.3583155282]}, "type": "Feature", "properties": {"collection_times": [{"days": "Mon-Sat", "time": "12:00pm"}, {"days": "Sun", "time": "Closed"}], "id": "8562100030", "name": "USPS COLLECTION BOX - BLUE BOX", "address": {"city": "NOGALES", "state": "AZ", "street": "1440 N INDUSTRIAL PARK DR", "postcode": "85621"}}},
{"geometry": {"type": "Point", "coordinates": [-110.9376227864, 31.3406590742]}, "type": "Feature", "properties": {"collection_times": [{"days": "Mon-Sat", "time": "12:00pm"}, {"days": "Sun", "time": "Closed"}], "id": "8562100035", "name": "USPS COLLECTION BOX - BLUE BOX", "address": {"city": "NOGALES", "state": "AZ", "street": "505 N ARROYO BLVD", "postcode": "85621"}}},
{"geometry": {"type": "Point", "coordinates": [-110.9404081678, 31.3727670149]}, "type": "Feature", "properties": {"collection_times": [{"days": "Mon-Fri", "time": "12:00pm"}, {"days": "Sat-Sun", "time": "Closed"}], "id": "8562100037", "name": "USPS COLLECTION BOX - BLUE BOX", "address": {"city": "NOGALES", "state": "AZ", "street": "2100 N CONGRESS DR", "postcode": "85621"}}},
{"geometry": {"type": "Point", "coordinates": [-110.9371588231, 31.3382251236]}, "type": "Feature", "properties": {"collection_times": [{"days": "Mon-Sat", "time": "2:30pm"}, {"days": "Sun", "time": "Closed"}], "id": "8562100038", "name": "USPS COLLECTION BOX - PO LOBBY", "address": {"city": "NOGALES", "state": "AZ", "street": "300 N MORLEY AVE", "postcode": "85621"}}},
{"geometry": {"type": "Point", "coordinates": [-110.9336622839, 31.3670588396]}, "type": "Feature", "properties": {"collection_times": [{"days": "Mon-Sat", "time": "12:00pm"}, {"days": "Sun", "time": "Closed"}], "id": "8562100040", "name": "USPS COLLECTION BOX - BLUE BOX", "address": {"city": "NOGALES", "state": "AZ", "street": "321 W MARIPOSA RD", "postcode": "85621"}}},
{"geometry": {"type": "Point", "coordinates": [-110.9954139423, 31.8516471317]}, "type": "Feature", "properties": {"collection_times": [{"days": "Mon-Fri", "time": "1:00pm"}, {"days": "Sat", "time": "12:00pm"}, {"days": "Sun", "time": "Closed"}], "id": "8562200001", "name": "USPS COLLECTION BOX - BLUE BOX", "address": {"city": "GREEN VALLEY", "state": "AZ", "street": "180 W CONTINENTAL RD", "postcode": "85622"}}},
{"geometry": {"type": "Point", "coordinates": [-111.0149351312, 31.8222162956]}, "type": "Feature", "properties": {"collection_times": [{"days": "Mon-Fri", "time": "1:00pm"}, {"days": "Sat", "time": "12:00pm"}, {"days": "Sun", "time": "Closed"}], "id": "8562200002", "name": "USPS COLLECTION BOX - BLUE BOX", "address": {"city": "GREEN VALLEY", "state": "AZ", "street": "3290 S CAMINO DEL SOL", "postcode": "85622"}}},
{"geometry": {"type": "Point", "coordinates": [-110.7643335552, 32.6106063956]}, "type": "Feature", "properties": {"collection_times": [{"days": "Mon-Fri", "time": "3:00pm"}, {"days": "Sat", "time": "12:00pm"}, {"days": "Sun", "time": "Closed"}], "id": "8562300003", "name": "USPS COLLECTION BOX - BLUE BOX", "address": {"city": "ORACLE", "state": "AZ", "street": "905 E AMERICAN AVE", "postcode": "85623"}}},
{"geometry": {"type": "Point", "coordinates": [-110.7643335552, 32.6106063956]}, "type": "Feature", "properties": {"collection_times": [{"days": "Mon-Fri", "time": "3:00pm"}, {"days": "Sat", "time": "12:00pm"}, {"days": "Sun", "time": "Closed"}], "id": "8562300004", "name": "USPS COLLECTION BOX - PO LOBBY", "address": {"city": "ORACLE", "state": "AZ", "street": "905 E AMERICAN AVE", "postcode": "85623"}}},
{"geometry": {"type": "Point", "coordinates": [-110.6253352369, 31.4634822592]}, "type": "Feature", "properties": {"collection_times": [{"days": "Mon-Fri", "time": "2:00pm"}, {"days": "Sat", "time": "12:00pm"}, {"days": "Sun", "time": "Closed"}], "id": "8562400001", "name": "USPS COLLECTION BOX - BLUE BOX", "address": {"city": "PATAGONIA", "state": "AZ", "street": "100 N TAYLOR LN", "postcode": "85624"}}},
{"geometry": {"type": "Point", "coordinates": [-110.6253352369, 31.4634822592]}, "type": "Feature", "properties": {"collection_times": [{"days": "Mon-Fri", "time": "2:00pm"}, {"days": "Sat", "time": "12:00pm"}, {"days": "Sun", "time": "Closed"}], "id": "8562400002", "name": "USPS COLLECTION BOX - PO LOBBY", "address": {"city": "PATAGONIA", "state": "AZ", "street": "100 N TAYLOR LN", "postcode": "85624"}}},
{"geometry": {"type": "Point", "coordinates": [-109.8285052827, 31.9345950421]}, "type": "Feature", "properties": {"collection_times": [{"days": "Mon-Fri", "time": "2:30pm"}, {"days": "Sat", "time": "9:45am"}, {"days": "Sun", "time": "Closed"}], "id": "8562500001", "name": "USPS COLLECTION BOX - BLUE BOX", "address": {"city": "PEARCE", "state": "AZ", "street": "107 N FRONTAGE RD", "postcode": "85625"}}},
{"geometry": {"type": "Point", "coordinates": [-109.8285052827, 31.9345950421]}, "type": "Feature", "properties": {"collection_times": [{"days": "Mon-Fri", "time": "2:30pm"}, {"days": "Sat", "time": "9:45am"}, {"days": "Sun", "time": "Closed"}], "id": "8562500002", "name": "USPS COLLECTION BOX - PO LOBBY", "address": {"city": "PEARCE", "state": "AZ", "street": "107 N FRONTAGE RD", "postcode": "85625"}}},
{"geometry": {"type": "Point", "coordinates": [-109.5687261717, 31.3585905376]}, "type": "Feature", "properties": {"collection_times": [{"days": "Mon-Fri", "time": "2:15pm"}, {"days": "Sat-Sun", "time": "Closed"}], "id": "8562600001", "name": "USPS COLLECTION BOX - BLUE BOX", "address": {"city": "PIRTLEVILLE", "state": "AZ", "street": "430 W GRACE AVE", "postcode": "85626"}}},
{"geometry": {"type": "Point", "coordinates": [-109.5687644261, 31.3585945784]}, "type": "Feature", "properties": {"collection_times": [{"days": "Mon-Fri", "time": "2:15pm"}, {"days": "Sat-Sun", "time": "Closed"}], "id": "8562600002", "name": "USPS COLLECTION BOX - PO LOBBY", "address": {"city": "PIRTLEVILLE", "state": "AZ", "street": "430 W GRACE AVE", "postcode": "85626"}}},
{"geometry": {"type": "Point", "coordinates": [-110.3071220177, 31.9688924286]}, "type": "Feature", "properties": {"collection_times": [{"days": "Mon-Fri", "time": "10:30am"}, {"days": "Sat", "time": "9:00am"}, {"days": "Sun", "time": "Closed"}], "id": "8562700003", "name": "USPS COLLECTION BOX - BLUE BOX", "address": {"city": "POMERENE", "state": "AZ", "street": "1408 N OLD POMERENE RD", "postcode": "85627"}}},
{"geometry": {"type": "Point", "coordinates": [-110.9809108654, 31.9575255079]}, "type": "Feature", "properties": {"collection_times": [{"days": "Mon-Fri", "time": "4:00pm"}, {"days": "Sat", "time": "1:00pm"}, {"days": "Sun", "time": "Closed"}], "id": "8562900001", "name": "USPS COLLECTION BOX - BLUE BOX", "address": {"city": "SAHUARITA", "state": "AZ", "street": "815 W VIA RANCHO SAHUARITA", "postcode": "85629"}}},
{"geometry": {"type": "Point", "coordinates": [-110.9809108654, 31.9575255079]}, "type": "Feature", "properties": {"collection_times": [{"days": "Mon-Fri", "time": "4:00pm"}, {"days": "Sat", "time": "1:00pm"}, {"days": "Sun", "time": "Closed"}], "id": "8562900002", "name": "USPS COLLECTION BOX - PO LOBBY", "address": {"city": "SAHUARITA", "state": "AZ", "street": "815 W VIA RANCHO SAHUARITA", "postcode": "85629"}}},
{"geometry": {"type": "Point", "coordinates": [-110.9809108654, 31.9575255079]}, "type": "Feature", "properties": {"collection_times": [{"days": "Mon-Fri", "time": "4:00pm"}, {"days": "Sat", "time": "1:00pm"}, {"days": "Sun", "time": "Closed"}], "id": "8562900003", "name": "USPS COLLECTION BOX - BLUE BOX", "address": {"city": "SAHUARITA", "state": "AZ", "street": "815 W VIA RANCHO SAHUARITA", "postcode": "85629"}}},
{"geometry": {"type": "Point", "coordinates": [-110.2220233459, 31.9049174224]}, "type": "Feature", "properties": {"collection_times": [{"days": "Mon-Fri", "time": "3:30pm"}, {"days": "Sat", "time": "10:00am"}, {"days": "Sun", "time": "Closed"}], "id": "8563000001", "name": "USPS COLLECTION BOX - BLUE BOX", "address": {"city": "SAINT DAVID", "state": "AZ", "street": "21 S MILLER LN", "postcode": "85630"}}},
{"geometry": {"type": "Point", "coordinates": [-110.2220233459, 31.9049174224]}, "type": "Feature", "properties": {"collection_times": [{"days": "Mon-Fri", "time": "3:30pm"}, {"days": "Sat", "time": "10:00am"}, {"days": "Sun", "time": "Closed"}], "id": "8563000002", "name": "USPS COLLECTION BOX - PO LOBBY", "address": {"city": "SAINT DAVID", "state": "AZ", "street": "21 S MILLER LN", "postcode": "85630"}}},
{"geometry": {"type": "Point", "coordinates": [-110.6314829868, 32.6026470736]}, "type": "Feature", "properties": {"collection_times": [{"days": "Mon-Fri", "time": "2:45pm"}, {"days": "Sat", "time": "1:00pm"}, {"days": "Sun", "time": "Closed"}], "id": "8563100000", "name": "USPS COLLECTION BOX - PO LOBBY", "address": {"city": "SAN MANUEL", "state": "AZ", "street": "430 S AVENUE A", "postcode": "85631"}}},
{"geometry": {"type": "Point", "coordinates": [-109.2989812795, 32.1779197404]}, "type": "Feature", "properties": {"collection_times": [{"days": "Mon-Sat", "time": "1:15pm"}, {"days": "Sun", "time": "Closed"}], "id": "8563200003", "name": "USPS COLLECTION BOX - BLUE BOX", "address": {"city": "SAN SIMON", "state": "AZ", "street": "2908 N ARIZONA AVE", "postcode": "85632"}}},
{"geometry": {"type": "Point", "coordinates": [-109.2989812795, 32.1779197404]}, "type": "Feature", "properties": {"collection_times": [{"days": "Mon-Sat", "time": "1:15pm"}, {"days": "Sun", "time": "Closed"}], "id": "8563200005", "name": "USPS COLLECTION BOX - PO LOBBY", "address": {"city": "SAN SIMON", "state": "AZ", "street": "2908 N ARIZONA AVE", "postcode": "85632"}}},
{"geometry": {"type": "Point", "coordinates": [-111.5428611486, 31.4897014258]}, "type": "Feature", "properties": {"collection_times": [{"days": "Mon-Fri", "time": "11:15am"}, {"days": "Sat-Sun", "time": "Closed"}], "id": "8563300001", "name": "USPS COLLECTION BOX - BLUE BOX", "address": {"city": "SASABE", "state": "AZ", "street": "41918 S SASABE HWY", "postcode": "85633"}}},
{"geometry": {"type": "Point", "coordinates": [-111.5428611486, 31.4897014258]}, "type": "Feature", "properties": {"collection_times": [{"days": "Mon-Fri", "time": "11:15am"}, {"days": "Sat-Sun", "time": "Closed"}], "id": "8563300002", "name": "USPS COLLECTION BOX - PO LOBBY", "address": {"city": "SASABE", "state": "AZ", "street": "41918 S SASABE HWY", "postcode": "85633"}}},
{"geometry": {"type": "Point", "coordinates": [-112.0710010366, 32.0828933764]}, "type": "Feature", "properties": {"collection_times": [{"days": "Mon-Fri", "time": "2:30pm"}, {"days": "Sat", "time": "1:30pm"}, {"days": "Sun", "time": "Closed"}], "id": "8563400001", "name": "USPS COLLECTION BOX - PO LOBBY", "address": {"city": "SELLS", "state": "AZ", "street": "1 MAIN ST", "postcode": "85634"}}},
{"geometry": {"type": "Point", "coordinates": [-110.2944050793, 31.5546004893]}, "type": "Feature", "properties": {"collection_times": [{"days": "Mon-Fri", "time": "12:15pm"}, {"days": "Sat-Sun", "time": "Closed"}], "id": "8563500003", "name": "USPS COLLECTION BOX - BLUE BOX", "address": {"city": "SIERRA VISTA", "state": "AZ", "street": "500 E FRY BLVD", "postcode": "85635"}}},
{"geometry": {"type": "Point", "coordinates": [-110.2708965083, 31.5545852396]}, "type": "Feature", "properties": {"collection_times": [{"days": "Mon-Fri", "time": "12:15pm"}, {"days": "Sat-Sun", "time": "Closed"}], "id": "8563500005", "name": "USPS COLLECTION BOX - BLUE BOX", "address": {"city": "SIERRA VISTA", "state": "AZ", "street": "2700 E FRY BLVD", "postcode": "85635"}}},
{"geometry": {"type": "Point", "coordinates": [-110.2549823371, 31.5346152527]}, "type": "Feature", "properties": {"collection_times": [{"days": "Mon-Sat", "time": "11:30am"}, {"days": "Sun", "time": "Closed"}], "id": "8563500008", "name": "USPS COLLECTION BOX - BLUE BOX", "address": {"city": "SIERRA VISTA", "state": "AZ", "street": "1838 PASEO SAN LUIS", "postcode": "85635"}}},
{"geometry": {"type": "Point", "coordinates": [-110.2571808688, 31.553773599]}, "type": "Feature", "properties": {"collection_times": [{"days": "Mon-Sat", "time": "12:00pm"}, {"days": "Sun", "time": "Closed"}], "id": "8563500009", "name": "USPS COLLECTION BOX - BLUE BOX", "address": {"city": "SIERRA VISTA", "state": "AZ", "street": "85 S HIGHWAY 92", "postcode": "85635"}}},
{"geometry": {"type": "Point", "coordinates": [-110.2821755097, 31.5638756806]}, "type": "Feature", "properties": {"collection_times": [{"days": "Mon-Fri", "time": "12:15pm"}, {"days": "Sat-Sun", "time": "Closed"}], "id": "8563500011", "name": "USPS COLLECTION BOX - BLUE BOX", "address": {"city": "SIERRA VISTA", "state": "AZ", "street": "2981 E TACOMA ST", "postcode": "85635"}}},
{"geometry": {"type": "Point", "coordinates": [-110.2994673594, 31.5523171397]}, "type": "Feature", "properties": {"collection_times": [{"days": "Mon-Sat", "time": "12:15pm"}, {"days": "Sun", "time": "Closed"}], "id": "8563500012", "name": "USPS COLLECTION BOX - BLUE BOX", "address": {"city": "SIERRA VISTA", "state": "AZ", "street": "11 E WILCOX DR", "postcode": "85635"}}},
{"geometry": {"type": "Point", "coordinates": [-110.2572589371, 31.5454710678]}, "type": "Feature", "properties": {"collection_times": [{"days": "Mon-Sat", "time": "11:30am"}, {"days": "Sun", "time": "Closed"}], "id": "8563500013", "name": "USPS COLLECTION BOX - BLUE BOX", "address": {"city": "SIERRA VISTA", "state": "AZ", "street": "4001 E FOOTHILLS DR", "postcode": "85635"}}},
{"geometry": {"type": "Point", "coordinates": [-110.2911805056, 31.5547075236]}, "type": "Feature", "properties": {"collection_times": [{"days": "Mon-Fri", "time": "12:15pm"}, {"days": "Sat-Sun", "time": "Closed"}], "id": "8563500014", "name": "USPS COLLECTION BOX - BLUE BOX", "address": {"city": "SIERRA VISTA", "state": "AZ", "street": "1 N 7TH ST", "postcode": "85635"}}},
{"geometry": {"type": "Point", "coordinates": [-110.2486824838, 31.5602076489]}, "type": "Feature", "properties": {"collection_times": [{"days": "Mon-Fri", "time": "12:00pm"}, {"days": "Sat-Sun", "time": "Closed"}], "id": "8563500022", "name": "USPS COLLECTION BOX - BLUE BOX", "address": {"city": "SIERRA VISTA", "state": "AZ", "street": "901 COLOMBO AVE", "postcode": "85635"}}},
{"geometry": {"type": "Point", "coordinates": [-110.2994673594, 31.5523171397]}, "type": "Feature", "properties": {"collection_times": [{"days": "Mon-Sat", "time": "12:15pm"}, {"days": "Sun", "time": "Closed"}], "id": "8563500023", "name": "USPS COLLECTION BOX - BLUE BOX", "address": {"city": "SIERRA VISTA", "state": "AZ", "street": "11 E WILCOX DR", "postcode": "85635"}}},
{"geometry": {"type": "Point", "coordinates": [-110.2679765968, 31.5491103388]}, "type": "Feature", "properties": {"collection_times": [{"days": "Mon-Sat", "time": "12:00pm"}, {"days": "Sun", "time": "Closed"}], "id": "8563500024", "name": "USPS COLLECTION BOX - BLUE BOX", "address": {"city": "SIERRA VISTA", "state": "AZ", "street": "4341 S HIGHWAY 92", "postcode": "85635"}}},
{"geometry": {"type": "Point", "coordinates": [-110.2751319203, 31.5545871115]}, "type": "Feature", "properties": {"collection_times": [{"days": "Mon-Fri", "time": "4:30pm"}, {"days": "Sat", "time": "3:00pm"}, {"days": "Sun", "time": "Closed"}], "id": "8563500025", "name": "USPS COLLECTION BOX - BLUE BOX", "address": {"city": "SIERRA VISTA", "state": "AZ", "street": "2300 E FRY BLVD", "postcode": "85635"}}},
{"geometry": {"type": "Point", "coordinates": [-110.2751319203, 31.5545871115]}, "type": "Feature", "properties": {"collection_times": [{"days": "Mon-Sat", "time": "3:00pm"}, {"days": "Sun", "time": "Closed"}], "id": "8563500026", "name": "USPS COLLECTION BOX - PO LOBBY", "address": {"city": "SIERRA VISTA", "state": "AZ", "street": "2300 E FRY BLVD", "postcode": "85635"}}},
{"geometry": {"type": "Point", "coordinates": [-110.2751319203, 31.5545871115]}, "type": "Feature", "properties": {"collection_times": [{"days": "Mon-Sat", "time": "3:00pm"}, {"days": "Sun", "time": "Closed"}], "id": "8563500027", "name": "USPS COLLECTION BOX - APC", "address": {"city": "SIERRA VISTA", "state": "AZ", "street": "2300 E FRY BLVD", "postcode": "85635"}}},
{"geometry": {"type": "Point", "coordinates": [-110.6635285175, 31.6617241913]}, "type": "Feature", "properties": {"collection_times": [{"days": "Mon-Fri", "time": "3:00pm"}, {"days": "Sat", "time": "11:00am"}, {"days": "Sun", "time": "Closed"}], "id": "8563700001", "name": "USPS COLLECTION BOX - BLUE BOX", "address": {"city": "SONOITA", "state": "AZ", "street": "3166 HIGHWAY 83", "postcode": "85637"}}},
{"geometry": {"type": "Point", "coordinates": [-110.7287442325, 31.7025122882]}, "type": "Feature", "properties": {"collection_times": [{"days": "Mon-Sat", "time": "11:00am"}, {"days": "Sun", "time": "Closed"}], "id": "8563700002", "name": "USPS COLLECTION BOX - BLUE BOX", "address": {"city": "SONOITA", "state": "AZ", "street": "1 ELGIN RD", "postcode": "85637"}}},
{"geometry": {"type": "Point", "coordinates": [-110.6635285175, 31.6617241913]}, "type": "Feature", "properties": {"collection_times": [{"days": "Mon-Fri", "time": "3:00pm"}, {"days": "Sat", "time": "11:00am"}, {"days": "Sun", "time": "Closed"}], "id": "8563700003", "name": "USPS COLLECTION BOX - PO LOBBY", "address": {"city": "SONOITA", "state": "AZ", "street": "3166 HIGHWAY 83", "postcode": "85637"}}},
{"geometry": {"type": "Point", "coordinates": [-110.0715702776, 31.716630104]}, "type": "Feature", "properties": {"collection_times": [{"days": "Mon-Fri", "time": "3:15pm"}, {"days": "Sat", "time": "10:30am"}, {"days": "Sun", "time": "Closed"}], "id": "8563800002", "name": "USPS COLLECTION BOX - BLUE BOX", "address": {"city": "TOMBSTONE", "state": "AZ", "street": "100 HASKELL ST", "postcode": "85638"}}},
{"geometry": {"type": "Point", "coordinates": [-110.0715702776, 31.716630104]}, "type": "Feature", "properties": {"collection_times": [{"days": "Mon-Fri", "time": "3:15pm"}, {"days": "Sat", "time": "10:30am"}, {"days": "Sun", "time": "Closed"}], "id": "8563800003", "name": "USPS COLLECTION BOX - PO LOBBY", "address": {"city": "TOMBSTONE", "state": "AZ", "street": "100 HASKELL ST", "postcode": "85638"}}},
{"geometry": {"type": "Point", "coordinates": [-111.8264683073, 31.8150768223]}, "type": "Feature", "properties": {"collection_times": [{"days": "Mon-Fri", "time": "9:00am"}, {"days": "Sat-Sun", "time": "Closed"}], "id": "8563900000", "name": "USPS COLLECTION BOX - PO LOBBY", "address": {"city": "TOPAWA", "state": "AZ", "street": "1 MAIN ST", "postcode": "85639"}}},
{"geometry": {"type": "Point", "coordinates": [-111.0511390705, 31.5659630083]}, "type": "Feature", "properties": {"collection_times": [{"days": "Mon-Fri", "time": "3:15pm"}, {"days": "Sat", "time": "9:45am"}, {"days": "Sun", "time": "Closed"}], "id": "8564000001", "name": "USPS COLLECTION BOX - BLUE BOX", "address": {"city": "TUMACACORI", "state": "AZ", "street": "1910 E FRONTAGE RD", "postcode": "85640"}}},
{"geometry": {"type": "Point", "coordinates": [-111.0511390705, 31.5659630083]}, "type": "Feature", "properties": {"collection_times": [{"days": "Mon-Fri", "time": "3:15pm"}, {"days": "Sat", "time": "9:45am"}, {"days": "Sun", "time": "Closed"}], "id": "8564000002", "name": "USPS COLLECTION BOX - PO LOBBY", "address": {"city": "TUMACACORI", "state": "AZ", "street": "1910 E FRONTAGE RD", "postcode": "85640"}}},
{"geometry": {"type": "Point", "coordinates": [-110.7141252278, 32.0449071378]}, "type": "Feature", "properties": {"collection_times": [{"days": "Mon-Fri", "time": "3:45pm"}, {"days": "Sat", "time": "10:45am"}, {"days": "Sun", "time": "Closed"}], "id": "8564100002", "name": "USPS COLLECTION BOX - BLUE BOX", "address": {"city": "VAIL", "state": "AZ", "street": "13190 E COLOSSAL CAVE RD", "postcode": "85641"}}},
{"geometry": {"type": "Point", "coordinates": [-110.7141252278, 32.0449071378]}, "type": "Feature", "properties": {"collection_times": [{"days": "Mon-Fri", "time": "3:45pm"}, {"days": "Sat", "time": "10:45am"}, {"days": "Sun", "time": "Closed"}], "id": "8564100003", "name": "USPS COLLECTION BOX - PO LOBBY", "address": {"city": "VAIL", "state": "AZ", "street": "13190 E COLOSSAL CAVE RD", "postcode": "85641"}}},
{"geometry": {"type": "Point", "coordinates": [-109.8341381874, 32.252324995]}, "type": "Feature", "properties": {"collection_times": [{"days": "Mon-Fri", "time": "2:50pm"}, {"days": "Sat", "time": "2:00pm"}, {"days": "Sun", "time": "Closed"}], "id": "8564300001", "name": "USPS COLLECTION BOX - BLUE BOX", "address": {"city": "WILLCOX", "state": "AZ", "street": "200 S CURTIS AVE", "postcode": "85643"}}},
{"geometry": {"type": "Point", "coordinates": [-109.8341381874, 32.252324995]}, "type": "Feature", "properties": {"collection_times": [{"days": "Mon-Fri", "time": "2:50pm"}, {"days": "Sat", "time": "2:00pm"}, {"days": "Sun", "time": "Closed"}], "id": "8564300005", "name": "USPS COLLECTION BOX - BLUE BOX", "address": {"city": "WILLCOX", "state": "AZ", "street": "200 S CURTIS AVE", "postcode": "85643"}}},
{"geometry": {"type": "Point", "coordinates": [-109.8341381874, 32.252324995]}, "type": "Feature", "properties": {"collection_times": [{"days": "Mon-Fri", "time": "2:50pm"}, {"days": "Sat", "time": "2:00pm"}, {"days": "Sun", "time": "Closed"}], "id": "8564300006", "name": "USPS COLLECTION BOX - PO LOBBY", "address": {"city": "WILLCOX", "state": "AZ", "street": "200 S CURTIS AVE", "postcode": "85643"}}},
{"geometry": {"type": "Point", "coordinates": [-111.0590867759, 31.7306302615]}, "type": "Feature", "properties": {"collection_times": [{"days": "Mon-Fri", "time": "2:45pm"}, {"days": "Sat", "time": "9:15am"}, {"days": "Sun", "time": "Closed"}], "id": "8564500000", "name": "USPS COLLECTION BOX - PO LOBBY", "address": {"city": "AMADO", "state": "AZ", "street": "28661 S NOGALES HWY", "postcode": "85645"}}},
{"geometry": {"type": "Point", "coordinates": [-111.0532543854, 31.6204930637]}, "type": "Feature", "properties": {"collection_times": [{"days": "Mon-Fri", "time": "2:45pm"}, {"days": "Sat", "time": "9:30am"}, {"days": "Sun", "time": "Closed"}], "id": "8564600000", "name": "USPS COLLECTION BOX - PO LOBBY", "address": {"city": "TUBAC", "state": "AZ", "street": "2255B E FRONTAGE RD", "postcode": "85646"}}},
{"geometry": {"type": "Point", "coordinates": [-111.0004036136, 31.4709159656]}, "type": "Feature", "properties": {"collection_times": [{"days": "Mon-Fri", "time": "3:00pm"}, {"days": "Sat", "time": "2:00pm"}, {"days": "Sun", "time": "Closed"}], "id": "8564800001", "name": "USPS COLLECTION BOX - BLUE BOX", "address": {"city": "RIO RICO", "state": "AZ", "street": "1163 W FRONTAGE RD", "postcode": "85648"}}},
{"geometry": {"type": "Point", "coordinates": [-110.9971133588, 31.4633095323]}, "type": "Feature", "properties": {"collection_times": [{"days": "Mon-Sat", "time": "1:30pm"}, {"days": "Sun", "time": "Closed"}], "id": "8564800002", "name": "USPS COLLECTION BOX - BLUE BOX", "address": {"city": "RIO RICO", "state": "AZ", "street": "1060 YAVAPAI DR", "postcode": "85648"}}},
{"geometry": {"type": "Point", "coordinates": [-111.0004036136, 31.4709159656]}, "type": "Feature", "properties": {"collection_times": [{"days": "Mon-Fri", "time": "3:00pm"}, {"days": "Sat-Sun", "time": "Closed"}], "id": "8564800004", "name": "USPS COLLECTION BOX - PO LOBBY", "address": {"city": "RIO RICO", "state": "AZ", "street": "1163 W FRONTAGE RD", "postcode": "85648"}}},
{"geometry": {"type": "Point", "coordinates": [-110.9630482504, 31.4302833023]}, "type": "Feature", "properties": {"collection_times": [{"days": "Mon-Sat", "time": "11:30am"}, {"days": "Sun", "time": "Closed"}], "id": "8564800005", "name": "USPS COLLECTION BOX - BLUE BOX", "address": {"city": "RIO RICO", "state": "AZ", "street": "769 E FRONTAGE RD", "postcode": "85648"}}},
{"geometry": {"type": "Point", "coordinates": [-111.0876966444, 32.3561038653]}, "type": "Feature", "properties": {"collection_times": [{"days": "Mon-Fri", "time": "4:15pm"}, {"days": "Sat", "time": "10:30am"}, {"days": "Sun", "time": "Closed"}], "id": "8565200003", "name": "USPS COLLECTION BOX - PO LOBBY", "address": {"city": "CORTARO", "state": "AZ", "street": "5800 W ARIZONA PAVILLIONS DR", "postcode": "85652"}}},
{"geometry": {"type": "Point", "coordinates": [-111.0876966444, 32.3561038653]}, "type": "Feature", "properties": {"collection_times": [{"days": "Mon-Fri", "time": "4:15pm"}, {"days": "Sat", "time": "10:30am"}, {"days": "Sun", "time": "Closed"}], "id": "8565200004", "name": "USPS COLLECTION BOX - BLUE BOX", "address": {"city": "CORTARO", "state": "AZ", "street": "5800 W ARIZONA PAVILLIONS DR", "postcode": "85652"}}},
{"geometry": {"type": "Point", "coordinates": [-111.0876966444, 32.3561038653]}, "type": "Feature", "properties": {"collection_times": [{"days": "Mon-Fri", "time": "4:15pm"}, {"days": "Sat", "time": "10:30am"}, {"days": "Sun", "time": "Closed"}], "id": "8565200005", "name": "USPS COLLECTION BOX - BLUE BOX", "address": {"city": "CORTARO", "state": "AZ", "street": "5800 W ARIZONA PAVILLIONS DR", "postcode": "85652"}}},
{"geometry": {"type": "Point", "coordinates": [-111.2084074174, 32.4484922056]}, "type": "Feature", "properties": {"collection_times": [{"days": "Mon-Sat", "time": "3:45pm"}, {"days": "Sun", "time": "Closed"}], "id": "8565300001", "name": "USPS COLLECTION BOX - BLUE BOX", "address": {"city": "MARANA", "state": "AZ", "street": "13355 N LON ADAMS RD", "postcode": "85653"}}},
{"geometry": {"type": "Point", "coordinates": [-111.2084074174, 32.4484922056]}, "type": "Feature", "properties": {"collection_times": [{"days": "Mon-Sat", "time": "3:45pm"}, {"days": "Sun", "time": "Closed"}], "id": "8565300002", "name": "USPS COLLECTION BOX - PO LOBBY", "address": {"city": "MARANA", "state": "AZ", "street": "13355 N LON ADAMS RD", "postcode": "85653"}}},
{"geometry": {"type": "Point", "coordinates": [-111.1592534576, 32.420983378]}, "type": "Feature", "properties": {"collection_times": [{"days": "Mon-Fri", "time": "4:00pm"}, {"days": "Sat", "time": "8:45am"}, {"days": "Sun", "time": "Closed"}], "id": "8565400001", "name": "USPS COLLECTION BOX - BLUE BOX", "address": {"city": "RILLITO", "state": "AZ", "street": "11651 N CASA GRANDE DR", "postcode": "85654"}}},
{"geometry": {"type": "Point", "coordinates": [-111.1592534576, 32.420983378]}, "type": "Feature", "properties": {"collection_times": [{"days": "Mon-Fri", "time": "4:00pm"}, {"days": "Sat", "time": "8:45am"}, {"days": "Sun", "time": "Closed"}], "id": "8565400002", "name": "USPS COLLECTION BOX - PO LOBBY", "address": {"city": "RILLITO", "state": "AZ", "street": "11651 N CASA GRANDE DR", "postcode": "85654"}}}
]}
