{"type": "FeatureCollection", "features": [
{"geometry": {"type": "Point", "coordinates": [-110.970446671, 32.2169116141]}, "type": "Feature", "properties": {"collection_times": [{"days": "Mon-Fri", "time": "5:00pm"}, {"days": "Sat", "time": "2:30pm"}, {"days": "Sun", "time": "Closed"}], "id": "8570100002", "name": "USPS COLLECTION BOX - BLUE BOX", "address": {"city": "TUCSON", "state": "AZ", "street": "141 S 6TH AVE", "postcode": "85701"}}},
{"geometry": {"type": "Point", "coordinates": [-110.9713830412, 32.2224358103]}, "type": "Feature", "properties": {"collection_times": [{"days": "Mon-Fri", "time": "2:15pm"}, {"days": "Sat-Sun", "time": "Closed"}], "id": "8570100005", "name": "USPS COLLECTION BOX - BLUE BOX", "address": {"city": "TUCSON", "state": "AZ", "street": "33 N STONE AVE", "postcode": "85701"}}},
{"geometry": {"type": "Point", "coordinates": [-110.970446671, 32.2169116141]}, "type": "Feature", "properties": {"collection_times": [{"days": "Mon-Fri", "time": "4:00pm"}, {"days": "Sat-Sun", "time": "Closed"}], "id": "8570100007", "name": "USPS COLLECTION BOX - EXPRESS", "address": {"city": "TUCSON", "state": "AZ", "street": "141 S 6TH AVE", "postcode": "85701"}}},
{"geometry": {"type": "Point", "coordinates": [-110.9728631956, 32.226373043]}, "type": "Feature", "properties": {"collection_times": [{"days": "Mon-Fri", "time": "1:45pm"}, {"days": "Sat-Sun", "time": "Closed"}], "id": "8570100014", "name": "USPS COLLECTION BOX - BLUE BOX", "address": {"city": "TUCSON", "state": "AZ", "street": "70 W FRANKLIN ST", "postcode": "85701"}}},
{"geometry": {"type": "Point", "coordinates": [-110.971318513, 32.2224450283]}, "type": "Feature", "properties": {"collection_times": [{"days": "Mon-Fri", "time": "2:30pm"}, {"days": "Sat-Sun", "time": "Closed"}], "id": "8570100017", "name": "USPS COLLECTION BOX - BLUE BOX", "address": {"city": "TUCSON", "state": "AZ", "street": "32 N STONE AVE", "postcode": "85701"}}},
{"geometry": {"type": "Point", "coordinates": [-110.9779928531, 32.2271068902]}, "type": "Feature", "properties": {"collection_times": [{"days": "Mon-Fri", "time": "1:30pm"}, {"days": "Sat-Sun", "time": "Closed"}], "id": "8570100018", "name": "USPS COLLECTION BOX - BLUE BOX", "address": {"city": "TUCSON", "state": "AZ", "street": "461 N GRANADA AVE", "postcode": "85701"}}},
{"geometry": {"type": "Point", "coordinates": [-110.970446671, 32.2169116141]}, "type": "Feature", "properties": {"collection_times": [{"days": "Mon-Fri", "time": "5:00pm"}, {"days": "Sat", "time": "2:30pm"}, {"days": "Sun", "time": "Closed"}], "id": "8570100020", "name": "USPS COLLECTION BOX - BLUE BOX", "address": {"city": "TUCSON", "state": "AZ", "street": "141 S 6TH AVE", "postcode": "85701"}}},
{"geometry": {"type": "Point", "coordinates": [-110.9748186268, 32.2249736026]}, "type": "Feature", "properties": {"collection_times": [{"days": "Mon-Fri", "time": "1:45pm"}, {"days": "Sat-Sun", "time": "Closed"}], "id": "8570100024", "name": "USPS COLLECTION BOX - BLUE BOX", "address": {"city": "TUCSON", "state": "AZ", "street": "239 N MEYER AVE", "postcode": "85701"}}},
{"geometry": {"type": "Point", "coordinates": [-110.9709693719, 32.2218827146]}, "type": "Feature", "properties": {"collection_times": [{"days": "Mon-Fri", "time": "2:45pm"}, {"days": "Sat-Sun", "time": "Closed"}], "id": "8570100028", "name": "USPS COLLECTION BOX - BLUE BOX", "address": {"city": "TUCSON", "state": "AZ", "street": "2 E CONGRESS ST", "postcode": "85701"}}},
{"geometry": {"type": "Point", "coordinates": [-110.976896692, 32.2212338367]}, "type": "Feature", "properties": {"collection_times": [{"days": "Mon-Fri", "time": "2:30pm"}, {"days": "Sat-Sun", "time": "Closed"}], "id": "8570100038", "name": "USPS COLLECTION BOX - BLUE BOX", "address": {"city": "TUCSON", "state": "AZ", "street": "405 W CONGRESS ST", "postcode": "85701"}}},
{"geometry": {"type": "Point", "coordinates": [-110.9725782112, 32.220531208]}, "type": "Feature", "properties": {"collection_times": [{"days": "Mon-Fri", "time": "2:30pm"}, {"days": "Sat", "time": "1:00pm"}, {"days": "Sun", "time": "Closed"}], "id": "8570100040", "name": "USPS COLLECTION BOX - BLUE BOX", "address": {"city": "TUCSON", "state": "AZ", "street": "150 S CHURCH AVE", "postcode": "85701"}}},
{"geometry": {"type": "Point", "coordinates": [-110.9723480812, 32.2217328345]}, "type": "Feature", "properties": {"collection_times": [{"days": "Mon-Fri", "time": "2:30pm"}, {"days": "Sat-Sun", "time": "Closed"}], "id": "8570100041", "name": "USPS COLLECTION BOX - BLUE BOX", "address": {"city": "TUCSON", "state": "AZ", "street": "1 S CHURCH AVE", "postcode": "85701"}}},
{"geometry": {"type": "Point", "coordinates": [-110.970446671, 32.2169116141]}, "type": "Feature", "properties": {"collection_times": [{"days": "Mon-Fri", "time": "5:00pm"}, {"days": "Sat", "time": "2:30pm"}, {"days": "Sun", "time": "Closed"}], "id": "8570100042", "name": "USPS COLLECTION BOX - BLUE BOX", "address": {"city": "TUCSON", "state": "AZ", "street": "141 S 6TH AVE", "postcode": "85701"}}},
{"geometry": {"type": "Point", "coordinates": [-110.975330848, 32.2229909633]}, "type": "Feature", "properties": {"collection_times": [{"days": "Mon-Fri", "time": "2:00pm"}, {"days": "Sat-Sun", "time": "Closed"}], "id": "8570100045", "name": "USPS COLLECTION BOX - BLUE BOX", "address": {"city": "TUCSON", "state": "AZ", "street": "255 W ALAMEDA ST", "postcode": "85701"}}},
{"geometry": {"type": "Point", "coordinates": [-110.9766740783, 32.2213182174]}, "type": "Feature", "properties": {"collection_times": [{"days": "Mon-Fri", "time": "2:30pm"}, {"days": "Sat", "time": "1:00pm"}, {"days": "Sun", "time": "Closed"}], "id": "8570100046", "name": "USPS COLLECTION BOX - BLUE BOX", "address": {"city": "TUCSON", "state": "AZ", "street": "400 W CONGRESS ST", "postcode": "85701"}}},
{"geometry": {"type": "Point", "coordinates": [-110.9729720371, 32.2240524613]}, "type": "Feature", "properties": {"collection_times": [{"days": "Mon-Fri", "time": "2:30pm"}, {"days": "Sat-Sun", "time": "Closed"}], "id": "8570100050", "name": "USPS COLLECTION BOX - BLUE BOX", "address": {"city": "TUCSON", "state": "AZ", "street": "177 N CHURCH AVE", "postcode": "85701"}}},
{"geometry": {"type": "Point", "coordinates": [-110.9725782112, 32.220531208]}, "type": "Feature", "properties": {"collection_times": [{"days": "Mon-Fri", "time": "2:30pm"}, {"days": "Sat", "time": "1:00pm"}, {"days": "Sun", "time": "Closed"}], "id": "8570100051", "name": "USPS COLLECTION BOX - BLUE BOX", "address": {"city": "TUCSON", "state": "AZ", "street": "150 S CHURCH AVE", "postcode": "85701"}}},
{"geometry": {"type": "Point", "coordinates": [-110.971418747, 32.2231149864]}, "type": "Feature", "properties": {"collection_times": [{"days": "Mon-Fri", "time": "2:30pm"}, {"days": "Sat-Sun", "time": "Closed"}], "id": "8570100058", "name": "USPS COLLECTION BOX - BLUE BOX", "address": {"city": "TUCSON", "state": "AZ", "street": "100 N STONE AVE", "postcode": "85701"}}},
{"geometry": {"type": "Point", "coordinates": [-110.970446671, 32.2169116141]}, "type": "Feature", "properties": {"collection_times": [{"days": "Mon-Fri", "time": "4:00pm"}, {"days": "Sat-Sun", "time": "Closed"}], "id": "8570100059", "name": "USPS COLLECTION BOX - PO LOBBY", "address": {"city": "TUCSON", "state": "AZ", "street": "141 S 6TH AVE", "postcode": "85701"}}},
{"geometry": {"type": "Point", "coordinates": [-110.971070177, 32.2204086626]}, "type": "Feature", "properties": {"collection_times": [{"days": "Mon-Fri", "time": "2:30pm"}, {"days": "Sat-Sun", "time": "Closed"}], "id": "8570100062", "name": "USPS COLLECTION BOX - BLUE BOX", "address": {"city": "TUCSON", "state": "AZ", "street": "102 S STONE AVE", "postcode": "85701"}}},
{"geometry": {"type": "Point", "coordinates": [-110.9762505052, 32.2256695078]}, "type": "Feature", "properties": {"collection_times": [{"days": "Mon-Fri", "time": "2:30pm"}, {"days": "Sat-Sun", "time": "Closed"}], "id": "8570100065", "name": "USPS COLLECTION BOX - BLUE BOX", "address": {"city": "TUCSON", "state": "AZ", "street": "301 W FRANKLIN ST", "postcode": "85701"}}},
{"geometry": {"type": "Point", "coordinates": [-110.974869494, 32.3235945256]}, "type": "Feature", "properties": {"collection_times": [{"days": "Mon-Fri", "time": "2:30pm"}, {"days": "Sat", "time": "1:30pm"}, {"days": "Sun", "time": "Closed"}], "id": "8570400002", "name": "USPS COLLECTION BOX - BLUE BOX", "address": {"city": "TUCSON", "state": "AZ", "street": "6484 N ORACLE RD", "postcode": "85704"}}},
{"geometry": {"type": "Point", "coordinates": [-110.9722421421, 32.3518577812]}, "type": "Feature", "properties": {"collection_times": [{"days": "Mon-Fri", "time": "2:30pm"}, {"days": "Sat", "time": "1:00pm"}, {"days": "Sun", "time": "Closed"}], "id": "8570400005", "name": "USPS COLLECTION BOX - BLUE BOX", "address": {"city": "TUCSON", "state": "AZ", "street": "180 W MAGEE RD", "postcode": "85704"}}},
{"geometry": {"type": "Point", "coordinates": [-110.9748647622, 32.3205200152]}, "type": "Feature", "properties": {"collection_times": [{"days": "Mon-Fri", "time": "5:00pm"}, {"days": "Sat", "time": "4:00pm"}, {"days": "Sun", "time": "Closed"}], "id": "8570400006", "name": "USPS COLLECTION BOX - BLUE BOX", "address": {"city": "TUCSON", "state": "AZ", "street": "6281 N ORACLE RD", "postcode": "85704"}}},
{"geometry": {"type": "Point", "coordinates": [-110.9855759802, 32.3322802001]}, "type": "Feature", "properties": {"collection_times": [{"days": "Mon-Fri", "time": "3:30pm"}, {"days": "Sat-Sun", "time": "Closed"}], "id": "8570400007", "name": "USPS COLLECTION BOX - EXPRESS", "address": {"city": "TUCSON", "state": "AZ", "street": "6281 N ORACLE RD", "postcode": "85704"}}},
{"geometry": {"type": "Point", "coordinates": [-110.9855759802, 32.3322802001]}, "type": "Feature", "properties": {"collection_times": [{"days": "Mon-Fri", "time": "2:30pm"}, {"days": "Sat-Sun", "time": "Closed"}], "id": "8570400008", "name": "USPS COLLECTION BOX - BLUE BOX", "address": {"city": "TUCSON", "state": "AZ", "street": "7306 N ORACLE RD", "postcode": "85704"}}},
{"geometry": {"type": "Point", "coordinates": [-110.9748647622, 32.3205200152]}, "type": "Feature", "properties": {"collection_times": [{"days": "Mon-Fri", "time": "5:00pm"}, {"days": "Sat", "time": "4:00pm"}, {"days": "Sun", "time": "Closed"}], "id": "8570400009", "name": "USPS COLLECTION BOX - BLUE BOX", "address": {"city": "TUCSON", "state": "AZ", "street": "6281 N ORACLE RD", "postcode": "85704"}}},
{"geometry": {"type": "Point", "coordinates": [-110.976223982, 32.316316962]}, "type": "Feature", "properties": {"collection_times": [{"days": "Mon-Fri", "time": "1:30pm"}, {"days": "Sat-Sun", "time": "Closed"}], "id": "8570400013", "name": "USPS COLLECTION BOX - BLUE BOX", "address": {"city": "TUCSON", "state": "AZ", "street": "6020 N ORACLE RD", "postcode": "85704"}}},
{"geometry": {"type": "Point", "coordinates": [-110.9748647622, 32.3205200152]}, "type": "Feature", "properties": {"collection_times": [{"days": "Mon-Fri", "time": "5:00pm"}, {"days": "Sat", "time": "4:00pm"}, {"days": "Sun", "time": "Closed"}], "id": "8570400015", "name": "USPS COLLECTION BOX - BLUE BOX", "address": {"city": "TUCSON", "state": "AZ", "street": "6281 N ORACLE RD", "postcode": "85704"}}},
{"geometry": {"type": "Point", "coordinates": [-110.9774447957, 32.339698146]}, "type": "Feature", "properties": {"collection_times": [{"days": "Mon-Fri", "time": "2:30pm"}, {"days": "Sat-Sun", "time": "Closed"}], "id": "8570400017", "name": "USPS COLLECTION BOX - BLUE BOX", "address": {"city": "TUCSON", "state": "AZ", "street": "7315 N ORACLE RD", "postcode": "85704"}}},
{"geometry": {"type": "Point", "coordinates": [-110.975964914, 32.327991584]}, "type": "Feature", "properties": {"collection_times": [{"days": "Mon-Fri", "time": "1:30pm"}, {"days": "Sat-Sun", "time": "Closed"}], "id": "8570400018", "name": "USPS COLLECTION BOX - BLUE BOX", "address": {"city": "TUCSON", "state": "AZ", "street": "6700 N ORACLE RD", "postcode": "85704"}}},
{"geometry": {"type": "Point", "coordinates": [-111.0082031182, 32.3230429944]}, "type": "Feature", "properties": {"collection_times": [{"days": "Mon-Fri", "time": "2:30pm"}, {"days": "Sat-Sun", "time": "Closed"}], "id": "8570400020", "name": "USPS COLLECTION BOX - BLUE BOX", "address": {"city": "TUCSON", "state": "AZ", "street": "1919 W ORANGE GROVE RD", "postcode": "85704"}}},
{"geometry": {"type": "Point", "coordinates": [-110.9769065493, 32.3419256577]}, "type": "Feature", "properties": {"collection_times": [{"days": "Mon-Fri", "time": "1:30pm"}, {"days": "Sat-Sun", "time": "Closed"}], "id": "8570400024", "name": "USPS COLLECTION BOX - BLUE BOX", "address": {"city": "TUCSON", "state": "AZ", "street": "7400 N ORACLE RD", "postcode": "85704"}}},
{"geometry": {"type": "Point", "coordinates": [-110.9748647622, 32.3205200152]}, "type": "Feature", "properties": {"collection_times": [{"days": "Mon-Fri", "time": "5:00pm"}, {"days": "Sat", "time": "4:00pm"}, {"days": "Sun", "time": "Closed"}], "id": "8570400025", "name": "USPS COLLECTION BOX - PO LOBBY", "address": {"city": "TUCSON", "state": "AZ", "street": "6281 N ORACLE RD", "postcode": "85704"}}},
{"geometry": {"type": "Point", "coordinates": [-110.9762405434, 32.3450522182]}, "type": "Feature", "properties": {"collection_times": [{"days": "Mon-Fri", "time": "2:30pm"}, {"days": "Sat-Sun", "time": "Closed"}], "id": "8570400026", "name": "USPS COLLECTION BOX - BLUE BOX", "address": {"city": "TUCSON", "state": "AZ", "street": "7630 N ORACLE RD", "postcode": "85704"}}},
{"geometry": {"type": "Point", "coordinates": [-110.9952270348, 32.298818633]}, "type": "Feature", "properties": {"collection_times": [{"days": "Mon-Fri", "time": "2:30pm"}, {"days": "Sat", "time": "3:15pm"}, {"days": "Sun", "time": "Closed"}], "id": "8570400027", "name": "USPS COLLECTION BOX - BLUE BOX", "address": {"city": "TUCSON", "state": "AZ", "street": "5075 N LA CANADA DR", "postcode": "85704"}}},
{"geometry": {"type": "Point", "coordinates": [-110.9773809159, 32.3354323959]}, "type": "Feature", "properties": {"collection_times": [{"days": "Mon-Fri", "time": "2:30pm"}, {"days": "Sat", "time": "1:45pm"}, {"days": "Sun", "time": "Closed"}], "id": "8570400032", "name": "USPS COLLECTION BOX - BLUE BOX", "address": {"city": "TUCSON", "state": "AZ", "street": "7110 N ORACLE RD", "postcode": "85704"}}},
{"geometry": {"type": "Point", "coordinates": [-110.9770071008, 32.332200552]}, "type": "Feature", "properties": {"collection_times": [{"days": "Mon-Fri", "time": "2:30pm"}, {"days": "Sat-Sun", "time": "Closed"}], "id": "8570400034", "name": "USPS COLLECTION BOX - BLUE BOX", "address": {"city": "TUCSON", "state": "AZ", "street": "6860 N ORACLE RD", "postcode": "85704"}}},
{"geometry": {"type": "Point", "coordinates": [-110.9748647622, 32.3205200152]}, "type": "Feature", "properties": {"collection_times": [{"days": "Mon-Fri", "time": "5:00pm"}, {"days": "Sat", "time": "4:00pm"}, {"days": "Sun", "time": "Closed"}], "id": "8570400035", "name": "USPS COLLECTION BOX - APC", "address": {"city": "TUCSON", "state": "AZ", "street": "6281 N ORACLE RD", "postcode": "85704"}}},
{"geometry": {"type": "Point", "coordinates": [-110.9744601902, 32.3533731516]}, "type": "Feature", "properties": {"collection_times": [{"days": "Mon-Fri", "time": "2:30pm"}, {"days": "Sat", "time": "1:00pm"}, {"days": "Sun", "time": "Closed"}], "id": "8570400038", "name": "USPS COLLECTION BOX - BLUE BOX", "address": {"city": "TUCSON", "state": "AZ", "street": "8080 N ORACLE RD", "postcode": "85704"}}},
{"geometry": {"type": "Point", "coordinates": [-110.9695408524, 32.3660615495]}, "type": "Feature", "properties": {"collection_times": [{"days": "Mon-Fri", "time": "1:00pm"}, {"days": "Sat-Sun", "time": "Closed"}], "id": "8570400039", "name": "USPS COLLECTION BOX - BLUE BOX", "address": {"city": "TUCSON", "state": "AZ", "street": "8788 N ORACLE RD", "postcode": "85704"}}},
{"geometry": {"type": "Point", "coordinates": [-110.9889147658, 32.2720553694]}, "type": "Feature", "properties": {"collection_times": [{"days": "Mon-Fri", "time": "2:30pm"}, {"days": "Sat", "time": "1:00pm"}, {"days": "Sun", "time": "Closed"}], "id": "8570500001", "name": "USPS COLLECTION BOX - BLUE BOX", "address": {"city": "TUCSON", "state": "AZ", "street": "1015 W PRINCE RD STE 131", "postcode": "85705"}}},
{"geometry": {"type": "Point", "coordinates": [-110.9865188462, 32.2645025055]}, "type": "Feature", "properties": {"collection_times": [{"days": "Mon-Fri", "time": "5:00pm"}, {"days": "Sat", "time": "2:00pm"}, {"days": "Sun", "time": "Closed"}], "id": "8570500004", "name": "USPS COLLECTION BOX - BLUE BOX", "address": {"city": "TUCSON", "state": "AZ", "street": "3655 N ORACLE RD STE 101", "postcode": "85705"}}},
{"geometry": {"type": "Point", "coordinates": [-111.0154863901, 32.2769469047]}, "type": "Feature", "properties": {"collection_times": [{"days": "Mon-Fri", "time": "1:45pm"}, {"days": "Sat-Sun", "time": "Closed"}], "id": "8570500006", "name": "USPS COLLECTION BOX - BLUE BOX", "address": {"city": "TUCSON", "state": "AZ", "street": "3845 N BUSINESS CENTER DR", "postcode": "85705"}}},
{"geometry": {"type": "Point", "coordinates": [-110.9782551225, 32.2769327092]}, "type": "Feature", "properties": {"collection_times": [{"days": "Mon-Fri", "time": "2:30pm"}, {"days": "Sat-Sun", "time": "Closed"}], "id": "8570500013", "name": "USPS COLLECTION BOX - BLUE BOX", "address": {"city": "TUCSON", "state": "AZ", "street": "3867 N ORACLE RD", "postcode": "85705"}}},
{"geometry": {"type": "Point", "coordinates": [-111.0060262672, 32.2723735853]}, "type": "Feature", "properties": {"collection_times": [{"days": "Mon-Fri", "time": "1:30pm"}, {"days": "Sat-Sun", "time": "Closed"}], "id": "8570500015", "name": "USPS COLLECTION BOX - BLUE BOX", "address": {"city": "TUCSON", "state": "AZ", "street": "1870 W PRINCE RD", "postcode": "85705"}}},
{"geometry": {"type": "Point", "coordinates": [-111.0200478798, 32.2942831683]}, "type": "Feature", "properties": {"collection_times": [{"days": "Mon-Fri", "time": "2:30pm"}, {"days": "Sat-Sun", "time": "Closed"}], "id": "8570500016", "name": "USPS COLLECTION BOX - BLUE BOX", "address": {"city": "TUCSON", "state": "AZ", "street": "2480 W RUTHRAUFF RD", "postcode": "85705"}}},
{"geometry": {"type": "Point", "coordinates": [-111.0200478798, 32.2942831683]}, "type": "Feature", "properties": {"collection_times": [{"days": "Mon-Fri", "time": "2:30pm"}, {"days": "Sat-Sun", "time": "Closed"}], "id": "8570500019", "name": "USPS COLLECTION BOX - BLUE BOX", "address": {"city": "TUCSON", "state": "AZ", "street": "2480 W RUTHRAUFF RD", "postcode": "85705"}}},
{"geometry": {"type": "Point", "coordinates": [-110.9708391528, 32.2372006664]}, "type": "Feature", "properties": {"collection_times": [{"days": "Mon-Fri", "time": "1:15pm"}, {"days": "Sat-Sun", "time": "Closed"}], "id": "8570500021", "name": "USPS COLLECTION BOX - BLUE BOX", "address": {"city": "TUCSON", "state": "AZ", "street": "55 E HELEN ST", "postcode": "85705"}}},
{"geometry": {"type": "Point", "coordinates": [-110.9944013295, 32.2721298958]}, "type": "Feature", "properties": {"collection_times": [{"days": "Mon-Fri", "time": "1:30pm"}, {"days": "Sat-Sun", "time": "Closed"}], "id": "8570500023", "name": "USPS COLLECTION BOX - BLUE BOX", "address": {"city": "TUCSON", "state": "AZ", "street": "1354 W PRINCE RD", "postcode": "85705"}}},
{"geometry": {"type": "Point", "coordinates": [-110.9781817791, 32.2927843593]}, "type": "Feature", "properties": {"collection_times": [{"days": "Mon-Fri", "time": "2:30pm"}, {"days": "Sat-Sun", "time": "Closed"}], "id": "8570500024", "name": "USPS COLLECTION BOX - BLUE BOX", "address": {"city": "TUCSON", "state": "AZ", "street": "4742 N ORACLE RD", "postcode": "85705"}}},
{"geometry": {"type": "Point", "coordinates": [-110.9865188463, 32.2645024593]}, "type": "Feature", "properties": {"collection_times": [{"days": "Mon-Fri", "time": "1:00pm"}, {"days": "Sat-Sun", "time": "Closed"}], "id": "8570500025", "name": "USPS COLLECTION BOX - BLUE BOX", "address": {"city": "TUCSON", "state": "AZ", "street": "300 E UNIVERSITY BLVD", "postcode": "85705"}}},
{"geometry": {"type": "Point", "coordinates": [-110.9731114811, 32.2648024685]}, "type": "Feature", "properties": {"collection_times": [{"days": "Mon-Fri", "time": "2:30pm"}, {"days": "Sat-Sun", "time": "Closed"}], "id": "8570500026", "name": "USPS COLLECTION BOX - BLUE BOX", "address": {"city": "TUCSON", "state": "AZ", "street": "100 W FORT LOWELL RD", "postcode": "85705"}}},
{"geometry": {"type": "Point", "coordinates": [-111.0036191235, 32.2868440085]}, "type": "Feature", "properties": {"collection_times": [{"days": "Mon-Fri", "time": "2:30pm"}, {"days": "Sat-Sun", "time": "Closed"}], "id": "8570500028", "name": "USPS COLLECTION BOX - BLUE BOX", "address": {"city": "TUCSON", "state": "AZ", "street": "4399 N ROMERO RD", "postcode": "85705"}}},
{"geometry": {"type": "Point", "coordinates": [-110.9724219519, 32.2901877644]}, "type": "Feature", "properties": {"collection_times": [{"days": "Mon-Fri", "time": "2:30pm"}, {"days": "Sat-Sun", "time": "Closed"}], "id": "8570500031", "name": "USPS COLLECTION BOX - BLUE BOX", "address": {"city": "TUCSON", "state": "AZ", "street": "4500 N ORACLE RD", "postcode": "85705"}}},
{"geometry": {"type": "Point", "coordinates": [-110.9714612551, 32.2315745907]}, "type": "Feature", "properties": {"collection_times": [{"days": "Mon-Fri", "time": "1:00pm"}, {"days": "Sat-Sun", "time": "Closed"}], "id": "8570500032", "name": "USPS COLLECTION BOX - BLUE BOX", "address": {"city": "TUCSON", "state": "AZ", "street": "10 E UNIVERSITY BLVD", "postcode": "85705"}}},
{"geometry": {"type": "Point", "coordinates": [-110.988621392, 32.2502321424]}, "type": "Feature", "properties": {"collection_times": [{"days": "Mon-Fri", "time": "1:15pm"}, {"days": "Sat-Sun", "time": "Closed"}], "id": "8570500035", "name": "USPS COLLECTION BOX - BLUE BOX", "address": {"city": "TUCSON", "state": "AZ", "street": "1101 W GRANT RD", "postcode": "85705"}}},
{"geometry": {"type": "Point", "coordinates": [-110.9865188462, 32.2645025055]}, "type": "Feature", "properties": {"collection_times": [{"days": "Mon-Fri", "time": "2:30pm"}, {"days": "Sat-Sun", "time": "Closed"}], "id": "8570500036", "name": "USPS COLLECTION BOX - PO LOBBY", "address": {"city": "TUCSON", "state": "AZ", "street": "3655 N ORACLE RD STE 101", "postcode": "85705"}}},
{"geometry": {"type": "Point", "coordinates": [-110.9688174759, 32.2475160686]}, "type": "Feature", "properties": {"collection_times": [{"days": "Mon-Fri", "time": "1:00pm"}, {"days": "Sat-Sun", "time": "Closed"}], "id": "8570500037", "name": "USPS COLLECTION BOX - BLUE BOX", "address": {"city": "TUCSON", "state": "AZ", "street": "2175 N 6TH AVE", "postcode": "85705"}}},
{"geometry": {"type": "Point", "coordinates": [-110.9949715157, 32.2777856226]}, "type": "Feature", "properties": {"collection_times": [{"days": "Mon-Fri", "time": "2:30pm"}, {"days": "Sat-Sun", "time": "Closed"}], "id": "8570500038", "name": "USPS COLLECTION BOX - BLUE BOX", "address": {"city": "TUCSON", "state": "AZ", "street": "3923 N FLOWING WELLS RD", "postcode": "85705"}}},
{"geometry": {"type": "Point", "coordinates": [-111.0102943832, 32.2943186571]}, "type": "Feature", "properties": {"collection_times": [{"days": "Mon-Fri", "time": "2:30pm"}, {"days": "Sat-Sun", "time": "Closed"}], "id": "8570500042", "name": "USPS COLLECTION BOX - BLUE BOX", "address": {"city": "TUCSON", "state": "AZ", "street": "2005 W RUTHRAUFF RD", "postcode": "85705"}}},
{"geometry": {"type": "Point", "coordinates": [-110.9744294333, 32.1339330806]}, "type": "Feature", "properties": {"collection_times": [{"days": "Mon-Fri", "time": "5:00pm"}, {"days": "Sat", "time": "4:00pm"}, {"days": "Sun", "time": "Closed"}], "id": "8570600004", "name": "USPS COLLECTION BOX - BLUE BOX", "address": {"city": "TUCSON", "state": "AZ", "street": "315 W VALENCIA RD", "postcode": "85706"}}},
{"geometry": {"type": "Point", "coordinates": [-110.913506, 32.1397]}, "type": "Feature", "properties": {"collection_times": [{"days": "Mon-Fri", "time": "2:30pm"}, {"days": "Sat", "time": "1:00pm"}, {"days": "Sun", "time": "Closed"}], "id": "8570600010", "name": "USPS COLLECTION BOX - BLUE BOX", "address": {"city": "TUCSON", "state": "AZ", "street": "6299 S HEMISPHERE PL", "postcode": "85706"}}},
{"geometry": {"type": "Point", "coordinates": [-110.9744294333, 32.1339330806]}, "type": "Feature", "properties": {"collection_times": [{"days": "Mon-Fri", "time": "5:00pm"}, {"days": "Sat", "time": "4:00pm"}, {"days": "Sun", "time": "Closed"}], "id": "8570600013", "name": "USPS COLLECTION BOX - BLUE BOX", "address": {"city": "TUCSON", "state": "AZ", "street": "315 W VALENCIA RD", "postcode": "85706"}}},
{"geometry": {"type": "Point", "coordinates": [-110.9453499192, 32.1487124077]}, "type": "Feature", "properties": {"collection_times": [{"days": "Mon-Fri", "time": "4:00pm"}, {"days": "Sat-Sun", "time": "Closed"}], "id": "8570600014", "name": "USPS COLLECTION BOX - EXPRESS", "address": {"city": "TUCSON", "state": "AZ", "street": "315 W VALENCIA RD", "postcode": "85706"}}},
{"geometry": {"type": "Point", "coordinates": [-110.9744294333, 32.1339330806]}, "type": "Feature", "properties": {"collection_times": [{"days": "Mon-Fri", "time": "5:00pm"}, {"days": "Sat", "time": "4:00pm"}, {"days": "Sun", "time": "Closed"}], "id": "8570600018", "name": "USPS COLLECTION BOX - PO LOBBY", "address": {"city": "TUCSON", "state": "AZ", "street": "315 W VALENCIA RD", "postcode": "85706"}}},
{"geometry": {"type": "Point", "coordinates": [-110.9309563856, 32.1456569685]}, "type": "Feature", "properties": {"collection_times": [{"days": "Mon-Fri", "time": "2:30pm"}, {"days": "Sat-Sun", "time": "Closed"}], "id": "8570600021", "name": "USPS COLLECTION BOX - BLUE BOX", "address": {"city": "TUCSON", "state": "AZ", "street": "2800 E COMMERCE CENTER PL", "postcode": "85706"}}},
{"geometry": {"type": "Point", "coordinates": [-110.8757043924, 32.1772286555]}, "type": "Feature", "properties": {"collection_times": [{"days": "Mon-Fri", "time": "5:00pm"}, {"days": "Sat", "time": "3:00pm"}, {"days": "Sun", "time": "Closed"}], "id": "8570800005", "name": "USPS COLLECTION BOX - BLUE BOX", "address": {"city": "TUCSON", "state": "AZ", "street": "5450 E MADERA", "postcode": "85708"}}},
{"geometry": {"type": "Point", "coordinates": [-110.8646892371, 32.1862619453]}, "type": "Feature", "properties": {"collection_times": [{"days": "Mon-Fri", "time": "1:15pm"}, {"days": "Sat-Sun", "time": "Closed"}], "id": "8570800006", "name": "USPS COLLECTION BOX - BLUE BOX", "address": {"city": "TUCSON", "state": "AZ", "street": "5405 E GRANITE ST", "postcode": "85708"}}},
{"geometry": {"type": "Point", "coordinates": [-110.8263973267, 32.2210909101]}, "type": "Feature", "properties": {"collection_times": [{"days": "Mon-Fri", "time": "2:30pm"}, {"days": "Sat", "time": "1:00pm"}, {"days": "Sun", "time": "Closed"}], "id": "8571000001", "name": "USPS COLLECTION BOX - BLUE BOX", "address": {"city": "TUCSON", "state": "AZ", "street": "7739 E BROADWAY BLVD", "postcode": "85710"}}},
{"geometry": {"type": "Point", "coordinates": [-110.8237583158, 32.2080986929]}, "type": "Feature", "properties": {"collection_times": [{"days": "Mon-Fri", "time": "5:00pm"}, {"days": "Sat", "time": "4:30pm"}, {"days": "Sun", "time": "Closed"}], "id": "8571000004", "name": "USPS COLLECTION BOX - BLUE BOX", "address": {"city": "TUCSON", "state": "AZ", "street": "1099 S PANTANO RD", "postcode": "85710"}}},
{"geometry": {"type": "Point", "coordinates": [-110.8163411631, 32.2208876623]}, "type": "Feature", "properties": {"collection_times": [{"days": "Mon-Fri", "time": "1:45pm"}, {"days": "Sat-Sun", "time": "Closed"}], "id": "8571000005", "name": "USPS COLLECTION BOX - BLUE BOX", "address": {"city": "TUCSON", "state": "AZ", "street": "8230 E BROADWAY BLVD", "postcode": "85710"}}},
{"geometry": {"type": "Point", "coordinates": [-110.806024578, 32.2354747293]}, "type": "Feature", "properties": {"collection_times": [{"days": "Mon-Fri", "time": "2:30pm"}, {"days": "Sat-Sun", "time": "Closed"}], "id": "8571000006", "name": "USPS COLLECTION BOX - BLUE BOX", "address": {"city": "TUCSON", "state": "AZ", "street": "8705 E SPEEDWAY BLVD", "postcode": "85710"}}},
{"geometry": {"type": "Point", "coordinates": [-110.8238679105, 32.2151909919]}, "type": "Feature", "properties": {"collection_times": [{"days": "Mon-Fri", "time": "2:30pm"}, {"days": "Sat-Sun", "time": "Closed"}], "id": "8571000011", "name": "USPS COLLECTION BOX - BLUE BOX", "address": {"city": "TUCSON", "state": "AZ", "street": "900 N FINANCE CENTER DR", "postcode": "85710"}}},
{"geometry": {"type": "Point", "coordinates": [-110.8238150978, 32.2280646743]}, "type": "Feature", "properties": {"collection_times": [{"days": "Mon-Fri", "time": "2:30pm"}, {"days": "Sat", "time": "2:00pm"}, {"days": "Sun", "time": "Closed"}], "id": "8571000014", "name": "USPS COLLECTION BOX - BLUE BOX", "address": {"city": "TUCSON", "state": "AZ", "street": "555 N PANTANO RD", "postcode": "85710"}}},
{"geometry": {"type": "Point", "coordinates": [-110.8558650051, 32.2066188113]}, "type": "Feature", "properties": {"collection_times": [{"days": "Mon-Fri", "time": "2:30pm"}, {"days": "Sat", "time": "2:00pm"}, {"days": "Sun", "time": "Closed"}], "id": "8571000016", "name": "USPS COLLECTION BOX - BLUE BOX", "address": {"city": "TUCSON", "state": "AZ", "street": "6363 E 22ND ST", "postcode": "85710"}}},
{"geometry": {"type": "Point", "coordinates": [-110.8238695139, 32.1968629487]}, "type": "Feature", "properties": {"collection_times": [{"days": "Mon-Fri", "time": "2:00pm"}, {"days": "Sat", "time": "2:30pm"}, {"days": "Sun", "time": "Closed"}], "id": "8571000017", "name": "USPS COLLECTION BOX - BLUE BOX", "address": {"city": "TUCSON", "state": "AZ", "street": "2121 S PANTANO RD", "postcode": "85710"}}},
{"geometry": {"type": "Point", "coordinates": [-110.8237583158, 32.2080986929]}, "type": "Feature", "properties": {"collection_times": [{"days": "Mon-Fri", "time": "5:00pm"}, {"days": "Sat", "time": "4:30pm"}, {"days": "Sun", "time": "Closed"}], "id": "8571000018", "name": "USPS COLLECTION BOX - BLUE BOX", "address": {"city": "TUCSON", "state": "AZ", "street": "1099 S PANTANO RD", "postcode": "85710"}}},
{"geometry": {"type": "Point", "coordinates": [-110.8435811592, 32.2209148704]}, "type": "Feature", "properties": {"collection_times": [{"days": "Mon-Fri", "time": "1:30pm"}, {"days": "Sat-Sun", "time": "Closed"}], "id": "8571000026", "name": "USPS COLLECTION BOX - BLUE BOX", "address": {"city": "TUCSON", "state": "AZ", "street": "7000 E BROADWAY BLVD", "postcode": "85710"}}},
{"geometry": {"type": "Point", "coordinates": [-110.8238679105, 32.2151909919]}, "type": "Feature", "properties": {"collection_times": [{"days": "Mon-Fri", "time": "3:45pm"}, {"days": "Sat-Sun", "time": "Closed"}], "id": "8571000030", "name": "USPS COLLECTION BOX - EXPRESS", "address": {"city": "TUCSON", "state": "AZ", "street": "1099 S PANTANO RD", "postcode": "85710"}}},
{"geometry": {"type": "Point", "coordinates": [-110.8238679105, 32.2151909919]}, "type": "Feature", "properties": {"collection_times": [{"days": "Mon-Fri", "time": "2:30pm"}, {"days": "Sat", "time": "2:00pm"}, {"days": "Sun", "time": "Closed"}], "id": "8571000033", "name": "USPS COLLECTION BOX - BLUE BOX", "address": {"city": "TUCSON", "state": "AZ", "street": "9431 E 22ND ST", "postcode": "85710"}}},
{"geometry": {"type": "Point", "coordinates": [-110.8086057944, 32.220839161]}, "type": "Feature", "properties": {"collection_times": [{"days": "Mon-Fri", "time": "1:45pm"}, {"days": "Sat-Sun", "time": "Closed"}], "id": "8571000034", "name": "USPS COLLECTION BOX - BLUE BOX", "address": {"city": "TUCSON", "state": "AZ", "street": "8660 E BROADWAY BLVD", "postcode": "85710"}}},
{"geometry": {"type": "Point", "coordinates": [-110.8282212435, 32.2208836865]}, "type": "Feature", "properties": {"collection_times": [{"days": "Mon-Fri", "time": "1:45pm"}, {"days": "Sat-Sun", "time": "Closed"}], "id": "8571000036", "name": "USPS COLLECTION BOX - BLUE BOX", "address": {"city": "TUCSON", "state": "AZ", "street": "7670 E BROADWAY BLVD", "postcode": "85710"}}},
{"geometry": {"type": "Point", "coordinates": [-110.8564180607, 32.2209453211]}, "type": "Feature", "properties": {"collection_times": [{"days": "Mon-Fri", "time": "2:30pm"}, {"days": "Sat-Sun", "time": "Closed"}], "id": "8571000039", "name": "USPS COLLECTION BOX - BLUE BOX", "address": {"city": "TUCSON", "state": "AZ", "street": "6400 E BROADWAY BLVD", "postcode": "85710"}}},
{"geometry": {"type": "Point", "coordinates": [-110.8258379577, 32.2016279074]}, "type": "Feature", "properties": {"collection_times": [{"days": "Mon-Fri", "time": "12:30pm"}, {"days": "Sat-Sun", "time": "Closed"}], "id": "8571000041", "name": "USPS COLLECTION BOX - BLUE BOX", "address": {"city": "TUCSON", "state": "AZ", "street": "1635 S RESEARCH LOOP", "postcode": "85710"}}},
{"geometry": {"type": "Point", "coordinates": [-110.8237583158, 32.2080986929]}, "type": "Feature", "properties": {"collection_times": [{"days": "Mon-Fri", "time": "5:00pm"}, {"days": "Sat", "time": "4:30pm"}, {"days": "Sun", "time": "Closed"}], "id": "8571000045", "name": "USPS COLLECTION BOX - PO LOBBY", "address": {"city": "TUCSON", "state": "AZ", "street": "1099 S PANTANO RD", "postcode": "85710"}}},
{"geometry": {"type": "Point", "coordinates": [-110.8530010614, 32.2256869268]}, "type": "Feature", "properties": {"collection_times": [{"days": "Mon-Fri", "time": "1:30pm"}, {"days": "Sat-Sun", "time": "Closed"}], "id": "8571000046", "name": "USPS COLLECTION BOX - BLUE BOX", "address": {"city": "TUCSON", "state": "AZ", "street": "6565 E CARONDELET DR", "postcode": "85710"}}},
{"geometry": {"type": "Point", "coordinates": [-110.8341742695, 32.2210804846]}, "type": "Feature", "properties": {"collection_times": [{"days": "Mon-Fri", "time": "2:00pm"}, {"days": "Sat-Sun", "time": "Closed"}], "id": "8571000048", "name": "USPS COLLECTION BOX - BLUE BOX", "address": {"city": "TUCSON", "state": "AZ", "street": "7451 E BROADWAY BLVD", "postcode": "85710"}}},
{"geometry": {"type": "Point", "coordinates": [-110.830067036, 32.2356533561]}, "type": "Feature", "properties": {"collection_times": [{"days": "Mon-Fri", "time": "2:30pm"}, {"days": "Sat-Sun", "time": "Closed"}], "id": "8571000049", "name": "USPS COLLECTION BOX - BLUE BOX", "address": {"city": "TUCSON", "state": "AZ", "street": "7601 E SPEEDWAY BLVD", "postcode": "85710"}}},
{"geometry": {"type": "Point", "coordinates": [-110.7904828631, 32.2354309598]}, "type": "Feature", "properties": {"collection_times": [{"days": "Mon-Fri", "time": "2:30pm"}, {"days": "Sat-Sun", "time": "Closed"}], "id": "8571000050", "name": "USPS COLLECTION BOX - BLUE BOX", "address": {"city": "TUCSON", "state": "AZ", "street": "9495 E SPEEDWAY BLVD", "postcode": "85710"}}},
{"geometry": {"type": "Point", "coordinates": [-110.8425117643, 32.2064082446]}, "type": "Feature", "properties": {"collection_times": [{"days": "Mon-Fri", "time": "1:00pm"}, {"days": "Sat-Sun", "time": "Closed"}], "id": "8571000051", "name": "USPS COLLECTION BOX - BLUE BOX", "address": {"city": "TUCSON", "state": "AZ", "street": "7050 E 22ND ST", "postcode": "85710"}}},
{"geometry": {"type": "Point", "coordinates": [-110.8237780449, 32.2080103942]}, "type": "Feature", "properties": {"collection_times": [{"days": "Mon-Fri", "time": "5:00pm"}, {"days": "Sat", "time": "4:30pm"}, {"days": "Sun", "time": "Closed"}], "id": "8571000052", "name": "USPS COLLECTION BOX - APC", "address": {"city": "TUCSON", "state": "AZ", "street": "1099 S PANTANO RD", "postcode": "85710"}}},
{"geometry": {"type": "Point", "coordinates": [-110.8256427694, 32.2354699975]}, "type": "Feature", "properties": {"collection_times": [{"days": "Mon-Fri", "time": "2:30pm"}, {"days": "Sat", "time": "2:00pm"}, {"days": "Sun", "time": "Closed"}], "id": "8571000056", "name": "USPS COLLECTION BOX - BLUE BOX", "address": {"city": "TUCSON", "state": "AZ", "street": "7812 E SPEEDWAY BLVD", "postcode": "85710"}}},
{"geometry": {"type": "Point", "coordinates": [-110.8238592204, 32.2151823481]}, "type": "Feature", "properties": {"collection_times": [{"days": "Mon-Fri", "time": "5:00pm"}, {"days": "Sat", "time": "4:30pm"}, {"days": "Sun", "time": "Closed"}], "id": "8571000058", "name": "USPS COLLECTION BOX - BLUE BOX", "address": {"city": "TUCSON", "state": "AZ", "street": "1099 S PANTANO RD", "postcode": "85710"}}},
{"geometry": {"type": "Point", "coordinates": [-110.909371422, 32.2007489689]}, "type": "Feature", "properties": {"collection_times": [{"days": "Mon-Fri", "time": "1:30pm"}, {"days": "Sat-Sun", "time": "Closed"}], "id": "8571100011", "name": "USPS COLLECTION BOX - BLUE BOX", "address": {"city": "TUCSON", "state": "AZ", "street": "1875 S ALVERNON WAY", "postcode": "85711"}}},
{"geometry": {"type": "Point", "coordinates": [-110.884694898, 32.2217571371]}, "type": "Feature", "properties": {"collection_times": [{"days": "Mon-Fri", "time": "1:00pm"}, {"days": "Sat-Sun", "time": "Closed"}], "id": "8571100020", "name": "USPS COLLECTION BOX - BLUE BOX", "address": {"city": "TUCSON", "state": "AZ", "street": "5055 E BROADWAY BLVD", "postcode": "85711"}}},
{"geometry": {"type": "Point", "coordinates": [-110.8589040267, 32.2245844091]}, "type": "Feature", "properties": {"collection_times": [{"days": "Mon-Fri", "time": "2:30pm"}, {"days": "Sat-Sun", "time": "Closed"}], "id": "8571100021", "name": "USPS COLLECTION BOX - BLUE BOX", "address": {"city": "TUCSON", "state": "AZ", "street": "335 N WILMOT RD", "postcode": "85711"}}},
{"geometry": {"type": "Point", "coordinates": [-110.8971692003, 32.2288430613]}, "type": "Feature", "properties": {"collection_times": [{"days": "Mon-Fri", "time": "1:30pm"}, {"days": "Sat-Sun", "time": "Closed"}], "id": "8571100022", "name": "USPS COLLECTION BOX - BLUE BOX", "address": {"city": "TUCSON", "state": "AZ", "street": "4477 E 5TH ST", "postcode": "85711"}}},
{"geometry": {"type": "Point", "coordinates": [-110.9095121941, 32.2298663208]}, "type": "Feature", "properties": {"collection_times": [{"days": "Mon-Fri", "time": "1:30pm"}, {"days": "Sat-Sun", "time": "Closed"}], "id": "8571100026", "name": "USPS COLLECTION BOX - BLUE BOX", "address": {"city": "TUCSON", "state": "AZ", "street": "630 N ALVERNON WAY", "postcode": "85711"}}},
{"geometry": {"type": "Point", "coordinates": [-110.8751129304, 32.1983002438]}, "type": "Feature", "properties": {"collection_times": [{"days": "Mon-Fri", "time": "2:30pm"}, {"days": "Sat-Sun", "time": "Closed"}], "id": "8571100031", "name": "USPS COLLECTION BOX - BLUE BOX", "address": {"city": "TUCSON", "state": "AZ", "street": "2014 S CRAYCROFT RD", "postcode": "85711"}}},
{"geometry": {"type": "Point", "coordinates": [-110.8805521757, 32.2205233109]}, "type": "Feature", "properties": {"collection_times": [{"days": "Mon-Fri", "time": "2:30pm"}, {"days": "Sat", "time": "1:00pm"}, {"days": "Sun", "time": "Closed"}], "id": "8571100035", "name": "USPS COLLECTION BOX - BLUE BOX", "address": {"city": "TUCSON", "state": "AZ", "street": "5210 E WILLIAMS CIR", "postcode": "85711"}}},
{"geometry": {"type": "Point", "coordinates": [-110.8580262711, 32.2320678075]}, "type": "Feature", "properties": {"collection_times": [{"days": "Mon-Fri", "time": "2:00pm"}, {"days": "Sat-Sun", "time": "Closed"}], "id": "8571100036", "name": "USPS COLLECTION BOX - BLUE BOX", "address": {"city": "TUCSON", "state": "AZ", "street": "899 N WILMOT RD", "postcode": "85711"}}},
{"geometry": {"type": "Point", "coordinates": [-110.8668050096, 32.2214755929]}, "type": "Feature", "properties": {"collection_times": [{"days": "Mon-Fri", "time": "2:30pm"}, {"days": "Sat", "time": "1:00pm"}, {"days": "Sun", "time": "Closed"}], "id": "8571100038", "name": "USPS COLLECTION BOX - BLUE BOX", "address": {"city": "TUCSON", "state": "AZ", "street": "5870 E BROADWAY BLVD", "postcode": "85711"}}},
{"geometry": {"type": "Point", "coordinates": [-110.8804173184, 32.2167851606]}, "type": "Feature", "properties": {"collection_times": [{"days": "Mon-Fri", "time": "2:30pm"}, {"days": "Sat", "time": "1:00pm"}, {"days": "Sun", "time": "Closed"}], "id": "8571100042", "name": "USPS COLLECTION BOX - BLUE BOX", "address": {"city": "TUCSON", "state": "AZ", "street": "350 S WILLIAMS BLVD", "postcode": "85711"}}},
{"geometry": {"type": "Point", "coordinates": [-110.8838455335, 32.2248931614]}, "type": "Feature", "properties": {"collection_times": [{"days": "Mon-Fri", "time": "5:00pm"}, {"days": "Sat", "time": "4:15pm"}, {"days": "Sun", "time": "Closed"}], "id": "8571100044", "name": "USPS COLLECTION BOX - BLUE BOX", "address": {"city": "TUCSON", "state": "AZ", "street": "255 N ROSEMONT BLVD", "postcode": "85711"}}},
{"geometry": {"type": "Point", "coordinates": [-110.8838455335, 32.2248931614]}, "type": "Feature", "properties": {"collection_times": [{"days": "Mon-Fri", "time": "5:00pm"}, {"days": "Sat", "time": "4:15pm"}, {"days": "Sun", "time": "Closed"}], "id": "8571100045", "name": "USPS COLLECTION BOX - BLUE BOX", "address": {"city": "TUCSON", "state": "AZ", "street": "255 N ROSEMONT BLVD", "postcode": "85711"}}},
{"geometry": {"type": "Point", "coordinates": [-110.909442931, 32.204169071]}, "type": "Feature", "properties": {"collection_times": [{"days": "Mon-Fri", "time": "10:00am"}, {"days": "Sat-Sun", "time": "Closed"}], "id": "8571100046", "name": "USPS COLLECTION BOX - BLUE BOX", "address": {"city": "TUCSON", "state": "AZ", "street": "1455 S ALVERNON WAY", "postcode": "85711"}}},
{"geometry": {"type": "Point", "coordinates": [-110.8922540058, 32.2226822111]}, "type": "Feature", "properties": {"collection_times": [{"days": "Mon-Fri", "time": "2:30pm"}, {"days": "Sat-Sun", "time": "Closed"}], "id": "8571100048", "name": "USPS COLLECTION BOX - BLUE BOX", "address": {"city": "TUCSON", "state": "AZ", "street": "40 N SWAN RD", "postcode": "85711"}}},
{"geometry": {"type": "Point", "coordinates": [-110.8832091015, 32.2217595031]}, "type": "Feature", "properties": {"collection_times": [{"days": "Mon-Fri", "time": "2:30pm"}, {"days": "Sat-Sun", "time": "Closed"}], "id": "8571100050", "name": "USPS COLLECTION BOX - BLUE BOX", "address": {"city": "TUCSON", "state": "AZ", "street": "5151 E BROADWAY BLVD", "postcode": "85711"}}},
{"geometry": {"type": "Point", "coordinates": [-110.85802982, 32.223866353]}, "type": "Feature", "properties": {"collection_times": [{"days": "Mon-Fri", "time": "9:00am"}, {"days": "Sat-Sun", "time": "Closed"}], "id": "8571100052", "name": "USPS COLLECTION BOX - BLUE BOX", "address": {"city": "TUCSON", "state": "AZ", "street": "101 N WILMOT RD", "postcode": "85711"}}},
{"geometry": {"type": "Point", "coordinates": [-110.8940308102, 32.2215867911]}, "type": "Feature", "properties": {"collection_times": [{"days": "Mon-Fri", "time": "1:15pm"}, {"days": "Sat-Sun", "time": "Closed"}], "id": "8571100053", "name": "USPS COLLECTION BOX - BLUE BOX", "address": {"city": "TUCSON", "state": "AZ", "street": "4601 E BROADWAY BLVD", "postcode": "85711"}}},
{"geometry": {"type": "Point", "coordinates": [-110.8844981172, 32.2161903432]}, "type": "Feature", "properties": {"collection_times": [{"days": "Mon-Fri", "time": "4:00pm"}, {"days": "Sat-Sun", "time": "Closed"}], "id": "8571100054", "name": "USPS COLLECTION BOX - EXPRESS", "address": {"city": "TUCSON", "state": "AZ", "street": "255 N ROSEMONT BLVD", "postcode": "85711"}}},
{"geometry": {"type": "Point", "coordinates": [-110.8578393636, 32.2264357398]}, "type": "Feature", "properties": {"collection_times": [{"days": "Mon-Fri", "time": "1:45pm"}, {"days": "Sat-Sun", "time": "Closed"}], "id": "8571100055", "name": "USPS COLLECTION BOX - BLUE BOX", "address": {"city": "TUCSON", "state": "AZ", "street": "420 N WILMOT RD", "postcode": "85711"}}},
{"geometry": {"type": "Point", "coordinates": [-110.8838455335, 32.2248931614]}, "type": "Feature", "properties": {"collection_times": [{"days": "Mon-Fri", "time": "5:00pm"}, {"days": "Sat", "time": "4:15pm"}, {"days": "Sun", "time": "Closed"}], "id": "8571100059", "name": "USPS COLLECTION BOX - BLUE BOX", "address": {"city": "TUCSON", "state": "AZ", "street": "255 N ROSEMONT BLVD", "postcode": "85711"}}},
{"geometry": {"type": "Point", "coordinates": [-110.8981912768, 32.2214176279]}, "type": "Feature", "properties": {"collection_times": [{"days": "Mon-Fri", "time": "2:30pm"}, {"days": "Sat", "time": "1:00pm"}, {"days": "Sun", "time": "Closed"}], "id": "8571100061", "name": "USPS COLLECTION BOX - BLUE BOX", "address": {"city": "TUCSON", "state": "AZ", "street": "4400 E BROADWAY BLVD", "postcode": "85711"}}},
{"geometry": {"type": "Point", "coordinates": [-110.8838455335, 32.2248931614]}, "type": "Feature", "properties": {"collection_times": [{"days": "Mon-Fri", "time": "5:00pm"}, {"days": "Sat", "time": "4:15pm"}, {"days": "Sun", "time": "Closed"}], "id": "8571100062", "name": "USPS COLLECTION BOX - PO LOBBY", "address": {"city": "TUCSON", "state": "AZ", "street": "255 N ROSEMONT BLVD", "postcode": "85711"}}},
{"geometry": {"type": "Point", "coordinates": [-110.9042030743, 32.2069299295]}, "type": "Feature", "properties": {"collection_times": [{"days": "Mon-Fri", "time": "12:45pm"}, {"days": "Sat-Sun", "time": "Closed"}], "id": "8571100063", "name": "USPS COLLECTION BOX - BLUE BOX", "address": {"city": "TUCSON", "state": "AZ", "street": "4150 E 22ND ST", "postcode": "85711"}}},
{"geometry": {"type": "Point", "coordinates": [-110.8758700241, 32.2217299291]}, "type": "Feature", "properties": {"collection_times": [{"days": "Mon-Sat", "time": "10:00am"}, {"days": "Sun", "time": "Closed"}], "id": "8571100065", "name": "USPS COLLECTION BOX - BLUE BOX", "address": {"city": "TUCSON", "state": "AZ", "street": "5425 E BROADWAY BLVD", "postcode": "85711"}}},
{"geometry": {"type": "Point", "coordinates": [-110.8768021958, 32.2069831626]}, "type": "Feature", "properties": {"collection_times": [{"days": "Mon-Fri", "time": "1:00pm"}, {"days": "Sat-Sun", "time": "Closed"}], "id": "8571100066", "name": "USPS COLLECTION BOX - BLUE BOX", "address": {"city": "TUCSON", "state": "AZ", "street": "5441 E 22ND ST", "postcode": "85711"}}},
{"geometry": {"type": "Point", "coordinates": [-110.9096435026, 32.2293351723]}, "type": "Feature", "properties": {"collection_times": [{"days": "Mon-Fri", "time": "1:30pm"}, {"days": "Sat-Sun", "time": "Closed"}], "id": "8571100067", "name": "USPS COLLECTION BOX - BLUE BOX", "address": {"city": "TUCSON", "state": "AZ", "street": "615 N ALVERNON WAY", "postcode": "85711"}}},
{"geometry": {"type": "Point", "coordinates": [-110.8838455335, 32.2248931614]}, "type": "Feature", "properties": {"collection_times": [{"days": "Mon-Fri", "time": "5:00pm"}, {"days": "Sat", "time": "4:15pm"}, {"days": "Sun", "time": "Closed"}], "id": "8571100069", "name": "USPS COLLECTION BOX - APC", "address": {"city": "TUCSON", "state": "AZ", "street": "255 N ROSEMONT BLVD", "postcode": "85711"}}},
{"geometry": {"type": "Point", "coordinates": [-110.8577920452, 32.2399770711]}, "type": "Feature", "properties": {"collection_times": [{"days": "Mon-Fri", "time": "2:00pm"}, {"days": "Sat-Sun", "time": "Closed"}], "id": "8571200001", "name": "USPS COLLECTION BOX - BLUE BOX", "address": {"city": "TUCSON", "state": "AZ", "street": "1400 N WILMOT RD", "postcode": "85712"}}},
{"geometry": {"type": "Point", "coordinates": [-110.8910402899, 32.2362684948]}, "type": "Feature", "properties": {"collection_times": [{"days": "Mon-Fri", "time": "2:30pm"}, {"days": "Sat", "time": "1:00pm"}, {"days": "Sun", "time": "Closed"}], "id": "8571200002", "name": "USPS COLLECTION BOX - BLUE BOX", "address": {"city": "TUCSON", "state": "AZ", "street": "4747 E SPEEDWAY BLVD", "postcode": "85712"}}},
{"geometry": {"type": "Point", "coordinates": [-110.8786618073, 32.2496832494]}, "type": "Feature", "properties": {"collection_times": [{"days": "Mon-Fri", "time": "12:45pm"}, {"days": "Sat-Sun", "time": "Closed"}], "id": "8571200005", "name": "USPS COLLECTION BOX - BLUE BOX", "address": {"city": "TUCSON", "state": "AZ", "street": "5300 E ERICKSON DR", "postcode": "85712"}}},
{"geometry": {"type": "Point", "coordinates": [-110.8891776884, 32.250780978]}, "type": "Feature", "properties": {"collection_times": [{"days": "Mon-Fri", "time": "10:00am"}, {"days": "Sat-Sun", "time": "Closed"}], "id": "8571200006", "name": "USPS COLLECTION BOX - BLUE BOX", "address": {"city": "TUCSON", "state": "AZ", "street": "5099 E GRANT RD", "postcode": "85712"}}},
{"geometry": {"type": "Point", "coordinates": [-110.8580570645, 32.2414617211]}, "type": "Feature", "properties": {"collection_times": [{"days": "Mon-Fri", "time": "2:30pm"}, {"days": "Sat-Sun", "time": "Closed"}], "id": "8571200008", "name": "USPS COLLECTION BOX - BLUE BOX", "address": {"city": "TUCSON", "state": "AZ", "street": "6298 E LEE ST", "postcode": "85712"}}},
{"geometry": {"type": "Point", "coordinates": [-110.8761574832, 32.2434549705]}, "type": "Feature", "properties": {"collection_times": [{"days": "Mon-Fri", "time": "2:00pm"}, {"days": "Sat-Sun", "time": "Closed"}], "id": "8571200022", "name": "USPS COLLECTION BOX - BLUE BOX", "address": {"city": "TUCSON", "state": "AZ", "street": "5462 E PIMA ST", "postcode": "85712"}}},
{"geometry": {"type": "Point", "coordinates": [-110.8939116531, 32.243352572]}, "type": "Feature", "properties": {"collection_times": [{"days": "Mon-Fri", "time": "1:45pm"}, {"days": "Sat-Sun", "time": "Closed"}], "id": "8571200025", "name": "USPS COLLECTION BOX - BLUE BOX", "address": {"city": "TUCSON", "state": "AZ", "street": "4640 E PIMA ST", "postcode": "85712"}}},
{"geometry": {"type": "Point", "coordinates": [-110.9083469796, 32.23626258]}, "type": "Feature", "properties": {"collection_times": [{"days": "Mon-Fri", "time": "11:00am"}, {"days": "Sat", "time": "8:30am"}, {"days": "Sun", "time": "Closed"}], "id": "8571200026", "name": "USPS COLLECTION BOX - BLUE BOX", "address": {"city": "TUCSON", "state": "AZ", "street": "3955 E SPEEDWAY BLVD", "postcode": "85712"}}},
{"geometry": {"type": "Point", "coordinates": [-110.8913644207, 32.2505811153]}, "type": "Feature", "properties": {"collection_times": [{"days": "Mon-Fri", "time": "2:00pm"}, {"days": "Sat", "time": "1:15pm"}, {"days": "Sun", "time": "Closed"}], "id": "8571200027", "name": "USPS COLLECTION BOX - BLUE BOX", "address": {"city": "TUCSON", "state": "AZ", "street": "4724 E GRANT RD", "postcode": "85712"}}},
{"geometry": {"type": "Point", "coordinates": [-110.863450138, 32.2513322942]}, "type": "Feature", "properties": {"collection_times": [{"days": "Mon-Fri", "time": "2:15pm"}, {"days": "Sat-Sun", "time": "Closed"}], "id": "8571200040", "name": "USPS COLLECTION BOX - BLUE BOX", "address": {"city": "TUCSON", "state": "AZ", "street": "5997 E GRANT RD", "postcode": "85712"}}},
{"geometry": {"type": "Point", "coordinates": [-110.8924610236, 32.2609651291]}, "type": "Feature", "properties": {"collection_times": [{"days": "Mon-Fri", "time": "2:30pm"}, {"days": "Sat-Sun", "time": "Closed"}], "id": "8571200042", "name": "USPS COLLECTION BOX - BLUE BOX", "address": {"city": "TUCSON", "state": "AZ", "street": "2970 N SWAN RD", "postcode": "85712"}}},
{"geometry": {"type": "Point", "coordinates": [-110.8925308182, 32.2581603334]}, "type": "Feature", "properties": {"collection_times": [{"days": "Mon-Fri", "time": "2:15pm"}, {"days": "Sat-Sun", "time": "Closed"}], "id": "8571200044", "name": "USPS COLLECTION BOX - BLUE BOX", "address": {"city": "TUCSON", "state": "AZ", "street": "2810 N SWAN RD", "postcode": "85712"}}},
{"geometry": {"type": "Point", "coordinates": [-110.8914223856, 32.2665995626]}, "type": "Feature", "properties": {"collection_times": [{"days": "Mon-Fri", "time": "2:30pm"}, {"days": "Sat-Sun", "time": "Closed"}], "id": "8571200047", "name": "USPS COLLECTION BOX - BLUE BOX", "address": {"city": "TUCSON", "state": "AZ", "street": "4769 E CAMP LOWELL DR", "postcode": "85712"}}},
{"geometry": {"type": "Point", "coordinates": [-110.8601780735, 32.236031903]}, "type": "Feature", "properties": {"collection_times": [{"days": "Mon-Fri", "time": "2:00pm"}, {"days": "Sat-Sun", "time": "Closed"}], "id": "8571200049", "name": "USPS COLLECTION BOX - BLUE BOX", "address": {"city": "TUCSON", "state": "AZ", "street": "6230 E SPEEDWAY BLVD", "postcode": "85712"}}},
{"geometry": {"type": "Point", "coordinates": [-110.8661094297, 32.2434005544]}, "type": "Feature", "properties": {"collection_times": [{"days": "Mon-Fri", "time": "2:15pm"}, {"days": "Sat-Sun", "time": "Closed"}], "id": "8571200058", "name": "USPS COLLECTION BOX - BLUE BOX", "address": {"city": "TUCSON", "state": "AZ", "street": "5909 E PIMA ST", "postcode": "85712"}}},
{"geometry": {"type": "Point", "coordinates": [-110.8938024991, 32.2614986436]}, "type": "Feature", "properties": {"collection_times": [{"days": "Mon-Fri", "time": "1:45pm"}, {"days": "Sat-Sun", "time": "Closed"}], "id": "8571200059", "name": "USPS COLLECTION BOX - BLUE BOX", "address": {"city": "TUCSON", "state": "AZ", "street": "4625 E FORT LOWELL RD", "postcode": "85712"}}},
{"geometry": {"type": "Point", "coordinates": [-110.8894557685, 32.2505332666]}, "type": "Feature", "properties": {"collection_times": [{"days": "Mon-Fri", "time": "2:30pm"}, {"days": "Sat-Sun", "time": "Closed"}], "id": "8571200060", "name": "USPS COLLECTION BOX - BLUE BOX", "address": {"city": "TUCSON", "state": "AZ", "street": "1101 N WILMOT RD", "postcode": "85712"}}},
{"geometry": {"type": "Point", "coordinates": [-110.8950422401, 32.2650924729]}, "type": "Feature", "properties": {"collection_times": [{"days": "Mon-Fri", "time": "2:30pm"}, {"days": "Sat-Sun", "time": "Closed"}], "id": "8571200062", "name": "USPS COLLECTION BOX - BLUE BOX", "address": {"city": "TUCSON", "state": "AZ", "street": "4568 E CAMP LOWELL DR", "postcode": "85712"}}},
{"geometry": {"type": "Point", "coordinates": [-110.8894557685, 32.2505332666]}, "type": "Feature", "properties": {"collection_times": [{"days": "Mon-Fri", "time": "2:30pm"}, {"days": "Sat", "time": "1:15pm"}, {"days": "Sun", "time": "Closed"}], "id": "8571200066", "name": "USPS COLLECTION BOX - BLUE BOX", "address": {"city": "TUCSON", "state": "AZ", "street": "4811 E GRANT RD", "postcode": "85712"}}},
{"geometry": {"type": "Point", "coordinates": [-110.9298567224, 32.1778894698]}, "type": "Feature", "properties": {"collection_times": [{"days": "Mon-Fri", "time": "1:00pm"}, {"days": "Sat-Sun", "time": "Closed"}], "id": "8571300003", "name": "USPS COLLECTION BOX - BLUE BOX", "address": {"city": "TUCSON", "state": "AZ", "street": "2800 E AJO WAY", "postcode": "85713"}}},
{"geometry": {"type": "Point", "coordinates": [-110.9682768637, 32.1807770727]}, "type": "Feature", "properties": {"collection_times": [{"days": "Mon-Fri", "time": "12:15pm"}, {"days": "Sat-Sun", "time": "Closed"}], "id": "8571300004", "name": "USPS COLLECTION BOX - BLUE BOX", "address": {"city": "TUCSON", "state": "AZ", "street": "3601 S 6TH AVE", "postcode": "85713"}}},
{"geometry": {"type": "Point", "coordinates": [-110.9819057339, 32.1803807814]}, "type": "Feature", "properties": {"collection_times": [{"days": "Mon-Fri", "time": "2:30pm"}, {"days": "Sat", "time": "12:45pm"}, {"days": "Sun", "time": "Closed"}], "id": "8571300005", "name": "USPS COLLECTION BOX - BLUE BOX", "address": {"city": "TUCSON", "state": "AZ", "street": "3652 S 16TH AVE", "postcode": "85713"}}},
{"geometry": {"type": "Point", "coordinates": [-110.9992680226, 32.1922884464]}, "type": "Feature", "properties": {"collection_times": [{"days": "Mon-Fri", "time": "1:30pm"}, {"days": "Sat", "time": "12:45pm"}, {"days": "Sun", "time": "Closed"}], "id": "8571300007", "name": "USPS COLLECTION BOX - BLUE BOX", "address": {"city": "TUCSON", "state": "AZ", "street": "2616 S MISSION RD", "postcode": "85713"}}},
{"geometry": {"type": "Point", "coordinates": [-110.9465876901, 32.2040593917]}, "type": "Feature", "properties": {"collection_times": [{"days": "Mon-Sat", "time": "7:00pm"}, {"days": "Sun", "time": "Closed"}], "id": "8571300008", "name": "USPS COLLECTION BOX - BLUE BOX", "address": {"city": "TUCSON", "state": "AZ", "street": "1501 S CHERRYBELL STRA", "postcode": "85713"}}},
{"geometry": {"type": "Point", "coordinates": [-110.9779106947, 32.1778035138]}, "type": "Feature", "properties": {"collection_times": [{"days": "Mon-Fri", "time": "2:30pm"}, {"days": "Sat-Sun", "time": "Closed"}], "id": "8571300011", "name": "USPS COLLECTION BOX - BLUE BOX", "address": {"city": "TUCSON", "state": "AZ", "street": "605 W AJO WAY", "postcode": "85713"}}},
{"geometry": {"type": "Point", "coordinates": [-110.9465876901, 32.2040593917]}, "type": "Feature", "properties": {"collection_times": [{"days": "Mon-Sat", "time": "7:00pm"}, {"days": "Sun", "time": "Closed"}], "id": "8571300012", "name": "USPS COLLECTION BOX - BLUE BOX", "address": {"city": "TUCSON", "state": "AZ", "street": "1501 S CHERRYBELL STRA", "postcode": "85713"}}},
{"geometry": {"type": "Point", "coordinates": [-111.0942046536, 32.1866842066]}, "type": "Feature", "properties": {"collection_times": [{"days": "Mon-Fri", "time": "2:00pm"}, {"days": "Sat", "time": "1:00pm"}, {"days": "Sun", "time": "Closed"}], "id": "8571300013", "name": "USPS COLLECTION BOX - BLUE BOX", "address": {"city": "TUCSON", "state": "AZ", "street": "3025 S KINNEY RD", "postcode": "85713"}}},
{"geometry": {"type": "Point", "coordinates": [-110.9465876901, 32.2040593917]}, "type": "Feature", "properties": {"collection_times": [{"days": "Mon-Sat", "time": "7:00pm"}, {"days": "Sun", "time": "Closed"}], "id": "8571300015", "name": "USPS COLLECTION BOX - BLUE BOX", "address": {"city": "TUCSON", "state": "AZ", "street": "1501 S CHERRYBELL STRA", "postcode": "85713"}}},
{"geometry": {"type": "Point", "coordinates": [-110.9177467715, 32.1848689277]}, "type": "Feature", "properties": {"collection_times": [{"days": "Mon-Fri", "time": "2:30pm"}, {"days": "Sat-Sun", "time": "Closed"}], "id": "8571300016", "name": "USPS COLLECTION BOX - BLUE BOX", "address": {"city": "TUCSON", "state": "AZ", "street": "3441 S PALO VERDE RD", "postcode": "85713"}}},
{"geometry": {"type": "Point", "coordinates": [-110.96844786, 32.1942798185]}, "type": "Feature", "properties": {"collection_times": [{"days": "Mon-Fri", "time": "1:15pm"}, {"days": "Sat-Sun", "time": "Closed"}], "id": "8571300017", "name": "USPS COLLECTION BOX - BLUE BOX", "address": {"city": "TUCSON", "state": "AZ", "street": "2420 S 6TH AVE", "postcode": "85713"}}},
{"geometry": {"type": "Point", "coordinates": [-110.9465876901, 32.2040593917]}, "type": "Feature", "properties": {"collection_times": [{"days": "Mon-Sat", "time": "7:00pm"}, {"days": "Sun", "time": "Closed"}], "id": "8571300022", "name": "USPS COLLECTION BOX - BLUE BOX", "address": {"city": "TUCSON", "state": "AZ", "street": "1501 S CHERRYBELL STRA", "postcode": "85713"}}},
{"geometry": {"type": "Point", "coordinates": [-110.9465876901, 32.2040593917]}, "type": "Feature", "properties": {"collection_times": [{"days": "Mon-Sat", "time": "7:00pm"}, {"days": "Sun", "time": "Closed"}], "id": "8571300025", "name": "USPS COLLECTION BOX - PO LOBBY", "address": {"city": "TUCSON", "state": "AZ", "street": "1501 S CHERRYBELL STRA", "postcode": "85713"}}},
{"geometry": {"type": "Point", "coordinates": [-110.9135721093, 32.1866315366]}, "type": "Feature", "properties": {"collection_times": [{"days": "Mon-Fri", "time": "2:30pm"}, {"days": "Sat", "time": "1:00pm"}, {"days": "Sun", "time": "Closed"}], "id": "8571300027", "name": "USPS COLLECTION BOX - BLUE BOX", "address": {"city": "TUCSON", "state": "AZ", "street": "3215 S DODGE BLVD", "postcode": "85713"}}},
{"geometry": {"type": "Point", "coordinates": [-110.9744484211, 32.19392219]}, "type": "Feature", "properties": {"collection_times": [{"days": "Mon-Fri", "time": "7:00pm"}, {"days": "Sat-Sun", "time": "Closed"}], "id": "8571300028", "name": "USPS COLLECTION BOX - EXPRESS", "address": {"city": "TUCSON", "state": "AZ", "street": "1501 S CHERRYBELL STRA", "postcode": "85713"}}},
{"geometry": {"type": "Point", "coordinates": [-110.9465876901, 32.2040593917]}, "type": "Feature", "properties": {"collection_times": [{"days": "Mon-Sat", "time": "7:00pm"}, {"days": "Sun", "time": "Closed"}], "id": "8571300029", "name": "USPS COLLECTION BOX - APC", "address": {"city": "TUCSON", "state": "AZ", "street": "1501 S CHERRYBELL STRA", "postcode": "85713"}}},
{"geometry": {"type": "Point", "coordinates": [-110.9546337748, 32.1802675564]}, "type": "Feature", "properties": {"collection_times": [{"days": "Mon-Fri", "time": "2:30pm"}, {"days": "Sat", "time": "1:00pm"}, {"days": "Sun", "time": "Closed"}], "id": "8571300037", "name": "USPS COLLECTION BOX - BLUE BOX", "address": {"city": "TUCSON", "state": "AZ", "street": "1051 E BENSON HWY", "postcode": "85713"}}},
{"geometry": {"type": "Point", "coordinates": [-110.9588064013, 32.169490224]}, "type": "Feature", "properties": {"collection_times": [{"days": "Mon-Fri", "time": "2:30pm"}, {"days": "Sat-Sun", "time": "Closed"}], "id": "8571400001", "name": "USPS COLLECTION BOX - BLUE BOX", "address": {"city": "TUCSON", "state": "AZ", "street": "4495 S COACH DR", "postcode": "85714"}}},
{"geometry": {"type": "Point", "coordinates": [-110.9561847649, 32.1709214851]}, "type": "Feature", "properties": {"collection_times": [{"days": "Mon-Fri", "time": "12:15pm"}, {"days": "Sat-Sun", "time": "Closed"}], "id": "8571400002", "name": "USPS COLLECTION BOX - BLUE BOX", "address": {"city": "TUCSON", "state": "AZ", "street": "4449 S PARK AVE", "postcode": "85714"}}},
{"geometry": {"type": "Point", "coordinates": [-110.9562556347, 32.1758808055]}, "type": "Feature", "properties": {"collection_times": [{"days": "Mon-Fri", "time": "10:00am"}, {"days": "Sat-Sun", "time": "Closed"}], "id": "8571400003", "name": "USPS COLLECTION BOX - BLUE BOX", "address": {"city": "TUCSON", "state": "AZ", "street": "4004 S PARK AVE", "postcode": "85714"}}},
{"geometry": {"type": "Point", "coordinates": [-110.9562154141, 32.1672653154]}, "type": "Feature", "properties": {"collection_times": [{"days": "Mon-Fri", "time": "12:00pm"}, {"days": "Sat-Sun", "time": "Closed"}], "id": "8571400005", "name": "USPS COLLECTION BOX - BLUE BOX", "address": {"city": "TUCSON", "state": "AZ", "street": "4700 S PARK AVE", "postcode": "85714"}}},
{"geometry": {"type": "Point", "coordinates": [-110.9588064013, 32.169490224]}, "type": "Feature", "properties": {"collection_times": [{"days": "Mon-Fri", "time": "2:30pm"}, {"days": "Sat", "time": "1:00pm"}, {"days": "Sun", "time": "Closed"}], "id": "8571400011", "name": "USPS COLLECTION BOX - BLUE BOX", "address": {"city": "TUCSON", "state": "AZ", "street": "4495 S COACH DR", "postcode": "85714"}}},
{"geometry": {"type": "Point", "coordinates": [-110.9911446434, 32.1631935706]}, "type": "Feature", "properties": {"collection_times": [{"days": "Mon-Fri", "time": "1:30pm"}, {"days": "Sat-Sun", "time": "Closed"}], "id": "8571400012", "name": "USPS COLLECTION BOX - BLUE BOX", "address": {"city": "TUCSON", "state": "AZ", "street": "1221 W IRVINGTON RD", "postcode": "85714"}}},
{"geometry": {"type": "Point", "coordinates": [-110.982449895, 32.1632456208]}, "type": "Feature", "properties": {"collection_times": [{"days": "Mon-Fri", "time": "1:30pm"}, {"days": "Sat-Sun", "time": "Closed"}], "id": "8571400013", "name": "USPS COLLECTION BOX - BLUE BOX", "address": {"city": "TUCSON", "state": "AZ", "street": "902 W IRVINGTON RD", "postcode": "85714"}}},
{"geometry": {"type": "Point", "coordinates": [-110.8555586187, 32.2368741698]}, "type": "Feature", "properties": {"collection_times": [{"days": "Mon-Fri", "time": "2:30pm"}, {"days": "Sat-Sun", "time": "Closed"}], "id": "8571500001", "name": "USPS COLLECTION BOX - BLUE BOX", "address": {"city": "TUCSON", "state": "AZ", "street": "1121 N EL DORADO PL", "postcode": "85715"}}},
{"geometry": {"type": "Point", "coordinates": [-110.8236088139, 32.2510112733]}, "type": "Feature", "properties": {"collection_times": [{"days": "Mon-Fri", "time": "2:30pm"}, {"days": "Sat-Sun", "time": "Closed"}], "id": "8571500003", "name": "USPS COLLECTION BOX - BLUE BOX", "address": {"city": "TUCSON", "state": "AZ", "street": "2440 N PANTANO RD", "postcode": "85715"}}},
{"geometry": {"type": "Point", "coordinates": [-110.8540692734, 32.250561005]}, "type": "Feature", "properties": {"collection_times": [{"days": "Mon-Fri", "time": "5:00pm"}, {"days": "Sat", "time": "4:30pm"}, {"days": "Sun", "time": "Closed"}], "id": "8571500004", "name": "USPS COLLECTION BOX - BLUE BOX", "address": {"city": "TUCSON", "state": "AZ", "street": "6460 E GRANT RD", "postcode": "85715"}}},
{"geometry": {"type": "Point", "coordinates": [-110.8314673251, 32.247691633]}, "type": "Feature", "properties": {"collection_times": [{"days": "Mon-Fri", "time": "4:00pm"}, {"days": "Sat-Sun", "time": "Closed"}], "id": "8571500006", "name": "USPS COLLECTION BOX - EXPRESS", "address": {"city": "TUCSON", "state": "AZ", "street": "6460 E GRANT RD", "postcode": "85715"}}},
{"geometry": {"type": "Point", "coordinates": [-110.8387215637, 32.2508591106]}, "type": "Feature", "properties": {"collection_times": [{"days": "Mon-Fri", "time": "2:30pm"}, {"days": "Sat", "time": "2:00pm"}, {"days": "Sun", "time": "Closed"}], "id": "8571500010", "name": "USPS COLLECTION BOX - BLUE BOX", "address": {"city": "TUCSON", "state": "AZ", "street": "7177 E TANQUE VERDE RD", "postcode": "85715"}}},
{"geometry": {"type": "Point", "coordinates": [-110.8555833272, 32.2368600743]}, "type": "Feature", "properties": {"collection_times": [{"days": "Mon-Fri", "time": "2:30pm"}, {"days": "Sat-Sun", "time": "Closed"}], "id": "8571500012", "name": "USPS COLLECTION BOX - BLUE BOX", "address": {"city": "TUCSON", "state": "AZ", "street": "1121 N EL DORADO PL", "postcode": "85715"}}},
{"geometry": {"type": "Point", "coordinates": [-110.8477037712, 32.2463200971]}, "type": "Feature", "properties": {"collection_times": [{"days": "Mon-Fri", "time": "2:30pm"}, {"days": "Sat-Sun", "time": "Closed"}], "id": "8571500014", "name": "USPS COLLECTION BOX - BLUE BOX", "address": {"city": "TUCSON", "state": "AZ", "street": "2090 N KOLB RD", "postcode": "85715"}}},
{"geometry": {"type": "Point", "coordinates": [-110.8540692734, 32.250561005]}, "type": "Feature", "properties": {"collection_times": [{"days": "Mon-Fri", "time": "5:00pm"}, {"days": "Sat", "time": "4:30pm"}, {"days": "Sun", "time": "Closed"}], "id": "8571500017", "name": "USPS COLLECTION BOX - BLUE BOX", "address": {"city": "TUCSON", "state": "AZ", "street": "6460 E GRANT RD", "postcode": "85715"}}},
{"geometry": {"type": "Point", "coordinates": [-110.8487141169, 32.250311731]}, "type": "Feature", "properties": {"collection_times": [{"days": "Mon-Fri", "time": "2:30pm"}, {"days": "Sat", "time": "2:00pm"}, {"days": "Sun", "time": "Closed"}], "id": "8571500018", "name": "USPS COLLECTION BOX - BLUE BOX", "address": {"city": "TUCSON", "state": "AZ", "street": "6722 E CAMINO PRINCIPAL", "postcode": "85715"}}},
{"geometry": {"type": "Point", "coordinates": [-110.8540692734, 32.250561005]}, "type": "Feature", "properties": {"collection_times": [{"days": "Mon-Fri", "time": "5:00pm"}, {"days": "Sat", "time": "4:30pm"}, {"days": "Sun", "time": "Closed"}], "id": "8571500022", "name": "USPS COLLECTION BOX - BLUE BOX", "address": {"city": "TUCSON", "state": "AZ", "street": "6460 E GRANT RD", "postcode": "85715"}}},
{"geometry": {"type": "Point", "coordinates": [-110.8557715513, 32.2444817789]}, "type": "Feature", "properties": {"collection_times": [{"days": "Mon-Fri", "time": "2:30pm"}, {"days": "Sat-Sun", "time": "Closed"}], "id": "8571500024", "name": "USPS COLLECTION BOX - BLUE BOX", "address": {"city": "TUCSON", "state": "AZ", "street": "6369 E TANQUE VERDE RD", "postcode": "85715"}}},
{"geometry": {"type": "Point", "coordinates": [-110.8431978805, 32.2419750888]}, "type": "Feature", "properties": {"collection_times": [{"days": "Mon-Fri", "time": "2:30pm"}, {"days": "Sat-Sun", "time": "Closed"}], "id": "8571500026", "name": "USPS COLLECTION BOX - BLUE BOX", "address": {"city": "TUCSON", "state": "AZ", "street": "1650 N KOLB RD", "postcode": "85715"}}},
{"geometry": {"type": "Point", "coordinates": [-110.8540692734, 32.250561005]}, "type": "Feature", "properties": {"collection_times": [{"days": "Mon-Fri", "time": "5:00pm"}, {"days": "Sat", "time": "4:30pm"}, {"days": "Sun", "time": "Closed"}], "id": "8571500030", "name": "USPS COLLECTION BOX - PO LOBBY", "address": {"city": "TUCSON", "state": "AZ", "street": "6460 E GRANT RD", "postcode": "85715"}}},
{"geometry": {"type": "Point", "coordinates": [-110.8420066408, 32.2507159726]}, "type": "Feature", "properties": {"collection_times": [{"days": "Mon-Fri", "time": "1:30pm"}, {"days": "Sat-Sun", "time": "Closed"}], "id": "8571500032", "name": "USPS COLLECTION BOX - BLUE BOX", "address": {"city": "TUCSON", "state": "AZ", "street": "7000 E TANQUE VERDE RD", "postcode": "85715"}}},
{"geometry": {"type": "Point", "coordinates": [-110.8540692734, 32.250561005]}, "type": "Feature", "properties": {"collection_times": [{"days": "Mon-Fri", "time": "5:00pm"}, {"days": "Sat", "time": "4:30pm"}, {"days": "Sun", "time": "Closed"}], "id": "8571500033", "name": "USPS COLLECTION BOX - APC", "address": {"city": "TUCSON", "state": "AZ", "street": "6460 E GRANT RD", "postcode": "85715"}}},
{"geometry": {"type": "Point", "coordinates": [-110.8447700329, 32.2435448754]}, "type": "Feature", "properties": {"collection_times": [{"days": "Mon-Fri", "time": "2:30pm"}, {"days": "Sat-Sun", "time": "Closed"}], "id": "8571500037", "name": "USPS COLLECTION BOX - BLUE BOX", "address": {"city": "TUCSON", "state": "AZ", "street": "1849 N KOLB RD", "postcode": "85715"}}},
{"geometry": {"type": "Point", "coordinates": [-110.85463, 32.2506]}, "type": "Feature", "properties": {"collection_times": [{"days": "Mon-Fri", "time": "5:00pm"}, {"days": "Sat", "time": "4:30pm"}, {"days": "Sun", "time": "Closed"}], "id": "8571500039", "name": "USPS COLLECTION BOX - APC", "address": {"city": "TUCSON", "state": "AZ", "street": "6460 E GRANT RD", "postcode": "85715"}}},
{"geometry": {"type": "Point", "coordinates": [-110.85059, 32.24758]}, "type": "Feature", "properties": {"collection_times": [{"days": "Mon-Fri", "time": "2:30pm"}, {"days": "Sat", "time": "12:00pm"}, {"days": "Sun", "time": "Closed"}], "id": "8571500040", "name": "USPS COLLECTION BOX - BLUE BOX", "address": {"city": "TUCSON", "state": "AZ", "street": "6628 E TANQUE VERDE RD", "postcode": "85715"}}},
{"geometry": {"type": "Point", "coordinates": [-110.9353326395, 32.2412700453]}, "type": "Feature", "properties": {"collection_times": [{"days": "Mon-Fri", "time": "2:00pm"}, {"days": "Sat-Sun", "time": "Closed"}], "id": "8571600003", "name": "USPS COLLECTION BOX - BLUE BOX", "address": {"city": "TUCSON", "state": "AZ", "street": "1601 N TUCSON BLVD", "postcode": "85716"}}},
{"geometry": {"type": "Point", "coordinates": [-110.9286134325, 32.2503740975]}, "type": "Feature", "properties": {"collection_times": [{"days": "Mon-Fri", "time": "2:30pm"}, {"days": "Sat-Sun", "time": "Closed"}], "id": "8571600013", "name": "USPS COLLECTION BOX - BLUE BOX", "address": {"city": "TUCSON", "state": "AZ", "street": "2923 E GRANT RD", "postcode": "85716"}}},
{"geometry": {"type": "Point", "coordinates": [-110.935087767, 32.2138301291]}, "type": "Feature", "properties": {"collection_times": [{"days": "Mon-Fri", "time": "1:15pm"}, {"days": "Sat-Sun", "time": "Closed"}], "id": "8571600016", "name": "USPS COLLECTION BOX - BLUE BOX", "address": {"city": "TUCSON", "state": "AZ", "street": "601 S TUCSON BLVD", "postcode": "85716"}}},
{"geometry": {"type": "Point", "coordinates": [-110.9311468764, 32.2450152548]}, "type": "Feature", "properties": {"collection_times": [{"days": "Mon-Fri", "time": "1:15pm"}, {"days": "Sat", "time": "2:00pm"}, {"days": "Sun", "time": "Closed"}], "id": "8571600022", "name": "USPS COLLECTION BOX - BLUE BOX", "address": {"city": "TUCSON", "state": "AZ", "street": "1899 N TREAT AVE", "postcode": "85716"}}},
{"geometry": {"type": "Point", "coordinates": [-110.9204959681, 32.2360863191]}, "type": "Feature", "properties": {"collection_times": [{"days": "Mon-Fri", "time": "1:30pm"}, {"days": "Sat-Sun", "time": "Closed"}], "id": "8571600023", "name": "USPS COLLECTION BOX - BLUE BOX", "address": {"city": "TUCSON", "state": "AZ", "street": "3400 E SPEEDWAY BLVD", "postcode": "85716"}}},
{"geometry": {"type": "Point", "coordinates": [-110.9275227444, 32.2214838736]}, "type": "Feature", "properties": {"collection_times": [{"days": "Mon-Fri", "time": "1:30pm"}, {"days": "Sat-Sun", "time": "Closed"}], "id": "8571600026", "name": "USPS COLLECTION BOX - BLUE BOX", "address": {"city": "TUCSON", "state": "AZ", "street": "3010 E BROADWAY BLVD", "postcode": "85716"}}},
{"geometry": {"type": "Point", "coordinates": [-110.9267644677, 32.263620872]}, "type": "Feature", "properties": {"collection_times": [{"days": "Mon-Fri", "time": "1:45pm"}, {"days": "Sat-Sun", "time": "Closed"}], "id": "8571600032", "name": "USPS COLLECTION BOX - BLUE BOX", "address": {"city": "TUCSON", "state": "AZ", "street": "3131 N COUNTRY CLUB RD", "postcode": "85716"}}},
{"geometry": {"type": "Point", "coordinates": [-110.9136880393, 32.2651350594]}, "type": "Feature", "properties": {"collection_times": [{"days": "Mon-Fri", "time": "1:45pm"}, {"days": "Sat-Sun", "time": "Closed"}], "id": "8571600033", "name": "USPS COLLECTION BOX - BLUE BOX", "address": {"city": "TUCSON", "state": "AZ", "street": "3700 E FORT LOWELL RD", "postcode": "85716"}}},
{"geometry": {"type": "Point", "coordinates": [-110.9254324559, 32.2649883725]}, "type": "Feature", "properties": {"collection_times": [{"days": "Mon-Fri", "time": "2:30pm"}, {"days": "Sat", "time": "2:00pm"}, {"days": "Sun", "time": "Closed"}], "id": "8571600038", "name": "USPS COLLECTION BOX - BLUE BOX", "address": {"city": "TUCSON", "state": "AZ", "street": "3130 E FORT LOWELL RD", "postcode": "85716"}}},
{"geometry": {"type": "Point", "coordinates": [-110.9171600238, 32.3195038535]}, "type": "Feature", "properties": {"collection_times": [{"days": "Mon-Fri", "time": "2:30pm"}, {"days": "Sat-Sun", "time": "Closed"}], "id": "8571800001", "name": "USPS COLLECTION BOX - BLUE BOX", "address": {"city": "TUCSON", "state": "AZ", "street": "3561 E SUNRISE DR", "postcode": "85718"}}},
{"geometry": {"type": "Point", "coordinates": [-110.9463542681, 32.2880442427]}, "type": "Feature", "properties": {"collection_times": [{"days": "Mon-Fri", "time": "5:00pm"}, {"days": "Sat", "time": "4:15pm"}, {"days": "Sun", "time": "Closed"}], "id": "8571800002", "name": "USPS COLLECTION BOX - BLUE BOX", "address": {"city": "TUCSON", "state": "AZ", "street": "1700 E RIVER RD", "postcode": "85718"}}},
{"geometry": {"type": "Point", "coordinates": [-110.943762405, 32.2861384959]}, "type": "Feature", "properties": {"collection_times": [{"days": "Mon-Fri", "time": "2:30pm"}, {"days": "Sat-Sun", "time": "Closed"}], "id": "8571800003", "name": "USPS COLLECTION BOX - BLUE BOX", "address": {"city": "TUCSON", "state": "AZ", "street": "4330 N CAMPBELL AVE", "postcode": "85718"}}},
{"geometry": {"type": "Point", "coordinates": [-110.8933860975, 32.3227972112]}, "type": "Feature", "properties": {"collection_times": [{"days": "Mon-Fri", "time": "2:30pm"}, {"days": "Sat", "time": "1:30pm"}, {"days": "Sun", "time": "Closed"}], "id": "8571800004", "name": "USPS COLLECTION BOX - BLUE BOX", "address": {"city": "TUCSON", "state": "AZ", "street": "4661 E SKYLINE DR", "postcode": "85718"}}},
{"geometry": {"type": "Point", "coordinates": [-110.8937871206, 32.3082775729]}, "type": "Feature", "properties": {"collection_times": [{"days": "Mon-Fri", "time": "2:30pm"}, {"days": "Sat-Sun", "time": "Closed"}], "id": "8571800005", "name": "USPS COLLECTION BOX - BLUE BOX", "address": {"city": "TUCSON", "state": "AZ", "street": "4640 E SUNRISE DR", "postcode": "85718"}}},
{"geometry": {"type": "Point", "coordinates": [-110.9463542681, 32.2880442427]}, "type": "Feature", "properties": {"collection_times": [{"days": "Mon-Fri", "time": "5:00pm"}, {"days": "Sat", "time": "4:15pm"}, {"days": "Sun", "time": "Closed"}], "id": "8571800007", "name": "USPS COLLECTION BOX - BLUE BOX", "address": {"city": "TUCSON", "state": "AZ", "street": "1700 E RIVER RD", "postcode": "85718"}}},
{"geometry": {"type": "Point", "coordinates": [-110.9220780698, 32.3097122415]}, "type": "Feature", "properties": {"collection_times": [{"days": "Mon-Fri", "time": "3:45pm"}, {"days": "Sat-Sun", "time": "Closed"}], "id": "8571800015", "name": "USPS COLLECTION BOX - EXPRESS", "address": {"city": "TUCSON", "state": "AZ", "street": "1700 E RIVER RD", "postcode": "85718"}}},
{"geometry": {"type": "Point", "coordinates": [-110.8917382357, 32.3083237083]}, "type": "Feature", "properties": {"collection_times": [{"days": "Mon-Fri", "time": "2:30pm"}, {"days": "Sat", "time": "1:45pm"}, {"days": "Sun", "time": "Closed"}], "id": "8571800018", "name": "USPS COLLECTION BOX - BLUE BOX", "address": {"city": "TUCSON", "state": "AZ", "street": "4748 E SUNRISE DR", "postcode": "85718"}}},
{"geometry": {"type": "Point", "coordinates": [-110.9610974857, 32.2921053409]}, "type": "Feature", "properties": {"collection_times": [{"days": "Mon-Fri", "time": "2:30pm"}, {"days": "Sat-Sun", "time": "Closed"}], "id": "8571800020", "name": "USPS COLLECTION BOX - BLUE BOX", "address": {"city": "TUCSON", "state": "AZ", "street": "4651 N 1ST AVE", "postcode": "85718"}}},
{"geometry": {"type": "Point", "coordinates": [-110.9171600238, 32.3195038535]}, "type": "Feature", "properties": {"collection_times": [{"days": "Mon-Fri", "time": "2:15pm"}, {"days": "Sat-Sun", "time": "Closed"}], "id": "8571800022", "name": "USPS COLLECTION BOX - BLUE BOX", "address": {"city": "TUCSON", "state": "AZ", "street": "3561 E SUNRISE DR", "postcode": "85718"}}},
{"geometry": {"type": "Point", "coordinates": [-110.9463542681, 32.2880442427]}, "type": "Feature", "properties": {"collection_times": [{"days": "Mon-Fri", "time": "5:00pm"}, {"days": "Sat", "time": "4:15pm"}, {"days": "Sun", "time": "Closed"}], "id": "8571800023", "name": "USPS COLLECTION BOX - PO LOBBY", "address": {"city": "TUCSON", "state": "AZ", "street": "1700 E RIVER RD", "postcode": "85718"}}},
{"geometry": {"type": "Point", "coordinates": [-110.9202723889, 32.3211718256]}, "type": "Feature", "properties": {"collection_times": [{"days": "Mon-Fri", "time": "2:30pm"}, {"days": "Sat-Sun", "time": "Closed"}], "id": "8571800024", "name": "USPS COLLECTION BOX - BLUE BOX", "address": {"city": "TUCSON", "state": "AZ", "street": "3430 E SUNRISE DR", "postcode": "85718"}}},
{"geometry": {"type": "Point", "coordinates": [-110.9463542681, 32.2880442427]}, "type": "Feature", "properties": {"collection_times": [{"days": "Mon-Fri", "time": "5:00pm"}, {"days": "Sat", "time": "4:15pm"}, {"days": "Sun", "time": "Closed"}], "id": "8571800026", "name": "USPS COLLECTION BOX - BLUE BOX", "address": {"city": "TUCSON", "state": "AZ", "street": "1700 E RIVER RD", "postcode": "85718"}}},
{"geometry": {"type": "Point", "coordinates": [-110.9463542681, 32.2880442427]}, "type": "Feature", "properties": {"collection_times": [{"days": "Mon-Fri", "time": "5:00pm"}, {"days": "Sat", "time": "4:15pm"}, {"days": "Sun", "time": "Closed"}], "id": "8571800027", "name": "USPS COLLECTION BOX - APC", "address": {"city": "TUCSON", "state": "AZ", "street": "1700 E RIVER RD", "postcode": "85718"}}},
{"geometry": {"type": "Point", "coordinates": [-110.9301394496, 32.3227640884]}, "type": "Feature", "properties": {"collection_times": [{"days": "Mon-Fri", "time": "2:30pm"}, {"days": "Sat-Sun", "time": "Closed"}], "id": "8571800028", "name": "USPS COLLECTION BOX - BLUE BOX", "address": {"city": "TUCSON", "state": "AZ", "street": "2905 E SKYLINE DR", "postcode": "85718"}}},
{"geometry": {"type": "Point", "coordinates": [-110.9444295939, 32.2871499258]}, "type": "Feature", "properties": {"collection_times": [{"days": "Mon-Fri", "time": "2:30pm"}, {"days": "Sat-Sun", "time": "Closed"}], "id": "8571800029", "name": "USPS COLLECTION BOX - BLUE BOX", "address": {"city": "TUCSON", "state": "AZ", "street": "1860 E RIVER RD", "postcode": "85718"}}},
{"geometry": {"type": "Point", "coordinates": [-110.9220780698, 32.3097122415]}, "type": "Feature", "properties": {"collection_times": [{"days": "Mon-Fri", "time": "2:30pm"}, {"days": "Sat-Sun", "time": "Closed"}], "id": "8571800030", "name": "USPS COLLECTION BOX - BLUE BOX", "address": {"city": "TUCSON", "state": "AZ", "street": "6370 N CAMPBELL AVE STE 160", "postcode": "85718"}}},
{"geometry": {"type": "Point", "coordinates": [-110.9465293461, 32.3352880749]}, "type": "Feature", "properties": {"collection_times": [{"days": "Mon-Fri", "time": "2:30pm"}, {"days": "Sat-Sun", "time": "Closed"}], "id": "8571800031", "name": "USPS COLLECTION BOX - BLUE BOX", "address": {"city": "TUCSON", "state": "AZ", "street": "1715 E SKYLINE DR", "postcode": "85718"}}},
{"geometry": {"type": "Point", "coordinates": [-110.959475649, 32.2866211431]}, "type": "Feature", "properties": {"collection_times": [{"days": "Mon-Fri", "time": "1:45pm"}, {"days": "Sat-Sun", "time": "Closed"}], "id": "8571900005", "name": "USPS COLLECTION BOX - BLUE BOX", "address": {"city": "TUCSON", "state": "AZ", "street": "800 E WETMORE RD", "postcode": "85719"}}},
{"geometry": {"type": "Point", "coordinates": [-110.9610655458, 32.2807891554]}, "type": "Feature", "properties": {"collection_times": [{"days": "Mon-Fri", "time": "2:30pm"}, {"days": "Sat-Sun", "time": "Closed"}], "id": "8571900007", "name": "USPS COLLECTION BOX - BLUE BOX", "address": {"city": "TUCSON", "state": "AZ", "street": "4036 N 1ST AVE", "postcode": "85719"}}},
{"geometry": {"type": "Point", "coordinates": [-110.9466795819, 32.2121668888]}, "type": "Feature", "properties": {"collection_times": [{"days": "Mon-Fri", "time": "12:45pm"}, {"days": "Sat-Sun", "time": "Closed"}], "id": "8571900013", "name": "USPS COLLECTION BOX - BLUE BOX", "address": {"city": "TUCSON", "state": "AZ", "street": "1655 E 18TH ST", "postcode": "85719"}}},
{"geometry": {"type": "Point", "coordinates": [-110.9439410319, 32.2522419897]}, "type": "Feature", "properties": {"collection_times": [{"days": "Mon-Fri", "time": "2:30pm"}, {"days": "Sat", "time": "12:45pm"}, {"days": "Sun", "time": "Closed"}], "id": "8571900016", "name": "USPS COLLECTION BOX - BLUE BOX", "address": {"city": "TUCSON", "state": "AZ", "street": "2509 N CAMPBELL AVE", "postcode": "85719"}}},
{"geometry": {"type": "Point", "coordinates": [-110.9437766006, 32.2729508693]}, "type": "Feature", "properties": {"collection_times": [{"days": "Mon-Sat", "time": "2:00pm"}, {"days": "Sun", "time": "Closed"}], "id": "8571900028", "name": "USPS COLLECTION BOX - BLUE BOX", "address": {"city": "TUCSON", "state": "AZ", "street": "3661 N CAMPBELL AVE", "postcode": "85719"}}},
{"geometry": {"type": "Point", "coordinates": [-110.9609590795, 32.2508271707]}, "type": "Feature", "properties": {"collection_times": [{"days": "Mon-Sat", "time": "2:00pm"}, {"days": "Sun", "time": "Closed"}], "id": "8571900040", "name": "USPS COLLECTION BOX - BLUE BOX", "address": {"city": "TUCSON", "state": "AZ", "street": "865 E GRANT RD", "postcode": "85719"}}},
{"geometry": {"type": "Point", "coordinates": [-110.9505378558, 32.2499423459]}, "type": "Feature", "properties": {"collection_times": [{"days": "Mon-Fri", "time": "2:30pm"}, {"days": "Sat-Sun", "time": "Closed"}], "id": "8571900048", "name": "USPS COLLECTION BOX - BLUE BOX", "address": {"city": "TUCSON", "state": "AZ", "street": "1508 E HELEN ST", "postcode": "85719"}}},
{"geometry": {"type": "Point", "coordinates": [-110.9437836983, 32.2642939756]}, "type": "Feature", "properties": {"collection_times": [{"days": "Mon-Fri", "time": "2:15pm"}, {"days": "Sat-Sun", "time": "Closed"}], "id": "8571900049", "name": "USPS COLLECTION BOX - BLUE BOX", "address": {"city": "TUCSON", "state": "AZ", "street": "3175 N CAMPBELL AVE", "postcode": "85719"}}},
{"geometry": {"type": "Point", "coordinates": [-110.9438345655, 32.2580302079]}, "type": "Feature", "properties": {"collection_times": [{"days": "Mon-Fri", "time": "2:15pm"}, {"days": "Sat-Sun", "time": "Closed"}], "id": "8571900052", "name": "USPS COLLECTION BOX - BLUE BOX", "address": {"city": "TUCSON", "state": "AZ", "street": "2818 N CAMPBELL AVE", "postcode": "85719"}}},
{"geometry": {"type": "Point", "coordinates": [-110.935978034, 32.2228701988]}, "type": "Feature", "properties": {"collection_times": [{"days": "Mon-Fri", "time": "2:30pm"}, {"days": "Sat-Sun", "time": "Closed"}], "id": "8571900054", "name": "USPS COLLECTION BOX - BLUE BOX", "address": {"city": "TUCSON", "state": "AZ", "street": "113 N NORTON AVE", "postcode": "85719"}}},
{"geometry": {"type": "Point", "coordinates": [-110.9610194104, 32.2337996594]}, "type": "Feature", "properties": {"collection_times": [{"days": "Mon-Fri", "time": "12:30pm"}, {"days": "Sat-Sun", "time": "Closed"}], "id": "8571900055", "name": "USPS COLLECTION BOX - BLUE BOX", "address": {"city": "TUCSON", "state": "AZ", "street": "920 N 1ST AVE", "postcode": "85719"}}},
{"geometry": {"type": "Point", "coordinates": [-110.9437848813, 32.2705411819]}, "type": "Feature", "properties": {"collection_times": [{"days": "Mon-Fri", "time": "2:00pm"}, {"days": "Sat-Sun", "time": "Closed"}], "id": "8571900063", "name": "USPS COLLECTION BOX - BLUE BOX", "address": {"city": "TUCSON", "state": "AZ", "street": "3501 N CAMPBELL AVE", "postcode": "85719"}}},
{"geometry": {"type": "Point", "coordinates": [-110.9402774079, 32.2359881335]}, "type": "Feature", "properties": {"collection_times": [{"days": "Mon-Fri", "time": "5:00pm"}, {"days": "Sat", "time": "4:45pm"}, {"days": "Sun", "time": "Closed"}], "id": "8571900064", "name": "USPS COLLECTION BOX - BLUE BOX", "address": {"city": "TUCSON", "state": "AZ", "street": "2100 E SPEEDWAY BLVD", "postcode": "85719"}}},
{"geometry": {"type": "Point", "coordinates": [-110.9590107461, 32.2316821629]}, "type": "Feature", "properties": {"collection_times": [{"days": "Mon-Fri", "time": "2:30pm"}, {"days": "Sat", "time": "12:30pm"}, {"days": "Sun", "time": "Closed"}], "id": "8571900065", "name": "USPS COLLECTION BOX - BLUE BOX", "address": {"city": "TUCSON", "state": "AZ", "street": "825 E UNIVERSITY BLVD", "postcode": "85719"}}},
{"geometry": {"type": "Point", "coordinates": [-110.9402774079, 32.2359881335]}, "type": "Feature", "properties": {"collection_times": [{"days": "Mon-Fri", "time": "5:00pm"}, {"days": "Sat", "time": "4:45pm"}, {"days": "Sun", "time": "Closed"}], "id": "8571900066", "name": "USPS COLLECTION BOX - BLUE BOX", "address": {"city": "TUCSON", "state": "AZ", "street": "2100 E SPEEDWAY BLVD", "postcode": "85719"}}},
{"geometry": {"type": "Point", "coordinates": [-110.9402774079, 32.2359881335]}, "type": "Feature", "properties": {"collection_times": [{"days": "Mon-Fri", "time": "5:00pm"}, {"days": "Sat", "time": "4:45pm"}, {"days": "Sun", "time": "Closed"}], "id": "8571900068", "name": "USPS COLLECTION BOX - BLUE BOX", "address": {"city": "TUCSON", "state": "AZ", "street": "2100 E SPEEDWAY BLVD", "postcode": "85719"}}},
{"geometry": {"type": "Point", "coordinates": [-110.9505378558, 32.2499423459]}, "type": "Feature", "properties": {"collection_times": [{"days": "Mon-Fri", "time": "3:45pm"}, {"days": "Sat-Sun", "time": "Closed"}], "id": "8571900069", "name": "USPS COLLECTION BOX - EXPRESS", "address": {"city": "TUCSON", "state": "AZ", "street": "2100 E SPEEDWAY BLVD", "postcode": "85719"}}},
{"geometry": {"type": "Point", "coordinates": [-110.9402774079, 32.2359881335]}, "type": "Feature", "properties": {"collection_times": [{"days": "Mon-Fri", "time": "5:00pm"}, {"days": "Sat", "time": "4:45pm"}, {"days": "Sun", "time": "Closed"}], "id": "8571900070", "name": "USPS COLLECTION BOX - PO LOBBY", "address": {"city": "TUCSON", "state": "AZ", "street": "2100 E SPEEDWAY BLVD", "postcode": "85719"}}},
{"geometry": {"type": "Point", "coordinates": [-110.9437848813, 32.2705411819]}, "type": "Feature", "properties": {"collection_times": [{"days": "Mon-Fri", "time": "2:00pm"}, {"days": "Sat-Sun", "time": "Closed"}], "id": "8571900071", "name": "USPS COLLECTION BOX - BLUE BOX", "address": {"city": "TUCSON", "state": "AZ", "street": "3501 N CAMPBELL AVE", "postcode": "85719"}}},
{"geometry": {"type": "Point", "coordinates": [-110.9402774079, 32.2359881335]}, "type": "Feature", "properties": {"collection_times": [{"days": "Mon-Fri", "time": "5:00pm"}, {"days": "Sat", "time": "4:45pm"}, {"days": "Sun", "time": "Closed"}], "id": "8571900074", "name": "USPS COLLECTION BOX - APC", "address": {"city": "TUCSON", "state": "AZ", "street": "2100 E SPEEDWAY BLVD", "postcode": "85719"}}},
{"geometry": {"type": "Point", "coordinates": [-110.9430585445, 32.2214424701]}, "type": "Feature", "properties": {"collection_times": [{"days": "Mon-Fri", "time": "12:45pm"}, {"days": "Sat", "time": "1:00pm"}, {"days": "Sun", "time": "Closed"}], "id": "8571900081", "name": "USPS COLLECTION BOX - BLUE BOX", "address": {"city": "TUCSON", "state": "AZ", "street": "1940 E BROADWAY BLVD", "postcode": "85719"}}},
{"geometry": {"type": "Point", "coordinates": [-110.9402774079, 32.2359881335]}, "type": "Feature", "properties": {"collection_times": [{"days": "Mon-Fri", "time": "5:00pm"}, {"days": "Sat", "time": "4:45pm"}, {"days": "Sun", "time": "Closed"}], "id": "8571900083", "name": "USPS COLLECTION BOX - PO LOBBY", "address": {"city": "TUCSON", "state": "AZ", "street": "2100 E SPEEDWAY BLVD", "postcode": "85719"}}},
{"geometry": {"type": "Point", "coordinates": [-110.9567430138, 32.2294629318]}, "type": "Feature", "properties": {"collection_times": [{"days": "Mon-Fri", "time": "2:30pm"}, {"days": "Sat", "time": "1:30pm"}, {"days": "Sun", "time": "Closed"}], "id": "8571900084", "name": "USPS COLLECTION BOX - BLUE BOX", "address": {"city": "TUCSON", "state": "AZ", "street": "615 N PARK AVE", "postcode": "85719"}}},
{"geometry": {"type": "Point", "coordinates": [-110.8436502967, 32.1918427278]}, "type": "Feature", "properties": {"collection_times": [{"days": "Mon-Fri", "time": "1:30pm"}, {"days": "Sat", "time": "2:00pm"}, {"days": "Sun", "time": "Closed"}], "id": "8573000004", "name": "USPS COLLECTION BOX - BLUE BOX", "address": {"city": "TUCSON", "state": "AZ", "street": "7014 E GOLF LINKS RD", "postcode": "85730"}}},
{"geometry": {"type": "Point", "coordinates": [-110.8556520725, 32.1919087165]}, "type": "Feature", "properties": {"collection_times": [{"days": "Mon-Fri", "time": "1:30pm"}, {"days": "Sat", "time": "2:00pm"}, {"days": "Sun", "time": "Closed"}], "id": "8573000005", "name": "USPS COLLECTION BOX - BLUE BOX", "address": {"city": "TUCSON", "state": "AZ", "street": "6360 E GOLF LINKS RD", "postcode": "85730"}}},
{"geometry": {"type": "Point", "coordinates": [-110.8233821349, 32.1918424708]}, "type": "Feature", "properties": {"collection_times": [{"days": "Mon-Fri", "time": "2:30pm"}, {"days": "Sat", "time": "2:00pm"}, {"days": "Sun", "time": "Closed"}], "id": "8573000006", "name": "USPS COLLECTION BOX - BLUE BOX", "address": {"city": "TUCSON", "state": "AZ", "street": "7910 E GOLF LINKS RD", "postcode": "85730"}}},
{"geometry": {"type": "Point", "coordinates": [-111.1581074585, 32.1623904851]}, "type": "Feature", "properties": {"collection_times": [{"days": "Mon-Fri", "time": "11:00am"}, {"days": "Sat", "time": "10:00am"}, {"days": "Sun", "time": "Closed"}], "id": "8573500001", "name": "USPS COLLECTION BOX - BLUE BOX", "address": {"city": "TUCSON", "state": "AZ", "street": "16225 W AJO HWY", "postcode": "85735"}}},
{"geometry": {"type": "Point", "coordinates": [-110.9956789251, 32.4228033792]}, "type": "Feature", "properties": {"collection_times": [{"days": "Mon-Fri", "time": "5:00pm"}, {"days": "Sat", "time": "4:00pm"}, {"days": "Sun", "time": "Closed"}], "id": "8573700000", "name": "USPS COLLECTION BOX - PO LOBBY", "address": {"city": "TUCSON", "state": "AZ", "street": "11900 N LA CANADA DR", "postcode": "85737"}}},
{"geometry": {"type": "Point", "coordinates": [-110.9956789251, 32.4228033792]}, "type": "Feature", "properties": {"collection_times": [{"days": "Mon-Fri", "time": "5:00pm"}, {"days": "Sat", "time": "4:00pm"}, {"days": "Sun", "time": "Closed"}], "id": "8573700001", "name": "USPS COLLECTION BOX - BLUE BOX", "address": {"city": "TUCSON", "state": "AZ", "street": "11900 N LA CANADA DR", "postcode": "85737"}}},
{"geometry": {"type": "Point", "coordinates": [-110.9774290948, 32.4042117662]}, "type": "Feature", "properties": {"collection_times": [{"days": "Mon-Fri", "time": "3:00pm"}, {"days": "Sat-Sun", "time": "Closed"}], "id": "8573700002", "name": "USPS COLLECTION BOX - EXPRESS", "address": {"city": "TUCSON", "state": "AZ", "street": "11900 N LA CANADA DR", "postcode": "85737"}}},
{"geometry": {"type": "Point", "coordinates": [-110.9956588148, 32.4074296445]}, "type": "Feature", "properties": {"collection_times": [{"days": "Mon-Fri", "time": "2:00pm"}, {"days": "Sat-Sun", "time": "Closed"}], "id": "8573700003", "name": "USPS COLLECTION BOX - BLUE BOX", "address": {"city": "TUCSON", "state": "AZ", "street": "11000 N LA CANADA DR", "postcode": "85737"}}},
{"geometry": {"type": "Point", "coordinates": [-110.9558593434, 32.3996919099]}, "type": "Feature", "properties": {"collection_times": [{"days": "Mon-Fri", "time": "2:30pm"}, {"days": "Sat", "time": "1:15pm"}, {"days": "Sun", "time": "Closed"}], "id": "8573700004", "name": "USPS COLLECTION BOX - BLUE BOX", "address": {"city": "TUCSON", "state": "AZ", "street": "10661 N ORACLE RD", "postcode": "85737"}}},
{"geometry": {"type": "Point", "coordinates": [-110.9956694615, 32.3963618804]}, "type": "Feature", "properties": {"collection_times": [{"days": "Mon-Fri", "time": "2:30pm"}, {"days": "Sat", "time": "1:15pm"}, {"days": "Sun", "time": "Closed"}], "id": "8573700008", "name": "USPS COLLECTION BOX - BLUE BOX", "address": {"city": "TUCSON", "state": "AZ", "street": "10450 N LA CANADA DR", "postcode": "85737"}}},
{"geometry": {"type": "Point", "coordinates": [-110.9956789251, 32.4228033792]}, "type": "Feature", "properties": {"collection_times": [{"days": "Mon-Fri", "time": "5:00pm"}, {"days": "Sat", "time": "4:00pm"}, {"days": "Sun", "time": "Closed"}], "id": "8573700013", "name": "USPS COLLECTION BOX - APC", "address": {"city": "TUCSON", "state": "AZ", "street": "11900 N LA CANADA DR", "postcode": "85737"}}},
{"geometry": {"type": "Point", "coordinates": [-110.9956789251, 32.4228033792]}, "type": "Feature", "properties": {"collection_times": [{"days": "Mon-Fri", "time": "5:00pm"}, {"days": "Sat", "time": "4:00pm"}, {"days": "Sun", "time": "Closed"}], "id": "8573700015", "name": "USPS COLLECTION BOX - BLUE BOX", "address": {"city": "TUCSON", "state": "AZ", "street": "11900 N LA CANADA DR", "postcode": "85737"}}},
{"geometry": {"type": "Point", "coordinates": [-110.9261434142, 32.4988013949]}, "type": "Feature", "properties": {"collection_times": [{"days": "Mon-Fri", "time": "2:30pm"}, {"days": "Sat", "time": "2:15pm"}, {"days": "Sun", "time": "Closed"}], "id": "8573900000", "name": "USPS COLLECTION BOX - BLUE BOX", "address": {"city": "TUCSON", "state": "AZ", "street": "16141 N ORACLE RD", "postcode": "85739"}}},
{"geometry": {"type": "Point", "coordinates": [-110.9069752286, 32.5319608089]}, "type": "Feature", "properties": {"collection_times": [{"days": "Mon-Fri", "time": "2:15pm"}, {"days": "Sat", "time": "2:00pm"}, {"days": "Sun", "time": "Closed"}], "id": "8573900001", "name": "USPS COLLECTION BOX - BLUE BOX", "address": {"city": "TUCSON", "state": "AZ", "street": "63701 E SADDLEBROOKE BLVD", "postcode": "85739"}}},
{"geometry": {"type": "Point", "coordinates": [-110.9261434142, 32.4988013949]}, "type": "Feature", "properties": {"collection_times": [{"days": "Mon-Fri", "time": "2:30pm"}, {"days": "Sat", "time": "2:15pm"}, {"days": "Sun", "time": "Closed"}], "id": "8573900002", "name": "USPS COLLECTION BOX - BLUE BOX", "address": {"city": "TUCSON", "state": "AZ", "street": "16141 N ORACLE RD", "postcode": "85739"}}},
{"geometry": {"type": "Point", "coordinates": [-110.9222112052, 32.4840161562]}, "type": "Feature", "properties": {"collection_times": [{"days": "Mon-Fri", "time": "1:30pm"}, {"days": "Sat", "time": "1:45pm"}, {"days": "Sun", "time": "Closed"}], "id": "8573900004", "name": "USPS COLLECTION BOX - BLUE BOX", "address": {"city": "TUCSON", "state": "AZ", "street": "15310 N ORACLE RD", "postcode": "85739"}}},
{"geometry": {"type": "Point", "coordinates": [-111.0128815501, 32.3377574593]}, "type": "Feature", "properties": {"collection_times": [{"days": "Mon-Fri", "time": "2:15pm"}, {"days": "Sat-Sun", "time": "Closed"}], "id": "8574100005", "name": "USPS COLLECTION BOX - BLUE BOX", "address": {"city": "TUCSON", "state": "AZ", "street": "7221 N LA CHOLLA BLVD", "postcode": "85741"}}},
{"geometry": {"type": "Point", "coordinates": [-111.0363502373, 32.3373783634]}, "type": "Feature", "properties": {"collection_times": [{"days": "Mon-Fri", "time": "2:30pm"}, {"days": "Sat-Sun", "time": "Closed"}], "id": "8574100006", "name": "USPS COLLECTION BOX - BLUE BOX", "address": {"city": "TUCSON", "state": "AZ", "street": "3275 W INA RD", "postcode": "85741"}}},
{"geometry": {"type": "Point", "coordinates": [-111.0469732088, 32.3507741907]}, "type": "Feature", "properties": {"collection_times": [{"days": "Mon-Fri", "time": "5:00pm"}, {"days": "Sat", "time": "4:15pm"}, {"days": "Sun", "time": "Closed"}], "id": "8574100012", "name": "USPS COLLECTION BOX - BLUE BOX", "address": {"city": "TUCSON", "state": "AZ", "street": "7959 N THORNYDALE RD", "postcode": "85741"}}},
{"geometry": {"type": "Point", "coordinates": [-111.0385763572, 32.3365209255]}, "type": "Feature", "properties": {"collection_times": [{"days": "Mon-Fri", "time": "3:30pm"}, {"days": "Sat-Sun", "time": "Closed"}], "id": "8574100014", "name": "USPS COLLECTION BOX - EXPRESS", "address": {"city": "TUCSON", "state": "AZ", "street": "7959 N THORNYDALE RD", "postcode": "85741"}}},
{"geometry": {"type": "Point", "coordinates": [-111.0467590933, 32.3265022387]}, "type": "Feature", "properties": {"collection_times": [{"days": "Mon-Fri", "time": "2:00pm"}, {"days": "Sat-Sun", "time": "Closed"}], "id": "8574100015", "name": "USPS COLLECTION BOX - BLUE BOX", "address": {"city": "TUCSON", "state": "AZ", "street": "3821 W COSTCO DR", "postcode": "85741"}}},
{"geometry": {"type": "Point", "coordinates": [-111.04443103, 32.3374505239]}, "type": "Feature", "properties": {"collection_times": [{"days": "Mon-Fri", "time": "2:30pm"}, {"days": "Sat", "time": "1:00pm"}, {"days": "Sun", "time": "Closed"}], "id": "8574100017", "name": "USPS COLLECTION BOX - BLUE BOX", "address": {"city": "TUCSON", "state": "AZ", "street": "3741 W INA RD", "postcode": "85741"}}},
{"geometry": {"type": "Point", "coordinates": [-111.0469732088, 32.3507741907]}, "type": "Feature", "properties": {"collection_times": [{"days": "Mon-Fri", "time": "5:00pm"}, {"days": "Sat", "time": "4:15pm"}, {"days": "Sun", "time": "Closed"}], "id": "8574100020", "name": "USPS COLLECTION BOX - BLUE BOX", "address": {"city": "TUCSON", "state": "AZ", "street": "7959 N THORNYDALE RD", "postcode": "85741"}}},
{"geometry": {"type": "Point", "coordinates": [-111.0469732088, 32.3507741907]}, "type": "Feature", "properties": {"collection_times": [{"days": "Mon-Fri", "time": "5:00pm"}, {"days": "Sat", "time": "4:15pm"}, {"days": "Sun", "time": "Closed"}], "id": "8574100022", "name": "USPS COLLECTION BOX - PO LOBBY", "address": {"city": "TUCSON", "state": "AZ", "street": "7959 N THORNYDALE RD", "postcode": "85741"}}},
{"geometry": {"type": "Point", "coordinates": [-111.046794582, 32.358232747]}, "type": "Feature", "properties": {"collection_times": [{"days": "Mon-Fri", "time": "2:30pm"}, {"days": "Sat", "time": "2:00pm"}, {"days": "Sun", "time": "Closed"}], "id": "8574100023", "name": "USPS COLLECTION BOX - BLUE BOX", "address": {"city": "TUCSON", "state": "AZ", "street": "8360 N THORNYDALE RD", "postcode": "85741"}}},
{"geometry": {"type": "Point", "coordinates": [-111.0126898751, 32.343675254]}, "type": "Feature", "properties": {"collection_times": [{"days": "Mon-Fri", "time": "2:30pm"}, {"days": "Sat-Sun", "time": "Closed"}], "id": "8574100024", "name": "USPS COLLECTION BOX - BLUE BOX", "address": {"city": "TUCSON", "state": "AZ", "street": "7552 N LA CHOLLA BLVD", "postcode": "85741"}}},
{"geometry": {"type": "Point", "coordinates": [-111.0469732088, 32.3507741907]}, "type": "Feature", "properties": {"collection_times": [{"days": "Mon-Fri", "time": "5:00pm"}, {"days": "Sat", "time": "4:15pm"}, {"days": "Sun", "time": "Closed"}], "id": "8574100025", "name": "USPS COLLECTION BOX - APC", "address": {"city": "TUCSON", "state": "AZ", "street": "7959 N THORNYDALE RD", "postcode": "85741"}}},
{"geometry": {"type": "Point", "coordinates": [-111.0469732088, 32.3507741907]}, "type": "Feature", "properties": {"collection_times": [{"days": "Mon-Fri", "time": "5:00pm"}, {"days": "Sat", "time": "4:15pm"}, {"days": "Sun", "time": "Closed"}], "id": "8574100026", "name": "USPS COLLECTION BOX - PO LOBBY", "address": {"city": "TUCSON", "state": "AZ", "street": "7959 N THORNYDALE RD", "postcode": "85741"}}},
{"geometry": {"type": "Point", "coordinates": [-111.0120534431, 32.3202988019]}, "type": "Feature", "properties": {"collection_times": [{"days": "Mon-Fri", "time": "2:15pm"}, {"days": "Sat-Sun", "time": "Closed"}], "id": "8574100027", "name": "USPS COLLECTION BOX - BLUE BOX", "address": {"city": "TUCSON", "state": "AZ", "street": "6200 N LA CHOLLA BLVD", "postcode": "85741"}}},
{"geometry": {"type": "Point", "coordinates": [-111.011885463, 32.3040212865]}, "type": "Feature", "properties": {"collection_times": [{"days": "Mon-Fri", "time": "2:30pm"}, {"days": "Sat-Sun", "time": "Closed"}], "id": "8574100033", "name": "USPS COLLECTION BOX - BLUE BOX", "address": {"city": "TUCSON", "state": "AZ", "street": "5330 N LA CHOLLA BLVD", "postcode": "85741"}}},
{"geometry": {"type": "Point", "coordinates": [-111.0469128779, 32.3740429936]}, "type": "Feature", "properties": {"collection_times": [{"days": "Mon-Fri", "time": "2:30pm"}, {"days": "Sat-Sun", "time": "Closed"}], "id": "8574200000", "name": "USPS COLLECTION BOX - BLUE BOX", "address": {"city": "TUCSON", "state": "AZ", "street": "9220 N THORNYDALE RD", "postcode": "85742"}}},
{"geometry": {"type": "Point", "coordinates": [-111.2180397218, 32.3274095682]}, "type": "Feature", "properties": {"collection_times": [{"days": "Mon-Sat", "time": "12:30pm"}, {"days": "Sun", "time": "Closed"}], "id": "8574300000", "name": "USPS COLLECTION BOX - BLUE BOX", "address": {"city": "TUCSON", "state": "AZ", "street": "6777 N SANDARIO RD", "postcode": "85743"}}},
{"geometry": {"type": "Point", "coordinates": [-111.17106861, 32.3321237799]}, "type": "Feature", "properties": {"collection_times": [{"days": "Mon-Sat", "time": "12:30pm"}, {"days": "Sun", "time": "Closed"}], "id": "8574300001", "name": "USPS COLLECTION BOX - BLUE BOX", "address": {"city": "TUCSON", "state": "AZ", "street": "9401 N SUNFLOWER PARK DR", "postcode": "85743"}}},
{"geometry": {"type": "Point", "coordinates": [-110.9973823861, 32.2289270514]}, "type": "Feature", "properties": {"collection_times": [{"days": "Mon-Fri", "time": "2:30pm"}, {"days": "Sat", "time": "1:15pm"}, {"days": "Sun", "time": "Closed"}], "id": "8574500013", "name": "USPS COLLECTION BOX - BLUE BOX", "address": {"city": "TUCSON", "state": "AZ", "street": "1549 W SAINT MARYS RD", "postcode": "85745"}}},
{"geometry": {"type": "Point", "coordinates": [-111.0246679946, 32.2437941631]}, "type": "Feature", "properties": {"collection_times": [{"days": "Mon-Fri", "time": "3:45pm"}, {"days": "Sat-Sun", "time": "Closed"}], "id": "8574500017", "name": "USPS COLLECTION BOX - EXPRESS", "address": {"city": "TUCSON", "state": "AZ", "street": "975 N SILVERBELL RD", "postcode": "85745"}}},
{"geometry": {"type": "Point", "coordinates": [-111.002285751, 32.228505918]}, "type": "Feature", "properties": {"collection_times": [{"days": "Mon-Fri", "time": "1:15pm"}, {"days": "Sat-Sun", "time": "Closed"}], "id": "8574500020", "name": "USPS COLLECTION BOX - BLUE BOX", "address": {"city": "TUCSON", "state": "AZ", "street": "1701 W SAINT MARYS RD", "postcode": "85745"}}},
{"geometry": {"type": "Point", "coordinates": [-111.0037904748, 32.2348430292]}, "type": "Feature", "properties": {"collection_times": [{"days": "Mon-Fri", "time": "5:00pm"}, {"days": "Sat", "time": "4:00pm"}, {"days": "Sun", "time": "Closed"}], "id": "8574500021", "name": "USPS COLLECTION BOX - PO LOBBY", "address": {"city": "TUCSON", "state": "AZ", "street": "975 N SILVERBELL RD", "postcode": "85745"}}},
{"geometry": {"type": "Point", "coordinates": [-110.9950330295, 32.2485215837]}, "type": "Feature", "properties": {"collection_times": [{"days": "Mon-Fri", "time": "2:30pm"}, {"days": "Sat-Sun", "time": "Closed"}], "id": "8574500022", "name": "USPS COLLECTION BOX - BLUE BOX", "address": {"city": "TUCSON", "state": "AZ", "street": "2250 N FORBES BLVD", "postcode": "85745"}}},
{"geometry": {"type": "Point", "coordinates": [-111.0022597259, 32.2509750406]}, "type": "Feature", "properties": {"collection_times": [{"days": "Mon-Fri", "time": "2:30pm"}, {"days": "Sat-Sun", "time": "Closed"}], "id": "8574500025", "name": "USPS COLLECTION BOX - BLUE BOX", "address": {"city": "TUCSON", "state": "AZ", "street": "2410 N HUACHUCA DR", "postcode": "85745"}}},
{"geometry": {"type": "Point", "coordinates": [-110.9831170839, 32.2248210009]}, "type": "Feature", "properties": {"collection_times": [{"days": "Mon-Fri", "time": "1:00pm"}, {"days": "Sat-Sun", "time": "Closed"}], "id": "8574500026", "name": "USPS COLLECTION BOX - BLUE BOX", "address": {"city": "TUCSON", "state": "AZ", "street": "330 N COMMERCE PARK LOOP", "postcode": "85745"}}},
{"geometry": {"type": "Point", "coordinates": [-111.0037904748, 32.2348430292]}, "type": "Feature", "properties": {"collection_times": [{"days": "Mon-Fri", "time": "5:00pm"}, {"days": "Sat", "time": "4:00pm"}, {"days": "Sun", "time": "Closed"}], "id": "8574500027", "name": "USPS COLLECTION BOX - BLUE BOX", "address": {"city": "TUCSON", "state": "AZ", "street": "975 N SILVERBELL RD", "postcode": "85745"}}},
{"geometry": {"type": "Point", "coordinates": [-111.0037904748, 32.2348430292]}, "type": "Feature", "properties": {"collection_times": [{"days": "Mon-Fri", "time": "5:00pm"}, {"days": "Sat", "time": "4:00pm"}, {"days": "Sun", "time": "Closed"}], "id": "8574500028", "name": "USPS COLLECTION BOX - BLUE BOX", "address": {"city": "TUCSON", "state": "AZ", "street": "975 N SILVERBELL RD", "postcode": "85745"}}},
{"geometry": {"type": "Point", "coordinates": [-111.0246679946, 32.2437941631]}, "type": "Feature", "properties": {"collection_times": [{"days": "Mon-Fri", "time": "2:30pm"}, {"days": "Sat-Sun", "time": "Closed"}], "id": "8574500029", "name": "USPS COLLECTION BOX - BLUE BOX", "address": {"city": "TUCSON", "state": "AZ", "street": "2202 W ANKLAM RD", "postcode": "85745"}}},
{"geometry": {"type": "Point", "coordinates": [-110.9999541388, 32.2289187707]}, "type": "Feature", "properties": {"collection_times": [{"days": "Mon-Fri", "time": "1:30pm"}, {"days": "Sat-Sun", "time": "Closed"}], "id": "8574500030", "name": "USPS COLLECTION BOX - BLUE BOX", "address": {"city": "TUCSON", "state": "AZ", "street": "1601 W SAINT MARYS RD", "postcode": "85745"}}},
{"geometry": {"type": "Point", "coordinates": [-111.025775971, 32.1375805037]}, "type": "Feature", "properties": {"collection_times": [{"days": "Mon-Fri", "time": "4:30pm"}, {"days": "Sat-Sun", "time": "Closed"}], "id": "8574600000", "name": "USPS COLLECTION BOX - EXPRESS", "address": {"city": "TUCSON", "state": "AZ", "street": "4700 W VALENCIA RD", "postcode": "85746"}}},
{"geometry": {"type": "Point", "coordinates": [-111.0649790272, 32.1335095813]}, "type": "Feature", "properties": {"collection_times": [{"days": "Mon-Fri", "time": "5:00pm"}, {"days": "Sat", "time": "4:00pm"}, {"days": "Sun", "time": "Closed"}], "id": "8574600001", "name": "USPS COLLECTION BOX - BLUE BOX", "address": {"city": "TUCSON", "state": "AZ", "street": "4700 W VALENCIA RD", "postcode": "85746"}}},
{"geometry": {"type": "Point", "coordinates": [-111.000008555, 32.1337130503]}, "type": "Feature", "properties": {"collection_times": [{"days": "Mon-Fri", "time": "2:30pm"}, {"days": "Sat", "time": "1:30pm"}, {"days": "Sun", "time": "Closed"}], "id": "8574600002", "name": "USPS COLLECTION BOX - BLUE BOX", "address": {"city": "TUCSON", "state": "AZ", "street": "1645 W VALENCIA RD", "postcode": "85746"}}},
{"geometry": {"type": "Point", "coordinates": [-111.0129714193, 32.1487662031]}, "type": "Feature", "properties": {"collection_times": [{"days": "Mon-Fri", "time": "1:45pm"}, {"days": "Sat-Sun", "time": "Closed"}], "id": "8574600005", "name": "USPS COLLECTION BOX - BLUE BOX", "address": {"city": "TUCSON", "state": "AZ", "street": "5680 S MISSION RD", "postcode": "85746"}}},
{"geometry": {"type": "Point", "coordinates": [-111.000122119, 32.1338739327]}, "type": "Feature", "properties": {"collection_times": [{"days": "Mon-Fri", "time": "2:00pm"}, {"days": "Sat-Sun", "time": "Closed"}], "id": "8574600006", "name": "USPS COLLECTION BOX - BLUE BOX", "address": {"city": "TUCSON", "state": "AZ", "street": "1650 W VALENCIA RD", "postcode": "85746"}}},
{"geometry": {"type": "Point", "coordinates": [-111.0294760628, 32.1338550053]}, "type": "Feature", "properties": {"collection_times": [{"days": "Mon-Fri", "time": "2:30pm"}, {"days": "Sat", "time": "1:30pm"}, {"days": "Sun", "time": "Closed"}], "id": "8574600008", "name": "USPS COLLECTION BOX - BLUE BOX", "address": {"city": "TUCSON", "state": "AZ", "street": "2940 W VALENCIA RD", "postcode": "85746"}}},
{"geometry": {"type": "Point", "coordinates": [-110.7728154435, 32.105061129]}, "type": "Feature", "properties": {"collection_times": [{"days": "Mon-Fri", "time": "1:00pm"}, {"days": "Sat-Sun", "time": "Closed"}], "id": "8574700000", "name": "USPS COLLECTION BOX - BLUE BOX", "address": {"city": "TUCSON", "state": "AZ", "street": "8080 S HOUGHTON RD", "postcode": "85747"}}},
{"geometry": {"type": "Point", "coordinates": [-110.7990344734, 32.1190585546]}, "type": "Feature", "properties": {"collection_times": [{"days": "Mon-Fri", "time": "1:00pm"}, {"days": "Sat", "time": "2:00pm"}, {"days": "Sun", "time": "Closed"}], "id": "8574700001", "name": "USPS COLLECTION BOX - BLUE BOX", "address": {"city": "TUCSON", "state": "AZ", "street": "9040 E VALENCIA RD", "postcode": "85747"}}},
{"geometry": {"type": "Point", "coordinates": [-110.7726497567, 32.1012502903]}, "type": "Feature", "properties": {"collection_times": [{"days": "Mon-Fri", "time": "2:30pm"}, {"days": "Sat-Sun", "time": "Closed"}], "id": "8574700002", "name": "USPS COLLECTION BOX - BLUE BOX", "address": {"city": "TUCSON", "state": "AZ", "street": "8235 S HOUGHTON RD", "postcode": "85747"}}},
{"geometry": {"type": "Point", "coordinates": [-110.7726713024, 32.1179701144]}, "type": "Feature", "properties": {"collection_times": [{"days": "Mon-Fri", "time": "2:30pm"}, {"days": "Sat", "time": "2:00pm"}, {"days": "Sun", "time": "Closed"}], "id": "8574700003", "name": "USPS COLLECTION BOX - BLUE BOX", "address": {"city": "TUCSON", "state": "AZ", "street": "7335 S HOUGHTON RD", "postcode": "85747"}}},
{"geometry": {"type": "Point", "coordinates": [-110.7909631444, 32.1916721247]}, "type": "Feature", "properties": {"collection_times": [{"days": "Mon-Sat", "time": "2:00pm"}, {"days": "Sun", "time": "Closed"}], "id": "8574800001", "name": "USPS COLLECTION BOX - BLUE BOX", "address": {"city": "TUCSON", "state": "AZ", "street": "9460 E GOLF LINKS RD", "postcode": "85748"}}},
{"geometry": {"type": "Point", "coordinates": [-110.7879111103, 32.2209326147]}, "type": "Feature", "properties": {"collection_times": [{"days": "Mon-Fri", "time": "2:30pm"}, {"days": "Sat-Sun", "time": "Closed"}], "id": "8574800002", "name": "USPS COLLECTION BOX - BLUE BOX", "address": {"city": "TUCSON", "state": "AZ", "street": "9595 E BROADWAY BLVD", "postcode": "85748"}}},
{"geometry": {"type": "Point", "coordinates": [-110.7726675011, 32.2193486327]}, "type": "Feature", "properties": {"collection_times": [{"days": "Mon-Fri", "time": "2:30pm"}, {"days": "Sat", "time": "2:00pm"}, {"days": "Sun", "time": "Closed"}], "id": "8574800003", "name": "USPS COLLECTION BOX - BLUE BOX", "address": {"city": "TUCSON", "state": "AZ", "street": "120 S HOUGHTON RD", "postcode": "85748"}}},
{"geometry": {"type": "Point", "coordinates": [-110.7715389582, 32.2208474417]}, "type": "Feature", "properties": {"collection_times": [{"days": "Mon-Fri", "time": "2:30pm"}, {"days": "Sat-Sun", "time": "Closed"}], "id": "8574800004", "name": "USPS COLLECTION BOX - BLUE BOX", "address": {"city": "TUCSON", "state": "AZ", "street": "10380 E BROADWAY BLVD", "postcode": "85748"}}},
{"geometry": {"type": "Point", "coordinates": [-110.8000388056, 32.2581757118]}, "type": "Feature", "properties": {"collection_times": [{"days": "Mon-Fri", "time": "2:15pm"}, {"days": "Sat", "time": "2:00pm"}, {"days": "Sun", "time": "Closed"}], "id": "8574900000", "name": "USPS COLLECTION BOX - BLUE BOX", "address": {"city": "TUCSON", "state": "AZ", "street": "8987 E TANQUE VERDE RD", "postcode": "85749"}}},
{"geometry": {"type": "Point", "coordinates": [-110.8000388056, 32.2581757118]}, "type": "Feature", "properties": {"collection_times": [{"days": "Mon-Fri", "time": "2:15pm"}, {"days": "Sat", "time": "2:00pm"}, {"days": "Sun", "time": "Closed"}], "id": "8574900001", "name": "USPS COLLECTION BOX - BLUE BOX", "address": {"city": "TUCSON", "state": "AZ", "street": "8987 E TANQUE VERDE RD", "postcode": "85749"}}},
{"geometry": {"type": "Point", "coordinates": [-110.7980112139, 32.2578480322]}, "type": "Feature", "properties": {"collection_times": [{"days": "Mon-Fri", "time": "2:30pm"}, {"days": "Sat", "time": "2:00pm"}, {"days": "Sun", "time": "Closed"}], "id": "8574900002", "name": "USPS COLLECTION BOX - BLUE BOX", "address": {"city": "TUCSON", "state": "AZ", "street": "9121 E TANQUE VERDE RD", "postcode": "85749"}}},
{"geometry": {"type": "Point", "coordinates": [-110.8039910715, 32.2580597819]}, "type": "Feature", "properties": {"collection_times": [{"days": "Mon-Fri", "time": "1:45pm"}, {"days": "Sat-Sun", "time": "Closed"}], "id": "8574900003", "name": "USPS COLLECTION BOX - BLUE BOX", "address": {"city": "TUCSON", "state": "AZ", "street": "8848 E TANQUE VERDE RD", "postcode": "85749"}}},
{"geometry": {"type": "Point", "coordinates": [-110.8028625286, 32.2582017369]}, "type": "Feature", "properties": {"collection_times": [{"days": "Mon-Fri", "time": "2:30pm"}, {"days": "Sat", "time": "2:00pm"}, {"days": "Sun", "time": "Closed"}], "id": "8574900004", "name": "USPS COLLECTION BOX - BLUE BOX", "address": {"city": "TUCSON", "state": "AZ", "street": "8845 E TANQUE VERDE RD", "postcode": "85749"}}},
{"geometry": {"type": "Point", "coordinates": [-110.8452716075, 32.3088382954]}, "type": "Feature", "properties": {"collection_times": [{"days": "Mon-Fri", "time": "2:30pm"}, {"days": "Sat", "time": "2:00pm"}, {"days": "Sun", "time": "Closed"}], "id": "8575000000", "name": "USPS COLLECTION BOX - BLUE BOX", "address": {"city": "TUCSON", "state": "AZ", "street": "6890 E SUNRISE DR", "postcode": "85750"}}},
{"geometry": {"type": "Point", "coordinates": [-110.8443950349, 32.3091505966]}, "type": "Feature", "properties": {"collection_times": [{"days": "Mon-Fri", "time": "2:00pm"}, {"days": "Sat-Sun", "time": "Closed"}], "id": "8575000001", "name": "USPS COLLECTION BOX - BLUE BOX", "address": {"city": "TUCSON", "state": "AZ", "street": "5620 N KOLB RD", "postcode": "85750"}}},
{"geometry": {"type": "Point", "coordinates": [-110.8746255513, 32.273448895]}, "type": "Feature", "properties": {"collection_times": [{"days": "Mon-Fri", "time": "2:30pm"}, {"days": "Sat", "time": "1:45pm"}, {"days": "Sun", "time": "Closed"}], "id": "8575000002", "name": "USPS COLLECTION BOX - BLUE BOX", "address": {"city": "TUCSON", "state": "AZ", "street": "5525 E RIVER RD", "postcode": "85750"}}},
{"geometry": {"type": "Point", "coordinates": [-110.8239771632, 32.2946203116]}, "type": "Feature", "properties": {"collection_times": [{"days": "Mon-Sat", "time": "1:45pm"}, {"days": "Sun", "time": "Closed"}], "id": "8575000003", "name": "USPS COLLECTION BOX - BLUE BOX", "address": {"city": "TUCSON", "state": "AZ", "street": "4802 N SABINO CANYON RD", "postcode": "85750"}}},
{"geometry": {"type": "Point", "coordinates": [-110.846267659, 32.3088382954]}, "type": "Feature", "properties": {"collection_times": [{"days": "Mon-Fri", "time": "2:30pm"}, {"days": "Sat", "time": "2:00pm"}, {"days": "Sun", "time": "Closed"}], "id": "8575000005", "name": "USPS COLLECTION BOX - BLUE BOX", "address": {"city": "TUCSON", "state": "AZ", "street": "6855 E SUNRISE DR", "postcode": "85750"}}},
{"geometry": {"type": "Point", "coordinates": [-110.934088659, 32.4420729482]}, "type": "Feature", "properties": {"collection_times": [{"days": "Mon-Fri", "time": "2:15pm"}, {"days": "Sat-Sun", "time": "Closed"}], "id": "8575500001", "name": "USPS COLLECTION BOX - BLUE BOX", "address": {"city": "TUCSON", "state": "AZ", "street": "13051 N ORACLE RD", "postcode": "85755"}}},
{"geometry": {"type": "Point", "coordinates": [-110.9557429638, 32.4653820767]}, "type": "Feature", "properties": {"collection_times": [{"days": "Mon-Fri", "time": "2:30pm"}, {"days": "Sat", "time": "1:30pm"}, {"days": "Sun", "time": "Closed"}], "id": "8575500002", "name": "USPS COLLECTION BOX - BLUE BOX", "address": {"city": "TUCSON", "state": "AZ", "street": "1117 E RANCHO VISTOSO BLVD", "postcode": "85755"}}},
{"geometry": {"type": "Point", "coordinates": [-110.9614310801, 32.4260233935]}, "type": "Feature", "properties": {"collection_times": [{"days": "Mon-Fri", "time": "2:30pm"}, {"days": "Sat", "time": "1:15pm"}, {"days": "Sun", "time": "Closed"}], "id": "8575500003", "name": "USPS COLLECTION BOX - BLUE BOX", "address": {"city": "TUCSON", "state": "AZ", "street": "12112 N RANCHO VISTOSO BLVD", "postcode": "85755"}}},
{"geometry": {"type": "Point", "coordinates": [-110.8761397388, 32.1263763388]}, "type": "Feature", "properties": {"collection_times": [{"days": "Mon-Sat", "time": "11:00am"}, {"days": "Sun", "time": "Closed"}], "id": "8575600001", "name": "USPS COLLECTION BOX - BLUE BOX", "address": {"city": "TUCSON", "state": "AZ", "street": "5451 E BENSON HWY", "postcode": "85756"}}},
{"geometry": {"type": "Point", "coordinates": [-110.93157083, 32.126771447]}, "type": "Feature", "properties": {"collection_times": [{"days": "Mon-Fri", "time": "2:30pm"}, {"days": "Sat", "time": "1:00pm"}, {"days": "Sun", "time": "Closed"}], "id": "8575600005", "name": "USPS COLLECTION BOX - BLUE BOX", "address": {"city": "TUCSON", "state": "AZ", "street": "2650 E ELVIRA RD", "postcode": "85756"}}},
{"geometry": {"type": "Point", "coordinates": [-110.9423623235, 32.1232478362]}, "type": "Feature", "properties": {"collection_times": [{"days": "Mon-Fri", "time": "2:30pm"}, {"days": "Sat-Sun", "time": "Closed"}], "id": "8575600006", "name": "USPS COLLECTION BOX - BLUE BOX", "address": {"city": "TUCSON", "state": "AZ", "street": "7081 S PLUMER AVE", "postcode": "85756"}}},
{"geometry": {"type": "Point", "coordinates": [-111.070694289, 32.1713707179]}, "type": "Feature", "properties": {"collection_times": [{"days": "Mon-Fri", "time": "1:45pm"}, {"days": "Sat", "time": "1:15pm"}, {"days": "Sun", "time": "Closed"}], "id": "8575700001", "name": "USPS COLLECTION BOX - BLUE BOX", "address": {"city": "TUCSON", "state": "AZ", "street": "4965 W AJO WAY", "postcode": "85757"}}}
]}
