{"type": "FeatureCollection", "features": [
{"geometry": {"type": "Point", "coordinates": [-110.0441906812, 34.2494573357]}, "type": "Feature", "properties": {"collection_times": [{"days": "Mon-Sat", "time": "4:15pm"}, {"days": "Sun", "time": "Closed"}], "id": "8590100001", "name": "USPS COLLECTION BOX - BLUE BOX", "address": {"city": "SHOW LOW", "state": "AZ", "street": "191 W DEUCE OF CLUBS", "postcode": "85901"}}},
{"geometry": {"type": "Point", "coordinates": [-110.0850987854, 34.0947050631]}, "type": "Feature", "properties": {"collection_times": [{"days": "Mon-Sat", "time": "11:30am"}, {"days": "Sun", "time": "Closed"}], "id": "8590100003", "name": "USPS COLLECTION BOX - BLUE BOX", "address": {"city": "SHOW LOW", "state": "AZ", "street": "7621 WHITE MOUNTAIN LAKE RD", "postcode": "85901"}}},
{"geometry": {"type": "Point", "coordinates": [-110.0559186034, 34.256661411]}, "type": "Feature", "properties": {"collection_times": [{"days": "Mon-Sat", "time": "4:15pm"}, {"days": "Sun", "time": "Closed"}], "id": "8590100005", "name": "USPS COLLECTION BOX - EXPRESS", "address": {"city": "SHOW LOW", "state": "AZ", "street": "191 W DEUCE OF CLUBS", "postcode": "85901"}}},
{"geometry": {"type": "Point", "coordinates": [-110.0441906812, 34.2494573357]}, "type": "Feature", "properties": {"collection_times": [{"days": "Mon-Sat", "time": "4:15pm"}, {"days": "Sun", "time": "Closed"}], "id": "8590100008", "name": "USPS COLLECTION BOX - PO LOBBY", "address": {"city": "SHOW LOW", "state": "AZ", "street": "191 W DEUCE OF CLUBS", "postcode": "85901"}}},
{"geometry": {"type": "Point", "coordinates": [-110.016363308, 34.1954681979]}, "type": "Feature", "properties": {"collection_times": [{"days": "Mon-Sat", "time": "11:00am"}, {"days": "Sun", "time": "Closed"}], "id": "8590100009", "name": "USPS COLLECTION BOX - BLUE BOX", "address": {"city": "SHOW LOW", "state": "AZ", "street": "5401 S WHITE MOUNTAIN RD", "postcode": "85901"}}},
{"geometry": {"type": "Point", "coordinates": [-110.0515877719, 34.2455533191]}, "type": "Feature", "properties": {"collection_times": [{"days": "Mon-Sat", "time": "10:00am"}, {"days": "Sun", "time": "Closed"}], "id": "8590100010", "name": "USPS COLLECTION BOX - BLUE BOX", "address": {"city": "SHOW LOW", "state": "AZ", "street": "900 W DEUCE OF CLUBS", "postcode": "85901"}}},
{"geometry": {"type": "Point", "coordinates": [-110.0441906812, 34.2494573357]}, "type": "Feature", "properties": {"collection_times": [{"days": "Mon-Sat", "time": "4:15pm"}, {"days": "Sun", "time": "Closed"}], "id": "8590100011", "name": "USPS COLLECTION BOX - BLUE BOX", "address": {"city": "SHOW LOW", "state": "AZ", "street": "191 W DEUCE OF CLUBS", "postcode": "85901"}}},
{"geometry": {"type": "Point", "coordinates": [-109.9703620397, 34.3424018721]}, "type": "Feature", "properties": {"collection_times": [{"days": "Mon-Sat", "time": "11:45am"}, {"days": "Sun", "time": "Closed"}], "id": "8591200000", "name": "USPS COLLECTION BOX - PO LOBBY", "address": {"city": "SHOW LOW", "state": "AZ", "street": "1785 EDMONDS CIR", "postcode": "85912"}}},
{"geometry": {"type": "Point", "coordinates": [-109.1465697823, 33.8490521001]}, "type": "Feature", "properties": {"collection_times": [{"days": "Mon-Fri", "time": "1:10pm"}, {"days": "Sat", "time": "10:45am"}, {"days": "Sun", "time": "Closed"}], "id": "8592000001", "name": "USPS COLLECTION BOX - BLUE BOX", "address": {"city": "ALPINE", "state": "AZ", "street": "42631 HWY 191", "postcode": "85920"}}},
{"geometry": {"type": "Point", "coordinates": [-109.1465697823, 33.8490521001]}, "type": "Feature", "properties": {"collection_times": [{"days": "Mon-Fri", "time": "1:10pm"}, {"days": "Sat", "time": "10:45am"}, {"days": "Sun", "time": "Closed"}], "id": "8592000002", "name": "USPS COLLECTION BOX - BLUE BOX", "address": {"city": "ALPINE", "state": "AZ", "street": "42631 HWY 191", "postcode": "85920"}}},
{"geometry": {"type": "Point", "coordinates": [-110.2957955196, 34.3618240118]}, "type": "Feature", "properties": {"collection_times": [{"days": "Mon-Fri", "time": "12:00pm"}, {"days": "Sat", "time": "8:45am"}, {"days": "Sun", "time": "Closed"}], "id": "8592300000", "name": "USPS COLLECTION BOX - BLUE BOX", "address": {"city": "CLAY SPRINGS", "state": "AZ", "street": "4995 GARDENIA", "postcode": "85923"}}},
{"geometry": {"type": "Point", "coordinates": [-110.2957955196, 34.3618240118]}, "type": "Feature", "properties": {"collection_times": [{"days": "Mon-Fri", "time": "12:00pm"}, {"days": "Sat", "time": "8:45am"}, {"days": "Sun", "time": "Closed"}], "id": "8592300001", "name": "USPS COLLECTION BOX - PO LOBBY", "address": {"city": "CLAY SPRINGS", "state": "AZ", "street": "4995 GARDENIA", "postcode": "85923"}}},
{"geometry": {"type": "Point", "coordinates": [-109.6261975594, 34.4539420408]}, "type": "Feature", "properties": {"collection_times": [{"days": "Mon-Fri", "time": "3:05pm"}, {"days": "Sat", "time": "10:00am"}, {"days": "Sun", "time": "Closed"}], "id": "8592400001", "name": "USPS COLLECTION BOX - BLUE BOX", "address": {"city": "CONCHO", "state": "AZ", "street": "37001 STATE HIGHWAY 61", "postcode": "85924"}}},
{"geometry": {"type": "Point", "coordinates": [-109.6261975594, 34.4539420408]}, "type": "Feature", "properties": {"collection_times": [{"days": "Mon-Fri", "time": "3:05pm"}, {"days": "Sat", "time": "10:00am"}, {"days": "Sun", "time": "Closed"}], "id": "8592400002", "name": "USPS COLLECTION BOX - PO LOBBY", "address": {"city": "CONCHO", "state": "AZ", "street": "37001 STATE HIGHWAY 61", "postcode": "85924"}}},
{"geometry": {"type": "Point", "coordinates": [-109.2940029919, 34.1109208643]}, "type": "Feature", "properties": {"collection_times": [{"days": "Mon-Fri", "time": "2:10pm"}, {"days": "Sat", "time": "10:30am"}, {"days": "Sun", "time": "Closed"}], "id": "8592500001", "name": "USPS COLLECTION BOX - BLUE BOX", "address": {"city": "EAGAR", "state": "AZ", "street": "113 W CENTRAL AVE", "postcode": "85925"}}},
{"geometry": {"type": "Point", "coordinates": [-109.2940029919, 34.1109208643]}, "type": "Feature", "properties": {"collection_times": [{"days": "Mon-Fri", "time": "2:10pm"}, {"days": "Sat", "time": "10:30am"}, {"days": "Sun", "time": "Closed"}], "id": "8592500002", "name": "USPS COLLECTION BOX - PO LOBBY", "address": {"city": "EAGAR", "state": "AZ", "street": "113 W CENTRAL AVE", "postcode": "85925"}}},
{"geometry": {"type": "Point", "coordinates": [-109.9870461493, 33.7911202464]}, "type": "Feature", "properties": {"collection_times": [{"days": "Mon-Fri", "time": "1:50pm"}, {"days": "Sat", "time": "9:15am"}, {"days": "Sun", "time": "Closed"}], "id": "8592600001", "name": "USPS COLLECTION BOX - BLUE BOX", "address": {"city": "FORT APACHE", "state": "AZ", "street": "105 OFFICERS ROW", "postcode": "85926"}}},
{"geometry": {"type": "Point", "coordinates": [-109.9870461493, 33.7911202464]}, "type": "Feature", "properties": {"collection_times": [{"days": "Mon-Fri", "time": "1:50pm"}, {"days": "Sat", "time": "9:15am"}, {"days": "Sun", "time": "Closed"}], "id": "8592600002", "name": "USPS COLLECTION BOX - PO LOBBY", "address": {"city": "FORT APACHE", "state": "AZ", "street": "105 OFFICERS ROW", "postcode": "85926"}}},
{"geometry": {"type": "Point", "coordinates": [-109.4603242048, 34.003578754]}, "type": "Feature", "properties": {"collection_times": [{"days": "Mon-Fri", "time": "12:00pm"}, {"days": "Sat", "time": "8:30am"}, {"days": "Sun", "time": "Closed"}], "id": "8592700003", "name": "USPS COLLECTION BOX - PO LOBBY", "address": {"city": "GREER", "state": "AZ", "street": "76 N MAIN ST", "postcode": "85927"}}},
{"geometry": {"type": "Point", "coordinates": [-110.5981761926, 34.4291253269]}, "type": "Feature", "properties": {"collection_times": [{"days": "Mon-Fri", "time": "2:15pm"}, {"days": "Sat", "time": "12:30pm"}, {"days": "Sun", "time": "Closed"}], "id": "8592800001", "name": "USPS COLLECTION BOX - BLUE BOX", "address": {"city": "HEBER", "state": "AZ", "street": "3410 BUCKSKIN CANYON RD", "postcode": "85928"}}},
{"geometry": {"type": "Point", "coordinates": [-110.5981761926, 34.4291253269]}, "type": "Feature", "properties": {"collection_times": [{"days": "Mon-Fri", "time": "2:15pm"}, {"days": "Sat", "time": "12:30pm"}, {"days": "Sun", "time": "Closed"}], "id": "8592800002", "name": "USPS COLLECTION BOX - PO LOBBY", "address": {"city": "HEBER", "state": "AZ", "street": "3410 BUCKSKIN CANYON RD", "postcode": "85928"}}},
{"geometry": {"type": "Point", "coordinates": [-109.9752265089, 34.153224038]}, "type": "Feature", "properties": {"collection_times": [{"days": "Mon-Fri", "time": "3:55pm"}, {"days": "Sat", "time": "3:00pm"}, {"days": "Sun", "time": "Closed"}], "id": "8592900001", "name": "USPS COLLECTION BOX - BLUE BOX", "address": {"city": "LAKESIDE", "state": "AZ", "street": "1815 W JACKSON LN", "postcode": "85929"}}},
{"geometry": {"type": "Point", "coordinates": [-109.9561217793, 34.1431515497]}, "type": "Feature", "properties": {"collection_times": [{"days": "Mon-Sat", "time": "10:30am"}, {"days": "Sun", "time": "Closed"}], "id": "8592900002", "name": "USPS COLLECTION BOX - BLUE BOX", "address": {"city": "LAKESIDE", "state": "AZ", "street": "116 E WHITE MOUNTAIN BLVD", "postcode": "85929"}}},
{"geometry": {"type": "Point", "coordinates": [-109.9752265089, 34.153224038]}, "type": "Feature", "properties": {"collection_times": [{"days": "Mon-Fri", "time": "3:55pm"}, {"days": "Sat", "time": "3:00pm"}, {"days": "Sun", "time": "Closed"}], "id": "8592900009", "name": "USPS COLLECTION BOX - PO LOBBY", "address": {"city": "LAKESIDE", "state": "AZ", "street": "1815 W JACKSON LN", "postcode": "85929"}}},
{"geometry": {"type": "Point", "coordinates": [-109.8534767295, 34.073518317]}, "type": "Feature", "properties": {"collection_times": [{"days": "Mon-Fri", "time": "3:10pm"}, {"days": "Sat", "time": "10:00am"}, {"days": "Sun", "time": "Closed"}], "id": "8593000001", "name": "USPS COLLECTION BOX - BLUE BOX", "address": {"city": "MCNARY", "state": "AZ", "street": "14 CADY ST", "postcode": "85930"}}},
{"geometry": {"type": "Point", "coordinates": [-109.8534767295, 34.073518317]}, "type": "Feature", "properties": {"collection_times": [{"days": "Mon-Fri", "time": "3:10pm"}, {"days": "Sat", "time": "10:00am"}, {"days": "Sun", "time": "Closed"}], "id": "8593000002", "name": "USPS COLLECTION BOX - PO LOBBY", "address": {"city": "MCNARY", "state": "AZ", "street": "14 CADY ST", "postcode": "85930"}}},
{"geometry": {"type": "Point", "coordinates": [-109.2071531026, 33.952744487]}, "type": "Feature", "properties": {"collection_times": [{"days": "Mon-Fri", "time": "1:15pm"}, {"days": "Sat", "time": "10:30am"}, {"days": "Sun", "time": "Closed"}], "id": "8593200000", "name": "USPS COLLECTION BOX - PO LOBBY", "address": {"city": "NUTRIOSO", "state": "AZ", "street": "1 COUNTY RD 2013", "postcode": "85932"}}},
{"geometry": {"type": "Point", "coordinates": [-110.5638062963, 34.402783946]}, "type": "Feature", "properties": {"collection_times": [{"days": "Mon-Fri", "time": "2:30pm"}, {"days": "Sat", "time": "12:00pm"}, {"days": "Sun", "time": "Closed"}], "id": "8593300001", "name": "USPS COLLECTION BOX - BLUE BOX", "address": {"city": "OVERGAARD", "state": "AZ", "street": "2821 STATE HIGHWAY 260", "postcode": "85933"}}},
{"geometry": {"type": "Point", "coordinates": [-110.5638062963, 34.402783946]}, "type": "Feature", "properties": {"collection_times": [{"days": "Mon-Fri", "time": "2:30pm"}, {"days": "Sat", "time": "12:00pm"}, {"days": "Sun", "time": "Closed"}], "id": "8593300002", "name": "USPS COLLECTION BOX - PO LOBBY", "address": {"city": "OVERGAARD", "state": "AZ", "street": "2821 STATE HIGHWAY 260", "postcode": "85933"}}},
{"geometry": {"type": "Point", "coordinates": [-110.2502394689, 34.3074718811]}, "type": "Feature", "properties": {"collection_times": [{"days": "Mon-Fri", "time": "3:10pm"}, {"days": "Sat", "time": "9:30am"}, {"days": "Sun", "time": "Closed"}], "id": "8593400000", "name": "USPS COLLECTION BOX - PO LOBBY", "address": {"city": "PINEDALE", "state": "AZ", "street": "1224 PINEDALE RD", "postcode": "85934"}}},
{"geometry": {"type": "Point", "coordinates": [-109.9469478618, 34.1309983133]}, "type": "Feature", "properties": {"collection_times": [{"days": "Mon-Fri", "time": "3:40pm"}, {"days": "Sat", "time": "3:00pm"}, {"days": "Sun", "time": "Closed"}], "id": "8593500001", "name": "USPS COLLECTION BOX - BLUE BOX", "address": {"city": "PINETOP", "state": "AZ", "street": "712 E WHITE MOUNTAIN BLVD", "postcode": "85935"}}},
{"geometry": {"type": "Point", "coordinates": [-109.9103696091, 34.1164524286]}, "type": "Feature", "properties": {"collection_times": [{"days": "Mon-Fri", "time": "3:40pm"}, {"days": "Sat", "time": "3:00pm"}, {"days": "Sun", "time": "Closed"}], "id": "8593500003", "name": "USPS COLLECTION BOX - EXPRESS", "address": {"city": "PINETOP", "state": "AZ", "street": "712 E WHITE MOUNTAIN BLVD", "postcode": "85935"}}},
{"geometry": {"type": "Point", "coordinates": [-109.9469478618, 34.1309983133]}, "type": "Feature", "properties": {"collection_times": [{"days": "Mon-Fri", "time": "3:40pm"}, {"days": "Sat", "time": "3:00pm"}, {"days": "Sun", "time": "Closed"}], "id": "8593500006", "name": "USPS COLLECTION BOX - PO LOBBY", "address": {"city": "PINETOP", "state": "AZ", "street": "712 E WHITE MOUNTAIN BLVD", "postcode": "85935"}}},
{"geometry": {"type": "Point", "coordinates": [-109.3782109034, 34.5065391333]}, "type": "Feature", "properties": {"collection_times": [{"days": "Mon-Fri", "time": "2:45pm"}, {"days": "Sat", "time": "11:00am"}, {"days": "Sun", "time": "Closed"}], "id": "8593600001", "name": "USPS COLLECTION BOX - BLUE BOX", "address": {"city": "SAINT JOHNS", "state": "AZ", "street": "840 W CLEVELAND", "postcode": "85936"}}},
{"geometry": {"type": "Point", "coordinates": [-109.3782109034, 34.5065391333]}, "type": "Feature", "properties": {"collection_times": [{"days": "Mon-Fri", "time": "2:45pm"}, {"days": "Sat", "time": "11:00am"}, {"days": "Sun", "time": "Closed"}], "id": "8593600003", "name": "USPS COLLECTION BOX - PO LOBBY", "address": {"city": "SAINT JOHNS", "state": "AZ", "street": "840 W CLEVELAND", "postcode": "85936"}}},
{"geometry": {"type": "Point", "coordinates": [-110.080658288, 34.4989399794]}, "type": "Feature", "properties": {"collection_times": [{"days": "Mon-Fri", "time": "3:15pm"}, {"days": "Sat", "time": "11:30am"}, {"days": "Sun", "time": "Closed"}], "id": "8593700003", "name": "USPS COLLECTION BOX - BLUE BOX", "address": {"city": "SNOWFLAKE", "state": "AZ", "street": "761 S 1ST ST W", "postcode": "85937"}}},
{"geometry": {"type": "Point", "coordinates": [-110.080658288, 34.4989399794]}, "type": "Feature", "properties": {"collection_times": [{"days": "Mon-Fri", "time": "3:15pm"}, {"days": "Sat", "time": "11:30am"}, {"days": "Sun", "time": "Closed"}], "id": "8593700004", "name": "USPS COLLECTION BOX - BLUE BOX", "address": {"city": "SNOWFLAKE", "state": "AZ", "street": "761 S 1ST ST W", "postcode": "85937"}}},
{"geometry": {"type": "Point", "coordinates": [-110.080658288, 34.4989399794]}, "type": "Feature", "properties": {"collection_times": [{"days": "Mon-Fri", "time": "3:15pm"}, {"days": "Sat", "time": "11:30am"}, {"days": "Sun", "time": "Closed"}], "id": "8593700005", "name": "USPS COLLECTION BOX - PO LOBBY", "address": {"city": "SNOWFLAKE", "state": "AZ", "street": "761 S 1ST ST W", "postcode": "85937"}}},
{"geometry": {"type": "Point", "coordinates": [-109.2855949901, 34.1337322111]}, "type": "Feature", "properties": {"collection_times": [{"days": "Mon-Fri", "time": "2:25pm"}, {"days": "Sat", "time": "10:45am"}, {"days": "Sun", "time": "Closed"}], "id": "8593800001", "name": "USPS COLLECTION BOX - BLUE BOX", "address": {"city": "SPRINGERVILLE", "state": "AZ", "street": "5 E MAIN ST", "postcode": "85938"}}},
{"geometry": {"type": "Point", "coordinates": [-109.2855949901, 34.1337322111]}, "type": "Feature", "properties": {"collection_times": [{"days": "Mon-Fri", "time": "2:25pm"}, {"days": "Sat", "time": "10:45am"}, {"days": "Sun", "time": "Closed"}], "id": "8593800002", "name": "USPS COLLECTION BOX - PO LOBBY", "address": {"city": "SPRINGERVILLE", "state": "AZ", "street": "5 E MAIN ST", "postcode": "85938"}}},
{"geometry": {"type": "Point", "coordinates": [-110.0911379773, 34.4654745381]}, "type": "Feature", "properties": {"collection_times": [{"days": "Mon-Fri", "time": "2:55pm"}, {"days": "Sat", "time": "11:00am"}, {"days": "Sun", "time": "Closed"}], "id": "8593900001", "name": "USPS COLLECTION BOX - BLUE BOX", "address": {"city": "TAYLOR", "state": "AZ", "street": "25 S MAIN ST", "postcode": "85939"}}},
{"geometry": {"type": "Point", "coordinates": [-110.0911379773, 34.4654745381]}, "type": "Feature", "properties": {"collection_times": [{"days": "Mon-Fri", "time": "2:55pm"}, {"days": "Sat", "time": "11:00am"}, {"days": "Sun", "time": "Closed"}], "id": "8593900002", "name": "USPS COLLECTION BOX - PO LOBBY", "address": {"city": "TAYLOR", "state": "AZ", "street": "25 S MAIN ST", "postcode": "85939"}}},
{"geometry": {"type": "Point", "coordinates": [-109.6931280241, 34.2551406591]}, "type": "Feature", "properties": {"collection_times": [{"days": "Mon-Fri", "time": "3:15pm"}, {"days": "Sat", "time": "9:30am"}, {"days": "Sun", "time": "Closed"}], "id": "8594000001", "name": "USPS COLLECTION BOX - BLUE BOX", "address": {"city": "VERNON", "state": "AZ", "street": "1688 APACHE COUNTY ROAD 3140", "postcode": "85940"}}},
{"geometry": {"type": "Point", "coordinates": [-109.69313, 34.255142]}, "type": "Feature", "properties": {"collection_times": [{"days": "Mon-Fri", "time": "3:15pm"}, {"days": "Sat", "time": "9:30am"}, {"days": "Sun", "time": "Closed"}], "id": "8594000002", "name": "USPS COLLECTION BOX - PO LOBBY", "address": {"city": "VERNON", "state": "AZ", "street": "1688 APACHE COUNTY ROAD 3140", "postcode": "85940"}}},
{"geometry": {"type": "Point", "coordinates": [-109.9761842479, 33.8252190867]}, "type": "Feature", "properties": {"collection_times": [{"days": "Mon-Fri", "time": "2:35pm"}, {"days": "Sat", "time": "9:00am"}, {"days": "Sun", "time": "Closed"}], "id": "8594100000", "name": "USPS COLLECTION BOX - PO LOBBY", "address": {"city": "WHITERIVER", "state": "AZ", "street": "1025 S CHIEF AVE", "postcode": "85941"}}}
]}
