{"type": "FeatureCollection", "features": [
{"geometry": {"type": "Point", "coordinates": [-111.6684122836, 35.1768004401]}, "type": "Feature", "properties": {"collection_times": [{"days": "Mon-Fri", "time": "3:30pm"}, {"days": "Sat", "time": "12:00pm"}, {"days": "Sun", "time": "Closed"}], "id": "8600100002", "name": "USPS COLLECTION BOX - BLUE BOX", "address": {"city": "FLAGSTAFF", "state": "AZ", "street": "2750 S WOODLANDS VILLAGE BLVD", "postcode": "86001"}}},
{"geometry": {"type": "Point", "coordinates": [-111.6684122836, 35.1768004401]}, "type": "Feature", "properties": {"collection_times": [{"days": "Mon-Fri", "time": "3:30pm"}, {"days": "Sat", "time": "12:00pm"}, {"days": "Sun", "time": "Closed"}], "id": "8600100005", "name": "USPS COLLECTION BOX - BLUE BOX", "address": {"city": "FLAGSTAFF", "state": "AZ", "street": "2750 S WOODLANDS VILLAGE BLVD", "postcode": "86001"}}},
{"geometry": {"type": "Point", "coordinates": [-111.6662297815, 35.1842201958]}, "type": "Feature", "properties": {"collection_times": [{"days": "Mon-Sat", "time": "4:00pm"}, {"days": "Sun", "time": "Closed"}], "id": "8600100011", "name": "USPS COLLECTION BOX - BLUE BOX", "address": {"city": "FLAGSTAFF", "state": "AZ", "street": "104 N AGASSIZ ST", "postcode": "86001"}}},
{"geometry": {"type": "Point", "coordinates": [-111.6662297815, 35.1842201958]}, "type": "Feature", "properties": {"collection_times": [{"days": "Mon-Sat", "time": "4:00pm"}, {"days": "Sun", "time": "Closed"}], "id": "8600100012", "name": "USPS COLLECTION BOX - BLUE BOX", "address": {"city": "FLAGSTAFF", "state": "AZ", "street": "104 N AGASSIZ ST", "postcode": "86001"}}},
{"geometry": {"type": "Point", "coordinates": [-111.6474236364, 35.1982482553]}, "type": "Feature", "properties": {"collection_times": [{"days": "Mon-Sat", "time": "11:00am"}, {"days": "Sun", "time": "Closed"}], "id": "8600100016", "name": "USPS COLLECTION BOX - BLUE BOX", "address": {"city": "FLAGSTAFF", "state": "AZ", "street": "114 N SAN FRANCISCO ST", "postcode": "86001"}}},
{"geometry": {"type": "Point", "coordinates": [-111.6474236364, 35.1982482553]}, "type": "Feature", "properties": {"collection_times": [{"days": "Mon-Sat", "time": "11:00am"}, {"days": "Sun", "time": "Closed"}], "id": "8600100017", "name": "USPS COLLECTION BOX - BLUE BOX", "address": {"city": "FLAGSTAFF", "state": "AZ", "street": "114 N SAN FRANCISCO ST", "postcode": "86001"}}},
{"geometry": {"type": "Point", "coordinates": [-111.6481785163, 35.1995880808]}, "type": "Feature", "properties": {"collection_times": [{"days": "Mon-Fri", "time": "3:45pm"}, {"days": "Sat-Sun", "time": "Closed"}], "id": "8600100020", "name": "USPS COLLECTION BOX - BLUE BOX", "address": {"city": "FLAGSTAFF", "state": "AZ", "street": "223 N LEROUX ST", "postcode": "86001"}}},
{"geometry": {"type": "Point", "coordinates": [-111.6481785163, 35.1995880808]}, "type": "Feature", "properties": {"collection_times": [{"days": "Mon-Fri", "time": "3:45pm"}, {"days": "Sat-Sun", "time": "Closed"}], "id": "8600100021", "name": "USPS COLLECTION BOX - BLUE BOX", "address": {"city": "FLAGSTAFF", "state": "AZ", "street": "223 N LEROUX ST", "postcode": "86001"}}},
{"geometry": {"type": "Point", "coordinates": [-111.6502369652, 35.1977828545]}, "type": "Feature", "properties": {"collection_times": [{"days": "Mon-Fri", "time": "3:00pm"}, {"days": "Sat-Sun", "time": "Closed"}], "id": "8600100027", "name": "USPS COLLECTION BOX - BLUE BOX", "address": {"city": "FLAGSTAFF", "state": "AZ", "street": "101 W ROUTE 66", "postcode": "86001"}}},
{"geometry": {"type": "Point", "coordinates": [-111.644086454, 35.2054416111]}, "type": "Feature", "properties": {"collection_times": [{"days": "Mon-Fri", "time": "4:00pm"}, {"days": "Sat-Sun", "time": "Closed"}], "id": "8600100032", "name": "USPS COLLECTION BOX - BLUE BOX", "address": {"city": "FLAGSTAFF", "state": "AZ", "street": "900 N SAN FRANCISCO ST", "postcode": "86001"}}},
{"geometry": {"type": "Point", "coordinates": [-111.651121508, 35.1991707613]}, "type": "Feature", "properties": {"collection_times": [{"days": "Mon-Fri", "time": "3:00pm"}, {"days": "Sat", "time": "3:15pm"}, {"days": "Sun", "time": "Closed"}], "id": "8600100034", "name": "USPS COLLECTION BOX - BLUE BOX", "address": {"city": "FLAGSTAFF", "state": "AZ", "street": "211 W ASPEN AVE", "postcode": "86001"}}},
{"geometry": {"type": "Point", "coordinates": [-111.6625758077, 35.1886803023]}, "type": "Feature", "properties": {"collection_times": [{"days": "Mon-Sat", "time": "3:15pm"}, {"days": "Sun", "time": "Closed"}], "id": "8600100036", "name": "USPS COLLECTION BOX - BLUE BOX", "address": {"city": "FLAGSTAFF", "state": "AZ", "street": "1201 S PLAZA WAY", "postcode": "86001"}}},
{"geometry": {"type": "Point", "coordinates": [-111.6470805029, 35.2044412374]}, "type": "Feature", "properties": {"collection_times": [{"days": "Mon-Fri", "time": "4:00pm"}, {"days": "Sat-Sun", "time": "Closed"}], "id": "8600100038", "name": "USPS COLLECTION BOX - BLUE BOX", "address": {"city": "FLAGSTAFF", "state": "AZ", "street": "710 N BEAVER ST", "postcode": "86001"}}},
{"geometry": {"type": "Point", "coordinates": [-111.6470805029, 35.2044412374]}, "type": "Feature", "properties": {"collection_times": [{"days": "Mon-Fri", "time": "4:00pm"}, {"days": "Sat-Sun", "time": "Closed"}], "id": "8600100039", "name": "USPS COLLECTION BOX - BLUE BOX", "address": {"city": "FLAGSTAFF", "state": "AZ", "street": "710 N BEAVER ST", "postcode": "86001"}}},
{"geometry": {"type": "Point", "coordinates": [-111.6455020038, 35.2106308384]}, "type": "Feature", "properties": {"collection_times": [{"days": "Mon-Fri", "time": "4:00pm"}, {"days": "Sat-Sun", "time": "Closed"}], "id": "8600100041", "name": "USPS COLLECTION BOX - BLUE BOX", "address": {"city": "FLAGSTAFF", "state": "AZ", "street": "77 W FOREST AVE", "postcode": "86001"}}},
{"geometry": {"type": "Point", "coordinates": [-111.6455020038, 35.2106308384]}, "type": "Feature", "properties": {"collection_times": [{"days": "Mon-Fri", "time": "4:00pm"}, {"days": "Sat-Sun", "time": "Closed"}], "id": "8600100042", "name": "USPS COLLECTION BOX - BLUE BOX", "address": {"city": "FLAGSTAFF", "state": "AZ", "street": "77 W FOREST AVE", "postcode": "86001"}}},
{"geometry": {"type": "Point", "coordinates": [-111.6471917165, 35.2070369899]}, "type": "Feature", "properties": {"collection_times": [{"days": "Mon-Fri", "time": "3:30pm"}, {"days": "Sat", "time": "3:00pm"}, {"days": "Sun", "time": "Closed"}], "id": "8600100045", "name": "USPS COLLECTION BOX - BLUE BOX", "address": {"city": "FLAGSTAFF", "state": "AZ", "street": "1000 N HUMPHREYS ST", "postcode": "86001"}}},
{"geometry": {"type": "Point", "coordinates": [-111.6481785163, 35.1995880808]}, "type": "Feature", "properties": {"collection_times": [{"days": "Mon-Fri", "time": "3:45pm"}, {"days": "Sat-Sun", "time": "Closed"}], "id": "8600100048", "name": "USPS COLLECTION BOX - BLUE BOX", "address": {"city": "FLAGSTAFF", "state": "AZ", "street": "223 N LEROUX ST", "postcode": "86001"}}},
{"geometry": {"type": "Point", "coordinates": [-111.6471917165, 35.2070369899]}, "type": "Feature", "properties": {"collection_times": [{"days": "Mon-Fri", "time": "4:00pm"}, {"days": "Sat", "time": "3:00pm"}, {"days": "Sun", "time": "Closed"}], "id": "8600100051", "name": "USPS COLLECTION BOX - BLUE BOX", "address": {"city": "FLAGSTAFF", "state": "AZ", "street": "1000 N HUMPHREYS ST", "postcode": "86001"}}},
{"geometry": {"type": "Point", "coordinates": [-111.6625758077, 35.1886803023]}, "type": "Feature", "properties": {"collection_times": [{"days": "Mon-Sat", "time": "3:15pm"}, {"days": "Sun", "time": "Closed"}], "id": "8600100052", "name": "USPS COLLECTION BOX - BLUE BOX", "address": {"city": "FLAGSTAFF", "state": "AZ", "street": "1201 S PLAZA WAY", "postcode": "86001"}}},
{"geometry": {"type": "Point", "coordinates": [-111.6464079402, 35.1978251451]}, "type": "Feature", "properties": {"collection_times": [{"days": "Mon-Fri", "time": "4:00pm"}, {"days": "Sat", "time": "1:00pm"}, {"days": "Sun", "time": "Closed"}], "id": "8600100057", "name": "USPS COLLECTION BOX - PO LOBBY", "address": {"city": "FLAGSTAFF", "state": "AZ", "street": "104 N AGASSIZ ST", "postcode": "86001"}}},
{"geometry": {"type": "Point", "coordinates": [-111.6343121763, 35.1937505803]}, "type": "Feature", "properties": {"collection_times": [{"days": "Mon-Sat", "time": "3:00pm"}, {"days": "Sun", "time": "Closed"}], "id": "8600100059", "name": "USPS COLLECTION BOX - BLUE BOX", "address": {"city": "FLAGSTAFF", "state": "AZ", "street": "201 N SWITZER CANYON DR", "postcode": "86001"}}},
{"geometry": {"type": "Point", "coordinates": [-111.6464079402, 35.1978251451]}, "type": "Feature", "properties": {"collection_times": [{"days": "Mon-Fri", "time": "4:00pm"}, {"days": "Sat", "time": "1:00pm"}, {"days": "Sun", "time": "Closed"}], "id": "8600100062", "name": "USPS COLLECTION BOX - APC", "address": {"city": "FLAGSTAFF", "state": "AZ", "street": "104 N AGASSIZ ST", "postcode": "86001"}}},
{"geometry": {"type": "Point", "coordinates": [-111.6100222202, 35.2087975302]}, "type": "Feature", "properties": {"collection_times": [{"days": "Mon-Fri", "time": "5:00pm"}, {"days": "Sat", "time": "4:30pm"}, {"days": "Sun", "time": "Closed"}], "id": "8600400002", "name": "USPS COLLECTION BOX - BLUE BOX", "address": {"city": "FLAGSTAFF", "state": "AZ", "street": "2400 N POSTAL BLVD", "postcode": "86004"}}},
{"geometry": {"type": "Point", "coordinates": [-111.6100222202, 35.2087975302]}, "type": "Feature", "properties": {"collection_times": [{"days": "Mon-Fri", "time": "5:00pm"}, {"days": "Sat", "time": "4:30pm"}, {"days": "Sun", "time": "Closed"}], "id": "8600400003", "name": "USPS COLLECTION BOX - BLUE BOX", "address": {"city": "FLAGSTAFF", "state": "AZ", "street": "2400 N POSTAL BLVD", "postcode": "86004"}}},
{"geometry": {"type": "Point", "coordinates": [-111.6100954313, 35.2095625506]}, "type": "Feature", "properties": {"collection_times": [{"days": "Mon-Fri", "time": "5:00pm"}, {"days": "Sat", "time": "4:30pm"}, {"days": "Sun", "time": "Closed"}], "id": "8600400004", "name": "USPS COLLECTION BOX - BLUE BOX", "address": {"city": "FLAGSTAFF", "state": "AZ", "street": "2400 N POSTAL BLVD", "postcode": "86004"}}},
{"geometry": {"type": "Point", "coordinates": [-111.6305050092, 35.2166834094]}, "type": "Feature", "properties": {"collection_times": [{"days": "Mon-Fri", "time": "3:00pm"}, {"days": "Sat-Sun", "time": "Closed"}], "id": "8600400007", "name": "USPS COLLECTION BOX - BLUE BOX", "address": {"city": "FLAGSTAFF", "state": "AZ", "street": "1515 E CEDAR AVE", "postcode": "86004"}}},
{"geometry": {"type": "Point", "coordinates": [-111.6305050092, 35.2166834094]}, "type": "Feature", "properties": {"collection_times": [{"days": "Mon-Fri", "time": "3:00pm"}, {"days": "Sat-Sun", "time": "Closed"}], "id": "8600400008", "name": "USPS COLLECTION BOX - BLUE BOX", "address": {"city": "FLAGSTAFF", "state": "AZ", "street": "1515 E CEDAR AVE", "postcode": "86004"}}},
{"geometry": {"type": "Point", "coordinates": [-111.6164236251, 35.2180617523]}, "type": "Feature", "properties": {"collection_times": [{"days": "Mon-Fri", "time": "3:00pm"}, {"days": "Sat-Sun", "time": "Closed"}], "id": "8600400010", "name": "USPS COLLECTION BOX - BLUE BOX", "address": {"city": "FLAGSTAFF", "state": "AZ", "street": "2200 E CEDAR AVE", "postcode": "86004"}}},
{"geometry": {"type": "Point", "coordinates": [-111.6096680493, 35.2115927507]}, "type": "Feature", "properties": {"collection_times": [{"days": "Mon-Fri", "time": "3:00pm"}, {"days": "Sat", "time": "2:45pm"}, {"days": "Sun", "time": "Closed"}], "id": "8600400011", "name": "USPS COLLECTION BOX - BLUE BOX", "address": {"city": "FLAGSTAFF", "state": "AZ", "street": "2529 E 7TH AVE", "postcode": "86004"}}},
{"geometry": {"type": "Point", "coordinates": [-111.6133820361, 35.2152906666]}, "type": "Feature", "properties": {"collection_times": [{"days": "Mon-Fri", "time": "3:00pm"}, {"days": "Sat-Sun", "time": "Closed"}], "id": "8600400015", "name": "USPS COLLECTION BOX - BLUE BOX", "address": {"city": "FLAGSTAFF", "state": "AZ", "street": "2708 N 4TH ST", "postcode": "86004"}}},
{"geometry": {"type": "Point", "coordinates": [-111.5777712476, 35.2115881622]}, "type": "Feature", "properties": {"collection_times": [{"days": "Mon-Sat", "time": "10:00am"}, {"days": "Sun", "time": "Closed"}], "id": "8600400023", "name": "USPS COLLECTION BOX - BLUE BOX", "address": {"city": "FLAGSTAFF", "state": "AZ", "street": "5200 E CORTLAND BLVD", "postcode": "86004"}}},
{"geometry": {"type": "Point", "coordinates": [-111.6100954313, 35.2095625506]}, "type": "Feature", "properties": {"collection_times": [{"days": "Mon-Fri", "time": "5:00pm"}, {"days": "Sat", "time": "4:30pm"}, {"days": "Sun", "time": "Closed"}], "id": "8600400027", "name": "USPS COLLECTION BOX - BLUE BOX", "address": {"city": "FLAGSTAFF", "state": "AZ", "street": "2400 N POSTAL BLVD", "postcode": "86004"}}},
{"geometry": {"type": "Point", "coordinates": [-111.5686757183, 35.2327842766]}, "type": "Feature", "properties": {"collection_times": [{"days": "Mon-Fri", "time": "4:30pm"}, {"days": "Sat", "time": "12:00pm"}, {"days": "Sun", "time": "Closed"}], "id": "8600400030", "name": "USPS COLLECTION BOX - EXPRESS", "address": {"city": "FLAGSTAFF", "state": "AZ", "street": "2515 E BUTLER AVE", "postcode": "86004"}}},
{"geometry": {"type": "Point", "coordinates": [-111.6100222202, 35.2087975302]}, "type": "Feature", "properties": {"collection_times": [{"days": "Mon-Fri", "time": "5:00pm"}, {"days": "Sat", "time": "4:30pm"}, {"days": "Sun", "time": "Closed"}], "id": "8600400031", "name": "USPS COLLECTION BOX - PO LOBBY", "address": {"city": "FLAGSTAFF", "state": "AZ", "street": "2400 N POSTAL BLVD", "postcode": "86004"}}},
{"geometry": {"type": "Point", "coordinates": [-111.5686757183, 35.2327842766]}, "type": "Feature", "properties": {"collection_times": [{"days": "Mon-Fri", "time": "5:00pm"}, {"days": "Sat", "time": "4:30pm"}, {"days": "Sun", "time": "Closed"}], "id": "8600400032", "name": "USPS COLLECTION BOX - EXPRESS", "address": {"city": "FLAGSTAFF", "state": "AZ", "street": "2400 N POSTAL BLVD", "postcode": "86004"}}},
{"geometry": {"type": "Point", "coordinates": [-111.5835536626, 35.223902834]}, "type": "Feature", "properties": {"collection_times": [{"days": "Mon-Fri", "time": "3:00pm"}, {"days": "Sat", "time": "2:45pm"}, {"days": "Sun", "time": "Closed"}], "id": "8600400033", "name": "USPS COLLECTION BOX - BLUE BOX", "address": {"city": "FLAGSTAFF", "state": "AZ", "street": "4560 N US HIGHWAY 89", "postcode": "86004"}}},
{"geometry": {"type": "Point", "coordinates": [-111.6100222202, 35.2087975302]}, "type": "Feature", "properties": {"collection_times": [{"days": "Mon-Fri", "time": "5:00pm"}, {"days": "Sat", "time": "4:30pm"}, {"days": "Sun", "time": "Closed"}], "id": "8600400034", "name": "USPS COLLECTION BOX - APC", "address": {"city": "FLAGSTAFF", "state": "AZ", "street": "2400 N POSTAL BLVD", "postcode": "86004"}}},
{"geometry": {"type": "Point", "coordinates": [-111.5686757183, 35.2327842766]}, "type": "Feature", "properties": {"collection_times": [{"days": "Mon-Fri", "time": "3:30pm"}, {"days": "Sat-Sun", "time": "Closed"}], "id": "8600400035", "name": "USPS COLLECTION BOX - BLUE BOX", "address": {"city": "FLAGSTAFF", "state": "AZ", "street": "50 PINEWOOD BLVD", "postcode": "86004"}}},
{"geometry": {"type": "Point", "coordinates": [-111.6559570564, 35.1876652458]}, "type": "Feature", "properties": {"collection_times": [{"days": "Mon-Fri", "time": "3:30pm"}, {"days": "Sat", "time": "3:00pm"}, {"days": "Sun", "time": "Closed"}], "id": "8601100008", "name": "USPS COLLECTION BOX - BLUE BOX", "address": {"city": "FLAGSTAFF", "state": "AZ", "street": "1 NAU CAMPUS BOOKSTORE", "postcode": "86011"}}},
{"geometry": {"type": "Point", "coordinates": [-111.4111557987, 35.8781880736]}, "type": "Feature", "properties": {"collection_times": [{"days": "Mon-Fri", "time": "4:00pm"}, {"days": "Sat", "time": "10:30am"}, {"days": "Sun", "time": "Closed"}], "id": "8602000001", "name": "USPS COLLECTION BOX - BLUE BOX", "address": {"city": "CAMERON", "state": "AZ", "street": "465 HIGHWAY 89", "postcode": "86020"}}},
{"geometry": {"type": "Point", "coordinates": [-111.4111557987, 35.8781880736]}, "type": "Feature", "properties": {"collection_times": [{"days": "Mon-Fri", "time": "3:45pm"}, {"days": "Sat", "time": "10:15am"}, {"days": "Sun", "time": "Closed"}], "id": "8602000004", "name": "USPS COLLECTION BOX - PO LOBBY", "address": {"city": "CAMERON", "state": "AZ", "street": "465 HIGHWAY 89", "postcode": "86020"}}},
{"geometry": {"type": "Point", "coordinates": [-112.9597162698, 36.6691078328]}, "type": "Feature", "properties": {"collection_times": [{"days": "Mon-Sat", "time": "11:00am"}, {"days": "Sun", "time": "Closed"}], "id": "8602100001", "name": "USPS COLLECTION BOX - BLUE BOX", "address": {"city": "COLORADO CITY", "state": "AZ", "street": "55 S CENTRAL", "postcode": "86021"}}},
{"geometry": {"type": "Point", "coordinates": [-112.9597162698, 36.6691078328]}, "type": "Feature", "properties": {"collection_times": [{"days": "Mon-Sat", "time": "11:00am"}, {"days": "Sun", "time": "Closed"}], "id": "8602100002", "name": "USPS COLLECTION BOX - PO LOBBY", "address": {"city": "COLORADO CITY", "state": "AZ", "street": "55 S CENTRAL", "postcode": "86021"}}},
{"geometry": {"type": "Point", "coordinates": [-112.9597162698, 36.6691078328]}, "type": "Feature", "properties": {"collection_times": [{"days": "Mon-Sat", "time": "11:00am"}, {"days": "Sun", "time": "Closed"}], "id": "8602100003", "name": "USPS COLLECTION BOX - PO LOBBY", "address": {"city": "COLORADO CITY", "state": "AZ", "street": "55 S CENTRAL", "postcode": "86021"}}},
{"geometry": {"type": "Point", "coordinates": [-112.5264310322, 36.9505393642]}, "type": "Feature", "properties": {"collection_times": [{"days": "Mon-Sat", "time": "11:30am"}, {"days": "Sun", "time": "Closed"}], "id": "8602200001", "name": "USPS COLLECTION BOX - BLUE BOX", "address": {"city": "FREDONIA", "state": "AZ", "street": "85 N MAIN ST", "postcode": "86022"}}},
{"geometry": {"type": "Point", "coordinates": [-112.5264310322, 36.9505393642]}, "type": "Feature", "properties": {"collection_times": [{"days": "Mon-Sat", "time": "11:30am"}, {"days": "Sun", "time": "Closed"}], "id": "8602200003", "name": "USPS COLLECTION BOX - PO LOBBY", "address": {"city": "FREDONIA", "state": "AZ", "street": "85 N MAIN ST", "postcode": "86022"}}},
{"geometry": {"type": "Point", "coordinates": [-112.1866202586, 35.2495532201]}, "type": "Feature", "properties": {"collection_times": [{"days": "Mon-Fri", "time": "2:30pm"}, {"days": "Sat", "time": "11:00am"}, {"days": "Sun", "time": "Closed"}], "id": "8602300001", "name": "USPS COLLECTION BOX - BLUE BOX", "address": {"city": "GRAND CANYON", "state": "AZ", "street": "100 MATHER BUSINESS CTR", "postcode": "86023"}}},
{"geometry": {"type": "Point", "coordinates": [-112.1866202586, 35.2495532201]}, "type": "Feature", "properties": {"collection_times": [{"days": "Mon-Fri", "time": "1:30pm"}, {"days": "Sat-Sun", "time": "Closed"}], "id": "8602300002", "name": "USPS COLLECTION BOX - BLUE BOX", "address": {"city": "GRAND CANYON", "state": "AZ", "street": "236 HIGHWAY 64", "postcode": "86023"}}},
{"geometry": {"type": "Point", "coordinates": [-112.1866202586, 35.2495532201]}, "type": "Feature", "properties": {"collection_times": [{"days": "Mon-Fri", "time": "1:30pm"}, {"days": "Sat", "time": "10:30am"}, {"days": "Sun", "time": "Closed"}], "id": "8602300004", "name": "USPS COLLECTION BOX - BLUE BOX", "address": {"city": "GRAND CANYON", "state": "AZ", "street": "236 HIGHWAY 64", "postcode": "86023"}}},
{"geometry": {"type": "Point", "coordinates": [-112.1207610246, 36.0539529431]}, "type": "Feature", "properties": {"collection_times": [{"days": "Mon-Fri", "time": "2:30pm"}, {"days": "Sat", "time": "11:00am"}, {"days": "Sun", "time": "Closed"}], "id": "8602300005", "name": "USPS COLLECTION BOX - PO LOBBY", "address": {"city": "GRAND CANYON", "state": "AZ", "street": "100 MATHER BUSINESS CTR", "postcode": "86023"}}},
{"geometry": {"type": "Point", "coordinates": [-110.1581642375, 34.9059668506]}, "type": "Feature", "properties": {"collection_times": [{"days": "Mon-Sat", "time": "2:15pm"}, {"days": "Sun", "time": "Closed"}], "id": "8602500003", "name": "USPS COLLECTION BOX - BLUE BOX", "address": {"city": "HOLBROOK", "state": "AZ", "street": "100 W ERIE ST", "postcode": "86025"}}},
{"geometry": {"type": "Point", "coordinates": [-110.1581642375, 34.9059668506]}, "type": "Feature", "properties": {"collection_times": [{"days": "Mon-Sat", "time": "2:15pm"}, {"days": "Sun", "time": "Closed"}], "id": "8602500004", "name": "USPS COLLECTION BOX - BLUE BOX", "address": {"city": "HOLBROOK", "state": "AZ", "street": "100 W ERIE ST", "postcode": "86025"}}},
{"geometry": {"type": "Point", "coordinates": [-110.1429141861, 34.9266337586]}, "type": "Feature", "properties": {"collection_times": [{"days": "Mon-Sat", "time": "9:45am"}, {"days": "Sun", "time": "Closed"}], "id": "8602500006", "name": "USPS COLLECTION BOX - BLUE BOX", "address": {"city": "HOLBROOK", "state": "AZ", "street": "1501 NAVAJO BLVD", "postcode": "86025"}}},
{"geometry": {"type": "Point", "coordinates": [-110.1581642375, 34.9059668506]}, "type": "Feature", "properties": {"collection_times": [{"days": "Mon-Sat", "time": "2:15pm"}, {"days": "Sun", "time": "Closed"}], "id": "8602500010", "name": "USPS COLLECTION BOX - PO LOBBY", "address": {"city": "HOLBROOK", "state": "AZ", "street": "100 W ERIE ST", "postcode": "86025"}}},
{"geometry": {"type": "Point", "coordinates": [-110.66064, 36.250793]}, "type": "Feature", "properties": {"collection_times": [{"days": "Mon-Sat", "time": "11:00am"}, {"days": "Sun", "time": "Closed"}], "id": "8603000001", "name": "USPS COLLECTION BOX - BLUE BOX", "address": {"city": "HOTEVILLA", "state": "AZ", "street": "3 MAIN ST", "postcode": "86030"}}},
{"geometry": {"type": "Point", "coordinates": [-110.66064, 36.250793]}, "type": "Feature", "properties": {"collection_times": [{"days": "Mon-Sat", "time": "11:00am"}, {"days": "Sun", "time": "Closed"}], "id": "8603000002", "name": "USPS COLLECTION BOX - PO LOBBY", "address": {"city": "HOTEVILLA", "state": "AZ", "street": "3 MAIN ST", "postcode": "86030"}}},
{"geometry": {"type": "Point", "coordinates": [-110.6971417115, 35.0224052163]}, "type": "Feature", "properties": {"collection_times": [{"days": "Mon-Fri", "time": "2:45pm"}, {"days": "Sat", "time": "9:30am"}, {"days": "Sun", "time": "Closed"}], "id": "8603200001", "name": "USPS COLLECTION BOX - BLUE BOX", "address": {"city": "JOSEPH CITY", "state": "AZ", "street": "4592 W MAIN ST", "postcode": "86032"}}},
{"geometry": {"type": "Point", "coordinates": [-110.6971417115, 35.0224052163]}, "type": "Feature", "properties": {"collection_times": [{"days": "Mon-Fri", "time": "2:45pm"}, {"days": "Sat", "time": "9:30am"}, {"days": "Sun", "time": "Closed"}], "id": "8603200002", "name": "USPS COLLECTION BOX - PO LOBBY", "address": {"city": "JOSEPH CITY", "state": "AZ", "street": "4592 W MAIN ST", "postcode": "86032"}}},
{"geometry": {"type": "Point", "coordinates": [-110.2414719619, 36.7336291124]}, "type": "Feature", "properties": {"collection_times": [{"days": "Mon-Sat", "time": "12:00pm"}, {"days": "Sun", "time": "Closed"}], "id": "8603300001", "name": "USPS COLLECTION BOX - BLUE BOX", "address": {"city": "KAYENTA", "state": "AZ", "street": "391 HIGHWAY 163", "postcode": "86033"}}},
{"geometry": {"type": "Point", "coordinates": [-110.2414719619, 36.7336291124]}, "type": "Feature", "properties": {"collection_times": [{"days": "Mon-Sat", "time": "12:00pm"}, {"days": "Sun", "time": "Closed"}], "id": "8603300002", "name": "USPS COLLECTION BOX - PO LOBBY", "address": {"city": "KAYENTA", "state": "AZ", "street": "391 HIGHWAY 163", "postcode": "86033"}}},
{"geometry": {"type": "Point", "coordinates": [-110.41693, 35.80775]}, "type": "Feature", "properties": {"collection_times": [{"days": "Mon-Fri", "time": "12:00pm"}, {"days": "Sat", "time": "9:30am"}, {"days": "Sun", "time": "Closed"}], "id": "8603400001", "name": "USPS COLLECTION BOX - BLUE BOX", "address": {"city": "KEAMS CANYON", "state": "AZ", "street": "403 STATE ROUTE 264", "postcode": "86034"}}},
{"geometry": {"type": "Point", "coordinates": [-110.41693, 35.80775]}, "type": "Feature", "properties": {"collection_times": [{"days": "Mon-Fri", "time": "12:00pm"}, {"days": "Sat", "time": "9:30am"}, {"days": "Sun", "time": "Closed"}], "id": "8603400002", "name": "USPS COLLECTION BOX - PO LOBBY", "address": {"city": "KEAMS CANYON", "state": "AZ", "street": "403 STATE ROUTE 264", "postcode": "86034"}}},
{"geometry": {"type": "Point", "coordinates": [-111.90992, 36.80737]}, "type": "Feature", "properties": {"collection_times": [{"days": "Mon-Sat", "time": "10:30am"}, {"days": "Sun", "time": "Closed"}], "id": "8603600001", "name": "USPS COLLECTION BOX - BLUE BOX", "address": {"city": "MARBLE CANYON", "state": "AZ", "street": "540 HIGHWAY 89A", "postcode": "86036"}}},
{"geometry": {"type": "Point", "coordinates": [-110.6226985009, 35.874196573]}, "type": "Feature", "properties": {"collection_times": [{"days": "Mon-Sat", "time": "11:30am"}, {"days": "Sun", "time": "Closed"}], "id": "8603900001", "name": "USPS COLLECTION BOX - BLUE BOX", "address": {"city": "KYKOTSMOVI VILL", "state": "AZ", "street": "113 MAIN ST", "postcode": "86039"}}},
{"geometry": {"type": "Point", "coordinates": [-110.6226985009, 35.874196573]}, "type": "Feature", "properties": {"collection_times": [{"days": "Mon-Sat", "time": "11:30am"}, {"days": "Sun", "time": "Closed"}], "id": "8603900002", "name": "USPS COLLECTION BOX - PO LOBBY", "address": {"city": "KYKOTSMOVI VILL", "state": "AZ", "street": "113 MAIN ST", "postcode": "86039"}}},
{"geometry": {"type": "Point", "coordinates": [-110.9772977834, 36.8222315168]}, "type": "Feature", "properties": {"collection_times": [{"days": "Mon-Sat", "time": "2:00pm"}, {"days": "Sun", "time": "Closed"}], "id": "8604000002", "name": "USPS COLLECTION BOX - BLUE BOX", "address": {"city": "PAGE", "state": "AZ", "street": "1 N HWY 89", "postcode": "86040"}}},
{"geometry": {"type": "Point", "coordinates": [-111.4597524235, 36.9151542543]}, "type": "Feature", "properties": {"collection_times": [{"days": "Mon-Sat", "time": "3:30pm"}, {"days": "Sun", "time": "Closed"}], "id": "8604000005", "name": "USPS COLLECTION BOX - BLUE BOX", "address": {"city": "PAGE", "state": "AZ", "street": "44 6TH AVE", "postcode": "86040"}}},
{"geometry": {"type": "Point", "coordinates": [-111.4597524235, 36.9151542543]}, "type": "Feature", "properties": {"collection_times": [{"days": "Mon-Sat", "time": "3:30pm"}, {"days": "Sun", "time": "Closed"}], "id": "8604000006", "name": "USPS COLLECTION BOX - BLUE BOX", "address": {"city": "PAGE", "state": "AZ", "street": "44 6TH AVE", "postcode": "86040"}}},
{"geometry": {"type": "Point", "coordinates": [-111.4597524235, 36.9151542543]}, "type": "Feature", "properties": {"collection_times": [{"days": "Mon-Sat", "time": "3:30pm"}, {"days": "Sun", "time": "Closed"}], "id": "8604000007", "name": "USPS COLLECTION BOX - BLUE BOX", "address": {"city": "PAGE", "state": "AZ", "street": "44 6TH AVE", "postcode": "86040"}}},
{"geometry": {"type": "Point", "coordinates": [-111.4597524235, 36.9151542543]}, "type": "Feature", "properties": {"collection_times": [{"days": "Mon-Sat", "time": "3:30pm"}, {"days": "Sun", "time": "Closed"}], "id": "8604000008", "name": "USPS COLLECTION BOX - BLUE BOX", "address": {"city": "PAGE", "state": "AZ", "street": "44 6TH AVE", "postcode": "86040"}}},
{"geometry": {"type": "Point", "coordinates": [-111.4597524235, 36.9151542543]}, "type": "Feature", "properties": {"collection_times": [{"days": "Mon-Sat", "time": "3:30pm"}, {"days": "Sun", "time": "Closed"}], "id": "8604000009", "name": "USPS COLLECTION BOX - PO LOBBY", "address": {"city": "PAGE", "state": "AZ", "street": "44 6TH AVE", "postcode": "86040"}}},
{"geometry": {"type": "Point", "coordinates": [-110.4724189874, 35.9152094687]}, "type": "Feature", "properties": {"collection_times": [{"days": "Mon-Fri", "time": "12:00pm"}, {"days": "Sat", "time": "10:00am"}, {"days": "Sun", "time": "Closed"}], "id": "8604200001", "name": "USPS COLLECTION BOX - BLUE BOX", "address": {"city": "POLACCA", "state": "AZ", "street": "392 STATE ROUTE 264", "postcode": "86042"}}},
{"geometry": {"type": "Point", "coordinates": [-110.41693, 35.80775]}, "type": "Feature", "properties": {"collection_times": [{"days": "Mon-Fri", "time": "12:00pm"}, {"days": "Sat", "time": "10:00am"}, {"days": "Sun", "time": "Closed"}], "id": "8604200002", "name": "USPS COLLECTION BOX - PO LOBBY", "address": {"city": "POLACCA", "state": "AZ", "street": "392 STATE ROUTE 264", "postcode": "86042"}}},
{"geometry": {"type": "Point", "coordinates": [-110.6478560827, 35.9178917089]}, "type": "Feature", "properties": {"collection_times": [{"days": "Mon-Fri", "time": "12:00pm"}, {"days": "Sat", "time": "10:30am"}, {"days": "Sun", "time": "Closed"}], "id": "8604300001", "name": "USPS COLLECTION BOX - BLUE BOX", "address": {"city": "SECOND MESA", "state": "AZ", "street": "383 HIGHWAY 264", "postcode": "86043"}}},
{"geometry": {"type": "Point", "coordinates": [-110.6478560827, 35.9178917089]}, "type": "Feature", "properties": {"collection_times": [{"days": "Mon-Fri", "time": "12:00pm"}, {"days": "Sat", "time": "10:30am"}, {"days": "Sun", "time": "Closed"}], "id": "8604300002", "name": "USPS COLLECTION BOX - PO LOBBY", "address": {"city": "SECOND MESA", "state": "AZ", "street": "383 HIGHWAY 264", "postcode": "86043"}}},
{"geometry": {"type": "Point", "coordinates": [-111.2310557559, 36.9944102715]}, "type": "Feature", "properties": {"collection_times": [{"days": "Mon-Fri", "time": "1:15pm"}, {"days": "Sat", "time": "11:00am"}, {"days": "Sun", "time": "Closed"}], "id": "8604400002", "name": "USPS COLLECTION BOX - PO LOBBY", "address": {"city": "TONALEA", "state": "AZ", "street": "343 HIGHWAY 160", "postcode": "86044"}}},
{"geometry": {"type": "Point", "coordinates": [-111.2206277427, 36.124231675]}, "type": "Feature", "properties": {"collection_times": [{"days": "Mon-Fri", "time": "2:00pm"}, {"days": "Sat", "time": "11:00am"}, {"days": "Sun", "time": "Closed"}], "id": "8604500001", "name": "USPS COLLECTION BOX - BLUE BOX", "address": {"city": "TUBA CITY", "state": "AZ", "street": "1 WARRIOR DR", "postcode": "86045"}}},
{"geometry": {"type": "Point", "coordinates": [-111.2206277427, 36.124231675]}, "type": "Feature", "properties": {"collection_times": [{"days": "Mon-Fri", "time": "2:00pm"}, {"days": "Sat", "time": "11:00am"}, {"days": "Sun", "time": "Closed"}], "id": "8604500002", "name": "USPS COLLECTION BOX - BLUE BOX", "address": {"city": "TUBA CITY", "state": "AZ", "street": "1 WARRIOR DR", "postcode": "86045"}}},
{"geometry": {"type": "Point", "coordinates": [-111.2206277427, 36.124231675]}, "type": "Feature", "properties": {"collection_times": [{"days": "Mon-Fri", "time": "2:00pm"}, {"days": "Sat", "time": "11:00am"}, {"days": "Sun", "time": "Closed"}], "id": "8604500003", "name": "USPS COLLECTION BOX - BLUE BOX", "address": {"city": "TUBA CITY", "state": "AZ", "street": "1 WARRIOR DR", "postcode": "86045"}}},
{"geometry": {"type": "Point", "coordinates": [-111.2206277427, 36.124231675]}, "type": "Feature", "properties": {"collection_times": [{"days": "Mon-Fri", "time": "2:00pm"}, {"days": "Sat", "time": "11:00am"}, {"days": "Sun", "time": "Closed"}], "id": "8604500004", "name": "USPS COLLECTION BOX - PO LOBBY", "address": {"city": "TUBA CITY", "state": "AZ", "street": "1 WARRIOR DR", "postcode": "86045"}}},
{"geometry": {"type": "Point", "coordinates": [-112.1866579252, 35.249827402]}, "type": "Feature", "properties": {"collection_times": [{"days": "Mon-Fri", "time": "3:30pm"}, {"days": "Sat", "time": "2:00pm"}, {"days": "Sun", "time": "Closed"}], "id": "8604600003", "name": "USPS COLLECTION BOX - BLUE BOX", "address": {"city": "WILLIAMS", "state": "AZ", "street": "120 S 1ST ST", "postcode": "86046"}}},
{"geometry": {"type": "Point", "coordinates": [-112.1899775981, 35.2505472043]}, "type": "Feature", "properties": {"collection_times": [{"days": "Mon-Sat", "time": "9:45am"}, {"days": "Sun", "time": "Closed"}], "id": "8604600005", "name": "USPS COLLECTION BOX - BLUE BOX", "address": {"city": "WILLIAMS", "state": "AZ", "street": "325 W RAILROAD AVE", "postcode": "86046"}}},
{"geometry": {"type": "Point", "coordinates": [-112.1866579252, 35.249827402]}, "type": "Feature", "properties": {"collection_times": [{"days": "Mon-Fri", "time": "3:30pm"}, {"days": "Sat", "time": "2:00pm"}, {"days": "Sun", "time": "Closed"}], "id": "8604600008", "name": "USPS COLLECTION BOX - PO LOBBY", "address": {"city": "WILLIAMS", "state": "AZ", "street": "120 S 1ST ST", "postcode": "86046"}}},
{"geometry": {"type": "Point", "coordinates": [-110.6979513142, 35.0381816317]}, "type": "Feature", "properties": {"collection_times": [{"days": "Mon-Sat", "time": "11:00am"}, {"days": "Sun", "time": "Closed"}], "id": "8604700001", "name": "USPS COLLECTION BOX - BLUE BOX", "address": {"city": "WINSLOW", "state": "AZ", "street": "1601 N PARK DR", "postcode": "86047"}}},
{"geometry": {"type": "Point", "coordinates": [-110.7182501691, 35.0338109287]}, "type": "Feature", "properties": {"collection_times": [{"days": "Mon-Sat", "time": "1:30pm"}, {"days": "Sun", "time": "Closed"}], "id": "8604700002", "name": "USPS COLLECTION BOX - BLUE BOX", "address": {"city": "WINSLOW", "state": "AZ", "street": "1600 W THIRD ST", "postcode": "86047"}}},
{"geometry": {"type": "Point", "coordinates": [-110.6966626706, 35.0235201419]}, "type": "Feature", "properties": {"collection_times": [{"days": "Mon-Sat", "time": "3:20pm"}, {"days": "Sun", "time": "Closed"}], "id": "8604700009", "name": "USPS COLLECTION BOX - BLUE BOX", "address": {"city": "WINSLOW", "state": "AZ", "street": "223 N WILLIAMSON AVE", "postcode": "86047"}}},
{"geometry": {"type": "Point", "coordinates": [-110.674981099, 35.0163256254]}, "type": "Feature", "properties": {"collection_times": [{"days": "Mon-Sat", "time": "10:30am"}, {"days": "Sun", "time": "Closed"}], "id": "8604700016", "name": "USPS COLLECTION BOX - BLUE BOX", "address": {"city": "WINSLOW", "state": "AZ", "street": "400 TRANSCON LN", "postcode": "86047"}}},
{"geometry": {"type": "Point", "coordinates": [-110.6966626706, 35.0235201419]}, "type": "Feature", "properties": {"collection_times": [{"days": "Mon-Sat", "time": "3:20pm"}, {"days": "Sun", "time": "Closed"}], "id": "8604700019", "name": "USPS COLLECTION BOX - PO LOBBY", "address": {"city": "WINSLOW", "state": "AZ", "street": "223 N WILLIAMSON AVE", "postcode": "86047"}}},
{"geometry": {"type": "Point", "coordinates": [-111.6647517583, 34.2930183245]}, "type": "Feature", "properties": {"collection_times": [{"days": "Mon-Sat", "time": "10:00am"}, {"days": "Sun", "time": "Closed"}], "id": "8604700022", "name": "USPS COLLECTION BOX - PO LOBBY", "address": {"city": "WINSLOW", "state": "AZ", "street": "HC 61 LEUPP RD 7991", "postcode": "86047"}}},
{"geometry": {"type": "Point", "coordinates": [-110.593608689, 36.7871535092]}, "type": "Feature", "properties": {"collection_times": [{"days": "Mon-Sat", "time": "9:30am"}, {"days": "Sun", "time": "Closed"}], "id": "8605400001", "name": "USPS COLLECTION BOX - BLUE BOX", "address": {"city": "SHONTO", "state": "AZ", "street": "293 STATE ROUTE 221", "postcode": "86054"}}}
]}
