{"type": "FeatureCollection", "features": [
{"geometry": {"type": "Point", "coordinates": [-112.4494865432, 34.5723608207]}, "type": "Feature", "properties": {"collection_times": [{"days": "Mon-Fri", "time": "5:15pm"}, {"days": "Sat", "time": "4:00pm"}, {"days": "Sun", "time": "Closed"}], "id": "8630100005", "name": "USPS COLLECTION BOX - EXPRESS", "address": {"city": "PRESCOTT", "state": "AZ", "street": "442 MILLER VALLEY RD", "postcode": "86301"}}},
{"geometry": {"type": "Point", "coordinates": [-112.4453146955, 34.615181229]}, "type": "Feature", "properties": {"collection_times": [{"days": "Mon-Fri", "time": "4:00pm"}, {"days": "Sat-Sun", "time": "Closed"}], "id": "8630100013", "name": "USPS COLLECTION BOX - BLUE BOX", "address": {"city": "PRESCOTT", "state": "AZ", "street": "3700 WILLOW CREEK RD", "postcode": "86301"}}},
{"geometry": {"type": "Point", "coordinates": [-112.4668729397, 34.5418590664]}, "type": "Feature", "properties": {"collection_times": [{"days": "Mon-Sat", "time": "8:30am"}, {"days": "Sun", "time": "Closed"}], "id": "8630100018", "name": "USPS COLLECTION BOX - BLUE BOX", "address": {"city": "PRESCOTT", "state": "AZ", "street": "200 E GURLEY ST", "postcode": "86301"}}},
{"geometry": {"type": "Point", "coordinates": [-112.4194371946, 34.6032878454]}, "type": "Feature", "properties": {"collection_times": [{"days": "Mon-Fri", "time": "4:45pm"}, {"days": "Sat", "time": "2:00pm"}, {"days": "Sun", "time": "Closed"}], "id": "8630100020", "name": "USPS COLLECTION BOX - BLUE BOX", "address": {"city": "PRESCOTT", "state": "AZ", "street": "102 N MONTEZUMA ST", "postcode": "86301"}}},
{"geometry": {"type": "Point", "coordinates": [-112.476637083, 34.5623349032]}, "type": "Feature", "properties": {"collection_times": [{"days": "Mon-Fri", "time": "4:15pm"}, {"days": "Sat", "time": "2:15pm"}, {"days": "Sun", "time": "Closed"}], "id": "8630100022", "name": "USPS COLLECTION BOX - BLUE BOX", "address": {"city": "PRESCOTT", "state": "AZ", "street": "1055 RUTH ST", "postcode": "86301"}}},
{"geometry": {"type": "Point", "coordinates": [-112.4631412067, 34.5418769409]}, "type": "Feature", "properties": {"collection_times": [{"days": "Mon-Fri", "time": "3:00pm"}, {"days": "Sat-Sun", "time": "Closed"}], "id": "8630100024", "name": "USPS COLLECTION BOX - BLUE BOX", "address": {"city": "PRESCOTT", "state": "AZ", "street": "500 N US HIGHWAY 89", "postcode": "86301"}}},
{"geometry": {"type": "Point", "coordinates": [-112.4325434706, 34.6438490566]}, "type": "Feature", "properties": {"collection_times": [{"days": "Mon-Fri", "time": "3:45pm"}, {"days": "Sat-Sun", "time": "Closed"}], "id": "8630100029", "name": "USPS COLLECTION BOX - BLUE BOX", "address": {"city": "PRESCOTT", "state": "AZ", "street": "6000 WILLOW CREEK RD", "postcode": "86301"}}},
{"geometry": {"type": "Point", "coordinates": [-112.4780400724, 34.548530955]}, "type": "Feature", "properties": {"collection_times": [{"days": "Mon-Fri", "time": "5:15pm"}, {"days": "Sat", "time": "4:00pm"}, {"days": "Sun", "time": "Closed"}], "id": "8630100032", "name": "USPS COLLECTION BOX - BLUE BOX", "address": {"city": "PRESCOTT", "state": "AZ", "street": "442 MILLER VALLEY RD", "postcode": "86301"}}},
{"geometry": {"type": "Point", "coordinates": [-112.4194371946, 34.6032878454]}, "type": "Feature", "properties": {"collection_times": [{"days": "Mon-Fri", "time": "5:00pm"}, {"days": "Sat", "time": "2:00pm"}, {"days": "Sun", "time": "Closed"}], "id": "8630100035", "name": "USPS COLLECTION BOX - BLUE BOX", "address": {"city": "PRESCOTT", "state": "AZ", "street": "102 N CORTEZ ST", "postcode": "86301"}}},
{"geometry": {"type": "Point", "coordinates": [-112.4336413594, 34.5508751985]}, "type": "Feature", "properties": {"collection_times": [{"days": "Mon-Sat", "time": "10:00am"}, {"days": "Sun", "time": "Closed"}], "id": "8630100038", "name": "USPS COLLECTION BOX - BLUE BOX", "address": {"city": "PRESCOTT", "state": "AZ", "street": "1761 E HWY 69", "postcode": "86301"}}},
{"geometry": {"type": "Point", "coordinates": [-112.4780400724, 34.548530955]}, "type": "Feature", "properties": {"collection_times": [{"days": "Mon-Fri", "time": "5:15pm"}, {"days": "Sat", "time": "4:00pm"}, {"days": "Sun", "time": "Closed"}], "id": "8630100040", "name": "USPS COLLECTION BOX - PO LOBBY", "address": {"city": "PRESCOTT", "state": "AZ", "street": "442 MILLER VALLEY RD", "postcode": "86301"}}},
{"geometry": {"type": "Point", "coordinates": [-112.4780400724, 34.548530955]}, "type": "Feature", "properties": {"collection_times": [{"days": "Mon-Fri", "time": "5:15pm"}, {"days": "Sat", "time": "4:00pm"}, {"days": "Sun", "time": "Closed"}], "id": "8630100041", "name": "USPS COLLECTION BOX - PO LOBBY", "address": {"city": "PRESCOTT", "state": "AZ", "street": "442 MILLER VALLEY RD", "postcode": "86301"}}},
{"geometry": {"type": "Point", "coordinates": [-112.4820479373, 34.558996593]}, "type": "Feature", "properties": {"collection_times": [{"days": "Mon-Fri", "time": "4:15pm"}, {"days": "Sat", "time": "2:15pm"}, {"days": "Sun", "time": "Closed"}], "id": "8630100043", "name": "USPS COLLECTION BOX - BLUE BOX", "address": {"city": "PRESCOTT", "state": "AZ", "street": "1003 WILLOW CREEK RD", "postcode": "86301"}}},
{"geometry": {"type": "Point", "coordinates": [-112.4822206493, 34.5609319138]}, "type": "Feature", "properties": {"collection_times": [{"days": "Mon-Fri", "time": "4:15pm"}, {"days": "Sat", "time": "3:00pm"}, {"days": "Sun", "time": "Closed"}], "id": "8630100044", "name": "USPS COLLECTION BOX - BLUE BOX", "address": {"city": "PRESCOTT", "state": "AZ", "street": "1046 WILLOW CREEK RD", "postcode": "86301"}}},
{"geometry": {"type": "Point", "coordinates": [-112.4259222245, 34.5971329737]}, "type": "Feature", "properties": {"collection_times": [{"days": "Mon-Fri", "time": "3:00pm"}, {"days": "Sat", "time": "2:00pm"}, {"days": "Sun", "time": "Closed"}], "id": "8630100045", "name": "USPS COLLECTION BOX - BLUE BOX", "address": {"city": "PRESCOTT", "state": "AZ", "street": "3122 N STATE ROUTE 89", "postcode": "86301"}}},
{"geometry": {"type": "Point", "coordinates": [-112.3961265004, 34.5489135356]}, "type": "Feature", "properties": {"collection_times": [{"days": "Mon-Fri", "time": "3:30pm"}, {"days": "Sat", "time": "1:45pm"}, {"days": "Sun", "time": "Closed"}], "id": "8630100046", "name": "USPS COLLECTION BOX - BLUE BOX", "address": {"city": "PRESCOTT", "state": "AZ", "street": "3911 E STATE ROUTE 69", "postcode": "86301"}}},
{"geometry": {"type": "Point", "coordinates": [-112.4693334944, 34.5450778978]}, "type": "Feature", "properties": {"collection_times": [{"days": "Mon-Fri", "time": "4:00pm"}, {"days": "Sat", "time": "2:00pm"}, {"days": "Sun", "time": "Closed"}], "id": "8630100047", "name": "USPS COLLECTION BOX - BLUE BOX", "address": {"city": "PRESCOTT", "state": "AZ", "street": "174 E SHELDON ST", "postcode": "86301"}}},
{"geometry": {"type": "Point", "coordinates": [-112.4780400724, 34.548530955]}, "type": "Feature", "properties": {"collection_times": [{"days": "Mon-Fri", "time": "5:15pm"}, {"days": "Sat", "time": "4:00pm"}, {"days": "Sun", "time": "Closed"}], "id": "8630100048", "name": "USPS COLLECTION BOX - APC", "address": {"city": "PRESCOTT", "state": "AZ", "street": "442 MILLER VALLEY RD", "postcode": "86301"}}},
{"geometry": {"type": "Point", "coordinates": [-112.4103842832, 34.5547757954]}, "type": "Feature", "properties": {"collection_times": [{"days": "Mon-Fri", "time": "3:30pm"}, {"days": "Sat", "time": "1:45pm"}, {"days": "Sun", "time": "Closed"}], "id": "8630100050", "name": "USPS COLLECTION BOX - BLUE BOX", "address": {"city": "PRESCOTT", "state": "AZ", "street": "3050 E STATE ROUTE 69", "postcode": "86301"}}},
{"geometry": {"type": "Point", "coordinates": [-112.46756, 34.59596]}, "type": "Feature", "properties": {"collection_times": [{"days": "Mon-Fri", "time": "4:00pm"}, {"days": "Sat", "time": "2:45pm"}, {"days": "Sun", "time": "Closed"}], "id": "8630100051", "name": "USPS COLLECTION BOX - BLUE BOX", "address": {"city": "PRESCOTT", "state": "AZ", "street": "3630 CROSSINGS DR", "postcode": "86301"}}},
{"geometry": {"type": "Point", "coordinates": [-112.469141855, 34.5399616003]}, "type": "Feature", "properties": {"collection_times": [{"days": "Mon-Fri", "time": "5:00pm"}, {"days": "Sat", "time": "1:00pm"}, {"days": "Sun", "time": "Closed"}], "id": "8630300001", "name": "USPS COLLECTION BOX - BLUE BOX", "address": {"city": "PRESCOTT", "state": "AZ", "street": "101 W GOODWIN ST", "postcode": "86303"}}},
{"geometry": {"type": "Point", "coordinates": [-112.469141855, 34.5399616003]}, "type": "Feature", "properties": {"collection_times": [{"days": "Mon-Fri", "time": "5:00pm"}, {"days": "Sat", "time": "1:00pm"}, {"days": "Sun", "time": "Closed"}], "id": "8630300002", "name": "USPS COLLECTION BOX - BLUE BOX", "address": {"city": "PRESCOTT", "state": "AZ", "street": "101 W GOODWIN ST", "postcode": "86303"}}},
{"geometry": {"type": "Point", "coordinates": [-112.469141855, 34.5399616003]}, "type": "Feature", "properties": {"collection_times": [{"days": "Mon-Fri", "time": "5:00pm"}, {"days": "Sat", "time": "1:00pm"}, {"days": "Sun", "time": "Closed"}], "id": "8630300003", "name": "USPS COLLECTION BOX - BLUE BOX", "address": {"city": "PRESCOTT", "state": "AZ", "street": "101 W GOODWIN ST", "postcode": "86303"}}},
{"geometry": {"type": "Point", "coordinates": [-112.469141855, 34.5399616003]}, "type": "Feature", "properties": {"collection_times": [{"days": "Mon-Fri", "time": "5:00pm"}, {"days": "Sat", "time": "1:00pm"}, {"days": "Sun", "time": "Closed"}], "id": "8630300004", "name": "USPS COLLECTION BOX - BLUE BOX", "address": {"city": "PRESCOTT", "state": "AZ", "street": "101 W GOODWIN ST", "postcode": "86303"}}},
{"geometry": {"type": "Point", "coordinates": [-112.469141855, 34.5399616003]}, "type": "Feature", "properties": {"collection_times": [{"days": "Mon-Fri", "time": "5:00pm"}, {"days": "Sat", "time": "1:00pm"}, {"days": "Sun", "time": "Closed"}], "id": "8630300005", "name": "USPS COLLECTION BOX - BLUE BOX", "address": {"city": "PRESCOTT", "state": "AZ", "street": "101 W GOODWIN ST", "postcode": "86303"}}},
{"geometry": {"type": "Point", "coordinates": [-112.4392699326, 34.4898168504]}, "type": "Feature", "properties": {"collection_times": [{"days": "Mon-Fri", "time": "3:15pm"}, {"days": "Sat", "time": "1:15pm"}, {"days": "Sun", "time": "Closed"}], "id": "8630300008", "name": "USPS COLLECTION BOX - BLUE BOX", "address": {"city": "PRESCOTT", "state": "AZ", "street": "302 S MOUNT VERNON AVE", "postcode": "86303"}}},
{"geometry": {"type": "Point", "coordinates": [-112.4740345733, 34.5399533195]}, "type": "Feature", "properties": {"collection_times": [{"days": "Mon-Sat", "time": "8:00am"}, {"days": "Sun", "time": "Closed"}], "id": "8630300009", "name": "USPS COLLECTION BOX - BLUE BOX", "address": {"city": "PRESCOTT", "state": "AZ", "street": "406 W GOODWIN ST", "postcode": "86303"}}},
{"geometry": {"type": "Point", "coordinates": [-112.469141855, 34.5399616003]}, "type": "Feature", "properties": {"collection_times": [{"days": "Mon-Fri", "time": "5:00pm"}, {"days": "Sat", "time": "1:00pm"}, {"days": "Sun", "time": "Closed"}], "id": "8630300013", "name": "USPS COLLECTION BOX - PO LOBBY", "address": {"city": "PRESCOTT", "state": "AZ", "street": "101 W GOODWIN ST", "postcode": "86303"}}},
{"geometry": {"type": "Point", "coordinates": [-112.4749513665, 34.5300081835]}, "type": "Feature", "properties": {"collection_times": [{"days": "Mon-Fri", "time": "3:00pm"}, {"days": "Sat", "time": "1:00pm"}, {"days": "Sun", "time": "Closed"}], "id": "8630300016", "name": "USPS COLLECTION BOX - BLUE BOX", "address": {"city": "PRESCOTT", "state": "AZ", "street": "425 WHITE SPAR RD", "postcode": "86303"}}},
{"geometry": {"type": "Point", "coordinates": [-112.4941022892, 34.5409304436]}, "type": "Feature", "properties": {"collection_times": [{"days": "Mon-Fri", "time": "4:45pm"}, {"days": "Sat", "time": "12:45pm"}, {"days": "Sun", "time": "Closed"}], "id": "8630300018", "name": "USPS COLLECTION BOX - BLUE BOX", "address": {"city": "PRESCOTT", "state": "AZ", "street": "1570 PLAZA WEST DR", "postcode": "86303"}}},
{"geometry": {"type": "Point", "coordinates": [-112.4105297872, 34.5462265509]}, "type": "Feature", "properties": {"collection_times": [{"days": "Mon-Sat", "time": "10:00am"}, {"days": "Sun", "time": "Closed"}], "id": "8630300021", "name": "USPS COLLECTION BOX - BLUE BOX", "address": {"city": "PRESCOTT", "state": "AZ", "street": "3250 GATEWAY BLVD", "postcode": "86303"}}},
{"geometry": {"type": "Point", "coordinates": [-112.4817521976, 34.5532213873]}, "type": "Feature", "properties": {"collection_times": [{"days": "Mon-Fri", "time": "4:45pm"}, {"days": "Sat", "time": "3:15pm"}, {"days": "Sun", "time": "Closed"}], "id": "8630500003", "name": "USPS COLLECTION BOX - BLUE BOX", "address": {"city": "PRESCOTT", "state": "AZ", "street": "950 FAIR ST", "postcode": "86305"}}},
{"geometry": {"type": "Point", "coordinates": [-112.4785901483, 34.5428764111]}, "type": "Feature", "properties": {"collection_times": [{"days": "Mon-Fri", "time": "5:00pm"}, {"days": "Sat", "time": "12:30pm"}, {"days": "Sun", "time": "Closed"}], "id": "8630500006", "name": "USPS COLLECTION BOX - BLUE BOX", "address": {"city": "PRESCOTT", "state": "AZ", "street": "646 W GURLEY ST", "postcode": "86305"}}},
{"geometry": {"type": "Point", "coordinates": [-112.4565539887, 34.6039324722]}, "type": "Feature", "properties": {"collection_times": [{"days": "Mon-Fri", "time": "4:00pm"}, {"days": "Sat", "time": "2:45pm"}, {"days": "Sun", "time": "Closed"}], "id": "8630500008", "name": "USPS COLLECTION BOX - BLUE BOX", "address": {"city": "PRESCOTT", "state": "AZ", "street": "1011 COMMERCE DR", "postcode": "86305"}}},
{"geometry": {"type": "Point", "coordinates": [-112.5180267749, 34.658581322]}, "type": "Feature", "properties": {"collection_times": [{"days": "Mon-Sat", "time": "11:30am"}, {"days": "Sun", "time": "Closed"}], "id": "8630500009", "name": "USPS COLLECTION BOX - BLUE BOX", "address": {"city": "PRESCOTT", "state": "AZ", "street": "8100 N WILLIAMSON VALLEY RD", "postcode": "86305"}}},
{"geometry": {"type": "Point", "coordinates": [-112.5386430601, 34.6900790929]}, "type": "Feature", "properties": {"collection_times": [{"days": "Mon-Sat", "time": "11:30am"}, {"days": "Sun", "time": "Closed"}], "id": "8630500010", "name": "USPS COLLECTION BOX - BLUE BOX", "address": {"city": "PRESCOTT", "state": "AZ", "street": "4125 W OUTER LOOP RD", "postcode": "86305"}}},
{"geometry": {"type": "Point", "coordinates": [-112.4561032813, 34.6007988139]}, "type": "Feature", "properties": {"collection_times": [{"days": "Mon-Fri", "time": "4:00pm"}, {"days": "Sat", "time": "2:45pm"}, {"days": "Sun", "time": "Closed"}], "id": "8630500012", "name": "USPS COLLECTION BOX - BLUE BOX", "address": {"city": "PRESCOTT", "state": "AZ", "street": "3198 WILLOW CREEK RD", "postcode": "86305"}}},
{"geometry": {"type": "Point", "coordinates": [-112.3229914664, 34.597012238]}, "type": "Feature", "properties": {"collection_times": [{"days": "Mon-Fri", "time": "4:45pm"}, {"days": "Sat", "time": "1:45pm"}, {"days": "Sun", "time": "Closed"}], "id": "8631400001", "name": "USPS COLLECTION BOX - BLUE BOX", "address": {"city": "PRESCOTT VALLEY", "state": "AZ", "street": "8307 E STATE ROUTE 69 STE 1", "postcode": "86314"}}},
{"geometry": {"type": "Point", "coordinates": [-112.3330701826, 34.6352989508]}, "type": "Feature", "properties": {"collection_times": [{"days": "Mon-Fri", "time": "4:15pm"}, {"days": "Sat", "time": "1:15pm"}, {"days": "Sun", "time": "Closed"}], "id": "8631400002", "name": "USPS COLLECTION BOX - BLUE BOX", "address": {"city": "PRESCOTT VALLEY", "state": "AZ", "street": "6450 N VIEWPOINT DR", "postcode": "86314"}}},
{"geometry": {"type": "Point", "coordinates": [-112.3229914664, 34.597012238]}, "type": "Feature", "properties": {"collection_times": [{"days": "Mon-Fri", "time": "4:45pm"}, {"days": "Sat", "time": "1:45pm"}, {"days": "Sun", "time": "Closed"}], "id": "8631400004", "name": "USPS COLLECTION BOX - BLUE BOX", "address": {"city": "PRESCOTT VALLEY", "state": "AZ", "street": "8307 E STATE ROUTE 69 STE 1", "postcode": "86314"}}},
{"geometry": {"type": "Point", "coordinates": [-112.3089555198, 34.5877978434]}, "type": "Feature", "properties": {"collection_times": [{"days": "Mon-Fri", "time": "4:30pm"}, {"days": "Sat", "time": "1:30pm"}, {"days": "Sun", "time": "Closed"}], "id": "8631400006", "name": "USPS COLLECTION BOX - BLUE BOX", "address": {"city": "PRESCOTT VALLEY", "state": "AZ", "street": "3035 BOB CT", "postcode": "86314"}}},
{"geometry": {"type": "Point", "coordinates": [-112.3207443847, 34.6093977426]}, "type": "Feature", "properties": {"collection_times": [{"days": "Mon-Fri", "time": "4:15pm"}, {"days": "Sat", "time": "1:15pm"}, {"days": "Sun", "time": "Closed"}], "id": "8631400007", "name": "USPS COLLECTION BOX - BLUE BOX", "address": {"city": "PRESCOTT VALLEY", "state": "AZ", "street": "4596 N ROBERT RD", "postcode": "86314"}}},
{"geometry": {"type": "Point", "coordinates": [-112.3515651976, 34.5799349666]}, "type": "Feature", "properties": {"collection_times": [{"days": "Mon-Fri", "time": "4:00pm"}, {"days": "Sat", "time": "1:00pm"}, {"days": "Sun", "time": "Closed"}], "id": "8631400009", "name": "USPS COLLECTION BOX - BLUE BOX", "address": {"city": "PRESCOTT VALLEY", "state": "AZ", "street": "6545 E 2ND ST", "postcode": "86314"}}},
{"geometry": {"type": "Point", "coordinates": [-112.3229914664, 34.597012238]}, "type": "Feature", "properties": {"collection_times": [{"days": "Mon-Fri", "time": "4:45pm"}, {"days": "Sat", "time": "1:45pm"}, {"days": "Sun", "time": "Closed"}], "id": "8631400010", "name": "USPS COLLECTION BOX - BLUE BOX", "address": {"city": "PRESCOTT VALLEY", "state": "AZ", "street": "8307 E STATE ROUTE 69 STE 1", "postcode": "86314"}}},
{"geometry": {"type": "Point", "coordinates": [-112.3334008627, 34.5966537257]}, "type": "Feature", "properties": {"collection_times": [{"days": "Mon-Fri", "time": "4:00pm"}, {"days": "Sat", "time": "1:00pm"}, {"days": "Sun", "time": "Closed"}], "id": "8631400013", "name": "USPS COLLECTION BOX - BLUE BOX", "address": {"city": "PRESCOTT VALLEY", "state": "AZ", "street": "7501 E CIVIC CIR", "postcode": "86314"}}},
{"geometry": {"type": "Point", "coordinates": [-112.33112, 34.585316]}, "type": "Feature", "properties": {"collection_times": [{"days": "Mon-Fri", "time": "4:30pm"}, {"days": "Sat", "time": "1:30pm"}, {"days": "Sun", "time": "Closed"}], "id": "8631400015", "name": "USPS COLLECTION BOX - BLUE BOX", "address": {"city": "PRESCOTT VALLEY", "state": "AZ", "street": "7720 E STATE ROUTE 69", "postcode": "86314"}}},
{"geometry": {"type": "Point", "coordinates": [-112.339675277, 34.5874503049]}, "type": "Feature", "properties": {"collection_times": [{"days": "Mon-Fri", "time": "4:00pm"}, {"days": "Sat", "time": "1:00pm"}, {"days": "Sun", "time": "Closed"}], "id": "8631400017", "name": "USPS COLLECTION BOX - BLUE BOX", "address": {"city": "PRESCOTT VALLEY", "state": "AZ", "street": "3100 N GLASSFORD HILL RD", "postcode": "86314"}}},
{"geometry": {"type": "Point", "coordinates": [-112.3229914664, 34.597012238]}, "type": "Feature", "properties": {"collection_times": [{"days": "Mon-Fri", "time": "4:45pm"}, {"days": "Sat", "time": "1:45pm"}, {"days": "Sun", "time": "Closed"}], "id": "8631400018", "name": "USPS COLLECTION BOX - APC", "address": {"city": "PRESCOTT VALLEY", "state": "AZ", "street": "8307 E STATE ROUTE 69 STE 1", "postcode": "86314"}}},
{"geometry": {"type": "Point", "coordinates": [-112.3229914664, 34.597012238]}, "type": "Feature", "properties": {"collection_times": [{"days": "Mon-Fri", "time": "3:45pm"}, {"days": "Sat", "time": "1:00pm"}, {"days": "Sun", "time": "Closed"}], "id": "8631400019", "name": "USPS COLLECTION BOX - BLUE BOX", "address": {"city": "PRESCOTT VALLEY", "state": "AZ", "street": "1300 N STONE RIDGE RD", "postcode": "86314"}}},
{"geometry": {"type": "Point", "coordinates": [-112.4856334859, 35.2238964236]}, "type": "Feature", "properties": {"collection_times": [{"days": "Mon-Fri", "time": "3:30pm"}, {"days": "Sat", "time": "10:30am"}, {"days": "Sun", "time": "Closed"}], "id": "8632000001", "name": "USPS COLLECTION BOX - BLUE BOX", "address": {"city": "ASHFORK", "state": "AZ", "street": "435 PARK AVE", "postcode": "86320"}}},
{"geometry": {"type": "Point", "coordinates": [-112.4856334859, 35.2238964236]}, "type": "Feature", "properties": {"collection_times": [{"days": "Mon-Fri", "time": "3:30pm"}, {"days": "Sat", "time": "10:30am"}, {"days": "Sun", "time": "Closed"}], "id": "8632000002", "name": "USPS COLLECTION BOX - PO LOBBY", "address": {"city": "ASHFORK", "state": "AZ", "street": "435 PARK AVE", "postcode": "86320"}}},
{"geometry": {"type": "Point", "coordinates": [-113.17554, 34.568306]}, "type": "Feature", "properties": {"collection_times": [{"days": "Mon-Fri", "time": "3:00pm"}, {"days": "Sat", "time": "10:00am"}, {"days": "Sun", "time": "Closed"}], "id": "8632100001", "name": "USPS COLLECTION BOX - BLUE BOX", "address": {"city": "BAGDAD", "state": "AZ", "street": "113 MAIN ST", "postcode": "86321"}}},
{"geometry": {"type": "Point", "coordinates": [-113.17554, 34.568306]}, "type": "Feature", "properties": {"collection_times": [{"days": "Mon-Fri", "time": "3:00pm"}, {"days": "Sat", "time": "10:00am"}, {"days": "Sun", "time": "Closed"}], "id": "8632100002", "name": "USPS COLLECTION BOX - PO LOBBY", "address": {"city": "BAGDAD", "state": "AZ", "street": "113 MAIN ST", "postcode": "86321"}}},
{"geometry": {"type": "Point", "coordinates": [-111.8393917678, 34.5751875594]}, "type": "Feature", "properties": {"collection_times": [{"days": "Mon-Fri", "time": "5:00pm"}, {"days": "Sat", "time": "3:30pm"}, {"days": "Sun", "time": "Closed"}], "id": "8632200001", "name": "USPS COLLECTION BOX - BLUE BOX", "address": {"city": "CAMP VERDE", "state": "AZ", "street": "403 W FINNIE FLAT RD", "postcode": "86322"}}},
{"geometry": {"type": "Point", "coordinates": [-111.8393917678, 34.5751875594]}, "type": "Feature", "properties": {"collection_times": [{"days": "Mon-Fri", "time": "5:00pm"}, {"days": "Sat", "time": "3:30pm"}, {"days": "Sun", "time": "Closed"}], "id": "8632200004", "name": "USPS COLLECTION BOX - BLUE BOX", "address": {"city": "CAMP VERDE", "state": "AZ", "street": "403 W FINNIE FLAT RD", "postcode": "86322"}}},
{"geometry": {"type": "Point", "coordinates": [-111.8393917678, 34.5751875594]}, "type": "Feature", "properties": {"collection_times": [{"days": "Mon-Fri", "time": "5:00pm"}, {"days": "Sat", "time": "3:30pm"}, {"days": "Sun", "time": "Closed"}], "id": "8632200007", "name": "USPS COLLECTION BOX - PO LOBBY", "address": {"city": "CAMP VERDE", "state": "AZ", "street": "403 W FINNIE FLAT RD", "postcode": "86322"}}},
{"geometry": {"type": "Point", "coordinates": [-112.4526620537, 34.7601327399]}, "type": "Feature", "properties": {"collection_times": [{"days": "Mon-Fri", "time": "4:00pm"}, {"days": "Sat", "time": "11:30am"}, {"days": "Sun", "time": "Closed"}], "id": "8632300001", "name": "USPS COLLECTION BOX - BLUE BOX", "address": {"city": "CHINO VALLEY", "state": "AZ", "street": "725 E ROAD 2 N", "postcode": "86323"}}},
{"geometry": {"type": "Point", "coordinates": [-112.4528950966, 34.7744181523]}, "type": "Feature", "properties": {"collection_times": [{"days": "Mon-Sat", "time": "10:30am"}, {"days": "Sun", "time": "Closed"}], "id": "8632300003", "name": "USPS COLLECTION BOX - BLUE BOX", "address": {"city": "CHINO VALLEY", "state": "AZ", "street": "1950 N HIGHWAY 89", "postcode": "86323"}}},
{"geometry": {"type": "Point", "coordinates": [-112.4542870651, 34.7522603504]}, "type": "Feature", "properties": {"collection_times": [{"days": "Mon-Sat", "time": "11:15am"}, {"days": "Sun", "time": "Closed"}], "id": "8632300005", "name": "USPS COLLECTION BOX - BLUE BOX", "address": {"city": "CHINO VALLEY", "state": "AZ", "street": "474 N HIGHWAY 89", "postcode": "86323"}}},
{"geometry": {"type": "Point", "coordinates": [-112.4526620537, 34.7601327399]}, "type": "Feature", "properties": {"collection_times": [{"days": "Mon-Fri", "time": "4:30pm"}, {"days": "Sat", "time": "1:30pm"}, {"days": "Sun", "time": "Closed"}], "id": "8632300006", "name": "USPS COLLECTION BOX - PO LOBBY", "address": {"city": "CHINO VALLEY", "state": "AZ", "street": "725 E ROAD 2 N", "postcode": "86323"}}},
{"geometry": {"type": "Point", "coordinates": [-112.4540830844, 34.7300743698]}, "type": "Feature", "properties": {"collection_times": [{"days": "Mon-Fri", "time": "12:00pm"}, {"days": "Sat", "time": "11:00am"}, {"days": "Sun", "time": "Closed"}], "id": "8632300009", "name": "USPS COLLECTION BOX - BLUE BOX", "address": {"city": "CHINO VALLEY", "state": "AZ", "street": "1060 S HIGHWAY 89", "postcode": "86323"}}},
{"geometry": {"type": "Point", "coordinates": [-112.0573644859, 34.7706374155]}, "type": "Feature", "properties": {"collection_times": [{"days": "Mon-Fri", "time": "3:30pm"}, {"days": "Sat", "time": "11:45am"}, {"days": "Sun", "time": "Closed"}], "id": "8632400001", "name": "USPS COLLECTION BOX - BLUE BOX", "address": {"city": "CLARKDALE", "state": "AZ", "street": "9 S 9TH ST", "postcode": "86324"}}},
{"geometry": {"type": "Point", "coordinates": [-112.0573644859, 34.7706374155]}, "type": "Feature", "properties": {"collection_times": [{"days": "Mon-Fri", "time": "3:30pm"}, {"days": "Sat", "time": "11:45am"}, {"days": "Sun", "time": "Closed"}], "id": "8632400002", "name": "USPS COLLECTION BOX - BLUE BOX", "address": {"city": "CLARKDALE", "state": "AZ", "street": "9 S 9TH ST", "postcode": "86324"}}},
{"geometry": {"type": "Point", "coordinates": [-112.0573644859, 34.7706374155]}, "type": "Feature", "properties": {"collection_times": [{"days": "Mon-Fri", "time": "3:30pm"}, {"days": "Sat", "time": "11:45am"}, {"days": "Sun", "time": "Closed"}], "id": "8632400003", "name": "USPS COLLECTION BOX - PO LOBBY", "address": {"city": "CLARKDALE", "state": "AZ", "street": "9 S 9TH ST", "postcode": "86324"}}},
{"geometry": {"type": "Point", "coordinates": [-111.9242449306, 34.7178289443]}, "type": "Feature", "properties": {"collection_times": [{"days": "Mon-Fri", "time": "3:45pm"}, {"days": "Sat", "time": "11:00am"}, {"days": "Sun", "time": "Closed"}], "id": "8632500001", "name": "USPS COLLECTION BOX - BLUE BOX", "address": {"city": "CORNVILLE", "state": "AZ", "street": "9400 E CORNVILLE RD", "postcode": "86325"}}},
{"geometry": {"type": "Point", "coordinates": [-111.9242449306, 34.7178289443]}, "type": "Feature", "properties": {"collection_times": [{"days": "Mon-Fri", "time": "4:00pm"}, {"days": "Sat", "time": "11:00am"}, {"days": "Sun", "time": "Closed"}], "id": "8632500002", "name": "USPS COLLECTION BOX - PO LOBBY", "address": {"city": "CORNVILLE", "state": "AZ", "street": "9400 E CORNVILLE RD", "postcode": "86325"}}},
{"geometry": {"type": "Point", "coordinates": [-112.0218757312, 34.7395782348]}, "type": "Feature", "properties": {"collection_times": [{"days": "Mon-Fri", "time": "5:00pm"}, {"days": "Sat", "time": "1:30pm"}, {"days": "Sun", "time": "Closed"}], "id": "8632600001", "name": "USPS COLLECTION BOX - BLUE BOX", "address": {"city": "COTTONWOOD", "state": "AZ", "street": "700 E MINGUS AVE", "postcode": "86326"}}},
{"geometry": {"type": "Point", "coordinates": [-112.0218757312, 34.7395782348]}, "type": "Feature", "properties": {"collection_times": [{"days": "Mon-Fri", "time": "5:00pm"}, {"days": "Sat", "time": "1:30pm"}, {"days": "Sun", "time": "Closed"}], "id": "8632600002", "name": "USPS COLLECTION BOX - BLUE BOX", "address": {"city": "COTTONWOOD", "state": "AZ", "street": "700 E MINGUS AVE", "postcode": "86326"}}},
{"geometry": {"type": "Point", "coordinates": [-112.0273764762, 34.7349510924]}, "type": "Feature", "properties": {"collection_times": [{"days": "Mon-Fri", "time": "1:30pm"}, {"days": "Sat", "time": "12:30pm"}, {"days": "Sun", "time": "Closed"}], "id": "8632600003", "name": "USPS COLLECTION BOX - BLUE BOX", "address": {"city": "COTTONWOOD", "state": "AZ", "street": "300 S WILLARD ST", "postcode": "86326"}}},
{"geometry": {"type": "Point", "coordinates": [-112.0076469476, 34.728530266]}, "type": "Feature", "properties": {"collection_times": [{"days": "Mon-Fri", "time": "1:45pm"}, {"days": "Sat", "time": "12:45pm"}, {"days": "Sun", "time": "Closed"}], "id": "8632600004", "name": "USPS COLLECTION BOX - BLUE BOX", "address": {"city": "COTTONWOOD", "state": "AZ", "street": "1645 E COTTONWOOD ST", "postcode": "86326"}}},
{"geometry": {"type": "Point", "coordinates": [-111.982063233, 34.6925786852]}, "type": "Feature", "properties": {"collection_times": [{"days": "Mon-Fri", "time": "1:30pm"}, {"days": "Sat", "time": "12:30pm"}, {"days": "Sun", "time": "Closed"}], "id": "8632600006", "name": "USPS COLLECTION BOX - BLUE BOX", "address": {"city": "COTTONWOOD", "state": "AZ", "street": "4100 E WESTERN DR", "postcode": "86326"}}},
{"geometry": {"type": "Point", "coordinates": [-112.0108313727, 34.7429871436]}, "type": "Feature", "properties": {"collection_times": [{"days": "Mon-Fri", "time": "1:45pm"}, {"days": "Sat", "time": "12:45pm"}, {"days": "Sun", "time": "Closed"}], "id": "8632600007", "name": "USPS COLLECTION BOX - BLUE BOX", "address": {"city": "COTTONWOOD", "state": "AZ", "street": "404 N MAIN ST", "postcode": "86326"}}},
{"geometry": {"type": "Point", "coordinates": [-112.0009408922, 34.7143380324]}, "type": "Feature", "properties": {"collection_times": [{"days": "Mon-Fri", "time": "1:30pm"}, {"days": "Sat", "time": "12:30pm"}, {"days": "Sun", "time": "Closed"}], "id": "8632600008", "name": "USPS COLLECTION BOX - BLUE BOX", "address": {"city": "COTTONWOOD", "state": "AZ", "street": "2003 E RODEO DR", "postcode": "86326"}}},
{"geometry": {"type": "Point", "coordinates": [-112.0218757312, 34.7395782348]}, "type": "Feature", "properties": {"collection_times": [{"days": "Mon-Fri", "time": "5:00pm"}, {"days": "Sat", "time": "1:30pm"}, {"days": "Sun", "time": "Closed"}], "id": "8632600009", "name": "USPS COLLECTION BOX - BLUE BOX", "address": {"city": "COTTONWOOD", "state": "AZ", "street": "700 E MINGUS AVE", "postcode": "86326"}}},
{"geometry": {"type": "Point", "coordinates": [-112.0218757312, 34.7395782348]}, "type": "Feature", "properties": {"collection_times": [{"days": "Mon-Fri", "time": "5:00pm"}, {"days": "Sat", "time": "1:30pm"}, {"days": "Sun", "time": "Closed"}], "id": "8632600011", "name": "USPS COLLECTION BOX - PO LOBBY", "address": {"city": "COTTONWOOD", "state": "AZ", "street": "700 E MINGUS AVE", "postcode": "86326"}}},
{"geometry": {"type": "Point", "coordinates": [-112.0218757312, 34.7395782348]}, "type": "Feature", "properties": {"collection_times": [{"days": "Mon-Fri", "time": "4:30pm"}, {"days": "Sat", "time": "1:30pm"}, {"days": "Sun", "time": "Closed"}], "id": "8632600012", "name": "USPS COLLECTION BOX - PO LOBBY", "address": {"city": "COTTONWOOD", "state": "AZ", "street": "700 E MINGUS AVE", "postcode": "86326"}}},
{"geometry": {"type": "Point", "coordinates": [-112.0218757312, 34.7395782348]}, "type": "Feature", "properties": {"collection_times": [{"days": "Mon-Fri", "time": "5:00pm"}, {"days": "Sat", "time": "1:30pm"}, {"days": "Sun", "time": "Closed"}], "id": "8632600013", "name": "USPS COLLECTION BOX - BLUE BOX", "address": {"city": "COTTONWOOD", "state": "AZ", "street": "700 E MINGUS AVE", "postcode": "86326"}}},
{"geometry": {"type": "Point", "coordinates": [-112.2484963489, 34.5388957542]}, "type": "Feature", "properties": {"collection_times": [{"days": "Mon-Fri", "time": "4:00pm"}, {"days": "Sat", "time": "1:00pm"}, {"days": "Sun", "time": "Closed"}], "id": "8632700001", "name": "USPS COLLECTION BOX - BLUE BOX", "address": {"city": "DEWEY", "state": "AZ", "street": "12420 E KACHINA PL", "postcode": "86327"}}},
{"geometry": {"type": "Point", "coordinates": [-112.2737071527, 34.5707740325]}, "type": "Feature", "properties": {"collection_times": [{"days": "Mon-Fri", "time": "11:30am"}, {"days": "Sat", "time": "11:00am"}, {"days": "Sun", "time": "Closed"}], "id": "8632700003", "name": "USPS COLLECTION BOX - BLUE BOX", "address": {"city": "DEWEY", "state": "AZ", "street": "11250 S STATE RTE 69", "postcode": "86327"}}},
{"geometry": {"type": "Point", "coordinates": [-112.2519237644, 34.5516442999]}, "type": "Feature", "properties": {"collection_times": [{"days": "Mon-Sat", "time": "10:30am"}, {"days": "Sun", "time": "Closed"}], "id": "8632700004", "name": "USPS COLLECTION BOX - BLUE BOX", "address": {"city": "DEWEY", "state": "AZ", "street": "12200 S STATE RTE 69", "postcode": "86327"}}},
{"geometry": {"type": "Point", "coordinates": [-112.2620735613, 34.5599497213]}, "type": "Feature", "properties": {"collection_times": [{"days": "Mon-Sat", "time": "10:30am"}, {"days": "Sun", "time": "Closed"}], "id": "8632700005", "name": "USPS COLLECTION BOX - BLUE BOX", "address": {"city": "DEWEY", "state": "AZ", "street": "11650 E APPALOOSA LN", "postcode": "86327"}}},
{"geometry": {"type": "Point", "coordinates": [-112.2484963489, 34.5388957542]}, "type": "Feature", "properties": {"collection_times": [{"days": "Mon-Fri", "time": "4:00pm"}, {"days": "Sat", "time": "1:00pm"}, {"days": "Sun", "time": "Closed"}], "id": "8632700006", "name": "USPS COLLECTION BOX - PO LOBBY", "address": {"city": "DEWEY", "state": "AZ", "street": "12420 E KACHINA PL", "postcode": "86327"}}},
{"geometry": {"type": "Point", "coordinates": [-112.2484963489, 34.5388957542]}, "type": "Feature", "properties": {"collection_times": [{"days": "Mon-Fri", "time": "4:00pm"}, {"days": "Sat", "time": "1:00pm"}, {"days": "Sun", "time": "Closed"}], "id": "8632700007", "name": "USPS COLLECTION BOX - BLUE BOX", "address": {"city": "DEWEY", "state": "AZ", "street": "12420 E KACHINA PL", "postcode": "86327"}}},
{"geometry": {"type": "Point", "coordinates": [-112.2414788296, 34.5026421537]}, "type": "Feature", "properties": {"collection_times": [{"days": "Mon-Fri", "time": "4:00pm"}, {"days": "Sat", "time": "9:15am"}, {"days": "Sun", "time": "Closed"}], "id": "8632900002", "name": "USPS COLLECTION BOX - BLUE BOX", "address": {"city": "HUMBOLDT", "state": "AZ", "street": "12814 E MAIN ST", "postcode": "86329"}}},
{"geometry": {"type": "Point", "coordinates": [-112.2414788296, 34.5026421537]}, "type": "Feature", "properties": {"collection_times": [{"days": "Mon-Fri", "time": "4:00pm"}, {"days": "Sat", "time": "9:15am"}, {"days": "Sun", "time": "Closed"}], "id": "8632900003", "name": "USPS COLLECTION BOX - BLUE BOX", "address": {"city": "HUMBOLDT", "state": "AZ", "street": "12814 E MAIN ST", "postcode": "86329"}}},
{"geometry": {"type": "Point", "coordinates": [-112.220513085, 34.5008151472]}, "type": "Feature", "properties": {"collection_times": [{"days": "Mon-Fri", "time": "4:00pm"}, {"days": "Sat", "time": "9:15am"}, {"days": "Sun", "time": "Closed"}], "id": "8632900004", "name": "USPS COLLECTION BOX - PO LOBBY", "address": {"city": "HUMBOLDT", "state": "AZ", "street": "12814 E MAIN ST", "postcode": "86329"}}},
{"geometry": {"type": "Point", "coordinates": [-112.116638234, 34.7514583473]}, "type": "Feature", "properties": {"collection_times": [{"days": "Mon-Fri", "time": "3:00pm"}, {"days": "Sat", "time": "10:30am"}, {"days": "Sun", "time": "Closed"}], "id": "8633100001", "name": "USPS COLLECTION BOX - BLUE BOX", "address": {"city": "JEROME", "state": "AZ", "street": "120 MAIN ST", "postcode": "86331"}}},
{"geometry": {"type": "Point", "coordinates": [-112.116638234, 34.7514583473]}, "type": "Feature", "properties": {"collection_times": [{"days": "Mon-Fri", "time": "3:00pm"}, {"days": "Sat", "time": "10:30am"}, {"days": "Sun", "time": "Closed"}], "id": "8633100002", "name": "USPS COLLECTION BOX - PO LOBBY", "address": {"city": "JEROME", "state": "AZ", "street": "120 MAIN ST", "postcode": "86331"}}},
{"geometry": {"type": "Point", "coordinates": [-112.8552161113, 34.4801711409]}, "type": "Feature", "properties": {"collection_times": [{"days": "Mon-Fri", "time": "11:00am"}, {"days": "Sat-Sun", "time": "Closed"}], "id": "8633200001", "name": "USPS COLLECTION BOX - BLUE BOX", "address": {"city": "KIRKLAND", "state": "AZ", "street": "18912 W HAYS RANCH RD", "postcode": "86332"}}},
{"geometry": {"type": "Point", "coordinates": [-112.5896914083, 34.4239082434]}, "type": "Feature", "properties": {"collection_times": [{"days": "Mon-Fri", "time": "9:30am"}, {"days": "Sat-Sun", "time": "Closed"}], "id": "8633200002", "name": "USPS COLLECTION BOX - BLUE BOX", "address": {"city": "KIRKLAND", "state": "AZ", "street": "8585 S HIGHWAY 89", "postcode": "86332"}}},
{"geometry": {"type": "Point", "coordinates": [-112.7075660515, 34.4182883559]}, "type": "Feature", "properties": {"collection_times": [{"days": "Mon-Fri", "time": "3:00pm"}, {"days": "Sat", "time": "10:00am"}, {"days": "Sun", "time": "Closed"}], "id": "8633200003", "name": "USPS COLLECTION BOX - BLUE BOX", "address": {"city": "KIRKLAND", "state": "AZ", "street": "8985 S IRON SPRINGS RD", "postcode": "86332"}}},
{"geometry": {"type": "Point", "coordinates": [-112.7075660515, 34.4182883559]}, "type": "Feature", "properties": {"collection_times": [{"days": "Mon-Fri", "time": "2:00pm"}, {"days": "Sat", "time": "10:00am"}, {"days": "Sun", "time": "Closed"}], "id": "8633200004", "name": "USPS COLLECTION BOX - PO LOBBY", "address": {"city": "KIRKLAND", "state": "AZ", "street": "8985 W IRON SPRINGS RD", "postcode": "86332"}}},
{"geometry": {"type": "Point", "coordinates": [-112.1191480668, 34.3268290665]}, "type": "Feature", "properties": {"collection_times": [{"days": "Mon-Fri", "time": "2:30pm"}, {"days": "Sat-Sun", "time": "Closed"}], "id": "8633300001", "name": "USPS COLLECTION BOX - BLUE BOX", "address": {"city": "MAYER", "state": "AZ", "street": "19625 E CORDES LAKES RD", "postcode": "86333"}}},
{"geometry": {"type": "Point", "coordinates": [-112.1593580249, 34.3497642749]}, "type": "Feature", "properties": {"collection_times": [{"days": "Mon-Fri", "time": "3:00pm"}, {"days": "Sat-Sun", "time": "Closed"}], "id": "8633300002", "name": "USPS COLLECTION BOX - BLUE BOX", "address": {"city": "MAYER", "state": "AZ", "street": "17301 E SPRING VALLEY RD", "postcode": "86333"}}},
{"geometry": {"type": "Point", "coordinates": [-112.2380721145, 34.3997703163]}, "type": "Feature", "properties": {"collection_times": [{"days": "Mon-Fri", "time": "4:00pm"}, {"days": "Sat", "time": "10:00am"}, {"days": "Sun", "time": "Closed"}], "id": "8633300003", "name": "USPS COLLECTION BOX - BLUE BOX", "address": {"city": "MAYER", "state": "AZ", "street": "12795 E CENTRAL AVE", "postcode": "86333"}}},
{"geometry": {"type": "Point", "coordinates": [-112.1078188687, 34.3142885185]}, "type": "Feature", "properties": {"collection_times": [{"days": "Mon-Fri", "time": "2:45pm"}, {"days": "Sat-Sun", "time": "Closed"}], "id": "8633300004", "name": "USPS COLLECTION BOX - BLUE BOX", "address": {"city": "MAYER", "state": "AZ", "street": "20183 E STAGECOACH TRL", "postcode": "86333"}}},
{"geometry": {"type": "Point", "coordinates": [-112.2380721145, 34.3997703163]}, "type": "Feature", "properties": {"collection_times": [{"days": "Mon-Fri", "time": "4:00pm"}, {"days": "Sat", "time": "10:00am"}, {"days": "Sun", "time": "Closed"}], "id": "8633300005", "name": "USPS COLLECTION BOX - PO LOBBY", "address": {"city": "MAYER", "state": "AZ", "street": "12795 E CENTRAL AVE", "postcode": "86333"}}},
{"geometry": {"type": "Point", "coordinates": [-112.4677912141, 34.8868071673]}, "type": "Feature", "properties": {"collection_times": [{"days": "Mon-Fri", "time": "3:30pm"}, {"days": "Sat", "time": "10:00am"}, {"days": "Sun", "time": "Closed"}], "id": "8633400001", "name": "USPS COLLECTION BOX - BLUE BOX", "address": {"city": "PAULDEN", "state": "AZ", "street": "23375 N HIGHWAY 89", "postcode": "86334"}}},
{"geometry": {"type": "Point", "coordinates": [-112.4677912141, 34.8868071673]}, "type": "Feature", "properties": {"collection_times": [{"days": "Mon-Fri", "time": "3:30pm"}, {"days": "Sat", "time": "10:00am"}, {"days": "Sun", "time": "Closed"}], "id": "8633400002", "name": "USPS COLLECTION BOX - PO LOBBY", "address": {"city": "PAULDEN", "state": "AZ", "street": "23375 N HIGHWAY 89", "postcode": "86334"}}},
{"geometry": {"type": "Point", "coordinates": [-111.7852496182, 34.6448652183]}, "type": "Feature", "properties": {"collection_times": [{"days": "Mon-Fri", "time": "3:45pm"}, {"days": "Sat", "time": "8:00am"}, {"days": "Sun", "time": "Closed"}], "id": "8633500001", "name": "USPS COLLECTION BOX - BLUE BOX", "address": {"city": "RIMROCK", "state": "AZ", "street": "5235 N LOOKOUT POINT RD", "postcode": "86335"}}},
{"geometry": {"type": "Point", "coordinates": [-111.7772078631, 34.6315439174]}, "type": "Feature", "properties": {"collection_times": [{"days": "Mon-Fri", "time": "2:45pm"}, {"days": "Sat", "time": "12:30pm"}, {"days": "Sun", "time": "Closed"}], "id": "8633500002", "name": "USPS COLLECTION BOX - BLUE BOX", "address": {"city": "RIMROCK", "state": "AZ", "street": "4220 E ZUNI WAY", "postcode": "86335"}}},
{"geometry": {"type": "Point", "coordinates": [-111.7852496182, 34.6448652183]}, "type": "Feature", "properties": {"collection_times": [{"days": "Mon-Fri", "time": "3:45pm"}, {"days": "Sat", "time": "8:00am"}, {"days": "Sun", "time": "Closed"}], "id": "8633500003", "name": "USPS COLLECTION BOX - PO LOBBY", "address": {"city": "RIMROCK", "state": "AZ", "street": "5235 N LOOKOUT POINT RD", "postcode": "86335"}}},
{"geometry": {"type": "Point", "coordinates": [-111.7645506031, 34.8660485779]}, "type": "Feature", "properties": {"collection_times": [{"days": "Mon-Fri", "time": "5:00pm"}, {"days": "Sat", "time": "4:30pm"}, {"days": "Sun", "time": "Closed"}], "id": "8633600001", "name": "USPS COLLECTION BOX - BLUE BOX", "address": {"city": "SEDONA", "state": "AZ", "street": "190 W STATE ROUTE 89A", "postcode": "86336"}}},
{"geometry": {"type": "Point", "coordinates": [-111.7645506031, 34.8660485779]}, "type": "Feature", "properties": {"collection_times": [{"days": "Mon-Fri", "time": "5:00pm"}, {"days": "Sat", "time": "4:30pm"}, {"days": "Sun", "time": "Closed"}], "id": "8633600002", "name": "USPS COLLECTION BOX - BLUE BOX", "address": {"city": "SEDONA", "state": "AZ", "street": "190 W STATE ROUTE 89A", "postcode": "86336"}}},
{"geometry": {"type": "Point", "coordinates": [-111.795574112, 34.8618622559]}, "type": "Feature", "properties": {"collection_times": [{"days": "Mon-Sat", "time": "10:00am"}, {"days": "Sun", "time": "Closed"}], "id": "8633600003", "name": "USPS COLLECTION BOX - BLUE BOX", "address": {"city": "SEDONA", "state": "AZ", "street": "205 SUNSET DR", "postcode": "86336"}}},
{"geometry": {"type": "Point", "coordinates": [-111.7602376704, 34.870671479]}, "type": "Feature", "properties": {"collection_times": [{"days": "Mon-Sat", "time": "9:15am"}, {"days": "Sun", "time": "Closed"}], "id": "8633600004", "name": "USPS COLLECTION BOX - BLUE BOX", "address": {"city": "SEDONA", "state": "AZ", "street": "291 N STATE ROUTE 89A", "postcode": "86336"}}},
{"geometry": {"type": "Point", "coordinates": [-111.7976771235, 34.8636130645]}, "type": "Feature", "properties": {"collection_times": [{"days": "Mon-Fri", "time": "4:30pm"}, {"days": "Sat", "time": "1:00pm"}, {"days": "Sun", "time": "Closed"}], "id": "8633600007", "name": "USPS COLLECTION BOX - BLUE BOX", "address": {"city": "SEDONA", "state": "AZ", "street": "2081 W STATE ROUTE 89A", "postcode": "86336"}}},
{"geometry": {"type": "Point", "coordinates": [-111.7907539328, 34.8635629471]}, "type": "Feature", "properties": {"collection_times": [{"days": "Mon-Sat", "time": "10:30am"}, {"days": "Sun", "time": "Closed"}], "id": "8633600008", "name": "USPS COLLECTION BOX - BLUE BOX", "address": {"city": "SEDONA", "state": "AZ", "street": "1785 W STATE ROUTE 89A", "postcode": "86336"}}},
{"geometry": {"type": "Point", "coordinates": [-111.801126502, 34.8632807767]}, "type": "Feature", "properties": {"collection_times": [{"days": "Mon-Sat", "time": "9:15am"}, {"days": "Sun", "time": "Closed"}], "id": "8633600009", "name": "USPS COLLECTION BOX - BLUE BOX", "address": {"city": "SEDONA", "state": "AZ", "street": "2350 W STATE ROUTE 89A", "postcode": "86336"}}},
{"geometry": {"type": "Point", "coordinates": [-111.7952927456, 34.8651049133]}, "type": "Feature", "properties": {"collection_times": [{"days": "Mon-Sat", "time": "1:00pm"}, {"days": "Sun", "time": "Closed"}], "id": "8633600013", "name": "USPS COLLECTION BOX - BLUE BOX", "address": {"city": "SEDONA", "state": "AZ", "street": "160 COFFEE POT DR", "postcode": "86336"}}},
{"geometry": {"type": "Point", "coordinates": [-111.8663140287, 34.8417964739]}, "type": "Feature", "properties": {"collection_times": [{"days": "Mon-Sat", "time": "9:00am"}, {"days": "Sun", "time": "Closed"}], "id": "8633600016", "name": "USPS COLLECTION BOX - BLUE BOX", "address": {"city": "SEDONA", "state": "AZ", "street": "6770 W STATE ROUTE 89A", "postcode": "86336"}}},
{"geometry": {"type": "Point", "coordinates": [-111.7976771235, 34.8636130645]}, "type": "Feature", "properties": {"collection_times": [{"days": "Mon-Fri", "time": "4:30pm"}, {"days": "Sat", "time": "1:00pm"}, {"days": "Sun", "time": "Closed"}], "id": "8633600017", "name": "USPS COLLECTION BOX - BLUE BOX", "address": {"city": "SEDONA", "state": "AZ", "street": "2081 W STATE ROUTE 89A", "postcode": "86336"}}},
{"geometry": {"type": "Point", "coordinates": [-111.7645506031, 34.8660485779]}, "type": "Feature", "properties": {"collection_times": [{"days": "Mon-Fri", "time": "5:00pm"}, {"days": "Sat", "time": "4:30pm"}, {"days": "Sun", "time": "Closed"}], "id": "8633600020", "name": "USPS COLLECTION BOX - PO LOBBY", "address": {"city": "SEDONA", "state": "AZ", "street": "190 W STATE ROUTE 89A", "postcode": "86336"}}},
{"geometry": {"type": "Point", "coordinates": [-111.7976771235, 34.8636130645]}, "type": "Feature", "properties": {"collection_times": [{"days": "Mon-Fri", "time": "4:30pm"}, {"days": "Sat", "time": "1:00pm"}, {"days": "Sun", "time": "Closed"}], "id": "8633600021", "name": "USPS COLLECTION BOX - PO LOBBY", "address": {"city": "SEDONA", "state": "AZ", "street": "2081 W STATE ROUTE 89A", "postcode": "86336"}}},
{"geometry": {"type": "Point", "coordinates": [-112.8826203191, 35.3282192088]}, "type": "Feature", "properties": {"collection_times": [{"days": "Mon-Fri", "time": "2:30pm"}, {"days": "Sat", "time": "9:45am"}, {"days": "Sun", "time": "Closed"}], "id": "8633700001", "name": "USPS COLLECTION BOX - BLUE BOX", "address": {"city": "SELIGMAN", "state": "AZ", "street": "22801 W OLD HIGHWAY 66", "postcode": "86337"}}},
{"geometry": {"type": "Point", "coordinates": [-112.8826203191, 35.3282192088]}, "type": "Feature", "properties": {"collection_times": [{"days": "Mon-Fri", "time": "2:30pm"}, {"days": "Sat", "time": "9:45am"}, {"days": "Sun", "time": "Closed"}], "id": "8633700002", "name": "USPS COLLECTION BOX - PO LOBBY", "address": {"city": "SELIGMAN", "state": "AZ", "street": "22801 W OLD HIGHWAY 66", "postcode": "86337"}}},
{"geometry": {"type": "Point", "coordinates": [-112.6854290319, 34.5041311993]}, "type": "Feature", "properties": {"collection_times": [{"days": "Mon-Fri", "time": "11:00am"}, {"days": "Sat", "time": "9:00am"}, {"days": "Sun", "time": "Closed"}], "id": "8633800000", "name": "USPS COLLECTION BOX - PO LOBBY", "address": {"city": "SKULL VALLEY", "state": "AZ", "street": "3085 S IRON SPRINGS RD", "postcode": "86338"}}},
{"geometry": {"type": "Point", "coordinates": [-112.6854290319, 34.5041311993]}, "type": "Feature", "properties": {"collection_times": [{"days": "Mon-Fri", "time": "3:45pm"}, {"days": "Sat", "time": "9:00am"}, {"days": "Sun", "time": "Closed"}], "id": "8633800001", "name": "USPS COLLECTION BOX - BLUE BOX", "address": {"city": "SKULL VALLEY", "state": "AZ", "street": "3085 S IRON SPRINGS RD", "postcode": "86338"}}},
{"geometry": {"type": "Point", "coordinates": [-111.7641610087, 34.7801519544]}, "type": "Feature", "properties": {"collection_times": [{"days": "Mon-Fri", "time": "5:00pm"}, {"days": "Sat", "time": "12:00pm"}, {"days": "Sun", "time": "Closed"}], "id": "8635100006", "name": "USPS COLLECTION BOX - BLUE BOX", "address": {"city": "SEDONA", "state": "AZ", "street": "45 W CORTEZ DR", "postcode": "86351"}}},
{"geometry": {"type": "Point", "coordinates": [-111.7643902999, 34.7801430796]}, "type": "Feature", "properties": {"collection_times": [{"days": "Mon-Fri", "time": "5:00pm"}, {"days": "Sat", "time": "12:00pm"}, {"days": "Sun", "time": "Closed"}], "id": "8635100007", "name": "USPS COLLECTION BOX - BLUE BOX", "address": {"city": "SEDONA", "state": "AZ", "street": "45 W CORTEZ DR", "postcode": "86351"}}},
{"geometry": {"type": "Point", "coordinates": [-111.7641610087, 34.7801519544]}, "type": "Feature", "properties": {"collection_times": [{"days": "Mon-Fri", "time": "5:00pm"}, {"days": "Sat", "time": "12:00pm"}, {"days": "Sun", "time": "Closed"}], "id": "8635100010", "name": "USPS COLLECTION BOX - PO LOBBY", "address": {"city": "SEDONA", "state": "AZ", "street": "45 W CORTEZ DR", "postcode": "86351"}}}
]}
