{"type": "FeatureCollection", "features": [
{"geometry": {"type": "Point", "coordinates": [-114.0578736428, 35.1892202602]}, "type": "Feature", "properties": {"collection_times": [{"days": "Mon-Sat", "time": "10:00am"}, {"days": "Sun", "time": "Closed"}], "id": "8640100003", "name": "USPS COLLECTION BOX - BLUE BOX", "address": {"city": "KINGMAN", "state": "AZ", "street": "100 W ANDY DEVINE AVE", "postcode": "86401"}}},
{"geometry": {"type": "Point", "coordinates": [-114.0336419414, 35.1959082411]}, "type": "Feature", "properties": {"collection_times": [{"days": "Mon-Sat", "time": "5:00pm"}, {"days": "Sun", "time": "Closed"}], "id": "8640100004", "name": "USPS COLLECTION BOX - BLUE BOX", "address": {"city": "KINGMAN", "state": "AZ", "street": "1901 JOHNSON AVE", "postcode": "86401"}}},
{"geometry": {"type": "Point", "coordinates": [-114.0336419414, 35.1959082411]}, "type": "Feature", "properties": {"collection_times": [{"days": "Mon-Sat", "time": "5:00pm"}, {"days": "Sun", "time": "Closed"}], "id": "8640100005", "name": "USPS COLLECTION BOX - BLUE BOX", "address": {"city": "KINGMAN", "state": "AZ", "street": "1901 JOHNSON AVE", "postcode": "86401"}}},
{"geometry": {"type": "Point", "coordinates": [-113.8599257314, 35.4059527591]}, "type": "Feature", "properties": {"collection_times": [{"days": "Mon-Sat", "time": "10:00am"}, {"days": "Sun", "time": "Closed"}], "id": "8640100011", "name": "USPS COLLECTION BOX - BLUE BOX", "address": {"city": "KINGMAN", "state": "AZ", "street": "9686 N CONCHO DR", "postcode": "86401"}}},
{"geometry": {"type": "Point", "coordinates": [-113.8604289466, 35.386311299]}, "type": "Feature", "properties": {"collection_times": [{"days": "Mon-Sat", "time": "10:00am"}, {"days": "Sun", "time": "Closed"}], "id": "8640100012", "name": "USPS COLLECTION BOX - BLUE BOX", "address": {"city": "KINGMAN", "state": "AZ", "street": "9077 N CONCHO DR", "postcode": "86401"}}},
{"geometry": {"type": "Point", "coordinates": [-114.0336419414, 35.1959082411]}, "type": "Feature", "properties": {"collection_times": [{"days": "Mon-Sat", "time": "5:00pm"}, {"days": "Sun", "time": "Closed"}], "id": "8640100013", "name": "USPS COLLECTION BOX - BLUE BOX", "address": {"city": "KINGMAN", "state": "AZ", "street": "1901 JOHNSON AVE", "postcode": "86401"}}},
{"geometry": {"type": "Point", "coordinates": [-114.0048347351, 35.2231018295]}, "type": "Feature", "properties": {"collection_times": [{"days": "Mon-Sat", "time": "3:00pm"}, {"days": "Sun", "time": "Closed"}], "id": "8640100017", "name": "USPS COLLECTION BOX - BLUE BOX", "address": {"city": "KINGMAN", "state": "AZ", "street": "3400 E ANDY DEVINE AVE", "postcode": "86401"}}},
{"geometry": {"type": "Point", "coordinates": [-114.0349684354, 35.2131630881]}, "type": "Feature", "properties": {"collection_times": [{"days": "Mon-Sat", "time": "3:00pm"}, {"days": "Sun", "time": "Closed"}], "id": "8640100019", "name": "USPS COLLECTION BOX - BLUE BOX", "address": {"city": "KINGMAN", "state": "AZ", "street": "3100 N STOCKTON HILL RD", "postcode": "86401"}}},
{"geometry": {"type": "Point", "coordinates": [-113.9703775084, 35.2203401809]}, "type": "Feature", "properties": {"collection_times": [{"days": "Mon-Fri", "time": "3:00pm"}, {"days": "Sat-Sun", "time": "Closed"}], "id": "8640100025", "name": "USPS COLLECTION BOX - EXPRESS", "address": {"city": "KINGMAN", "state": "AZ", "street": "220 N 4TH ST", "postcode": "86401"}}},
{"geometry": {"type": "Point", "coordinates": [-113.9703775084, 35.2203401809]}, "type": "Feature", "properties": {"collection_times": [{"days": "Mon-Sat", "time": "5:00pm"}, {"days": "Sun", "time": "Closed"}], "id": "8640100028", "name": "USPS COLLECTION BOX - EXPRESS", "address": {"city": "KINGMAN", "state": "AZ", "street": "1901 JOHNSON AVE", "postcode": "86401"}}},
{"geometry": {"type": "Point", "coordinates": [-114.0528704252, 35.1897812705]}, "type": "Feature", "properties": {"collection_times": [{"days": "Mon-Fri", "time": "10:00am"}, {"days": "Sat-Sun", "time": "Closed"}], "id": "8640100030", "name": "USPS COLLECTION BOX - BLUE BOX", "address": {"city": "KINGMAN", "state": "AZ", "street": "220 N 4TH ST", "postcode": "86401"}}},
{"geometry": {"type": "Point", "coordinates": [-111.6647517583, 34.2930183245]}, "type": "Feature", "properties": {"collection_times": [{"days": "Mon-Sat", "time": "11:00am"}, {"days": "Sun", "time": "Closed"}], "id": "8640100032", "name": "USPS COLLECTION BOX - BLUE BOX", "address": {"city": "KINGMAN", "state": "AZ", "street": "970 S BLAKE RANCH RD", "postcode": "86401"}}},
{"geometry": {"type": "Point", "coordinates": [-114.0336419414, 35.1959082411]}, "type": "Feature", "properties": {"collection_times": [{"days": "Mon-Sat", "time": "5:00pm"}, {"days": "Sun", "time": "Closed"}], "id": "8640100033", "name": "USPS COLLECTION BOX - BLUE BOX", "address": {"city": "KINGMAN", "state": "AZ", "street": "1901 JOHNSON AVE", "postcode": "86401"}}},
{"geometry": {"type": "Point", "coordinates": [-114.0336419414, 35.1959082411]}, "type": "Feature", "properties": {"collection_times": [{"days": "Mon-Sat", "time": "5:00pm"}, {"days": "Sun", "time": "Closed"}], "id": "8640100034", "name": "USPS COLLECTION BOX - BLUE BOX", "address": {"city": "KINGMAN", "state": "AZ", "street": "1901 JOHNSON AVE", "postcode": "86401"}}},
{"geometry": {"type": "Point", "coordinates": [-114.0336419414, 35.1959082411]}, "type": "Feature", "properties": {"collection_times": [{"days": "Mon-Sat", "time": "5:00pm"}, {"days": "Sun", "time": "Closed"}], "id": "8640100035", "name": "USPS COLLECTION BOX - APC", "address": {"city": "KINGMAN", "state": "AZ", "street": "1901 JOHNSON AVE", "postcode": "86401"}}},
{"geometry": {"type": "Point", "coordinates": [-114.0336419414, 35.1959082411]}, "type": "Feature", "properties": {"collection_times": [{"days": "Mon-Sat", "time": "5:00pm"}, {"days": "Sun", "time": "Closed"}], "id": "8640100036", "name": "USPS COLLECTION BOX - BLUE BOX", "address": {"city": "KINGMAN", "state": "AZ", "street": "1901 JOHNSON AVE", "postcode": "86401"}}},
{"geometry": {"type": "Point", "coordinates": [-114.3344912734, 34.4774754461]}, "type": "Feature", "properties": {"collection_times": [{"days": "Mon-Fri", "time": "5:00pm"}, {"days": "Sat", "time": "4:00pm"}, {"days": "Sun", "time": "Closed"}], "id": "8640300001", "name": "USPS COLLECTION BOX - BLUE BOX", "address": {"city": "LK HAVASU CTY", "state": "AZ", "street": "1750 MCCULLOCH BLVD N", "postcode": "86403"}}},
{"geometry": {"type": "Point", "coordinates": [-114.3245492723, 34.4773387201]}, "type": "Feature", "properties": {"collection_times": [{"days": "Mon-Sat", "time": "2:00pm"}, {"days": "Sun", "time": "Closed"}], "id": "8640300005", "name": "USPS COLLECTION BOX - BLUE BOX", "address": {"city": "LK HAVASU CTY", "state": "AZ", "street": "80 ACOMA BLVD N", "postcode": "86403"}}},
{"geometry": {"type": "Point", "coordinates": [-114.3344912734, 34.4774754461]}, "type": "Feature", "properties": {"collection_times": [{"days": "Mon-Fri", "time": "5:00pm"}, {"days": "Sat", "time": "4:00pm"}, {"days": "Sun", "time": "Closed"}], "id": "8640300006", "name": "USPS COLLECTION BOX - BLUE BOX", "address": {"city": "LK HAVASU CTY", "state": "AZ", "street": "1750 MCCULLOCH BLVD N", "postcode": "86403"}}},
{"geometry": {"type": "Point", "coordinates": [-114.3344912734, 34.4774754461]}, "type": "Feature", "properties": {"collection_times": [{"days": "Mon-Fri", "time": "5:00pm"}, {"days": "Sat", "time": "4:00pm"}, {"days": "Sun", "time": "Closed"}], "id": "8640300007", "name": "USPS COLLECTION BOX - BLUE BOX", "address": {"city": "LK HAVASU CTY", "state": "AZ", "street": "1750 MCCULLOCH BLVD N", "postcode": "86403"}}},
{"geometry": {"type": "Point", "coordinates": [-114.3344912734, 34.4774754461]}, "type": "Feature", "properties": {"collection_times": [{"days": "Mon-Fri", "time": "5:00pm"}, {"days": "Sat", "time": "4:00pm"}, {"days": "Sun", "time": "Closed"}], "id": "8640300008", "name": "USPS COLLECTION BOX - BLUE BOX", "address": {"city": "LK HAVASU CTY", "state": "AZ", "street": "1750 MCCULLOCH BLVD N", "postcode": "86403"}}},
{"geometry": {"type": "Point", "coordinates": [-114.3344912734, 34.4774754461]}, "type": "Feature", "properties": {"collection_times": [{"days": "Mon-Fri", "time": "5:00pm"}, {"days": "Sat", "time": "4:00pm"}, {"days": "Sun", "time": "Closed"}], "id": "8640300009", "name": "USPS COLLECTION BOX - BLUE BOX", "address": {"city": "LK HAVASU CTY", "state": "AZ", "street": "1750 MCCULLOCH BLVD N", "postcode": "86403"}}},
{"geometry": {"type": "Point", "coordinates": [-114.3344912734, 34.4774754461]}, "type": "Feature", "properties": {"collection_times": [{"days": "Mon-Fri", "time": "5:00pm"}, {"days": "Sat", "time": "4:00pm"}, {"days": "Sun", "time": "Closed"}], "id": "8640300010", "name": "USPS COLLECTION BOX - BLUE BOX", "address": {"city": "LK HAVASU CTY", "state": "AZ", "street": "1750 MCCULLOCH BLVD N", "postcode": "86403"}}},
{"geometry": {"type": "Point", "coordinates": [-114.3479785011, 34.5029407634]}, "type": "Feature", "properties": {"collection_times": [{"days": "Mon-Sat", "time": "2:00pm"}, {"days": "Sun", "time": "Closed"}], "id": "8640300022", "name": "USPS COLLECTION BOX - BLUE BOX", "address": {"city": "LK HAVASU CTY", "state": "AZ", "street": "1799 KIOWA AVE", "postcode": "86403"}}},
{"geometry": {"type": "Point", "coordinates": [-114.3317863759, 34.4858604512]}, "type": "Feature", "properties": {"collection_times": [{"days": "Mon-Fri", "time": "3:00pm"}, {"days": "Sat-Sun", "time": "Closed"}], "id": "8640300028", "name": "USPS COLLECTION BOX - EXPRESS", "address": {"city": "LK HAVASU CTY", "state": "AZ", "street": "1750 MCCULLOCH BLVD N", "postcode": "86403"}}},
{"geometry": {"type": "Point", "coordinates": [-114.3344912734, 34.4774754461]}, "type": "Feature", "properties": {"collection_times": [{"days": "Mon-Fri", "time": "5:00pm"}, {"days": "Sat", "time": "4:00pm"}, {"days": "Sun", "time": "Closed"}], "id": "8640300029", "name": "USPS COLLECTION BOX - PO LOBBY", "address": {"city": "LK HAVASU CTY", "state": "AZ", "street": "1750 MCCULLOCH BLVD N", "postcode": "86403"}}},
{"geometry": {"type": "Point", "coordinates": [-114.3317863759, 34.4858604512]}, "type": "Feature", "properties": {"collection_times": [{"days": "Mon-Fri", "time": "2:00pm"}, {"days": "Sat", "time": "12:00pm"}, {"days": "Sun", "time": "Closed"}], "id": "8640300033", "name": "USPS COLLECTION BOX - BLUE BOX", "address": {"city": "LK HAVASU CTY", "state": "AZ", "street": "2001 COLLEGE DR", "postcode": "86403"}}},
{"geometry": {"type": "Point", "coordinates": [-114.3684273914, 34.551196124]}, "type": "Feature", "properties": {"collection_times": [{"days": "Mon-Fri", "time": "12:00pm"}, {"days": "Sat", "time": "2:00pm"}, {"days": "Sun", "time": "Closed"}], "id": "8640400001", "name": "USPS COLLECTION BOX - BLUE BOX", "address": {"city": "LK HAVASU CTY", "state": "AZ", "street": "3577 LONDON BRIDGE RD", "postcode": "86404"}}},
{"geometry": {"type": "Point", "coordinates": [-114.2833786696, 34.4711004675]}, "type": "Feature", "properties": {"collection_times": [{"days": "Mon-Sat", "time": "1:00pm"}, {"days": "Sun", "time": "Closed"}], "id": "8640600002", "name": "USPS COLLECTION BOX - BLUE BOX", "address": {"city": "LK HAVASU CTY", "state": "AZ", "street": "3269 MARICOPA AVE", "postcode": "86406"}}},
{"geometry": {"type": "Point", "coordinates": [-114.0218013733, 35.3228628852]}, "type": "Feature", "properties": {"collection_times": [{"days": "Mon-Sat", "time": "3:00pm"}, {"days": "Sun", "time": "Closed"}], "id": "8640900001", "name": "USPS COLLECTION BOX - BLUE BOX", "address": {"city": "KINGMAN", "state": "AZ", "street": "3490 N STOCKTON RD", "postcode": "86409"}}},
{"geometry": {"type": "Point", "coordinates": [-114.0218013733, 35.3228628852]}, "type": "Feature", "properties": {"collection_times": [{"days": "Mon-Sat", "time": "3:00pm"}, {"days": "Sun", "time": "Closed"}], "id": "8640900002", "name": "USPS COLLECTION BOX - BLUE BOX", "address": {"city": "KINGMAN", "state": "AZ", "street": "3490 N STOCKTON RD", "postcode": "86409"}}},
{"geometry": {"type": "Point", "coordinates": [-114.0377247615, 35.2396827967]}, "type": "Feature", "properties": {"collection_times": [{"days": "Mon-Fri", "time": "3:00pm"}, {"days": "Sat-Sun", "time": "Closed"}], "id": "8640900003", "name": "USPS COLLECTION BOX - BLUE BOX", "address": {"city": "KINGMAN", "state": "AZ", "street": "4008 STOCKTON HILL RD", "postcode": "86409"}}},
{"geometry": {"type": "Point", "coordinates": [-114.0378584134, 35.2556472869]}, "type": "Feature", "properties": {"collection_times": [{"days": "Mon-Fri", "time": "3:00pm"}, {"days": "Sat-Sun", "time": "Closed"}], "id": "8640900004", "name": "USPS COLLECTION BOX - BLUE BOX", "address": {"city": "KINGMAN", "state": "AZ", "street": "4518 STOCKTON HILL RD", "postcode": "86409"}}},
{"geometry": {"type": "Point", "coordinates": [-111.6647517583, 34.2930183245]}, "type": "Feature", "properties": {"collection_times": [{"days": "Mon-Sat", "time": "11:30am"}, {"days": "Sun", "time": "Closed"}], "id": "8641300001", "name": "USPS COLLECTION BOX - BLUE BOX", "address": {"city": "GOLDEN VALLEY", "state": "AZ", "street": "3685 US HIGHWAY 68", "postcode": "86413"}}},
{"geometry": {"type": "Point", "coordinates": [-114.2136970802, 35.2219942573]}, "type": "Feature", "properties": {"collection_times": [{"days": "Mon-Sat", "time": "11:30am"}, {"days": "Sun", "time": "Closed"}], "id": "8641300002", "name": "USPS COLLECTION BOX - BLUE BOX", "address": {"city": "GOLDEN VALLEY", "state": "AZ", "street": "5369 US HIGHWAY 68", "postcode": "86413"}}},
{"geometry": {"type": "Point", "coordinates": [-111.6647517583, 34.2930183245]}, "type": "Feature", "properties": {"collection_times": [{"days": "Mon-Sat", "time": "10:30am"}, {"days": "Sun", "time": "Closed"}], "id": "8642600005", "name": "USPS COLLECTION BOX - BLUE BOX", "address": {"city": "BULLHEAD CITY", "state": "AZ", "street": "4373 S EL CORRO", "postcode": "86426"}}},
{"geometry": {"type": "Point", "coordinates": [-114.5981127573, 35.0153108672]}, "type": "Feature", "properties": {"collection_times": [{"days": "Mon-Sat", "time": "4:15pm"}, {"days": "Sun", "time": "Closed"}], "id": "8642600007", "name": "USPS COLLECTION BOX - PO LOBBY", "address": {"city": "BULLHEAD CITY", "state": "AZ", "street": "4821 HIGHWAY 95 STE 7", "postcode": "86426"}}},
{"geometry": {"type": "Point", "coordinates": [-114.5981127573, 35.0153108672]}, "type": "Feature", "properties": {"collection_times": [{"days": "Mon-Sat", "time": "4:15pm"}, {"days": "Sun", "time": "Closed"}], "id": "8642600008", "name": "USPS COLLECTION BOX - PO LOBBY", "address": {"city": "BULLHEAD CITY", "state": "AZ", "street": "4821 HIGHWAY 95 STE 7", "postcode": "86426"}}},
{"geometry": {"type": "Point", "coordinates": [-114.5981127573, 35.0153108672]}, "type": "Feature", "properties": {"collection_times": [{"days": "Mon-Sat", "time": "4:00pm"}, {"days": "Sun", "time": "Closed"}], "id": "8642600009", "name": "USPS COLLECTION BOX - BLUE BOX", "address": {"city": "BULLHEAD CITY", "state": "AZ", "street": "4821 HIGHWAY 95", "postcode": "86426"}}},
{"geometry": {"type": "Point", "coordinates": [-114.5981127573, 35.0153108672]}, "type": "Feature", "properties": {"collection_times": [{"days": "Mon-Sat", "time": "4:00pm"}, {"days": "Sun", "time": "Closed"}], "id": "8642600010", "name": "USPS COLLECTION BOX - BLUE BOX", "address": {"city": "BULLHEAD CITY", "state": "AZ", "street": "4821 HIGHWAY 95", "postcode": "86426"}}},
{"geometry": {"type": "Point", "coordinates": [-114.5673609031, 35.1537398592]}, "type": "Feature", "properties": {"collection_times": [{"days": "Mon-Fri", "time": "4:45pm"}, {"days": "Sat", "time": "11:00am"}, {"days": "Sun", "time": "Closed"}], "id": "8642900000", "name": "USPS COLLECTION BOX - BLUE BOX", "address": {"city": "BULLHEAD CITY", "state": "AZ", "street": "990 HIGHWAY 95", "postcode": "86429"}}},
{"geometry": {"type": "Point", "coordinates": [-114.5673609031, 35.1537398592]}, "type": "Feature", "properties": {"collection_times": [{"days": "Mon-Fri", "time": "4:45pm"}, {"days": "Sat", "time": "11:00am"}, {"days": "Sun", "time": "Closed"}], "id": "8642900002", "name": "USPS COLLECTION BOX - BLUE BOX", "address": {"city": "BULLHEAD CITY", "state": "AZ", "street": "990 HIGHWAY 95", "postcode": "86429"}}},
{"geometry": {"type": "Point", "coordinates": [-114.5673609031, 35.1537398592]}, "type": "Feature", "properties": {"collection_times": [{"days": "Mon-Fri", "time": "3:45pm"}, {"days": "Sat", "time": "11:00am"}, {"days": "Sun", "time": "Closed"}], "id": "8642900004", "name": "USPS COLLECTION BOX - PO LOBBY", "address": {"city": "BULLHEAD CITY", "state": "AZ", "street": "990 HIGHWAY 95", "postcode": "86429"}}},
{"geometry": {"type": "Point", "coordinates": [-114.0311643465, 35.1958035023]}, "type": "Feature", "properties": {"collection_times": [{"days": "Mon-Fri", "time": "3:00pm"}, {"days": "Sat", "time": "9:30am"}, {"days": "Sun", "time": "Closed"}], "id": "8643100001", "name": "USPS COLLECTION BOX - BLUE BOX", "address": {"city": "CHLORIDE", "state": "AZ", "street": "4961 TENNESSEE AVE", "postcode": "86431"}}},
{"geometry": {"type": "Point", "coordinates": [-114.0311643465, 35.1958035023]}, "type": "Feature", "properties": {"collection_times": [{"days": "Mon-Fri", "time": "3:45pm"}, {"days": "Sat", "time": "9:30am"}, {"days": "Sun", "time": "Closed"}], "id": "8643100002", "name": "USPS COLLECTION BOX - PO LOBBY", "address": {"city": "CHLORIDE", "state": "AZ", "street": "4961 TENNESSEE AVE", "postcode": "86431"}}},
{"geometry": {"type": "Point", "coordinates": [-113.9344940028, 36.9074778605]}, "type": "Feature", "properties": {"collection_times": [{"days": "Mon-Fri", "time": "4:30pm"}, {"days": "Sat", "time": "8:30am"}, {"days": "Sun", "time": "Closed"}], "id": "8643200000", "name": "USPS COLLECTION BOX - PO LOBBY", "address": {"city": "LITTLEFIELD", "state": "AZ", "street": "3288 E MCKNIGHT RD", "postcode": "86432"}}},
{"geometry": {"type": "Point", "coordinates": [-113.9344940028, 36.9074778605]}, "type": "Feature", "properties": {"collection_times": [{"days": "Mon-Fri", "time": "4:30pm"}, {"days": "Sat", "time": "8:30am"}, {"days": "Sun", "time": "Closed"}], "id": "8643200001", "name": "USPS COLLECTION BOX - BLUE BOX", "address": {"city": "LITTLEFIELD", "state": "AZ", "street": "3288 E MCKNIGHT RD", "postcode": "86432"}}},
{"geometry": {"type": "Point", "coordinates": [-114.3859812501, 35.0284492357]}, "type": "Feature", "properties": {"collection_times": [{"days": "Mon-Fri", "time": "9:00am"}, {"days": "Sat", "time": "10:30am"}, {"days": "Sun", "time": "Closed"}], "id": "8643300001", "name": "USPS COLLECTION BOX - BLUE BOX", "address": {"city": "OATMAN", "state": "AZ", "street": "251 MAIN ST", "postcode": "86433"}}},
{"geometry": {"type": "Point", "coordinates": [-114.3859812501, 35.0284492357]}, "type": "Feature", "properties": {"collection_times": [{"days": "Mon-Sat", "time": "11:00am"}, {"days": "Sun", "time": "Closed"}], "id": "8643300002", "name": "USPS COLLECTION BOX - PO LOBBY", "address": {"city": "OATMAN", "state": "AZ", "street": "251 MAIN ST", "postcode": "86433"}}},
{"geometry": {"type": "Point", "coordinates": [-113.4200965602, 35.5342707728]}, "type": "Feature", "properties": {"collection_times": [{"days": "Mon-Fri", "time": "2:30pm"}, {"days": "Sat", "time": "9:30am"}, {"days": "Sun", "time": "Closed"}], "id": "8643400001", "name": "USPS COLLECTION BOX - BLUE BOX", "address": {"city": "PEACH SPRINGS", "state": "AZ", "street": "877 HIGHWAY 66", "postcode": "86434"}}},
{"geometry": {"type": "Point", "coordinates": [-113.42657, 35.528988]}, "type": "Feature", "properties": {"collection_times": [{"days": "Mon-Fri", "time": "2:30pm"}, {"days": "Sat", "time": "9:30am"}, {"days": "Sun", "time": "Closed"}], "id": "8643400002", "name": "USPS COLLECTION BOX - PO LOBBY", "address": {"city": "PEACH SPRINGS", "state": "AZ", "street": "877 HIGHWAY 66", "postcode": "86434"}}},
{"geometry": {"type": "Point", "coordinates": [-112.6402371311, 36.1914498571]}, "type": "Feature", "properties": {"collection_times": [{"days": "Mon-Fri", "time": "8:00am"}, {"days": "Sat-Sun", "time": "Closed"}], "id": "8643500002", "name": "USPS COLLECTION BOX - PO LOBBY", "address": {"city": "SUPAI", "state": "AZ", "street": "100 MAIN ST", "postcode": "86435"}}},
{"geometry": {"type": "Point", "coordinates": [-114.4741636926, 34.7894035781]}, "type": "Feature", "properties": {"collection_times": [{"days": "Mon-Fri", "time": "2:00pm"}, {"days": "Sat", "time": "11:00am"}, {"days": "Sun", "time": "Closed"}], "id": "8643600002", "name": "USPS COLLECTION BOX - BLUE BOX", "address": {"city": "TOPOCK", "state": "AZ", "street": "12936 S OATMAN HWY", "postcode": "86436"}}},
{"geometry": {"type": "Point", "coordinates": [-114.4741636926, 34.7894035781]}, "type": "Feature", "properties": {"collection_times": [{"days": "Mon-Fri", "time": "3:00pm"}, {"days": "Sat", "time": "11:00am"}, {"days": "Sun", "time": "Closed"}], "id": "8643600003", "name": "USPS COLLECTION BOX - PO LOBBY", "address": {"city": "TOPOCK", "state": "AZ", "street": "12936 S OATMAN HWY", "postcode": "86436"}}},
{"geometry": {"type": "Point", "coordinates": [-114.148934637, 34.8742812748]}, "type": "Feature", "properties": {"collection_times": [{"days": "Mon-Fri", "time": "3:30pm"}, {"days": "Sat", "time": "9:30am"}, {"days": "Sun", "time": "Closed"}], "id": "8643800001", "name": "USPS COLLECTION BOX - BLUE BOX", "address": {"city": "YUCCA", "state": "AZ", "street": "12241 S FRONTAGE RD", "postcode": "86438"}}},
{"geometry": {"type": "Point", "coordinates": [-114.148934637, 34.8742812748]}, "type": "Feature", "properties": {"collection_times": [{"days": "Mon-Fri", "time": "3:30pm"}, {"days": "Sat", "time": "9:30am"}, {"days": "Sun", "time": "Closed"}], "id": "8643800002", "name": "USPS COLLECTION BOX - PO LOBBY", "address": {"city": "YUCCA", "state": "AZ", "street": "12241 S FRONTAGE RD", "postcode": "86438"}}},
{"geometry": {"type": "Point", "coordinates": [-114.59787, 34.921654]}, "type": "Feature", "properties": {"collection_times": [{"days": "Mon-Fri", "time": "3:30pm"}, {"days": "Sat", "time": "11:00am"}, {"days": "Sun", "time": "Closed"}], "id": "8644000000", "name": "USPS COLLECTION BOX - BLUE BOX", "address": {"city": "BULLHEAD CITY", "state": "AZ", "street": "8045 S HIGHWAY 95", "postcode": "86440"}}},
{"geometry": {"type": "Point", "coordinates": [-114.59787, 34.921654]}, "type": "Feature", "properties": {"collection_times": [{"days": "Mon-Fri", "time": "3:30pm"}, {"days": "Sat", "time": "11:00am"}, {"days": "Sun", "time": "Closed"}], "id": "8644000002", "name": "USPS COLLECTION BOX - PO LOBBY", "address": {"city": "BULLHEAD CITY", "state": "AZ", "street": "8045 S HIGHWAY 95", "postcode": "86440"}}},
{"geometry": {"type": "Point", "coordinates": [-114.1930273812, 35.6747127818]}, "type": "Feature", "properties": {"collection_times": [{"days": "Mon-Fri", "time": "1:30pm"}, {"days": "Sat", "time": "10:30am"}, {"days": "Sun", "time": "Closed"}], "id": "8644100001", "name": "USPS COLLECTION BOX - BLUE BOX", "address": {"city": "DOLAN SPRINGS", "state": "AZ", "street": "16041 N PIERCE FERRY RD", "postcode": "86441"}}},
{"geometry": {"type": "Point", "coordinates": [-114.6128368078, 35.1045144822]}, "type": "Feature", "properties": {"collection_times": [{"days": "Mon-Sat", "time": "5:00pm"}, {"days": "Sun", "time": "Closed"}], "id": "8644200001", "name": "USPS COLLECTION BOX - BLUE BOX", "address": {"city": "BULLHEAD CITY", "state": "AZ", "street": "1882 LAKESIDE DR", "postcode": "86442"}}},
{"geometry": {"type": "Point", "coordinates": [-114.6128368078, 35.1045144822]}, "type": "Feature", "properties": {"collection_times": [{"days": "Mon-Sat", "time": "5:00pm"}, {"days": "Sun", "time": "Closed"}], "id": "8644200002", "name": "USPS COLLECTION BOX - BLUE BOX", "address": {"city": "BULLHEAD CITY", "state": "AZ", "street": "1882 LAKESIDE DR", "postcode": "86442"}}},
{"geometry": {"type": "Point", "coordinates": [-114.6042077437, 35.1014112744]}, "type": "Feature", "properties": {"collection_times": [{"days": "Mon-Sat", "time": "3:45pm"}, {"days": "Sun", "time": "Closed"}], "id": "8644200003", "name": "USPS COLLECTION BOX - BLUE BOX", "address": {"city": "BULLHEAD CITY", "state": "AZ", "street": "2355 TRANE RD", "postcode": "86442"}}},
{"geometry": {"type": "Point", "coordinates": [-114.5847870716, 35.1220424738]}, "type": "Feature", "properties": {"collection_times": [{"days": "Mon-Sat", "time": "3:30pm"}, {"days": "Sun", "time": "Closed"}], "id": "8644200010", "name": "USPS COLLECTION BOX - BLUE BOX", "address": {"city": "BULLHEAD CITY", "state": "AZ", "street": "1751 HIGHWAY 95", "postcode": "86442"}}},
{"geometry": {"type": "Point", "coordinates": [-114.6041081435, 35.1064501897]}, "type": "Feature", "properties": {"collection_times": [{"days": "Mon-Sat", "time": "4:15pm"}, {"days": "Sun", "time": "Closed"}], "id": "8644200011", "name": "USPS COLLECTION BOX - BLUE BOX", "address": {"city": "BULLHEAD CITY", "state": "AZ", "street": "2225 TRANE RD", "postcode": "86442"}}},
{"geometry": {"type": "Point", "coordinates": [-114.597965758, 35.0959600998]}, "type": "Feature", "properties": {"collection_times": [{"days": "Mon-Sat", "time": "11:00am"}, {"days": "Sun", "time": "Closed"}], "id": "8644200019", "name": "USPS COLLECTION BOX - BLUE BOX", "address": {"city": "BULLHEAD CITY", "state": "AZ", "street": "3750 MAY ST", "postcode": "86442"}}},
{"geometry": {"type": "Point", "coordinates": [-111.6647517583, 34.2930183245]}, "type": "Feature", "properties": {"collection_times": [{"days": "Mon-Sat", "time": "11:00am"}, {"days": "Sun", "time": "Closed"}], "id": "8644200024", "name": "USPS COLLECTION BOX - BLUE BOX", "address": {"city": "BULLHEAD CITY", "state": "AZ", "street": "2198 CORWIN RD", "postcode": "86442"}}},
{"geometry": {"type": "Point", "coordinates": [-114.6128368078, 35.1045144822]}, "type": "Feature", "properties": {"collection_times": [{"days": "Mon-Sat", "time": "5:00pm"}, {"days": "Sun", "time": "Closed"}], "id": "8644200032", "name": "USPS COLLECTION BOX - PO LOBBY", "address": {"city": "BULLHEAD CITY", "state": "AZ", "street": "1882 LAKESIDE DR", "postcode": "86442"}}},
{"geometry": {"type": "Point", "coordinates": [-114.5968792429, 35.0825348114]}, "type": "Feature", "properties": {"collection_times": [{"days": "Mon-Sat", "time": "3:45pm"}, {"days": "Sun", "time": "Closed"}], "id": "8644200034", "name": "USPS COLLECTION BOX - BLUE BOX", "address": {"city": "BULLHEAD CITY", "state": "AZ", "street": "2840 HIGHWAY 95", "postcode": "86442"}}}
]}
