{"type": "FeatureCollection", "features": [
{"geometry": {"type": "Point", "coordinates": [-109.474081666, 34.9472755256]}, "type": "Feature", "properties": {"collection_times": [{"days": "Mon-Fri", "time": "2:00pm"}, {"days": "Sat", "time": "12:00pm"}, {"days": "Sun", "time": "Closed"}], "id": "8650200005", "name": "USPS COLLECTION BOX - PO LOBBY", "address": {"city": "CHAMBERS", "state": "AZ", "street": "800 HIGHWAY 191", "postcode": "86502"}}},
{"geometry": {"type": "Point", "coordinates": [-109.29883, 34.651535]}, "type": "Feature", "properties": {"collection_times": [{"days": "Mon-Fri", "time": "2:00pm"}, {"days": "Sat", "time": "12:00pm"}, {"days": "Sun", "time": "Closed"}], "id": "8650200008", "name": "USPS COLLECTION BOX - BLUE BOX", "address": {"city": "CHAMBERS", "state": "AZ", "street": "800 HIGHWAY 191", "postcode": "86502"}}},
{"geometry": {"type": "Point", "coordinates": [-109.5851898956, 36.1011859645]}, "type": "Feature", "properties": {"collection_times": [{"days": "Mon-Sat", "time": "1:00pm"}, {"days": "Sun", "time": "Closed"}], "id": "8650300003", "name": "USPS COLLECTION BOX - BLUE BOX", "address": {"city": "CHINLE", "state": "AZ", "street": "500 HIGHWAY 191", "postcode": "86503"}}},
{"geometry": {"type": "Point", "coordinates": [-109.5851898956, 36.1011859645]}, "type": "Feature", "properties": {"collection_times": [{"days": "Mon-Sat", "time": "1:00pm"}, {"days": "Sun", "time": "Closed"}], "id": "8650300004", "name": "USPS COLLECTION BOX - PO LOBBY", "address": {"city": "CHINLE", "state": "AZ", "street": "500 HIGHWAY 191", "postcode": "86503"}}},
{"geometry": {"type": "Point", "coordinates": [-109.0801491303, 35.7478282072]}, "type": "Feature", "properties": {"collection_times": [{"days": "Mon-Fri", "time": "2:45pm"}, {"days": "Sat", "time": "11:45am"}, {"days": "Sun", "time": "Closed"}], "id": "8650400001", "name": "USPS COLLECTION BOX - PO LOBBY", "address": {"city": "FORT DEFIANCE", "state": "AZ", "street": "400 STATE HIGHWAY 12", "postcode": "86504"}}},
{"geometry": {"type": "Point", "coordinates": [-109.0801491303, 35.7478282072]}, "type": "Feature", "properties": {"collection_times": [{"days": "Mon-Fri", "time": "2:45pm"}, {"days": "Sat", "time": "11:45am"}, {"days": "Sun", "time": "Closed"}], "id": "8650400003", "name": "USPS COLLECTION BOX - PO LOBBY", "address": {"city": "FORT DEFIANCE", "state": "AZ", "street": "400 STATE HIGHWAY 12", "postcode": "86504"}}},
{"geometry": {"type": "Point", "coordinates": [-109.0801491303, 35.7478282072]}, "type": "Feature", "properties": {"collection_times": [{"days": "Mon-Fri", "time": "2:45pm"}, {"days": "Sat", "time": "11:45am"}, {"days": "Sun", "time": "Closed"}], "id": "8650400004", "name": "USPS COLLECTION BOX - BLUE BOX", "address": {"city": "FORT DEFIANCE", "state": "AZ", "street": "400 STATE HIGHWAY 12", "postcode": "86504"}}},
{"geometry": {"type": "Point", "coordinates": [-109.0801491303, 35.7478282072]}, "type": "Feature", "properties": {"collection_times": [{"days": "Mon-Fri", "time": "2:45pm"}, {"days": "Sat", "time": "11:45am"}, {"days": "Sun", "time": "Closed"}], "id": "8650400005", "name": "USPS COLLECTION BOX - BLUE BOX", "address": {"city": "FORT DEFIANCE", "state": "AZ", "street": "400 STATE HIGHWAY 12", "postcode": "86504"}}},
{"geometry": {"type": "Point", "coordinates": [-109.5232621392, 35.5285144118]}, "type": "Feature", "properties": {"collection_times": [{"days": "Mon-Fri", "time": "2:00pm"}, {"days": "Sat", "time": "1:30pm"}, {"days": "Sun", "time": "Closed"}], "id": "8650500000", "name": "USPS COLLECTION BOX - BLUE BOX", "address": {"city": "GANADO", "state": "AZ", "street": "191 STATE HIGHWAY 264", "postcode": "86505"}}},
{"geometry": {"type": "Point", "coordinates": [-109.5232621392, 35.5285144118]}, "type": "Feature", "properties": {"collection_times": [{"days": "Mon-Fri", "time": "2:00pm"}, {"days": "Sat", "time": "1:30pm"}, {"days": "Sun", "time": "Closed"}], "id": "8650500001", "name": "USPS COLLECTION BOX - PO LOBBY", "address": {"city": "GANADO", "state": "AZ", "street": "191 STATE HIGHWAY 264", "postcode": "86505"}}},
{"geometry": {"type": "Point", "coordinates": [-109.5232621392, 35.5285144118]}, "type": "Feature", "properties": {"collection_times": [{"days": "Mon-Fri", "time": "2:00pm"}, {"days": "Sat", "time": "1:30pm"}, {"days": "Sun", "time": "Closed"}], "id": "8650500002", "name": "USPS COLLECTION BOX - PO LOBBY", "address": {"city": "GANADO", "state": "AZ", "street": "191 STATE HIGHWAY 264", "postcode": "86505"}}},
{"geometry": {"type": "Point", "coordinates": [-110.2206047351, 36.1991434079]}, "type": "Feature", "properties": {"collection_times": [{"days": "Mon-Sat", "time": "11:00am"}, {"days": "Sun", "time": "Closed"}], "id": "8651000000", "name": "USPS COLLECTION BOX - BLUE BOX", "address": {"city": "PINON", "state": "AZ", "street": "500 STATE ROAD 4", "postcode": "86510"}}},
{"geometry": {"type": "Point", "coordinates": [-110.2206047351, 36.1991434079]}, "type": "Feature", "properties": {"collection_times": [{"days": "Mon-Sat", "time": "11:00am"}, {"days": "Sun", "time": "Closed"}], "id": "8651000002", "name": "USPS COLLECTION BOX - PO LOBBY", "address": {"city": "PINON", "state": "AZ", "street": "500 STATE ROAD 4", "postcode": "86510"}}},
{"geometry": {"type": "Point", "coordinates": [-109.1002674461, 35.6551802373]}, "type": "Feature", "properties": {"collection_times": [{"days": "Mon-Fri", "time": "2:30pm"}, {"days": "Sat", "time": "12:00pm"}, {"days": "Sun", "time": "Closed"}], "id": "8651100000", "name": "USPS COLLECTION BOX - BLUE BOX", "address": {"city": "SAINT MICHAELS", "state": "AZ", "street": "343 HIGHWAY 264", "postcode": "86511"}}},
{"geometry": {"type": "Point", "coordinates": [-109.1002674461, 35.6551802373]}, "type": "Feature", "properties": {"collection_times": [{"days": "Mon-Fri", "time": "2:30pm"}, {"days": "Sat", "time": "12:00pm"}, {"days": "Sun", "time": "Closed"}], "id": "8651100001", "name": "USPS COLLECTION BOX - PO LOBBY", "address": {"city": "SAINT MICHAELS", "state": "AZ", "street": "343 HIGHWAY 264", "postcode": "86511"}}},
{"geometry": {"type": "Point", "coordinates": [-109.330997249, 35.2083532963]}, "type": "Feature", "properties": {"collection_times": [{"days": "Mon-Fri", "time": "1:45pm"}, {"days": "Sat", "time": "11:45am"}, {"days": "Sun", "time": "Closed"}], "id": "8651200000", "name": "USPS COLLECTION BOX - BLUE BOX", "address": {"city": "SANDERS", "state": "AZ", "street": "100 HIGHWAY 191 S", "postcode": "86512"}}},
{"geometry": {"type": "Point", "coordinates": [-109.330997249, 35.2083532963]}, "type": "Feature", "properties": {"collection_times": [{"days": "Mon-Fri", "time": "1:45pm"}, {"days": "Sat", "time": "11:45am"}, {"days": "Sun", "time": "Closed"}], "id": "8651200001", "name": "USPS COLLECTION BOX - PO LOBBY", "address": {"city": "SANDERS", "state": "AZ", "street": "100 HIGHWAY 191 S", "postcode": "86512"}}},
{"geometry": {"type": "Point", "coordinates": [-109.330997249, 35.2083532963]}, "type": "Feature", "properties": {"collection_times": [{"days": "Mon-Fri", "time": "1:45pm"}, {"days": "Sat", "time": "11:45am"}, {"days": "Sun", "time": "Closed"}], "id": "8651200002", "name": "USPS COLLECTION BOX - PO LOBBY", "address": {"city": "SANDERS", "state": "AZ", "street": "100 HIGHWAY 191 S", "postcode": "86512"}}},
{"geometry": {"type": "Point", "coordinates": [-109.4615389759, 36.8160795176]}, "type": "Feature", "properties": {"collection_times": [{"days": "Mon-Sat", "time": "10:00am"}, {"days": "Sun", "time": "Closed"}], "id": "8651400000", "name": "USPS COLLECTION BOX - BLUE BOX", "address": {"city": "TEEC NOS POS", "state": "AZ", "street": "100 STATE HIGHWAY 64 N", "postcode": "86514"}}},
{"geometry": {"type": "Point", "coordinates": [-109.4615389759, 36.8160795176]}, "type": "Feature", "properties": {"collection_times": [{"days": "Mon-Sat", "time": "10:00am"}, {"days": "Sun", "time": "Closed"}], "id": "8651400001", "name": "USPS COLLECTION BOX - PO LOBBY", "address": {"city": "TEEC NOS POS", "state": "AZ", "street": "100 STATE HIGHWAY 64 N", "postcode": "86514"}}},
{"geometry": {"type": "Point", "coordinates": [-109.06418, 35.62986]}, "type": "Feature", "properties": {"collection_times": [{"days": "Mon-Fri", "time": "3:00pm"}, {"days": "Sat", "time": "12:15pm"}, {"days": "Sun", "time": "Closed"}], "id": "8651500000", "name": "USPS COLLECTION BOX - BLUE BOX", "address": {"city": "WINDOW ROCK", "state": "AZ", "street": "264 WINDOW ROCK LOOP RD", "postcode": "86515"}}},
{"geometry": {"type": "Point", "coordinates": [-109.06418, 35.62986]}, "type": "Feature", "properties": {"collection_times": [{"days": "Mon-Fri", "time": "3:00pm"}, {"days": "Sat", "time": "12:15pm"}, {"days": "Sun", "time": "Closed"}], "id": "8651500001", "name": "USPS COLLECTION BOX - PO LOBBY", "address": {"city": "WINDOW ROCK", "state": "AZ", "street": "264 WINDOW ROCK LOOP RD", "postcode": "86515"}}},
{"geometry": {"type": "Point", "coordinates": [-109.06418, 35.62986]}, "type": "Feature", "properties": {"collection_times": [{"days": "Mon-Fri", "time": "3:00pm"}, {"days": "Sat", "time": "12:15pm"}, {"days": "Sun", "time": "Closed"}], "id": "8651500002", "name": "USPS COLLECTION BOX - BLUE BOX", "address": {"city": "WINDOW ROCK", "state": "AZ", "street": "264 WINDOW ROCK LOOP RD", "postcode": "86515"}}},
{"geometry": {"type": "Point", "coordinates": [-109.06418, 35.62986]}, "type": "Feature", "properties": {"collection_times": [{"days": "Mon-Fri", "time": "3:00pm"}, {"days": "Sat", "time": "12:15pm"}, {"days": "Sun", "time": "Closed"}], "id": "8651500003", "name": "USPS COLLECTION BOX - PO LOBBY", "address": {"city": "WINDOW ROCK", "state": "AZ", "street": "264 WINDOW ROCK LOOP RD", "postcode": "86515"}}}
]}
