{"type": "FeatureCollection", "features": [
{"geometry": {"type": "Point", "coordinates": [-64.974439998, 18.354299997]}, "type": "Feature", "properties": {"collection_times": [{"days": "Mon-Sat", "time": "8:30am"}, {"days": "Sun", "time": "Closed"}], "id": "0080200001", "name": "USPS COLLECTION BOX - BLUE BOX", "address": {"city": "ST THOMAS", "state": "VI", "street": "9005 HAVENSIGHT SHOPP CTR STE A", "postcode": "00802"}}},
{"geometry": {"type": "Point", "coordinates": [-64.974439998, 18.354299997]}, "type": "Feature", "properties": {"collection_times": [{"days": "Mon-Sat", "time": "8:15am"}, {"days": "Sun", "time": "Closed"}], "id": "0080200009", "name": "USPS COLLECTION BOX - BLUE BOX", "address": {"city": "ST THOMAS", "state": "VI", "street": "6500 RED HOOK PLZ", "postcode": "00802"}}},
{"geometry": {"type": "Point", "coordinates": [-64.974439998, 18.354299997]}, "type": "Feature", "properties": {"collection_times": [{"days": "Mon-Sat", "time": "8:15am"}, {"days": "Sun", "time": "Closed"}], "id": "0080200010", "name": "USPS COLLECTION BOX - BLUE BOX", "address": {"city": "ST THOMAS", "state": "VI", "street": "6500 RED HOOK PLZ", "postcode": "00802"}}},
{"geometry": {"type": "Point", "coordinates": [-64.8841477842, 18.3323584273]}, "type": "Feature", "properties": {"collection_times": [{"days": "Mon-Fri", "time": "3:00pm"}, {"days": "Sat", "time": "9:00am"}, {"days": "Sun", "time": "Closed"}], "id": "0080200021", "name": "USPS COLLECTION BOX - BLUE BOX", "address": {"city": "ST THOMAS", "state": "VI", "street": "3000 VETERANS DR", "postcode": "00802"}}},
{"geometry": {"type": "Point", "coordinates": [-64.9158476441, 18.3392725425]}, "type": "Feature", "properties": {"collection_times": [{"days": "Mon-Fri", "time": "3:00pm"}, {"days": "Sat", "time": "9:00am"}, {"days": "Sun", "time": "Closed"}], "id": "0080200022", "name": "USPS COLLECTION BOX - EXPRESS", "address": {"city": "ST THOMAS", "state": "VI", "street": "3000 VETERANS DR", "postcode": "00802"}}},
{"geometry": {"type": "Point", "coordinates": [-64.974439998, 18.354299997]}, "type": "Feature", "properties": {"collection_times": [{"days": "Mon-Fri", "time": "5:00pm"}, {"days": "Sat", "time": "1:00pm"}, {"days": "Sun", "time": "Closed"}], "id": "0080200025", "name": "USPS COLLECTION BOX - BLUE BOX", "address": {"city": "ST THOMAS", "state": "VI", "street": "9846 ESTATE THOMAS", "postcode": "00802"}}},
{"geometry": {"type": "Point", "coordinates": [-64.974439998, 18.354299997]}, "type": "Feature", "properties": {"collection_times": [{"days": "Mon-Fri", "time": "5:00pm"}, {"days": "Sat", "time": "1:00pm"}, {"days": "Sun", "time": "Closed"}], "id": "0080200026", "name": "USPS COLLECTION BOX - BLUE BOX", "address": {"city": "ST THOMAS", "state": "VI", "street": "9846 ESTATE THOMAS", "postcode": "00802"}}},
{"geometry": {"type": "Point", "coordinates": [-64.974439998, 18.354299997]}, "type": "Feature", "properties": {"collection_times": [{"days": "Mon-Fri", "time": "5:00pm"}, {"days": "Sat", "time": "1:00pm"}, {"days": "Sun", "time": "Closed"}], "id": "0080200027", "name": "USPS COLLECTION BOX - BLUE BOX", "address": {"city": "ST THOMAS", "state": "VI", "street": "9846 ESTATE THOMAS", "postcode": "00802"}}},
{"geometry": {"type": "Point", "coordinates": [-64.974439998, 18.354299997]}, "type": "Feature", "properties": {"collection_times": [{"days": "Mon-Fri", "time": "5:00pm"}, {"days": "Sat", "time": "1:00pm"}, {"days": "Sun", "time": "Closed"}], "id": "0080200028", "name": "USPS COLLECTION BOX - BLUE BOX", "address": {"city": "ST THOMAS", "state": "VI", "street": "9846 ESTATE THOMAS", "postcode": "00802"}}},
{"geometry": {"type": "Point", "coordinates": [-64.8841477842, 18.3323584273]}, "type": "Feature", "properties": {"collection_times": [{"days": "Mon-Sat", "time": "9:15am"}, {"days": "Sun", "time": "Closed"}], "id": "0080200033", "name": "USPS COLLECTION BOX - BLUE BOX", "address": {"city": "ST THOMAS", "state": "VI", "street": "8100 LINDBERG BAY", "postcode": "00802"}}},
{"geometry": {"type": "Point", "coordinates": [-64.8841477842, 18.3323584273]}, "type": "Feature", "properties": {"collection_times": [{"days": "Mon-Sat", "time": "9:15am"}, {"days": "Sun", "time": "Closed"}], "id": "0080200034", "name": "USPS COLLECTION BOX - BLUE BOX", "address": {"city": "ST THOMAS", "state": "VI", "street": "8100 LINDBERG BAY", "postcode": "00802"}}},
{"geometry": {"type": "Point", "coordinates": [-64.9158476441, 18.3392725425]}, "type": "Feature", "properties": {"collection_times": [{"days": "Mon-Sat", "time": "8:00am"}, {"days": "Sun", "time": "Closed"}], "id": "0080200035", "name": "USPS COLLECTION BOX - BLUE BOX", "address": {"city": "ST THOMAS", "state": "VI", "street": "4500 FORT MYLNER STE 8", "postcode": "00802"}}},
{"geometry": {"type": "Point", "coordinates": [-64.9158476441, 18.3392725425]}, "type": "Feature", "properties": {"collection_times": [{"days": "Mon-Sat", "time": "8:00am"}, {"days": "Sun", "time": "Closed"}], "id": "0080200036", "name": "USPS COLLECTION BOX - BLUE BOX", "address": {"city": "ST THOMAS", "state": "VI", "street": "4500 FORT MYLNER STE 8", "postcode": "00802"}}},
{"geometry": {"type": "Point", "coordinates": [-64.974439998, 18.354299997]}, "type": "Feature", "properties": {"collection_times": [{"days": "Mon-Sat", "time": "8:00am"}, {"days": "Sun", "time": "Closed"}], "id": "0080200037", "name": "USPS COLLECTION BOX - BLUE BOX", "address": {"city": "ST THOMAS", "state": "VI", "street": "9848 ESTATE THOMAS", "postcode": "00802"}}},
{"geometry": {"type": "Point", "coordinates": [-64.974439998, 18.354299997]}, "type": "Feature", "properties": {"collection_times": [{"days": "Mon-Sat", "time": "8:00am"}, {"days": "Sun", "time": "Closed"}], "id": "0080200038", "name": "USPS COLLECTION BOX - BLUE BOX", "address": {"city": "ST THOMAS", "state": "VI", "street": "9848 ESTATE THOMAS", "postcode": "00802"}}},
{"geometry": {"type": "Point", "coordinates": [-64.928336705, 18.341520304]}, "type": "Feature", "properties": {"collection_times": [{"days": "Mon-Fri", "time": "3:00pm"}, {"days": "Sat", "time": "8:45am"}, {"days": "Sun", "time": "Closed"}], "id": "0080200047", "name": "USPS COLLECTION BOX - BLUE BOX", "address": {"city": "ST THOMAS", "state": "VI", "street": "5046 NORRE GADE", "postcode": "00802"}}},
{"geometry": {"type": "Point", "coordinates": [-64.928336705, 18.341520304]}, "type": "Feature", "properties": {"collection_times": [{"days": "Mon-Fri", "time": "3:00pm"}, {"days": "Sat", "time": "8:45am"}, {"days": "Sun", "time": "Closed"}], "id": "0080200048", "name": "USPS COLLECTION BOX - BLUE BOX", "address": {"city": "ST THOMAS", "state": "VI", "street": "5046 NORRE GADE", "postcode": "00802"}}},
{"geometry": {"type": "Point", "coordinates": [-64.928336705, 18.341520304]}, "type": "Feature", "properties": {"collection_times": [{"days": "Mon-Fri", "time": "3:00pm"}, {"days": "Sat", "time": "8:45am"}, {"days": "Sun", "time": "Closed"}], "id": "0080200049", "name": "USPS COLLECTION BOX - BLUE BOX", "address": {"city": "ST THOMAS", "state": "VI", "street": "5046 NORRE GADE", "postcode": "00802"}}},
{"geometry": {"type": "Point", "coordinates": [-64.974439998, 18.354299997]}, "type": "Feature", "properties": {"collection_times": [{"days": "Mon-Fri", "time": "3:00pm"}, {"days": "Sat", "time": "8:15am"}, {"days": "Sun", "time": "Closed"}], "id": "0080200058", "name": "USPS COLLECTION BOX - BLUE BOX", "address": {"city": "ST THOMAS", "state": "VI", "street": "4605 TUTU PARK MALL STE 179", "postcode": "00802"}}},
{"geometry": {"type": "Point", "coordinates": [-64.974439998, 18.354299997]}, "type": "Feature", "properties": {"collection_times": [{"days": "Mon-Fri", "time": "3:00pm"}, {"days": "Sat", "time": "8:15am"}, {"days": "Sun", "time": "Closed"}], "id": "0080200059", "name": "USPS COLLECTION BOX - BLUE BOX", "address": {"city": "ST THOMAS", "state": "VI", "street": "4605 TUTU PARK MALL STE 179", "postcode": "00802"}}},
{"geometry": {"type": "Point", "coordinates": [-64.9158476441, 18.3392725425]}, "type": "Feature", "properties": {"collection_times": [{"days": "Mon-Sat", "time": "9:15am"}, {"days": "Sun", "time": "Closed"}], "id": "0080200060", "name": "USPS COLLECTION BOX - BLUE BOX", "address": {"city": "ST THOMAS", "state": "VI", "street": "8000 NISKY SHOPPING CTR STE 35", "postcode": "00802"}}},
{"geometry": {"type": "Point", "coordinates": [-64.9158476441, 18.3392725425]}, "type": "Feature", "properties": {"collection_times": [{"days": "Mon-Sat", "time": "9:15am"}, {"days": "Sun", "time": "Closed"}], "id": "0080200061", "name": "USPS COLLECTION BOX - BLUE BOX", "address": {"city": "ST THOMAS", "state": "VI", "street": "8000 NISKY SHOPPING CTR STE 35", "postcode": "00802"}}},
{"geometry": {"type": "Point", "coordinates": [-64.974439998, 18.354299997]}, "type": "Feature", "properties": {"collection_times": [{"days": "Mon-Fri", "time": "3:00pm"}, {"days": "Sat", "time": "8:30am"}, {"days": "Sun", "time": "Closed"}], "id": "0080200064", "name": "USPS COLLECTION BOX - BLUE BOX", "address": {"city": "ST THOMAS", "state": "VI", "street": "9007 HAVENSIGHT SHOPP CTR STE D", "postcode": "00802"}}},
{"geometry": {"type": "Point", "coordinates": [-64.974439998, 18.354299997]}, "type": "Feature", "properties": {"collection_times": [{"days": "Mon-Fri", "time": "3:00pm"}, {"days": "Sat", "time": "8:30am"}, {"days": "Sun", "time": "Closed"}], "id": "0080200065", "name": "USPS COLLECTION BOX - BLUE BOX", "address": {"city": "ST THOMAS", "state": "VI", "street": "9007 HAVENSIGHT SHOPP CTR STE D", "postcode": "00802"}}},
{"geometry": {"type": "Point", "coordinates": [-64.974439998, 18.354299997]}, "type": "Feature", "properties": {"collection_times": [{"days": "Mon-Fri", "time": "3:00pm"}, {"days": "Sat", "time": "8:30am"}, {"days": "Sun", "time": "Closed"}], "id": "0080200066", "name": "USPS COLLECTION BOX - EXPRESS", "address": {"city": "ST THOMAS", "state": "VI", "street": "9007 HAVENSIGHT SHOPP CTR STE D", "postcode": "00802"}}},
{"geometry": {"type": "Point", "coordinates": [-64.974439998, 18.354299997]}, "type": "Feature", "properties": {"collection_times": [{"days": "Mon-Fri", "time": "3:00pm"}, {"days": "Sat", "time": "8:15am"}, {"days": "Sun", "time": "Closed"}], "id": "0080200068", "name": "USPS COLLECTION BOX - PO LOBBY", "address": {"city": "ST THOMAS", "state": "VI", "street": "4605 TUTU PARK MALL STE 179", "postcode": "00802"}}},
{"geometry": {"type": "Point", "coordinates": [-64.974439998, 18.354299997]}, "type": "Feature", "properties": {"collection_times": [{"days": "Mon-Fri", "time": "3:00pm"}, {"days": "Sat", "time": "8:30am"}, {"days": "Sun", "time": "Closed"}], "id": "0080200069", "name": "USPS COLLECTION BOX - PO LOBBY", "address": {"city": "ST THOMAS", "state": "VI", "street": "9007 HAVENSIGHT SHOPP CTR STE D", "postcode": "00802"}}},
{"geometry": {"type": "Point", "coordinates": [-64.928336705, 18.341520304]}, "type": "Feature", "properties": {"collection_times": [{"days": "Mon-Fri", "time": "3:00pm"}, {"days": "Sat", "time": "8:45am"}, {"days": "Sun", "time": "Closed"}], "id": "0080200070", "name": "USPS COLLECTION BOX - PO LOBBY", "address": {"city": "ST THOMAS", "state": "VI", "street": "5046 NORRE GADE", "postcode": "00802"}}},
{"geometry": {"type": "Point", "coordinates": [-64.974439998, 18.354299997]}, "type": "Feature", "properties": {"collection_times": [{"days": "Mon-Fri", "time": "5:00pm"}, {"days": "Sat", "time": "1:00pm"}, {"days": "Sun", "time": "Closed"}], "id": "0080200071", "name": "USPS COLLECTION BOX - PO LOBBY", "address": {"city": "ST THOMAS", "state": "VI", "street": "9846 ESTATE THOMAS", "postcode": "00802"}}},
{"geometry": {"type": "Point", "coordinates": [-64.8841477842, 18.3323584273]}, "type": "Feature", "properties": {"collection_times": [{"days": "Mon-Fri", "time": "3:00pm"}, {"days": "Sat", "time": "9:00am"}, {"days": "Sun", "time": "Closed"}], "id": "0080200072", "name": "USPS COLLECTION BOX - PO LOBBY", "address": {"city": "ST THOMAS", "state": "VI", "street": "3000 VETERANS DR", "postcode": "00802"}}},
{"geometry": {"type": "Point", "coordinates": [-64.704180004, 17.746720008]}, "type": "Feature", "properties": {"collection_times": [{"days": "Mon-Fri", "time": "3:00pm"}, {"days": "Sat", "time": "8:00am"}, {"days": "Sun", "time": "Closed"}], "id": "0082000003", "name": "USPS COLLECTION BOX - BLUE BOX", "address": {"city": "CHRISTIANSTED", "state": "VI", "street": "2119 MARKET SQ", "postcode": "00820"}}},
{"geometry": {"type": "Point", "coordinates": [-64.7323596382, 17.7340530715]}, "type": "Feature", "properties": {"collection_times": [{"days": "Mon-Fri", "time": "3:00pm"}, {"days": "Sat", "time": "8:00am"}, {"days": "Sun", "time": "Closed"}], "id": "0082000005", "name": "USPS COLLECTION BOX - BLUE BOX", "address": {"city": "CHRISTIANSTED", "state": "VI", "street": "1104 ESTATE RICHMOND", "postcode": "00820"}}},
{"geometry": {"type": "Point", "coordinates": [-64.732359638, 17.7340530719]}, "type": "Feature", "properties": {"collection_times": [{"days": "Mon-Fri", "time": "3:00pm"}, {"days": "Sat", "time": "8:30am"}, {"days": "Sun", "time": "Closed"}], "id": "0082000006", "name": "USPS COLLECTION BOX - BLUE BOX", "address": {"city": "CHRISTIANSTED", "state": "VI", "street": "5027 ANCHOR WAY", "postcode": "00820"}}},
{"geometry": {"type": "Point", "coordinates": [-64.732359638, 17.7340530719]}, "type": "Feature", "properties": {"collection_times": [{"days": "Mon-Fri", "time": "3:00pm"}, {"days": "Sat", "time": "8:30am"}, {"days": "Sun", "time": "Closed"}], "id": "0082000007", "name": "USPS COLLECTION BOX - BLUE BOX", "address": {"city": "CHRISTIANSTED", "state": "VI", "street": "5027 ANCHOR WAY", "postcode": "00820"}}},
{"geometry": {"type": "Point", "coordinates": [-64.7323596382, 17.7340530715]}, "type": "Feature", "properties": {"collection_times": [{"days": "Mon-Sat", "time": "8:00am"}, {"days": "Sun", "time": "Closed"}], "id": "0082000009", "name": "USPS COLLECTION BOX - BLUE BOX", "address": {"city": "CHRISTIANSTED", "state": "VI", "street": "1138 KING ST", "postcode": "00820"}}},
{"geometry": {"type": "Point", "coordinates": [-64.7323596382, 17.7340530715]}, "type": "Feature", "properties": {"collection_times": [{"days": "Mon-Sat", "time": "8:00am"}, {"days": "Sun", "time": "Closed"}], "id": "0082000010", "name": "USPS COLLECTION BOX - BLUE BOX", "address": {"city": "CHRISTIANSTED", "state": "VI", "street": "1138 KING ST", "postcode": "00820"}}},
{"geometry": {"type": "Point", "coordinates": [-64.7323596382, 17.7340530715]}, "type": "Feature", "properties": {"collection_times": [{"days": "Mon-Sat", "time": "8:15am"}, {"days": "Sun", "time": "Closed"}], "id": "0082000011", "name": "USPS COLLECTION BOX - BLUE BOX", "address": {"city": "CHRISTIANSTED", "state": "VI", "street": "1114 KING ST", "postcode": "00820"}}},
{"geometry": {"type": "Point", "coordinates": [-64.7323596382, 17.7340530715]}, "type": "Feature", "properties": {"collection_times": [{"days": "Mon-Sat", "time": "8:15am"}, {"days": "Sun", "time": "Closed"}], "id": "0082000012", "name": "USPS COLLECTION BOX - BLUE BOX", "address": {"city": "CHRISTIANSTED", "state": "VI", "street": "1114 KING ST", "postcode": "00820"}}},
{"geometry": {"type": "Point", "coordinates": [-64.7323596382, 17.7340530715]}, "type": "Feature", "properties": {"collection_times": [{"days": "Mon-Sat", "time": "8:15am"}, {"days": "Sun", "time": "Closed"}], "id": "0082000013", "name": "USPS COLLECTION BOX - BLUE BOX", "address": {"city": "CHRISTIANSTED", "state": "VI", "street": "1104 STRAND ST", "postcode": "00820"}}},
{"geometry": {"type": "Point", "coordinates": [-64.7323596382, 17.7340530715]}, "type": "Feature", "properties": {"collection_times": [{"days": "Mon-Sat", "time": "8:15am"}, {"days": "Sun", "time": "Closed"}], "id": "0082000015", "name": "USPS COLLECTION BOX - BLUE BOX", "address": {"city": "CHRISTIANSTED", "state": "VI", "street": "1104 STRAND ST", "postcode": "00820"}}},
{"geometry": {"type": "Point", "coordinates": [-64.704180004, 17.746720008]}, "type": "Feature", "properties": {"collection_times": [{"days": "Mon-Fri", "time": "3:00pm"}, {"days": "Sat", "time": "8:30am"}, {"days": "Sun", "time": "Closed"}], "id": "0082000016", "name": "USPS COLLECTION BOX - BLUE BOX", "address": {"city": "CHRISTIANSTED", "state": "VI", "street": "2119 MARKET SQ", "postcode": "00820"}}},
{"geometry": {"type": "Point", "coordinates": [-64.7323596382, 17.7340530715]}, "type": "Feature", "properties": {"collection_times": [{"days": "Mon-Sat", "time": "8:45am"}, {"days": "Sun", "time": "Closed"}], "id": "0082000018", "name": "USPS COLLECTION BOX - BLUE BOX", "address": {"city": "CHRISTIANSTED", "state": "VI", "street": "3000 ESTATE ORANGE GRV", "postcode": "00820"}}},
{"geometry": {"type": "Point", "coordinates": [-64.7323596382, 17.7340530715]}, "type": "Feature", "properties": {"collection_times": [{"days": "Mon-Sat", "time": "8:45am"}, {"days": "Sun", "time": "Closed"}], "id": "0082000019", "name": "USPS COLLECTION BOX - BLUE BOX", "address": {"city": "CHRISTIANSTED", "state": "VI", "street": "3000 ESTATE ORANGE GRV", "postcode": "00820"}}},
{"geometry": {"type": "Point", "coordinates": [-64.7323596382, 17.7340530715]}, "type": "Feature", "properties": {"collection_times": [{"days": "Mon-Sat", "time": "9:15am"}, {"days": "Sun", "time": "Closed"}], "id": "0082000022", "name": "USPS COLLECTION BOX - BLUE BOX", "address": {"city": "CHRISTIANSTED", "state": "VI", "street": "4500 SUNNY ISLE", "postcode": "00820"}}},
{"geometry": {"type": "Point", "coordinates": [-64.7323596382, 17.7340530715]}, "type": "Feature", "properties": {"collection_times": [{"days": "Mon-Sat", "time": "9:15am"}, {"days": "Sun", "time": "Closed"}], "id": "0082000023", "name": "USPS COLLECTION BOX - BLUE BOX", "address": {"city": "CHRISTIANSTED", "state": "VI", "street": "4500 SUNNY ISLE", "postcode": "00820"}}},
{"geometry": {"type": "Point", "coordinates": [-64.7323596382, 17.7340530715]}, "type": "Feature", "properties": {"collection_times": [{"days": "Mon-Sat", "time": "9:15am"}, {"days": "Sun", "time": "Closed"}], "id": "0082000024", "name": "USPS COLLECTION BOX - BLUE BOX", "address": {"city": "CHRISTIANSTED", "state": "VI", "street": "4500 SUNNY ISLE", "postcode": "00820"}}},
{"geometry": {"type": "Point", "coordinates": [-64.7323596382, 17.7340530715]}, "type": "Feature", "properties": {"collection_times": [{"days": "Mon-Sat", "time": "9:15am"}, {"days": "Sun", "time": "Closed"}], "id": "0082000025", "name": "USPS COLLECTION BOX - BLUE BOX", "address": {"city": "CHRISTIANSTED", "state": "VI", "street": "4500 SUNNY ISLE", "postcode": "00820"}}},
{"geometry": {"type": "Point", "coordinates": [-64.7323596382, 17.7340530715]}, "type": "Feature", "properties": {"collection_times": [{"days": "Mon-Sat", "time": "9:30am"}, {"days": "Sun", "time": "Closed"}], "id": "0082000026", "name": "USPS COLLECTION BOX - BLUE BOX", "address": {"city": "CHRISTIANSTED", "state": "VI", "street": "4007 ESTATE DIAMOND RUBY", "postcode": "00820"}}},
{"geometry": {"type": "Point", "coordinates": [-64.7323596382, 17.7340530715]}, "type": "Feature", "properties": {"collection_times": [{"days": "Mon-Sat", "time": "9:00am"}, {"days": "Sun", "time": "Closed"}], "id": "0082000031", "name": "USPS COLLECTION BOX - BLUE BOX", "address": {"city": "CHRISTIANSTED", "state": "VI", "street": "4200 UNITED SHOPP PLZ", "postcode": "00820"}}},
{"geometry": {"type": "Point", "coordinates": [-64.7323596382, 17.7340530715]}, "type": "Feature", "properties": {"collection_times": [{"days": "Mon-Sat", "time": "9:00am"}, {"days": "Sun", "time": "Closed"}], "id": "0082000032", "name": "USPS COLLECTION BOX - BLUE BOX", "address": {"city": "CHRISTIANSTED", "state": "VI", "street": "4200 UNITED SHOPP PLZ", "postcode": "00820"}}},
{"geometry": {"type": "Point", "coordinates": [-64.7323596382, 17.7340530715]}, "type": "Feature", "properties": {"collection_times": [{"days": "Mon-Fri", "time": "3:00pm"}, {"days": "Sat", "time": "8:00am"}, {"days": "Sun", "time": "Closed"}], "id": "0082000039", "name": "USPS COLLECTION BOX - BLUE BOX", "address": {"city": "CHRISTIANSTED", "state": "VI", "street": "1104 ESTATE RICHMOND", "postcode": "00820"}}},
{"geometry": {"type": "Point", "coordinates": [-64.7323596382, 17.7340530715]}, "type": "Feature", "properties": {"collection_times": [{"days": "Mon-Fri", "time": "3:00pm"}, {"days": "Sat", "time": "8:00am"}, {"days": "Sun", "time": "Closed"}], "id": "0082000040", "name": "USPS COLLECTION BOX - PO LOBBY", "address": {"city": "CHRISTIANSTED", "state": "VI", "street": "1104 ESTATE RICHMOND", "postcode": "00820"}}},
{"geometry": {"type": "Point", "coordinates": [-64.732359638, 17.7340530719]}, "type": "Feature", "properties": {"collection_times": [{"days": "Mon-Fri", "time": "3:00pm"}, {"days": "Sat-Sun", "time": "Closed"}], "id": "0082000041", "name": "USPS COLLECTION BOX - PO LOBBY", "address": {"city": "CHRISTIANSTED", "state": "VI", "street": "5027 ANCHOR WAY", "postcode": "00820"}}},
{"geometry": {"type": "Point", "coordinates": [-64.704180004, 17.746720008]}, "type": "Feature", "properties": {"collection_times": [{"days": "Mon-Fri", "time": "3:00pm"}, {"days": "Sat-Sun", "time": "Closed"}], "id": "0082000042", "name": "USPS COLLECTION BOX - PO LOBBY", "address": {"city": "CHRISTIANSTED", "state": "VI", "street": "2119 MARKET SQ", "postcode": "00820"}}},
{"geometry": {"type": "Point", "coordinates": [-64.7323596382, 17.7340530715]}, "type": "Feature", "properties": {"collection_times": [{"days": "Mon-Fri", "time": "3:00pm"}, {"days": "Sat", "time": "9:15am"}, {"days": "Sun", "time": "Closed"}], "id": "0082000043", "name": "USPS COLLECTION BOX - PO LOBBY", "address": {"city": "CHRISTIANSTED", "state": "VI", "street": "4500 SUNNY ISLE STE 53", "postcode": "00820"}}},
{"geometry": {"type": "Point", "coordinates": [-64.7371675747, 18.3384564366]}, "type": "Feature", "properties": {"collection_times": [{"days": "Mon-Fri", "time": "3:00pm"}, {"days": "Sat", "time": "8:00am"}, {"days": "Sun", "time": "Closed"}], "id": "0083000002", "name": "USPS COLLECTION BOX - BLUE BOX", "address": {"city": "ST JOHN", "state": "VI", "street": "100 VESTER GADE", "postcode": "00830"}}},
{"geometry": {"type": "Point", "coordinates": [-64.7379457389, 18.3387033467]}, "type": "Feature", "properties": {"collection_times": [{"days": "Mon-Fri", "time": "3:00pm"}, {"days": "Sat", "time": "8:00am"}, {"days": "Sun", "time": "Closed"}], "id": "0083000003", "name": "USPS COLLECTION BOX - EXPRESS", "address": {"city": "ST JOHN", "state": "VI", "street": "100 VESTER GADE", "postcode": "00830"}}},
{"geometry": {"type": "Point", "coordinates": [-64.7371675747, 18.3384564366]}, "type": "Feature", "properties": {"collection_times": [{"days": "Mon-Fri", "time": "3:00pm"}, {"days": "Sat", "time": "8:00am"}, {"days": "Sun", "time": "Closed"}], "id": "0083000004", "name": "USPS COLLECTION BOX - PO LOBBY", "address": {"city": "ST JOHN", "state": "VI", "street": "100 VESTER GADE", "postcode": "00830"}}},
{"geometry": {"type": "Point", "coordinates": [-64.8835631783, 17.7145109612]}, "type": "Feature", "properties": {"collection_times": [{"days": "Mon-Sat", "time": "8:00am"}, {"days": "Sun", "time": "Closed"}], "id": "0084000002", "name": "USPS COLLECTION BOX - BLUE BOX", "address": {"city": "FREDERIKSTED", "state": "VI", "street": "228 STRAND ST", "postcode": "00840"}}},
{"geometry": {"type": "Point", "coordinates": [-64.8792062127, 17.7095900004]}, "type": "Feature", "properties": {"collection_times": [{"days": "Mon-Fri", "time": "3:00pm"}, {"days": "Sat", "time": "8:15am"}, {"days": "Sun", "time": "Closed"}], "id": "0084000004", "name": "USPS COLLECTION BOX - BLUE BOX", "address": {"city": "FREDERIKSTED", "state": "VI", "street": "1 MARS HL", "postcode": "00840"}}},
{"geometry": {"type": "Point", "coordinates": [-64.8792062127, 17.7095900004]}, "type": "Feature", "properties": {"collection_times": [{"days": "Mon-Fri", "time": "3:00pm"}, {"days": "Sat", "time": "8:15am"}, {"days": "Sun", "time": "Closed"}], "id": "0084000009", "name": "USPS COLLECTION BOX - BLUE BOX", "address": {"city": "FREDERIKSTED", "state": "VI", "street": "1 MARS HL", "postcode": "00840"}}},
{"geometry": {"type": "Point", "coordinates": [-64.8835631783, 17.7145109612]}, "type": "Feature", "properties": {"collection_times": [{"days": "Mon-Sat", "time": "8:00am"}, {"days": "Sun", "time": "Closed"}], "id": "0084000010", "name": "USPS COLLECTION BOX - BLUE BOX", "address": {"city": "FREDERIKSTED", "state": "VI", "street": "228 STRAND ST", "postcode": "00840"}}},
{"geometry": {"type": "Point", "coordinates": [-64.841126414, 17.7292025114]}, "type": "Feature", "properties": {"collection_times": [{"days": "Mon-Sat", "time": "8:00am"}, {"days": "Sun", "time": "Closed"}], "id": "0084000016", "name": "USPS COLLECTION BOX - BLUE BOX", "address": {"city": "FREDERIKSTED", "state": "VI", "street": "1 ESTATE CANE", "postcode": "00840"}}},
{"geometry": {"type": "Point", "coordinates": [-64.841126414, 17.7292025114]}, "type": "Feature", "properties": {"collection_times": [{"days": "Mon-Sat", "time": "8:00am"}, {"days": "Sun", "time": "Closed"}], "id": "0084000019", "name": "USPS COLLECTION BOX - BLUE BOX", "address": {"city": "FREDERIKSTED", "state": "VI", "street": "1 ESTATE CANE", "postcode": "00840"}}},
{"geometry": {"type": "Point", "coordinates": [-64.8792062127, 17.7095900004]}, "type": "Feature", "properties": {"collection_times": [{"days": "Mon-Fri", "time": "3:00pm"}, {"days": "Sat", "time": "8:15am"}, {"days": "Sun", "time": "Closed"}], "id": "0084000020", "name": "USPS COLLECTION BOX - PO LOBBY", "address": {"city": "FREDERIKSTED", "state": "VI", "street": "1 MARS HL", "postcode": "00840"}}},
{"geometry": {"type": "Point", "coordinates": [-64.784070008, 17.725300001]}, "type": "Feature", "properties": {"collection_times": [{"days": "Mon-Fri", "time": "3:00pm"}, {"days": "Sat", "time": "8:15am"}, {"days": "Sun", "time": "Closed"}], "id": "0085000001", "name": "USPS COLLECTION BOX - BLUE BOX", "address": {"city": "KINGSHILL", "state": "VI", "street": "RR 1 BOX 9914", "postcode": "00850"}}},
{"geometry": {"type": "Point", "coordinates": [-64.7926189431, 17.7339524462]}, "type": "Feature", "properties": {"collection_times": [{"days": "Mon-Fri", "time": "5:00pm"}, {"days": "Sat", "time": "1:00pm"}, {"days": "Sun", "time": "Closed"}], "id": "0085000004", "name": "USPS COLLECTION BOX - BLUE BOX", "address": {"city": "KINGSHILL", "state": "VI", "street": "2 EST LA REINE", "postcode": "00850"}}},
{"geometry": {"type": "Point", "coordinates": [-64.784070008, 17.725300001]}, "type": "Feature", "properties": {"collection_times": [{"days": "Mon-Fri", "time": "3:00pm"}, {"days": "Sat", "time": "8:15am"}, {"days": "Sun", "time": "Closed"}], "id": "0085000008", "name": "USPS COLLECTION BOX - BLUE BOX", "address": {"city": "KINGSHILL", "state": "VI", "street": "RR 1 BOX 9914", "postcode": "00850"}}},
{"geometry": {"type": "Point", "coordinates": [-64.7926189431, 17.7339524462]}, "type": "Feature", "properties": {"collection_times": [{"days": "Mon-Fri", "time": "5:00pm"}, {"days": "Sat", "time": "1:00pm"}, {"days": "Sun", "time": "Closed"}], "id": "0085000010", "name": "USPS COLLECTION BOX - PO LOBBY", "address": {"city": "KINGSHILL", "state": "VI", "street": "2 EST LA REINE", "postcode": "00850"}}}
]}
