{"type": "FeatureCollection", "features": [
{"geometry": {"type": "Point", "coordinates": [-76.9020787659, 38.6161022333]}, "type": "Feature", "properties": {"collection_times": [{"days": "Mon-Fri", "time": "5:00pm"}, {"days": "Sat", "time": "3:00pm"}, {"days": "Sun", "time": "Closed"}], "id": "2060100001", "name": "USPS COLLECTION BOX - BLUE BOX", "address": {"city": "WALDORF", "state": "MD", "street": "150 POST OFFICE RD", "postcode": "20601"}}},
{"geometry": {"type": "Point", "coordinates": [-76.8516785274, 38.614122733]}, "type": "Feature", "properties": {"collection_times": [{"days": "Mon-Fri", "time": "4:00pm"}, {"days": "Sat", "time": "3:00pm"}, {"days": "Sun", "time": "Closed"}], "id": "2060100005", "name": "USPS COLLECTION BOX - BLUE BOX", "address": {"city": "WALDORF", "state": "MD", "street": "12570 MATTAWOMAN BEANTOWN RD", "postcode": "20601"}}},
{"geometry": {"type": "Point", "coordinates": [-76.8778150945, 38.656268422]}, "type": "Feature", "properties": {"collection_times": [{"days": "Mon-Fri", "time": "4:00pm"}, {"days": "Sat", "time": "3:00pm"}, {"days": "Sun", "time": "Closed"}], "id": "2060100007", "name": "USPS COLLECTION BOX - BLUE BOX", "address": {"city": "WALDORF", "state": "MD", "street": "12480 MATTAWOMAN DR", "postcode": "20601"}}},
{"geometry": {"type": "Point", "coordinates": [-76.8863222295, 38.6489448107]}, "type": "Feature", "properties": {"collection_times": [{"days": "Mon-Fri", "time": "4:00pm"}, {"days": "Sat", "time": "3:00pm"}, {"days": "Sun", "time": "Closed"}], "id": "2060100014", "name": "USPS COLLECTION BOX - BLUE BOX", "address": {"city": "WALDORF", "state": "MD", "street": "2255 CRAIN HWY", "postcode": "20601"}}},
{"geometry": {"type": "Point", "coordinates": [-76.8516785274, 38.614122733]}, "type": "Feature", "properties": {"collection_times": [{"days": "Mon-Fri", "time": "4:00pm"}, {"days": "Sat", "time": "3:00pm"}, {"days": "Sun", "time": "Closed"}], "id": "2060100015", "name": "USPS COLLECTION BOX - BLUE BOX", "address": {"city": "WALDORF", "state": "MD", "street": "2 BUSINESS PARK DR", "postcode": "20601"}}},
{"geometry": {"type": "Point", "coordinates": [-76.8516785274, 38.614122733]}, "type": "Feature", "properties": {"collection_times": [{"days": "Mon-Fri", "time": "4:00pm"}, {"days": "Sat", "time": "3:00pm"}, {"days": "Sun", "time": "Closed"}], "id": "2060100020", "name": "USPS COLLECTION BOX - BLUE BOX", "address": {"city": "WALDORF", "state": "MD", "street": "2987 A FESTIVAL WAY", "postcode": "20601"}}},
{"geometry": {"type": "Point", "coordinates": [-76.880959477, 38.651449046]}, "type": "Feature", "properties": {"collection_times": [{"days": "Mon-Fri", "time": "4:00pm"}, {"days": "Sat", "time": "3:00pm"}, {"days": "Sun", "time": "Closed"}], "id": "2060100021", "name": "USPS COLLECTION BOX - BLUE BOX", "address": {"city": "WALDORF", "state": "MD", "street": "2170 OLD WASHINGTON RD", "postcode": "20601"}}},
{"geometry": {"type": "Point", "coordinates": [-76.8937223437, 38.6181250931]}, "type": "Feature", "properties": {"collection_times": [{"days": "Mon-Fri", "time": "4:00pm"}, {"days": "Sat", "time": "3:00pm"}, {"days": "Sun", "time": "Closed"}], "id": "2060100022", "name": "USPS COLLECTION BOX - BLUE BOX", "address": {"city": "WALDORF", "state": "MD", "street": "3600 LEONARDTOWN RD", "postcode": "20601"}}},
{"geometry": {"type": "Point", "coordinates": [-76.8516785274, 38.614122733]}, "type": "Feature", "properties": {"collection_times": [{"days": "Mon-Fri", "time": "4:00pm"}, {"days": "Sat", "time": "3:00pm"}, {"days": "Sun", "time": "Closed"}], "id": "2060100023", "name": "USPS COLLECTION BOX - BLUE BOX", "address": {"city": "WALDORF", "state": "MD", "street": "10 ST PATRICK DR", "postcode": "20601"}}},
{"geometry": {"type": "Point", "coordinates": [-76.9020787659, 38.6161022333]}, "type": "Feature", "properties": {"collection_times": [{"days": "Mon-Fri", "time": "5:00pm"}, {"days": "Sat", "time": "12:00pm"}, {"days": "Sun", "time": "Closed"}], "id": "2060100025", "name": "USPS COLLECTION BOX - APC", "address": {"city": "WALDORF", "state": "MD", "street": "150 POST OFFICE RD", "postcode": "20601"}}},
{"geometry": {"type": "Point", "coordinates": [-76.9020787659, 38.6161022333]}, "type": "Feature", "properties": {"collection_times": [{"days": "Mon-Fri", "time": "5:00pm"}, {"days": "Sat", "time": "12:00pm"}, {"days": "Sun", "time": "Closed"}], "id": "2060100026", "name": "USPS COLLECTION BOX - PO LOBBY", "address": {"city": "WALDORF", "state": "MD", "street": "150 POST OFFICE RD", "postcode": "20601"}}},
{"geometry": {"type": "Point", "coordinates": [-76.8774733749, 38.6560002085]}, "type": "Feature", "properties": {"collection_times": [{"days": "Mon-Sat", "time": "3:30pm"}, {"days": "Sun", "time": "Closed"}], "id": "2060100027", "name": "USPS COLLECTION BOX - BLUE BOX", "address": {"city": "WALDORF", "state": "MD", "street": "12549 MATTAWOMAN DR", "postcode": "20601"}}},
{"geometry": {"type": "Point", "coordinates": [-76.8920917999, 38.6176815063]}, "type": "Feature", "properties": {"collection_times": [{"days": "Mon-Sat", "time": "3:45pm"}, {"days": "Sun", "time": "Closed"}], "id": "2060100028", "name": "USPS COLLECTION BOX - BLUE BOX", "address": {"city": "WALDORF", "state": "MD", "street": "3659 LEONARDTOWN RD", "postcode": "20601"}}},
{"geometry": {"type": "Point", "coordinates": [-76.8942435999, 38.6030134449]}, "type": "Feature", "properties": {"collection_times": [{"days": "Mon-Fri", "time": "4:00pm"}, {"days": "Sat", "time": "3:00pm"}, {"days": "Sun", "time": "Closed"}], "id": "2060200003", "name": "USPS COLLECTION BOX - BLUE BOX", "address": {"city": "WALDORF", "state": "MD", "street": "2000 AMBERLEAF PL", "postcode": "20602"}}},
{"geometry": {"type": "Point", "coordinates": [-76.8998353773, 38.6040998332]}, "type": "Feature", "properties": {"collection_times": [{"days": "Mon-Fri", "time": "4:00pm"}, {"days": "Sat", "time": "3:00pm"}, {"days": "Sun", "time": "Closed"}], "id": "2060200004", "name": "USPS COLLECTION BOX - BLUE BOX", "address": {"city": "WALDORF", "state": "MD", "street": "129 SMALLWOOD VILLAGE CTR", "postcode": "20602"}}},
{"geometry": {"type": "Point", "coordinates": [-76.9028991363, 38.6004211992]}, "type": "Feature", "properties": {"collection_times": [{"days": "Mon-Fri", "time": "4:00pm"}, {"days": "Sat", "time": "3:00pm"}, {"days": "Sun", "time": "Closed"}], "id": "2060200005", "name": "USPS COLLECTION BOX - BLUE BOX", "address": {"city": "WALDORF", "state": "MD", "street": "1057 SAINT IGNATIUS DR", "postcode": "20602"}}},
{"geometry": {"type": "Point", "coordinates": [-76.9033260852, 38.5997505524]}, "type": "Feature", "properties": {"collection_times": [{"days": "Mon-Fri", "time": "4:00pm"}, {"days": "Sat", "time": "3:00pm"}, {"days": "Sun", "time": "Closed"}], "id": "2060200007", "name": "USPS COLLECTION BOX - BLUE BOX", "address": {"city": "WALDORF", "state": "MD", "street": "2660 HUSK PL", "postcode": "20602"}}},
{"geometry": {"type": "Point", "coordinates": [-76.9021722635, 38.6066248479]}, "type": "Feature", "properties": {"collection_times": [{"days": "Mon-Fri", "time": "4:00pm"}, {"days": "Sat", "time": "3:00pm"}, {"days": "Sun", "time": "Closed"}], "id": "2060200008", "name": "USPS COLLECTION BOX - BLUE BOX", "address": {"city": "WALDORF", "state": "MD", "street": "603 POST OFFICE RD", "postcode": "20602"}}},
{"geometry": {"type": "Point", "coordinates": [-76.9157005703, 38.617341921]}, "type": "Feature", "properties": {"collection_times": [{"days": "Mon-Fri", "time": "4:00pm"}, {"days": "Sat", "time": "3:00pm"}, {"days": "Sun", "time": "Closed"}], "id": "2060200009", "name": "USPS COLLECTION BOX - BLUE BOX", "address": {"city": "WALDORF", "state": "MD", "street": "3500 OLD WASHINGTON RD", "postcode": "20602"}}},
{"geometry": {"type": "Point", "coordinates": [-76.8905249311, 38.6162829265]}, "type": "Feature", "properties": {"collection_times": [{"days": "Mon-Fri", "time": "4:00pm"}, {"days": "Sat", "time": "3:00pm"}, {"days": "Sun", "time": "Closed"}], "id": "2060200010", "name": "USPS COLLECTION BOX - BLUE BOX", "address": {"city": "WALDORF", "state": "MD", "street": "12070 OLD LINE CTR", "postcode": "20602"}}},
{"geometry": {"type": "Point", "coordinates": [-76.9052378046, 38.6151400042]}, "type": "Feature", "properties": {"collection_times": [{"days": "Mon-Fri", "time": "5:00pm"}, {"days": "Sat", "time": "3:00pm"}, {"days": "Sun", "time": "Closed"}], "id": "2060200012", "name": "USPS COLLECTION BOX - BLUE BOX", "address": {"city": "WALDORF", "state": "MD", "street": "110 PAUL MELLON CT", "postcode": "20602"}}},
{"geometry": {"type": "Point", "coordinates": [-76.9138029397, 38.6235666343]}, "type": "Feature", "properties": {"collection_times": [{"days": "Mon-Fri", "time": "4:00pm"}, {"days": "Sat", "time": "3:00pm"}, {"days": "Sun", "time": "Closed"}], "id": "2060300001", "name": "USPS COLLECTION BOX - BLUE BOX", "address": {"city": "WALDORF", "state": "MD", "street": "3225 CRAIN HWY", "postcode": "20603"}}},
{"geometry": {"type": "Point", "coordinates": [-76.914550802, 38.6223353553]}, "type": "Feature", "properties": {"collection_times": [{"days": "Mon-Fri", "time": "4:00pm"}, {"days": "Sat", "time": "3:00pm"}, {"days": "Sun", "time": "Closed"}], "id": "2060300002", "name": "USPS COLLECTION BOX - BLUE BOX", "address": {"city": "WALDORF", "state": "MD", "street": "3286 CRAIN HWY", "postcode": "20603"}}},
{"geometry": {"type": "Point", "coordinates": [-76.9283337266, 38.6134761142]}, "type": "Feature", "properties": {"collection_times": [{"days": "Mon-Fri", "time": "4:00pm"}, {"days": "Sat", "time": "3:00pm"}, {"days": "Sun", "time": "Closed"}], "id": "2060300003", "name": "USPS COLLECTION BOX - BLUE BOX", "address": {"city": "WALDORF", "state": "MD", "street": "1240 SMALLWOOD DR W", "postcode": "20603"}}},
{"geometry": {"type": "Point", "coordinates": [-76.9272592304, 38.6198037119]}, "type": "Feature", "properties": {"collection_times": [{"days": "Mon-Fri", "time": "4:00pm"}, {"days": "Sat", "time": "3:00pm"}, {"days": "Sun", "time": "Closed"}], "id": "2060300006", "name": "USPS COLLECTION BOX - BLUE BOX", "address": {"city": "WALDORF", "state": "MD", "street": "11110 MALL CIR", "postcode": "20603"}}},
{"geometry": {"type": "Point", "coordinates": [-76.9575785068, 38.6266115876]}, "type": "Feature", "properties": {"collection_times": [{"days": "Mon-Fri", "time": "4:00pm"}, {"days": "Sat", "time": "3:00pm"}, {"days": "Sun", "time": "Closed"}], "id": "2060300008", "name": "USPS COLLECTION BOX - EXPRESS", "address": {"city": "WALDORF", "state": "MD", "street": "11110 MALL CIR", "postcode": "20603"}}},
{"geometry": {"type": "Point", "coordinates": [-76.9443819079, 38.6268685953]}, "type": "Feature", "properties": {"collection_times": [{"days": "Mon-Fri", "time": "4:00pm"}, {"days": "Sat", "time": "3:00pm"}, {"days": "Sun", "time": "Closed"}], "id": "2060300010", "name": "USPS COLLECTION BOX - BLUE BOX", "address": {"city": "WALDORF", "state": "MD", "street": "6000 ST ANTHONYS DR", "postcode": "20603"}}},
{"geometry": {"type": "Point", "coordinates": [-76.9443819079, 38.6268685953]}, "type": "Feature", "properties": {"collection_times": [{"days": "Mon-Fri", "time": "4:00pm"}, {"days": "Sat", "time": "3:00pm"}, {"days": "Sun", "time": "Closed"}], "id": "2060300011", "name": "USPS COLLECTION BOX - BLUE BOX", "address": {"city": "WALDORF", "state": "MD", "street": "1 ST JAMES DR", "postcode": "20603"}}},
{"geometry": {"type": "Point", "coordinates": [-76.7445349242, 38.2548014084]}, "type": "Feature", "properties": {"collection_times": [{"days": "Mon-Fri", "time": "4:00pm"}, {"days": "Sat", "time": "12:00pm"}, {"days": "Sun", "time": "Closed"}], "id": "2060600000", "name": "USPS COLLECTION BOX - BLUE BOX", "address": {"city": "ABELL", "state": "MD", "street": "21388 ABELL RD", "postcode": "20606"}}},
{"geometry": {"type": "Point", "coordinates": [-76.7445349242, 38.2548014084]}, "type": "Feature", "properties": {"collection_times": [{"days": "Mon-Fri", "time": "4:00pm"}, {"days": "Sat", "time": "12:00pm"}, {"days": "Sun", "time": "Closed"}], "id": "2060600001", "name": "USPS COLLECTION BOX - PO LOBBY", "address": {"city": "ABELL", "state": "MD", "street": "21388 ABELL RD", "postcode": "20606"}}},
{"geometry": {"type": "Point", "coordinates": [-77.0327673405, 38.6645976361]}, "type": "Feature", "properties": {"collection_times": [{"days": "Mon-Fri", "time": "5:00pm"}, {"days": "Sat", "time": "1:00pm"}, {"days": "Sun", "time": "Closed"}], "id": "2060700000", "name": "USPS COLLECTION BOX - BLUE BOX", "address": {"city": "ACCOKEEK", "state": "MD", "street": "16405 LIVINGSTON RD", "postcode": "20607"}}},
{"geometry": {"type": "Point", "coordinates": [-77.0095896255, 38.6699221344]}, "type": "Feature", "properties": {"collection_times": [{"days": "Mon-Sat", "time": "12:00pm"}, {"days": "Sun", "time": "Closed"}], "id": "2060700001", "name": "USPS COLLECTION BOX - BLUE BOX", "address": {"city": "ACCOKEEK", "state": "MD", "street": "15789 LIVINGSTON RD", "postcode": "20607"}}},
{"geometry": {"type": "Point", "coordinates": [-77.0327673405, 38.6645976361]}, "type": "Feature", "properties": {"collection_times": [{"days": "Mon-Fri", "time": "5:00pm"}, {"days": "Sat", "time": "1:00pm"}, {"days": "Sun", "time": "Closed"}], "id": "2060700002", "name": "USPS COLLECTION BOX - PO LOBBY", "address": {"city": "ACCOKEEK", "state": "MD", "street": "16405 LIVINGSTON RD", "postcode": "20607"}}},
{"geometry": {"type": "Point", "coordinates": [-76.7244173657, 38.5818114605]}, "type": "Feature", "properties": {"collection_times": [{"days": "Mon-Fri", "time": "4:00pm"}, {"days": "Sat", "time": "12:00pm"}, {"days": "Sun", "time": "Closed"}], "id": "2060800000", "name": "USPS COLLECTION BOX - BLUE BOX", "address": {"city": "AQUASCO", "state": "MD", "street": "22503 AQUASCO RD", "postcode": "20608"}}},
{"geometry": {"type": "Point", "coordinates": [-76.7244173657, 38.5818114605]}, "type": "Feature", "properties": {"collection_times": [{"days": "Mon-Fri", "time": "4:30pm"}, {"days": "Sat", "time": "12:00pm"}, {"days": "Sun", "time": "Closed"}], "id": "2060800001", "name": "USPS COLLECTION BOX - PO LOBBY", "address": {"city": "AQUASCO", "state": "MD", "street": "22503 AQUASCO RD", "postcode": "20608"}}},
{"geometry": {"type": "Point", "coordinates": [-76.7650970775, 38.2632960126]}, "type": "Feature", "properties": {"collection_times": [{"days": "Mon-Fri", "time": "4:30pm"}, {"days": "Sat", "time": "12:00pm"}, {"days": "Sun", "time": "Closed"}], "id": "2060900000", "name": "USPS COLLECTION BOX - BLUE BOX", "address": {"city": "AVENUE", "state": "MD", "street": "21535 COLTON POINT RD", "postcode": "20609"}}},
{"geometry": {"type": "Point", "coordinates": [-76.7650970775, 38.2632960126]}, "type": "Feature", "properties": {"collection_times": [{"days": "Mon-Fri", "time": "5:00pm"}, {"days": "Sat", "time": "12:00pm"}, {"days": "Sun", "time": "Closed"}], "id": "2060900001", "name": "USPS COLLECTION BOX - PO LOBBY", "address": {"city": "AVENUE", "state": "MD", "street": "21535 COLTON POINT RD", "postcode": "20609"}}},
{"geometry": {"type": "Point", "coordinates": [-76.620390356, 38.514734559]}, "type": "Feature", "properties": {"collection_times": [{"days": "Mon-Fri", "time": "4:15pm"}, {"days": "Sat", "time": "12:00pm"}, {"days": "Sun", "time": "Closed"}], "id": "2061000000", "name": "USPS COLLECTION BOX - BLUE BOX", "address": {"city": "BARSTOW", "state": "MD", "street": "2485 HALLOWING POINT RD", "postcode": "20610"}}},
{"geometry": {"type": "Point", "coordinates": [-76.620390356, 38.514734559]}, "type": "Feature", "properties": {"collection_times": [{"days": "Mon-Fri", "time": "4:30pm"}, {"days": "Sat", "time": "12:00pm"}, {"days": "Sun", "time": "Closed"}], "id": "2061000001", "name": "USPS COLLECTION BOX - PO LOBBY", "address": {"city": "BARSTOW", "state": "MD", "street": "2485 HALLOWING POINT RD", "postcode": "20610"}}},
{"geometry": {"type": "Point", "coordinates": [-76.6779790349, 38.5110021567]}, "type": "Feature", "properties": {"collection_times": [{"days": "Mon-Fri", "time": "4:15pm"}, {"days": "Sat", "time": "11:00am"}, {"days": "Sun", "time": "Closed"}], "id": "2061200000", "name": "USPS COLLECTION BOX - BLUE BOX", "address": {"city": "BENEDICT", "state": "MD", "street": "7240 BENEDICT AVE", "postcode": "20612"}}},
{"geometry": {"type": "Point", "coordinates": [-76.6779790349, 38.5110021567]}, "type": "Feature", "properties": {"collection_times": [{"days": "Mon-Fri", "time": "4:15pm"}, {"days": "Sat", "time": "11:00am"}, {"days": "Sun", "time": "Closed"}], "id": "2061200001", "name": "USPS COLLECTION BOX - PO LOBBY", "address": {"city": "BENEDICT", "state": "MD", "street": "7240 BENEDICT AVE", "postcode": "20612"}}},
{"geometry": {"type": "Point", "coordinates": [-76.850299469, 38.6971704112]}, "type": "Feature", "properties": {"collection_times": [{"days": "Mon-Fri", "time": "5:00pm"}, {"days": "Sat", "time": "12:00pm"}, {"days": "Sun", "time": "Closed"}], "id": "2061300000", "name": "USPS COLLECTION BOX - BLUE BOX", "address": {"city": "BRANDYWINE", "state": "MD", "street": "14109 BRANDYWINE RD", "postcode": "20613"}}},
{"geometry": {"type": "Point", "coordinates": [-76.850299469, 38.6971704112]}, "type": "Feature", "properties": {"collection_times": [{"days": "Mon-Fri", "time": "5:00pm"}, {"days": "Sat", "time": "12:00pm"}, {"days": "Sun", "time": "Closed"}], "id": "2061300001", "name": "USPS COLLECTION BOX - BLUE BOX", "address": {"city": "BRANDYWINE", "state": "MD", "street": "14109 BRANDYWINE RD", "postcode": "20613"}}},
{"geometry": {"type": "Point", "coordinates": [-76.850299469, 38.6971704112]}, "type": "Feature", "properties": {"collection_times": [{"days": "Mon-Fri", "time": "5:00pm"}, {"days": "Sat", "time": "12:00pm"}, {"days": "Sun", "time": "Closed"}], "id": "2061300003", "name": "USPS COLLECTION BOX - PO LOBBY", "address": {"city": "BRANDYWINE", "state": "MD", "street": "14109 BRANDYWINE RD", "postcode": "20613"}}},
{"geometry": {"type": "Point", "coordinates": [-76.8749024749, 38.7016222665]}, "type": "Feature", "properties": {"collection_times": [{"days": "Mon-Sat", "time": "11:00am"}, {"days": "Sun", "time": "Closed"}], "id": "2061300005", "name": "USPS COLLECTION BOX - BLUE BOX", "address": {"city": "BRANDYWINE", "state": "MD", "street": "13706 BRANDYWINE RD", "postcode": "20613"}}},
{"geometry": {"type": "Point", "coordinates": [-76.5444237287, 38.4179763262]}, "type": "Feature", "properties": {"collection_times": [{"days": "Mon-Fri", "time": "2:15pm"}, {"days": "Sat", "time": "12:00pm"}, {"days": "Sun", "time": "Closed"}], "id": "2061500000", "name": "USPS COLLECTION BOX - BLUE BOX", "address": {"city": "BROOMES ISLAND", "state": "MD", "street": "8320 BROOMES ISLAND RD", "postcode": "20615"}}},
{"geometry": {"type": "Point", "coordinates": [-76.5444237287, 38.4179763262]}, "type": "Feature", "properties": {"collection_times": [{"days": "Mon-Fri", "time": "2:15pm"}, {"days": "Sat", "time": "12:00pm"}, {"days": "Sun", "time": "Closed"}], "id": "2061500001", "name": "USPS COLLECTION BOX - PO LOBBY", "address": {"city": "BROOMES ISLAND", "state": "MD", "street": "8320 BROOMES ISLAND RD", "postcode": "20615"}}},
{"geometry": {"type": "Point", "coordinates": [-77.0727680815, 38.6285976968]}, "type": "Feature", "properties": {"collection_times": [{"days": "Mon-Sat", "time": "12:00pm"}, {"days": "Sun", "time": "Closed"}], "id": "2061600000", "name": "USPS COLLECTION BOX - BLUE BOX", "address": {"city": "BRYANS ROAD", "state": "MD", "street": "3075 MARSHALL HALL RD", "postcode": "20616"}}},
{"geometry": {"type": "Point", "coordinates": [-77.0747115165, 38.6264637709]}, "type": "Feature", "properties": {"collection_times": [{"days": "Mon-Fri", "time": "4:45pm"}, {"days": "Sat", "time": "12:00pm"}, {"days": "Sun", "time": "Closed"}], "id": "2061600001", "name": "USPS COLLECTION BOX - BLUE BOX", "address": {"city": "BRYANS ROAD", "state": "MD", "street": "6960 INDIAN HEAD HWY", "postcode": "20616"}}},
{"geometry": {"type": "Point", "coordinates": [-77.0747115165, 38.6264637709]}, "type": "Feature", "properties": {"collection_times": [{"days": "Mon-Fri", "time": "4:45pm"}, {"days": "Sat", "time": "12:00pm"}, {"days": "Sun", "time": "Closed"}], "id": "2061600002", "name": "USPS COLLECTION BOX - PO LOBBY", "address": {"city": "BRYANS ROAD", "state": "MD", "street": "6960 INDIAN HEAD HWY", "postcode": "20616"}}},
{"geometry": {"type": "Point", "coordinates": [-76.8466739972, 38.5570940624]}, "type": "Feature", "properties": {"collection_times": [{"days": "Mon-Fri", "time": "4:30pm"}, {"days": "Sat", "time": "12:00pm"}, {"days": "Sun", "time": "Closed"}], "id": "2061700000", "name": "USPS COLLECTION BOX - BLUE BOX", "address": {"city": "BRYANTOWN", "state": "MD", "street": "6425 LEONARDTOWN RD", "postcode": "20617"}}},
{"geometry": {"type": "Point", "coordinates": [-76.8466739972, 38.5570940624]}, "type": "Feature", "properties": {"collection_times": [{"days": "Mon-Fri", "time": "5:00pm"}, {"days": "Sat", "time": "12:00pm"}, {"days": "Sun", "time": "Closed"}], "id": "2061700001", "name": "USPS COLLECTION BOX - PO LOBBY", "address": {"city": "BRYANTOWN", "state": "MD", "street": "6425 LEONARDTOWN RD", "postcode": "20617"}}},
{"geometry": {"type": "Point", "coordinates": [-76.7880873535, 38.2931650493]}, "type": "Feature", "properties": {"collection_times": [{"days": "Mon-Fri", "time": "4:00pm"}, {"days": "Sat", "time": "12:00pm"}, {"days": "Sun", "time": "Closed"}], "id": "2061800000", "name": "USPS COLLECTION BOX - BLUE BOX", "address": {"city": "BUSHWOOD", "state": "MD", "street": "22840 BUSHWOOD RD", "postcode": "20618"}}},
{"geometry": {"type": "Point", "coordinates": [-76.4877970181, 38.2834215844]}, "type": "Feature", "properties": {"collection_times": [{"days": "Mon-Fri", "time": "4:30pm"}, {"days": "Sat", "time": "1:00pm"}, {"days": "Sun", "time": "Closed"}], "id": "2061900001", "name": "USPS COLLECTION BOX - BLUE BOX", "address": {"city": "CALIFORNIA", "state": "MD", "street": "22576 MACARTHUR BLVD", "postcode": "20619"}}},
{"geometry": {"type": "Point", "coordinates": [-76.5330701013, 38.3108482179]}, "type": "Feature", "properties": {"collection_times": [{"days": "Mon-Sat", "time": "11:00am"}, {"days": "Sun", "time": "Closed"}], "id": "2061900002", "name": "USPS COLLECTION BOX - BLUE BOX", "address": {"city": "CALIFORNIA", "state": "MD", "street": "23415 THREE NOTCH RD", "postcode": "20619"}}},
{"geometry": {"type": "Point", "coordinates": [-76.533752842, 38.3113877861]}, "type": "Feature", "properties": {"collection_times": [{"days": "Mon-Sat", "time": "12:15pm"}, {"days": "Sun", "time": "Closed"}], "id": "2061900003", "name": "USPS COLLECTION BOX - BLUE BOX", "address": {"city": "CALIFORNIA", "state": "MD", "street": "22741 THREE NOTCH RD", "postcode": "20619"}}},
{"geometry": {"type": "Point", "coordinates": [-76.503533615, 38.2958825265]}, "type": "Feature", "properties": {"collection_times": [{"days": "Mon-Sat", "time": "12:00pm"}, {"days": "Sun", "time": "Closed"}], "id": "2061900005", "name": "USPS COLLECTION BOX - BLUE BOX", "address": {"city": "CALIFORNIA", "state": "MD", "street": "16064 THREE NOTCH RD", "postcode": "20619"}}},
{"geometry": {"type": "Point", "coordinates": [-76.4877970181, 38.2834215844]}, "type": "Feature", "properties": {"collection_times": [{"days": "Mon-Fri", "time": "4:30pm"}, {"days": "Sat", "time": "1:00pm"}, {"days": "Sun", "time": "Closed"}], "id": "2061900006", "name": "USPS COLLECTION BOX - BLUE BOX", "address": {"city": "CALIFORNIA", "state": "MD", "street": "22576 MACARTHUR BLVD", "postcode": "20619"}}},
{"geometry": {"type": "Point", "coordinates": [-76.5266973464, 38.2999236591]}, "type": "Feature", "properties": {"collection_times": [{"days": "Mon-Fri", "time": "4:30pm"}, {"days": "Sat", "time": "1:00pm"}, {"days": "Sun", "time": "Closed"}], "id": "2061900007", "name": "USPS COLLECTION BOX - EXPRESS", "address": {"city": "CALIFORNIA", "state": "MD", "street": "22576 MACARTHUR BLVD", "postcode": "20619"}}},
{"geometry": {"type": "Point", "coordinates": [-76.5145379231, 38.2992080857]}, "type": "Feature", "properties": {"collection_times": [{"days": "Mon-Sat", "time": "11:30am"}, {"days": "Sun", "time": "Closed"}], "id": "2061900008", "name": "USPS COLLECTION BOX - BLUE BOX", "address": {"city": "CALIFORNIA", "state": "MD", "street": "45101 FIRST COLONY WAY", "postcode": "20619"}}},
{"geometry": {"type": "Point", "coordinates": [-76.4877970181, 38.2834215844]}, "type": "Feature", "properties": {"collection_times": [{"days": "Mon-Fri", "time": "4:30pm"}, {"days": "Sat-Sun", "time": "Closed"}], "id": "2061900009", "name": "USPS COLLECTION BOX - PO LOBBY", "address": {"city": "CALIFORNIA", "state": "MD", "street": "22576 MAC ARTHUR BLVD", "postcode": "20619"}}},
{"geometry": {"type": "Point", "coordinates": [-76.4877970181, 38.2834215844]}, "type": "Feature", "properties": {"collection_times": [{"days": "Mon-Fri", "time": "4:30pm"}, {"days": "Sat", "time": "1:00pm"}, {"days": "Sun", "time": "Closed"}], "id": "2061900010", "name": "USPS COLLECTION BOX - PO LOBBY", "address": {"city": "CALIFORNIA", "state": "MD", "street": "22576 MAC ARTHUR BLVD", "postcode": "20619"}}},
{"geometry": {"type": "Point", "coordinates": [-76.4877970181, 38.2834215844]}, "type": "Feature", "properties": {"collection_times": [{"days": "Mon-Fri", "time": "4:30pm"}, {"days": "Sat", "time": "1:00pm"}, {"days": "Sun", "time": "Closed"}], "id": "2061900011", "name": "USPS COLLECTION BOX - PO LOBBY", "address": {"city": "CALIFORNIA", "state": "MD", "street": "22576 MAC ARTHUR BLVD", "postcode": "20619"}}},
{"geometry": {"type": "Point", "coordinates": [-76.5188795986, 38.2272846669]}, "type": "Feature", "properties": {"collection_times": [{"days": "Mon-Fri", "time": "4:30pm"}, {"days": "Sat", "time": "12:00pm"}, {"days": "Sun", "time": "Closed"}], "id": "2062000000", "name": "USPS COLLECTION BOX - BLUE BOX", "address": {"city": "CALLAWAY", "state": "MD", "street": "20293 PINEY POINT RD", "postcode": "20620"}}},
{"geometry": {"type": "Point", "coordinates": [-76.5188795986, 38.2272846669]}, "type": "Feature", "properties": {"collection_times": [{"days": "Mon-Fri", "time": "4:30pm"}, {"days": "Sat", "time": "12:00pm"}, {"days": "Sun", "time": "Closed"}], "id": "2062000001", "name": "USPS COLLECTION BOX - PO LOBBY", "address": {"city": "CALLAWAY", "state": "MD", "street": "20293 PINEY POINT RD", "postcode": "20620"}}},
{"geometry": {"type": "Point", "coordinates": [-76.798646306, 38.3322887139]}, "type": "Feature", "properties": {"collection_times": [{"days": "Mon-Fri", "time": "4:45pm"}, {"days": "Sat", "time": "11:45am"}, {"days": "Sun", "time": "Closed"}], "id": "2062100000", "name": "USPS COLLECTION BOX - BLUE BOX", "address": {"city": "CHAPTICO", "state": "MD", "street": "25749 BUDDS CREEK RD", "postcode": "20621"}}},
{"geometry": {"type": "Point", "coordinates": [-76.798646306, 38.3322887139]}, "type": "Feature", "properties": {"collection_times": [{"days": "Mon-Fri", "time": "5:00pm"}, {"days": "Sat", "time": "12:00pm"}, {"days": "Sun", "time": "Closed"}], "id": "2062100001", "name": "USPS COLLECTION BOX - PO LOBBY", "address": {"city": "CHAPTICO", "state": "MD", "street": "25749 BUDDS CREEK RD", "postcode": "20621"}}},
{"geometry": {"type": "Point", "coordinates": [-76.7749214917, 38.4925040202]}, "type": "Feature", "properties": {"collection_times": [{"days": "Mon-Fri", "time": "4:30pm"}, {"days": "Sat", "time": "11:45am"}, {"days": "Sun", "time": "Closed"}], "id": "2062200001", "name": "USPS COLLECTION BOX - BLUE BOX", "address": {"city": "CHARLOTTE HALL", "state": "MD", "street": "29948 THREE NOTCH RD", "postcode": "20622"}}},
{"geometry": {"type": "Point", "coordinates": [-76.7749214917, 38.4925040202]}, "type": "Feature", "properties": {"collection_times": [{"days": "Mon-Fri", "time": "4:30pm"}, {"days": "Sat", "time": "11:45am"}, {"days": "Sun", "time": "Closed"}], "id": "2062200002", "name": "USPS COLLECTION BOX - PO LOBBY", "address": {"city": "CHARLOTTE HALL", "state": "MD", "street": "29948 THREE NOTCH RD", "postcode": "20622"}}},
{"geometry": {"type": "Point", "coordinates": [-76.8379125414, 38.7429609387]}, "type": "Feature", "properties": {"collection_times": [{"days": "Mon-Fri", "time": "4:45pm"}, {"days": "Sat-Sun", "time": "Closed"}], "id": "2062300002", "name": "USPS COLLECTION BOX - PO LOBBY", "address": {"city": "CHELTENHAM", "state": "MD", "street": "11505 CHERRY TREE CROSSING RD", "postcode": "20623"}}},
{"geometry": {"type": "Point", "coordinates": [-76.8379125414, 38.7429609387]}, "type": "Feature", "properties": {"collection_times": [{"days": "Mon-Fri", "time": "4:45pm"}, {"days": "Sat", "time": "12:00pm"}, {"days": "Sun", "time": "Closed"}], "id": "2062300003", "name": "USPS COLLECTION BOX - PO LOBBY", "address": {"city": "CHELTENHAM", "state": "MD", "street": "11505 CHERRY TREE CROSSING RD", "postcode": "20623"}}},
{"geometry": {"type": "Point", "coordinates": [-76.7273812762, 38.3291597198]}, "type": "Feature", "properties": {"collection_times": [{"days": "Mon-Fri", "time": "4:15pm"}, {"days": "Sat", "time": "12:00pm"}, {"days": "Sun", "time": "Closed"}], "id": "2062400000", "name": "USPS COLLECTION BOX - BLUE BOX", "address": {"city": "CLEMENTS", "state": "MD", "street": "24015 COLTON POINT RD", "postcode": "20624"}}},
{"geometry": {"type": "Point", "coordinates": [-76.7273812762, 38.3291597198]}, "type": "Feature", "properties": {"collection_times": [{"days": "Mon-Fri", "time": "4:15pm"}, {"days": "Sat", "time": "12:00pm"}, {"days": "Sun", "time": "Closed"}], "id": "2062400001", "name": "USPS COLLECTION BOX - PO LOBBY", "address": {"city": "CLEMENTS", "state": "MD", "street": "24015 COLTON POINT RD", "postcode": "20624"}}},
{"geometry": {"type": "Point", "coordinates": [-76.8495650107, 38.2646354772]}, "type": "Feature", "properties": {"collection_times": [{"days": "Mon-Fri", "time": "4:00pm"}, {"days": "Sat", "time": "12:00pm"}, {"days": "Sun", "time": "Closed"}], "id": "2062500000", "name": "USPS COLLECTION BOX - BLUE BOX", "address": {"city": "COBB ISLAND", "state": "MD", "street": "17009 COBB ISLAND RD", "postcode": "20625"}}},
{"geometry": {"type": "Point", "coordinates": [-76.8495650107, 38.2646354772]}, "type": "Feature", "properties": {"collection_times": [{"days": "Mon-Fri", "time": "4:00pm"}, {"days": "Sat", "time": "12:00pm"}, {"days": "Sun", "time": "Closed"}], "id": "2062500001", "name": "USPS COLLECTION BOX - PO LOBBY", "address": {"city": "COBB ISLAND", "state": "MD", "street": "17009 COBB ISLAND RD", "postcode": "20625"}}},
{"geometry": {"type": "Point", "coordinates": [-76.757067735, 38.2314757063]}, "type": "Feature", "properties": {"collection_times": [{"days": "Mon-Fri", "time": "4:30pm"}, {"days": "Sat", "time": "11:45am"}, {"days": "Sun", "time": "Closed"}], "id": "2062600000", "name": "USPS COLLECTION BOX - BLUE BOX", "address": {"city": "COLTONS POINT", "state": "MD", "street": "20254 COLTON POINT RD", "postcode": "20626"}}},
{"geometry": {"type": "Point", "coordinates": [-76.757067735, 38.2314757063]}, "type": "Feature", "properties": {"collection_times": [{"days": "Mon-Fri", "time": "4:45pm"}, {"days": "Sat", "time": "12:00pm"}, {"days": "Sun", "time": "Closed"}], "id": "2062600001", "name": "USPS COLLECTION BOX - PO LOBBY", "address": {"city": "COLTONS POINT", "state": "MD", "street": "20254 COLTON POINT RD", "postcode": "20626"}}},
{"geometry": {"type": "Point", "coordinates": [-76.6356950521, 38.2904309667]}, "type": "Feature", "properties": {"collection_times": [{"days": "Mon-Fri", "time": "4:20pm"}, {"days": "Sat", "time": "11:45am"}, {"days": "Sun", "time": "Closed"}], "id": "2062700000", "name": "USPS COLLECTION BOX - BLUE BOX", "address": {"city": "COMPTON", "state": "MD", "street": "22173 BAYSIDE RD", "postcode": "20627"}}},
{"geometry": {"type": "Point", "coordinates": [-76.6356950521, 38.2904309667]}, "type": "Feature", "properties": {"collection_times": [{"days": "Mon-Fri", "time": "4:20pm"}, {"days": "Sat", "time": "12:00pm"}, {"days": "Sun", "time": "Closed"}], "id": "2062700001", "name": "USPS COLLECTION BOX - PO LOBBY", "address": {"city": "COMPTON", "state": "MD", "street": "22173 BAYSIDE RD", "postcode": "20627"}}},
{"geometry": {"type": "Point", "coordinates": [-76.3776374964, 38.1650530114]}, "type": "Feature", "properties": {"collection_times": [{"days": "Mon-Fri", "time": "4:15pm"}, {"days": "Sat", "time": "12:00pm"}, {"days": "Sun", "time": "Closed"}], "id": "2062800000", "name": "USPS COLLECTION BOX - BLUE BOX", "address": {"city": "DAMERON", "state": "MD", "street": "17679 THREE NOTCH RD", "postcode": "20628"}}},
{"geometry": {"type": "Point", "coordinates": [-76.3776374964, 38.1650530114]}, "type": "Feature", "properties": {"collection_times": [{"days": "Mon-Fri", "time": "4:30pm"}, {"days": "Sat", "time": "12:00pm"}, {"days": "Sun", "time": "Closed"}], "id": "2062800001", "name": "USPS COLLECTION BOX - PO LOBBY", "address": {"city": "DAMERON", "state": "MD", "street": "17679 THREE NOTCH RD", "postcode": "20628"}}},
{"geometry": {"type": "Point", "coordinates": [-76.4532364201, 38.3388172211]}, "type": "Feature", "properties": {"collection_times": [{"days": "Mon-Fri", "time": "4:25pm"}, {"days": "Sat", "time": "11:55am"}, {"days": "Sun", "time": "Closed"}], "id": "2062900000", "name": "USPS COLLECTION BOX - BLUE BOX", "address": {"city": "DOWELL", "state": "MD", "street": "14515 DOWELL RD", "postcode": "20629"}}},
{"geometry": {"type": "Point", "coordinates": [-76.4532364201, 38.3388172211]}, "type": "Feature", "properties": {"collection_times": [{"days": "Mon-Fri", "time": "4:25pm"}, {"days": "Sat", "time": "12:00pm"}, {"days": "Sun", "time": "Closed"}], "id": "2062900001", "name": "USPS COLLECTION BOX - PO LOBBY", "address": {"city": "DOWELL", "state": "MD", "street": "14515 DOWELL RD", "postcode": "20629"}}},
{"geometry": {"type": "Point", "coordinates": [-76.4817296057, 38.1414891197]}, "type": "Feature", "properties": {"collection_times": [{"days": "Mon-Fri", "time": "4:30pm"}, {"days": "Sat", "time": "12:00pm"}, {"days": "Sun", "time": "Closed"}], "id": "2063000000", "name": "USPS COLLECTION BOX - BLUE BOX", "address": {"city": "DRAYDEN", "state": "MD", "street": "18552 CHERRYFIELD RD", "postcode": "20630"}}},
{"geometry": {"type": "Point", "coordinates": [-76.9769352262, 38.4383827591]}, "type": "Feature", "properties": {"collection_times": [{"days": "Mon-Fri", "time": "4:15pm"}, {"days": "Sat", "time": "12:00pm"}, {"days": "Sun", "time": "Closed"}], "id": "2063200000", "name": "USPS COLLECTION BOX - BLUE BOX", "address": {"city": "FAULKNER", "state": "MD", "street": "9977 FAULKNER RD", "postcode": "20632"}}},
{"geometry": {"type": "Point", "coordinates": [-76.9769352262, 38.4383827591]}, "type": "Feature", "properties": {"collection_times": [{"days": "Mon-Fri", "time": "4:45pm"}, {"days": "Sat", "time": "12:00pm"}, {"days": "Sun", "time": "Closed"}], "id": "2063200001", "name": "USPS COLLECTION BOX - PO LOBBY", "address": {"city": "FAULKNER", "state": "MD", "street": "9977 FAULKNER RD", "postcode": "20632"}}},
{"geometry": {"type": "Point", "coordinates": [-76.9668985436, 38.4291615027]}, "type": "Feature", "properties": {"collection_times": [{"days": "Mon-Sat", "time": "1:00pm"}, {"days": "Sun", "time": "Closed"}], "id": "2063200003", "name": "USPS COLLECTION BOX - BLUE BOX", "address": {"city": "FAULKNER", "state": "MD", "street": "9940 CRAIN HWY", "postcode": "20632"}}},
{"geometry": {"type": "Point", "coordinates": [-76.5004348287, 38.2375755931]}, "type": "Feature", "properties": {"collection_times": [{"days": "Mon-Fri", "time": "4:00pm"}, {"days": "Sat", "time": "12:30pm"}, {"days": "Sun", "time": "Closed"}], "id": "2063400001", "name": "USPS COLLECTION BOX - BLUE BOX", "address": {"city": "GREAT MILLS", "state": "MD", "street": "20210 POINT LOOKOUT RD", "postcode": "20634"}}},
{"geometry": {"type": "Point", "coordinates": [-76.4961021396, 38.2868682832]}, "type": "Feature", "properties": {"collection_times": [{"days": "Mon-Sat", "time": "11:00am"}, {"days": "Sun", "time": "Closed"}], "id": "2063400006", "name": "USPS COLLECTION BOX - BLUE BOX", "address": {"city": "GREAT MILLS", "state": "MD", "street": "22501 IVERSON DR", "postcode": "20634"}}},
{"geometry": {"type": "Point", "coordinates": [-76.5004348287, 38.2375755931]}, "type": "Feature", "properties": {"collection_times": [{"days": "Mon-Fri", "time": "4:30pm"}, {"days": "Sat", "time": "12:00pm"}, {"days": "Sun", "time": "Closed"}], "id": "2063400007", "name": "USPS COLLECTION BOX - PO LOBBY", "address": {"city": "GREAT MILLS", "state": "MD", "street": "20210 POINT LOOKOUT RD", "postcode": "20634"}}},
{"geometry": {"type": "Point", "coordinates": [-76.5609989434, 38.3383959151]}, "type": "Feature", "properties": {"collection_times": [{"days": "Mon-Fri", "time": "4:30pm"}, {"days": "Sat", "time": "12:00pm"}, {"days": "Sun", "time": "Closed"}], "id": "2063600000", "name": "USPS COLLECTION BOX - BLUE BOX", "address": {"city": "HOLLYWOOD", "state": "MD", "street": "24351 MERVELL DEAN RD", "postcode": "20636"}}},
{"geometry": {"type": "Point", "coordinates": [-76.5609989434, 38.3383959151]}, "type": "Feature", "properties": {"collection_times": [{"days": "Mon-Fri", "time": "4:30pm"}, {"days": "Sat", "time": "12:00pm"}, {"days": "Sun", "time": "Closed"}], "id": "2063600001", "name": "USPS COLLECTION BOX - BLUE BOX", "address": {"city": "HOLLYWOOD", "state": "MD", "street": "24351 MERVELL DEAN RD", "postcode": "20636"}}},
{"geometry": {"type": "Point", "coordinates": [-76.5609989434, 38.3383959151]}, "type": "Feature", "properties": {"collection_times": [{"days": "Mon-Fri", "time": "4:30pm"}, {"days": "Sat", "time": "12:00pm"}, {"days": "Sun", "time": "Closed"}], "id": "2063600002", "name": "USPS COLLECTION BOX - PO LOBBY", "address": {"city": "HOLLYWOOD", "state": "MD", "street": "24351 MERVELL DEAN RD", "postcode": "20636"}}},
{"geometry": {"type": "Point", "coordinates": [-76.5609989434, 38.3383959151]}, "type": "Feature", "properties": {"collection_times": [{"days": "Mon-Fri", "time": "4:30pm"}, {"days": "Sat", "time": "12:00pm"}, {"days": "Sun", "time": "Closed"}], "id": "2063600003", "name": "USPS COLLECTION BOX - PO LOBBY", "address": {"city": "HOLLYWOOD", "state": "MD", "street": "24351 MERVELL DEAN RD", "postcode": "20636"}}},
{"geometry": {"type": "Point", "coordinates": [-76.773097201, 38.5355498255]}, "type": "Feature", "properties": {"collection_times": [{"days": "Mon-Fri", "time": "4:30pm"}, {"days": "Sat", "time": "11:30am"}, {"days": "Sun", "time": "Closed"}], "id": "2063700000", "name": "USPS COLLECTION BOX - BLUE BOX", "address": {"city": "HUGHESVILLE", "state": "MD", "street": "15485 PRINCE FREDERICK RD", "postcode": "20637"}}},
{"geometry": {"type": "Point", "coordinates": [-76.773097201, 38.5355498255]}, "type": "Feature", "properties": {"collection_times": [{"days": "Mon-Fri", "time": "4:30pm"}, {"days": "Sat", "time": "11:30am"}, {"days": "Sun", "time": "Closed"}], "id": "2063700001", "name": "USPS COLLECTION BOX - PO LOBBY", "address": {"city": "HUGHESVILLE", "state": "MD", "street": "15485 PRINCE FREDERICK RD", "postcode": "20637"}}},
{"geometry": {"type": "Point", "coordinates": [-76.6134320466, 38.6181345568]}, "type": "Feature", "properties": {"collection_times": [{"days": "Mon-Fri", "time": "4:30pm"}, {"days": "Sat", "time": "12:00pm"}, {"days": "Sun", "time": "Closed"}], "id": "2063900000", "name": "USPS COLLECTION BOX - BLUE BOX", "address": {"city": "HUNTINGTOWN", "state": "MD", "street": "4020 OLD TOWN RD", "postcode": "20639"}}},
{"geometry": {"type": "Point", "coordinates": [-76.6134320466, 38.6181345568]}, "type": "Feature", "properties": {"collection_times": [{"days": "Mon-Fri", "time": "4:30pm"}, {"days": "Sat", "time": "12:00pm"}, {"days": "Sun", "time": "Closed"}], "id": "2063900001", "name": "USPS COLLECTION BOX - PO LOBBY", "address": {"city": "HUNTINGTOWN", "state": "MD", "street": "4020 OLD TOWN RD", "postcode": "20639"}}},
{"geometry": {"type": "Point", "coordinates": [-77.1531868716, 38.6008487856]}, "type": "Feature", "properties": {"collection_times": [{"days": "Mon-Sat", "time": "2:00pm"}, {"days": "Sun", "time": "Closed"}], "id": "2064000007", "name": "USPS COLLECTION BOX - BLUE BOX", "address": {"city": "INDIAN HEAD", "state": "MD", "street": "4457 INDIAN HEAD HWY", "postcode": "20640"}}},
{"geometry": {"type": "Point", "coordinates": [-77.1427176172, 38.6087292722]}, "type": "Feature", "properties": {"collection_times": [{"days": "Mon-Sat", "time": "3:00pm"}, {"days": "Sun", "time": "Closed"}], "id": "2064000010", "name": "USPS COLLECTION BOX - BLUE BOX", "address": {"city": "INDIAN HEAD", "state": "MD", "street": "101 CEDAR LN", "postcode": "20640"}}},
{"geometry": {"type": "Point", "coordinates": [-77.1675927444, 38.5993409534]}, "type": "Feature", "properties": {"collection_times": [{"days": "Mon-Fri", "time": "5:00pm"}, {"days": "Sat", "time": "2:00pm"}, {"days": "Sun", "time": "Closed"}], "id": "2064000014", "name": "USPS COLLECTION BOX - BLUE BOX", "address": {"city": "INDIAN HEAD", "state": "MD", "street": "4050 INDIAN HEAD HWY", "postcode": "20640"}}},
{"geometry": {"type": "Point", "coordinates": [-77.1562275013, 38.6009074905]}, "type": "Feature", "properties": {"collection_times": [{"days": "Mon-Sat", "time": "2:00pm"}, {"days": "Sun", "time": "Closed"}], "id": "2064000016", "name": "USPS COLLECTION BOX - BLUE BOX", "address": {"city": "INDIAN HEAD", "state": "MD", "street": "4450 INDIAN HEAD HWY", "postcode": "20640"}}},
{"geometry": {"type": "Point", "coordinates": [-77.1675927444, 38.5993409534]}, "type": "Feature", "properties": {"collection_times": [{"days": "Mon-Fri", "time": "5:00pm"}, {"days": "Sat", "time": "2:00pm"}, {"days": "Sun", "time": "Closed"}], "id": "2064000017", "name": "USPS COLLECTION BOX - BLUE BOX", "address": {"city": "INDIAN HEAD", "state": "MD", "street": "4050 INDIAN HEAD HWY", "postcode": "20640"}}},
{"geometry": {"type": "Point", "coordinates": [-77.1727597812, 38.5970142596]}, "type": "Feature", "properties": {"collection_times": [{"days": "Mon-Sat", "time": "11:30am"}, {"days": "Sun", "time": "Closed"}], "id": "2064000019", "name": "USPS COLLECTION BOX - BLUE BOX", "address": {"city": "INDIAN HEAD", "state": "MD", "street": "3 JACKSON RD", "postcode": "20640"}}},
{"geometry": {"type": "Point", "coordinates": [-77.1675927444, 38.5993409534]}, "type": "Feature", "properties": {"collection_times": [{"days": "Mon-Fri", "time": "5:00pm"}, {"days": "Sat", "time": "2:00pm"}, {"days": "Sun", "time": "Closed"}], "id": "2064000020", "name": "USPS COLLECTION BOX - PO LOBBY", "address": {"city": "INDIAN HEAD", "state": "MD", "street": "4050 INDIAN HEAD HWY", "postcode": "20640"}}},
{"geometry": {"type": "Point", "coordinates": [-76.9574716002, 38.2924044371]}, "type": "Feature", "properties": {"collection_times": [{"days": "Mon-Fri", "time": "4:00pm"}, {"days": "Sat", "time": "12:00pm"}, {"days": "Sun", "time": "Closed"}], "id": "2064500000", "name": "USPS COLLECTION BOX - BLUE BOX", "address": {"city": "ISSUE", "state": "MD", "street": "15800 COBB ISLAND RD", "postcode": "20645"}}},
{"geometry": {"type": "Point", "coordinates": [-76.9574716002, 38.2924044371]}, "type": "Feature", "properties": {"collection_times": [{"days": "Mon-Fri", "time": "4:00pm"}, {"days": "Sat", "time": "12:00pm"}, {"days": "Sun", "time": "Closed"}], "id": "2064500001", "name": "USPS COLLECTION BOX - PO LOBBY", "address": {"city": "ISSUE", "state": "MD", "street": "15800 COBB ISLAND RD", "postcode": "20645"}}},
{"geometry": {"type": "Point", "coordinates": [-76.9851136345, 38.5433490408]}, "type": "Feature", "properties": {"collection_times": [{"days": "Mon-Sat", "time": "12:01pm"}, {"days": "Sun", "time": "Closed"}], "id": "2064600001", "name": "USPS COLLECTION BOX - BLUE BOX", "address": {"city": "LA PLATA", "state": "MD", "street": "9375 CHESAPEAKE ST", "postcode": "20646"}}},
{"geometry": {"type": "Point", "coordinates": [-76.9831156144, 38.5301821636]}, "type": "Feature", "properties": {"collection_times": [{"days": "Mon-Sat", "time": "11:00am"}, {"days": "Sun", "time": "Closed"}], "id": "2064600003", "name": "USPS COLLECTION BOX - BLUE BOX", "address": {"city": "LA PLATA", "state": "MD", "street": "6643 CRAIN HWY", "postcode": "20646"}}},
{"geometry": {"type": "Point", "coordinates": [-76.9846256765, 38.5414118315]}, "type": "Feature", "properties": {"collection_times": [{"days": "Mon-Sat", "time": "12:01pm"}, {"days": "Sun", "time": "Closed"}], "id": "2064600004", "name": "USPS COLLECTION BOX - BLUE BOX", "address": {"city": "LA PLATA", "state": "MD", "street": "6269 CRAIN HWY", "postcode": "20646"}}},
{"geometry": {"type": "Point", "coordinates": [-76.9821854666, 38.526834458]}, "type": "Feature", "properties": {"collection_times": [{"days": "Mon-Fri", "time": "5:00pm"}, {"days": "Sat", "time": "3:00pm"}, {"days": "Sun", "time": "Closed"}], "id": "2064600005", "name": "USPS COLLECTION BOX - BLUE BOX", "address": {"city": "LA PLATA", "state": "MD", "street": "100 CENTENNIAL ST", "postcode": "20646"}}},
{"geometry": {"type": "Point", "coordinates": [-76.9821854666, 38.526834458]}, "type": "Feature", "properties": {"collection_times": [{"days": "Mon-Fri", "time": "5:00pm"}, {"days": "Sat", "time": "3:00pm"}, {"days": "Sun", "time": "Closed"}], "id": "2064600006", "name": "USPS COLLECTION BOX - BLUE BOX", "address": {"city": "LA PLATA", "state": "MD", "street": "100 CENTENNIAL ST", "postcode": "20646"}}},
{"geometry": {"type": "Point", "coordinates": [-76.9821854666, 38.526834458]}, "type": "Feature", "properties": {"collection_times": [{"days": "Mon-Fri", "time": "5:00pm"}, {"days": "Sat", "time": "3:00pm"}, {"days": "Sun", "time": "Closed"}], "id": "2064600007", "name": "USPS COLLECTION BOX - PO LOBBY", "address": {"city": "LA PLATA", "state": "MD", "street": "100 CENTENNIAL ST", "postcode": "20646"}}},
{"geometry": {"type": "Point", "coordinates": [-76.89301, 38.481747]}, "type": "Feature", "properties": {"collection_times": [{"days": "Mon-Sat", "time": "11:00am"}, {"days": "Sun", "time": "Closed"}], "id": "2064600009", "name": "USPS COLLECTION BOX - BLUE BOX", "address": {"city": "LA PLATA", "state": "MD", "street": "12090 CHARLES ST", "postcode": "20646"}}},
{"geometry": {"type": "Point", "coordinates": [-76.87269, 38.48332]}, "type": "Feature", "properties": {"collection_times": [{"days": "Mon-Sat", "time": "11:00am"}, {"days": "Sun", "time": "Closed"}], "id": "2064600010", "name": "USPS COLLECTION BOX - BLUE BOX", "address": {"city": "LA PLATA", "state": "MD", "street": "8350 OLIVERS SHOP RD", "postcode": "20646"}}},
{"geometry": {"type": "Point", "coordinates": [-76.6642239485, 38.3063015841]}, "type": "Feature", "properties": {"collection_times": [{"days": "Mon-Sat", "time": "1:00pm"}, {"days": "Sun", "time": "Closed"}], "id": "2065000002", "name": "USPS COLLECTION BOX - BLUE BOX", "address": {"city": "LEONARDTOWN", "state": "MD", "street": "40955 MERCHANTS LN UNIT 18", "postcode": "20650"}}},
{"geometry": {"type": "Point", "coordinates": [-76.6394777956, 38.3075862357]}, "type": "Feature", "properties": {"collection_times": [{"days": "Mon-Sat", "time": "1:00pm"}, {"days": "Sun", "time": "Closed"}], "id": "2065000003", "name": "USPS COLLECTION BOX - BLUE BOX", "address": {"city": "LEONARDTOWN", "state": "MD", "street": "23160 MOAKLEY ST", "postcode": "20650"}}},
{"geometry": {"type": "Point", "coordinates": [-76.6604321201, 38.3034835655]}, "type": "Feature", "properties": {"collection_times": [{"days": "Mon-Sat", "time": "1:00pm"}, {"days": "Sun", "time": "Closed"}], "id": "2065000007", "name": "USPS COLLECTION BOX - BLUE BOX", "address": {"city": "LEONARDTOWN", "state": "MD", "street": "40845 MERCHANTS LN", "postcode": "20650"}}},
{"geometry": {"type": "Point", "coordinates": [-76.6391020042, 38.2987777545]}, "type": "Feature", "properties": {"collection_times": [{"days": "Mon-Sat", "time": "1:00pm"}, {"days": "Sun", "time": "Closed"}], "id": "2065000010", "name": "USPS COLLECTION BOX - BLUE BOX", "address": {"city": "LEONARDTOWN", "state": "MD", "street": "25500 POINT LOOKOUT RD", "postcode": "20650"}}},
{"geometry": {"type": "Point", "coordinates": [-76.63645315, 38.2899525466]}, "type": "Feature", "properties": {"collection_times": [{"days": "Mon-Fri", "time": "4:45pm"}, {"days": "Sat", "time": "12:30pm"}, {"days": "Sun", "time": "Closed"}], "id": "2065000011", "name": "USPS COLLECTION BOX - BLUE BOX", "address": {"city": "LEONARDTOWN", "state": "MD", "street": "22735 WASHINGTON ST", "postcode": "20650"}}},
{"geometry": {"type": "Point", "coordinates": [-76.63645315, 38.2899525466]}, "type": "Feature", "properties": {"collection_times": [{"days": "Mon-Fri", "time": "5:00pm"}, {"days": "Sat", "time": "12:00pm"}, {"days": "Sun", "time": "Closed"}], "id": "2065000012", "name": "USPS COLLECTION BOX - PO LOBBY", "address": {"city": "LEONARDTOWN", "state": "MD", "street": "22735 WASHINGTON ST", "postcode": "20650"}}},
{"geometry": {"type": "Point", "coordinates": [-76.63645315, 38.2899525466]}, "type": "Feature", "properties": {"collection_times": [{"days": "Mon-Fri", "time": "5:00pm"}, {"days": "Sat", "time": "12:00pm"}, {"days": "Sun", "time": "Closed"}], "id": "2065000013", "name": "USPS COLLECTION BOX - PO LOBBY", "address": {"city": "LEONARDTOWN", "state": "MD", "street": "22735 WASHINGTON ST", "postcode": "20650"}}},
{"geometry": {"type": "Point", "coordinates": [-76.6254462864, 38.2702429722]}, "type": "Feature", "properties": {"collection_times": [{"days": "Mon-Fri", "time": "1:00pm"}, {"days": "Sat-Sun", "time": "Closed"}], "id": "2065000015", "name": "USPS COLLECTION BOX - BLUE BOX", "address": {"city": "LEONARDTOWN", "state": "MD", "street": "28085 POINT LOOKOUT RD", "postcode": "20650"}}},
{"geometry": {"type": "Point", "coordinates": [-76.4540021886, 38.2651946606]}, "type": "Feature", "properties": {"collection_times": [{"days": "Mon-Fri", "time": "3:30pm"}, {"days": "Sat", "time": "1:45pm"}, {"days": "Sun", "time": "Closed"}], "id": "2065300001", "name": "USPS COLLECTION BOX - BLUE BOX", "address": {"city": "LEXINGTON PARK", "state": "MD", "street": "21800 MILLISON PLZ", "postcode": "20653"}}},
{"geometry": {"type": "Point", "coordinates": [-76.4694713399, 38.2640836438]}, "type": "Feature", "properties": {"collection_times": [{"days": "Mon-Fri", "time": "3:30pm"}, {"days": "Sat", "time": "1:45pm"}, {"days": "Sun", "time": "Closed"}], "id": "2065300007", "name": "USPS COLLECTION BOX - BLUE BOX", "address": {"city": "LEXINGTON PARK", "state": "MD", "street": "46727 MIDWAY DR", "postcode": "20653"}}},
{"geometry": {"type": "Point", "coordinates": [-76.4637619388, 38.261291155]}, "type": "Feature", "properties": {"collection_times": [{"days": "Mon-Fri", "time": "3:30pm"}, {"days": "Sat", "time": "1:45pm"}, {"days": "Sun", "time": "Closed"}], "id": "2065300008", "name": "USPS COLLECTION BOX - BLUE BOX", "address": {"city": "LEXINGTON PARK", "state": "MD", "street": "21625 GREAT MILLS RD", "postcode": "20653"}}},
{"geometry": {"type": "Point", "coordinates": [-76.4594852041, 38.2606598716]}, "type": "Feature", "properties": {"collection_times": [{"days": "Mon-Fri", "time": "3:30pm"}, {"days": "Sat", "time": "1:45pm"}, {"days": "Sun", "time": "Closed"}], "id": "2065300012", "name": "USPS COLLECTION BOX - BLUE BOX", "address": {"city": "LEXINGTON PARK", "state": "MD", "street": "46940 S SHANGRI LA DR", "postcode": "20653"}}},
{"geometry": {"type": "Point", "coordinates": [-76.4510242309, 38.2638325026]}, "type": "Feature", "properties": {"collection_times": [{"days": "Mon-Fri", "time": "4:30pm"}, {"days": "Sat", "time": "3:30pm"}, {"days": "Sun", "time": "Closed"}], "id": "2065300015", "name": "USPS COLLECTION BOX - BLUE BOX", "address": {"city": "LEXINGTON PARK", "state": "MD", "street": "21745 S CORAL DR", "postcode": "20653"}}},
{"geometry": {"type": "Point", "coordinates": [-76.4510242309, 38.2638325026]}, "type": "Feature", "properties": {"collection_times": [{"days": "Mon-Fri", "time": "4:30pm"}, {"days": "Sat", "time": "3:30pm"}, {"days": "Sun", "time": "Closed"}], "id": "2065300017", "name": "USPS COLLECTION BOX - BLUE BOX", "address": {"city": "LEXINGTON PARK", "state": "MD", "street": "21745 S CORAL DR", "postcode": "20653"}}},
{"geometry": {"type": "Point", "coordinates": [-76.4510242309, 38.2638325026]}, "type": "Feature", "properties": {"collection_times": [{"days": "Mon-Fri", "time": "4:30pm"}, {"days": "Sat", "time": "3:30pm"}, {"days": "Sun", "time": "Closed"}], "id": "2065300027", "name": "USPS COLLECTION BOX - BLUE BOX", "address": {"city": "LEXINGTON PARK", "state": "MD", "street": "21745 S CORAL DR", "postcode": "20653"}}},
{"geometry": {"type": "Point", "coordinates": [-76.4510242309, 38.2638325026]}, "type": "Feature", "properties": {"collection_times": [{"days": "Mon-Fri", "time": "5:00pm"}, {"days": "Sat", "time": "1:00pm"}, {"days": "Sun", "time": "Closed"}], "id": "2065300030", "name": "USPS COLLECTION BOX - PO LOBBY", "address": {"city": "LEXINGTON PARK", "state": "MD", "street": "21745 S CORAL DR", "postcode": "20653"}}},
{"geometry": {"type": "Point", "coordinates": [-76.6801735066, 38.3535135485]}, "type": "Feature", "properties": {"collection_times": [{"days": "Mon-Fri", "time": "4:30pm"}, {"days": "Sat", "time": "12:00pm"}, {"days": "Sun", "time": "Closed"}], "id": "2065600000", "name": "USPS COLLECTION BOX - BLUE BOX", "address": {"city": "LOVEVILLE", "state": "MD", "street": "27780 POINT LOOKOUT RD", "postcode": "20656"}}},
{"geometry": {"type": "Point", "coordinates": [-76.6801735066, 38.3535135485]}, "type": "Feature", "properties": {"collection_times": [{"days": "Mon-Fri", "time": "4:30pm"}, {"days": "Sat", "time": "12:00pm"}, {"days": "Sun", "time": "Closed"}], "id": "2065600001", "name": "USPS COLLECTION BOX - PO LOBBY", "address": {"city": "LOVEVILLE", "state": "MD", "street": "27780 POINT LOOKOUT RD", "postcode": "20656"}}},
{"geometry": {"type": "Point", "coordinates": [-76.4327114055, 38.3756776533]}, "type": "Feature", "properties": {"collection_times": [{"days": "Mon-Fri", "time": "4:30pm"}, {"days": "Sat", "time": "12:30pm"}, {"days": "Sun", "time": "Closed"}], "id": "2065700001", "name": "USPS COLLECTION BOX - BLUE BOX", "address": {"city": "LUSBY", "state": "MD", "street": "11575 LUSBY LN", "postcode": "20657"}}},
{"geometry": {"type": "Point", "coordinates": [-76.4472784699, 38.3688201066]}, "type": "Feature", "properties": {"collection_times": [{"days": "Mon-Sat", "time": "10:00am"}, {"days": "Sun", "time": "Closed"}], "id": "2065700005", "name": "USPS COLLECTION BOX - BLUE BOX", "address": {"city": "LUSBY", "state": "MD", "street": "11859 HG TRUEMAN RD", "postcode": "20657"}}},
{"geometry": {"type": "Point", "coordinates": [-76.4081425307, 38.3644194328]}, "type": "Feature", "properties": {"collection_times": [{"days": "Mon-Sat", "time": "10:30am"}, {"days": "Sun", "time": "Closed"}], "id": "2065700007", "name": "USPS COLLECTION BOX - BLUE BOX", "address": {"city": "LUSBY", "state": "MD", "street": "11705 BIG SANDY RUN RD", "postcode": "20657"}}},
{"geometry": {"type": "Point", "coordinates": [-76.4327114055, 38.3756776533]}, "type": "Feature", "properties": {"collection_times": [{"days": "Mon-Fri", "time": "4:30pm"}, {"days": "Sat", "time": "12:30pm"}, {"days": "Sun", "time": "Closed"}], "id": "2065700009", "name": "USPS COLLECTION BOX - PO LOBBY", "address": {"city": "LUSBY", "state": "MD", "street": "11575 LUSBY LN", "postcode": "20657"}}},
{"geometry": {"type": "Point", "coordinates": [-76.4327114055, 38.3756776533]}, "type": "Feature", "properties": {"collection_times": [{"days": "Mon-Fri", "time": "4:30pm"}, {"days": "Sat", "time": "12:30pm"}, {"days": "Sun", "time": "Closed"}], "id": "2065700010", "name": "USPS COLLECTION BOX - PO LOBBY", "address": {"city": "LUSBY", "state": "MD", "street": "11575 LUSBY LN", "postcode": "20657"}}},
{"geometry": {"type": "Point", "coordinates": [-76.4327114055, 38.3756776533]}, "type": "Feature", "properties": {"collection_times": [{"days": "Mon-Fri", "time": "4:30pm"}, {"days": "Sat", "time": "12:30pm"}, {"days": "Sun", "time": "Closed"}], "id": "2065700011", "name": "USPS COLLECTION BOX - PO LOBBY", "address": {"city": "LUSBY", "state": "MD", "street": "11575 LUSBY LN", "postcode": "20657"}}},
{"geometry": {"type": "Point", "coordinates": [-77.15553009, 38.5717968712]}, "type": "Feature", "properties": {"collection_times": [{"days": "Mon-Fri", "time": "4:30pm"}, {"days": "Sat", "time": "11:30am"}, {"days": "Sun", "time": "Closed"}], "id": "2065800000", "name": "USPS COLLECTION BOX - BLUE BOX", "address": {"city": "MARBURY", "state": "MD", "street": "4570 BICKNELL RD", "postcode": "20658"}}},
{"geometry": {"type": "Point", "coordinates": [-77.15553009, 38.5717968712]}, "type": "Feature", "properties": {"collection_times": [{"days": "Mon-Fri", "time": "5:00pm"}, {"days": "Sat", "time": "12:00pm"}, {"days": "Sun", "time": "Closed"}], "id": "2065800001", "name": "USPS COLLECTION BOX - PO LOBBY", "address": {"city": "MARBURY", "state": "MD", "street": "4570 BICKNELL RD", "postcode": "20658"}}},
{"geometry": {"type": "Point", "coordinates": [-77.16089, 38.5668]}, "type": "Feature", "properties": {"collection_times": [{"days": "Mon-Sat", "time": "2:00pm"}, {"days": "Sun", "time": "Closed"}], "id": "2065800002", "name": "USPS COLLECTION BOX - BLUE BOX", "address": {"city": "MARBURY", "state": "MD", "street": "4000 CHICAMUXEN RD", "postcode": "20658"}}},
{"geometry": {"type": "Point", "coordinates": [-76.7639308938, 38.4614886469]}, "type": "Feature", "properties": {"collection_times": [{"days": "Mon-Fri", "time": "4:50pm"}, {"days": "Sat", "time": "2:30pm"}, {"days": "Sun", "time": "Closed"}], "id": "2065900000", "name": "USPS COLLECTION BOX - BLUE BOX", "address": {"city": "MECHANICSVILLE", "state": "MD", "street": "28948 THREE NOTCH RD", "postcode": "20659"}}},
{"geometry": {"type": "Point", "coordinates": [-76.7639308938, 38.4614886469]}, "type": "Feature", "properties": {"collection_times": [{"days": "Mon-Fri", "time": "4:50pm"}, {"days": "Sat", "time": "2:30pm"}, {"days": "Sun", "time": "Closed"}], "id": "2065900001", "name": "USPS COLLECTION BOX - PO LOBBY", "address": {"city": "MECHANICSVILLE", "state": "MD", "street": "28948 THREE NOTCH RD", "postcode": "20659"}}},
{"geometry": {"type": "Point", "coordinates": [-76.7639308938, 38.4614886469]}, "type": "Feature", "properties": {"collection_times": [{"days": "Mon-Fri", "time": "4:50pm"}, {"days": "Sat", "time": "2:30pm"}, {"days": "Sun", "time": "Closed"}], "id": "2065900002", "name": "USPS COLLECTION BOX - PO LOBBY", "address": {"city": "MECHANICSVILLE", "state": "MD", "street": "28948 THREE NOTCH RD", "postcode": "20659"}}},
{"geometry": {"type": "Point", "coordinates": [-76.6959320743, 38.37528451]}, "type": "Feature", "properties": {"collection_times": [{"days": "Mon-Fri", "time": "4:00pm"}, {"days": "Sat", "time": "12:00pm"}, {"days": "Sun", "time": "Closed"}], "id": "2066000000", "name": "USPS COLLECTION BOX - BLUE BOX", "address": {"city": "MORGANZA", "state": "MD", "street": "39600 DOCTOR JOHNSON RD", "postcode": "20660"}}},
{"geometry": {"type": "Point", "coordinates": [-76.6959320743, 38.37528451]}, "type": "Feature", "properties": {"collection_times": [{"days": "Mon-Fri", "time": "4:00pm"}, {"days": "Sat", "time": "12:00pm"}, {"days": "Sun", "time": "Closed"}], "id": "2066000001", "name": "USPS COLLECTION BOX - PO LOBBY", "address": {"city": "MORGANZA", "state": "MD", "street": "39600 DOCTOR JOHNSON RD", "postcode": "20660"}}},
{"geometry": {"type": "Point", "coordinates": [-77.21706432, 38.4549974431]}, "type": "Feature", "properties": {"collection_times": [{"days": "Mon-Fri", "time": "4:45pm"}, {"days": "Sat", "time": "12:00pm"}, {"days": "Sun", "time": "Closed"}], "id": "2066200000", "name": "USPS COLLECTION BOX - BLUE BOX", "address": {"city": "NANJEMOY", "state": "MD", "street": "9365 BEAVER DAM RD", "postcode": "20662"}}},
{"geometry": {"type": "Point", "coordinates": [-77.21706432, 38.4549974431]}, "type": "Feature", "properties": {"collection_times": [{"days": "Mon-Fri", "time": "5:00pm"}, {"days": "Sat", "time": "12:00pm"}, {"days": "Sun", "time": "Closed"}], "id": "2066200001", "name": "USPS COLLECTION BOX - PO LOBBY", "address": {"city": "NANJEMOY", "state": "MD", "street": "9365 BEAVER DAM RD", "postcode": "20662"}}},
{"geometry": {"type": "Point", "coordinates": [-77.1956891532, 38.4424007344]}, "type": "Feature", "properties": {"collection_times": [{"days": "Mon-Sat", "time": "11:00am"}, {"days": "Sun", "time": "Closed"}], "id": "2066200002", "name": "USPS COLLECTION BOX - BLUE BOX", "address": {"city": "NANJEMOY", "state": "MD", "street": "1970 LIVERPOOL POINT RD", "postcode": "20662"}}},
{"geometry": {"type": "Point", "coordinates": [-76.9537019121, 38.3780329246]}, "type": "Feature", "properties": {"collection_times": [{"days": "Mon-Fri", "time": "4:00pm"}, {"days": "Sat", "time": "12:00pm"}, {"days": "Sun", "time": "Closed"}], "id": "2066400000", "name": "USPS COLLECTION BOX - BLUE BOX", "address": {"city": "NEWBURG", "state": "MD", "street": "12179 ROCK POINT RD", "postcode": "20664"}}},
{"geometry": {"type": "Point", "coordinates": [-76.9537019121, 38.3780329246]}, "type": "Feature", "properties": {"collection_times": [{"days": "Mon-Fri", "time": "4:00pm"}, {"days": "Sat", "time": "12:00pm"}, {"days": "Sun", "time": "Closed"}], "id": "2066400001", "name": "USPS COLLECTION BOX - PO LOBBY", "address": {"city": "NEWBURG", "state": "MD", "street": "12179 ROCK POINT RD", "postcode": "20664"}}},
{"geometry": {"type": "Point", "coordinates": [-76.4388393836, 38.2217818727]}, "type": "Feature", "properties": {"collection_times": [{"days": "Mon-Fri", "time": "4:15pm"}, {"days": "Sat", "time": "11:45am"}, {"days": "Sun", "time": "Closed"}], "id": "2066700000", "name": "USPS COLLECTION BOX - BLUE BOX", "address": {"city": "PARK HALL", "state": "MD", "street": "18400 POINT LOOKOUT RD", "postcode": "20667"}}},
{"geometry": {"type": "Point", "coordinates": [-76.4388393836, 38.2217818727]}, "type": "Feature", "properties": {"collection_times": [{"days": "Mon-Fri", "time": "4:15pm"}, {"days": "Sat", "time": "11:45am"}, {"days": "Sun", "time": "Closed"}], "id": "2066700001", "name": "USPS COLLECTION BOX - PO LOBBY", "address": {"city": "PARK HALL", "state": "MD", "street": "18400 POINT LOOKOUT RD", "postcode": "20667"}}},
{"geometry": {"type": "Point", "coordinates": [-76.451128241, 38.2664857004]}, "type": "Feature", "properties": {"collection_times": [{"days": "Mon-Fri", "time": "4:45pm"}, {"days": "Sat", "time": "1:30pm"}, {"days": "Sun", "time": "Closed"}], "id": "2067000001", "name": "USPS COLLECTION BOX - BLUE BOX", "address": {"city": "PATUXENT RIVER", "state": "MD", "street": "459 CEDAR POINT RD", "postcode": "20670"}}},
{"geometry": {"type": "Point", "coordinates": [-76.4230788374, 38.2878153015]}, "type": "Feature", "properties": {"collection_times": [{"days": "Mon-Fri", "time": "2:45pm"}, {"days": "Sat", "time": "10:30am"}, {"days": "Sun", "time": "Closed"}], "id": "2067000003", "name": "USPS COLLECTION BOX - BLUE BOX", "address": {"city": "PATUXENT RIVER", "state": "MD", "street": "1500 MEMQ", "postcode": "20670"}}},
{"geometry": {"type": "Point", "coordinates": [-76.4081765105, 38.2703399119]}, "type": "Feature", "properties": {"collection_times": [{"days": "Mon-Fri", "time": "3:00pm"}, {"days": "Sat", "time": "10:30am"}, {"days": "Sun", "time": "Closed"}], "id": "2067000005", "name": "USPS COLLECTION BOX - BLUE BOX", "address": {"city": "PATUXENT RIVER", "state": "MD", "street": "47298 TATE RD # VX-1", "postcode": "20670"}}},
{"geometry": {"type": "Point", "coordinates": [-76.4391361598, 38.2600114276]}, "type": "Feature", "properties": {"collection_times": [{"days": "Mon-Fri", "time": "3:05pm"}, {"days": "Sat", "time": "10:30am"}, {"days": "Sun", "time": "Closed"}], "id": "2067000007", "name": "USPS COLLECTION BOX - BLUE BOX", "address": {"city": "PATUXENT RIVER", "state": "MD", "street": "22095 FORTIN CIR", "postcode": "20670"}}},
{"geometry": {"type": "Point", "coordinates": [-76.4511294719, 38.2759796941]}, "type": "Feature", "properties": {"collection_times": [{"days": "Mon-Fri", "time": "2:25pm"}, {"days": "Sat", "time": "10:30am"}, {"days": "Sun", "time": "Closed"}], "id": "2067000008", "name": "USPS COLLECTION BOX - BLUE BOX", "address": {"city": "PATUXENT RIVER", "state": "MD", "street": "47149 BUSE RD", "postcode": "20670"}}},
{"geometry": {"type": "Point", "coordinates": [-76.4230788374, 38.2878153015]}, "type": "Feature", "properties": {"collection_times": [{"days": "Mon-Fri", "time": "2:45pm"}, {"days": "Sat", "time": "10:30am"}, {"days": "Sun", "time": "Closed"}], "id": "2067000010", "name": "USPS COLLECTION BOX - BLUE BOX", "address": {"city": "PATUXENT RIVER", "state": "MD", "street": "1600 MOQ", "postcode": "20670"}}},
{"geometry": {"type": "Point", "coordinates": [-76.4230788374, 38.2878153015]}, "type": "Feature", "properties": {"collection_times": [{"days": "Mon-Fri", "time": "2:00pm"}, {"days": "Sat", "time": "10:30am"}, {"days": "Sun", "time": "Closed"}], "id": "2067000012", "name": "USPS COLLECTION BOX - BLUE BOX", "address": {"city": "PATUXENT RIVER", "state": "MD", "street": "900 MOQ", "postcode": "20670"}}},
{"geometry": {"type": "Point", "coordinates": [-76.4259948677, 38.2844098928]}, "type": "Feature", "properties": {"collection_times": [{"days": "Mon-Fri", "time": "3:20pm"}, {"days": "Sat", "time": "10:30am"}, {"days": "Sun", "time": "Closed"}], "id": "2067000013", "name": "USPS COLLECTION BOX - BLUE BOX", "address": {"city": "PATUXENT RIVER", "state": "MD", "street": "22268 CEDAR POINT RD", "postcode": "20670"}}},
{"geometry": {"type": "Point", "coordinates": [-76.4515287603, 38.2782185635]}, "type": "Feature", "properties": {"collection_times": [{"days": "Mon-Fri", "time": "1:30pm"}, {"days": "Sat", "time": "10:30am"}, {"days": "Sun", "time": "Closed"}], "id": "2067000014", "name": "USPS COLLECTION BOX - BLUE BOX", "address": {"city": "PATUXENT RIVER", "state": "MD", "street": "22099 CUDDIHY ROAD-NEX", "postcode": "20670"}}},
{"geometry": {"type": "Point", "coordinates": [-76.448202848, 38.2728923459]}, "type": "Feature", "properties": {"collection_times": [{"days": "Mon-Fri", "time": "2:35pm"}, {"days": "Sat", "time": "10:30am"}, {"days": "Sun", "time": "Closed"}], "id": "2067000015", "name": "USPS COLLECTION BOX - BLUE BOX", "address": {"city": "PATUXENT RIVER", "state": "MD", "street": "47082 LILJENCRANTZ RD", "postcode": "20670"}}},
{"geometry": {"type": "Point", "coordinates": [-76.4496604499, 38.2775039857]}, "type": "Feature", "properties": {"collection_times": [{"days": "Mon-Fri", "time": "2:55pm"}, {"days": "Sat", "time": "10:30am"}, {"days": "Sun", "time": "Closed"}], "id": "2067000017", "name": "USPS COLLECTION BOX - BLUE BOX", "address": {"city": "PATUXENT RIVER", "state": "MD", "street": "47033 MCLEOD RD", "postcode": "20670"}}},
{"geometry": {"type": "Point", "coordinates": [-76.4465703266, 38.2756973225]}, "type": "Feature", "properties": {"collection_times": [{"days": "Mon-Fri", "time": "12:00pm"}, {"days": "Sat", "time": "10:30am"}, {"days": "Sun", "time": "Closed"}], "id": "2067000018", "name": "USPS COLLECTION BOX - BLUE BOX", "address": {"city": "PATUXENT RIVER", "state": "MD", "street": "1400 BUSE RD", "postcode": "20670"}}},
{"geometry": {"type": "Point", "coordinates": [-76.4230788374, 38.2878153015]}, "type": "Feature", "properties": {"collection_times": [{"days": "Mon-Fri", "time": "3:15pm"}, {"days": "Sat", "time": "10:30am"}, {"days": "Sun", "time": "Closed"}], "id": "2067000019", "name": "USPS COLLECTION BOX - BLUE BOX", "address": {"city": "PATUXENT RIVER", "state": "MD", "street": "715 MEMQ", "postcode": "20670"}}},
{"geometry": {"type": "Point", "coordinates": [-76.4507325377, 38.2673251224]}, "type": "Feature", "properties": {"collection_times": [{"days": "Mon-Fri", "time": "10:50am"}, {"days": "Sat", "time": "10:30am"}, {"days": "Sun", "time": "Closed"}], "id": "2067000021", "name": "USPS COLLECTION BOX - BLUE BOX", "address": {"city": "PATUXENT RIVER", "state": "MD", "street": "22103 MANDT RD", "postcode": "20670"}}},
{"geometry": {"type": "Point", "coordinates": [-76.4248823928, 38.2917046275]}, "type": "Feature", "properties": {"collection_times": [{"days": "Mon-Fri", "time": "2:50pm"}, {"days": "Sat", "time": "10:30am"}, {"days": "Sun", "time": "Closed"}], "id": "2067000022", "name": "USPS COLLECTION BOX - BLUE BOX", "address": {"city": "PATUXENT RIVER", "state": "MD", "street": "22347 CEDAR POINT RD", "postcode": "20670"}}},
{"geometry": {"type": "Point", "coordinates": [-76.4203762926, 38.2658226601]}, "type": "Feature", "properties": {"collection_times": [{"days": "Mon-Fri", "time": "10:15am"}, {"days": "Sat", "time": "10:30am"}, {"days": "Sun", "time": "Closed"}], "id": "2067000023", "name": "USPS COLLECTION BOX - BLUE BOX", "address": {"city": "PATUXENT RIVER", "state": "MD", "street": "48150 SHAW RD", "postcode": "20670"}}},
{"geometry": {"type": "Point", "coordinates": [-76.4205691137, 38.2649368931]}, "type": "Feature", "properties": {"collection_times": [{"days": "Mon-Fri", "time": "10:00am"}, {"days": "Sat", "time": "10:30am"}, {"days": "Sun", "time": "Closed"}], "id": "2067000024", "name": "USPS COLLECTION BOX - BLUE BOX", "address": {"city": "PATUXENT RIVER", "state": "MD", "street": "48110 SHAW RD", "postcode": "20670"}}},
{"geometry": {"type": "Point", "coordinates": [-76.4388711539, 38.2865226315]}, "type": "Feature", "properties": {"collection_times": [{"days": "Mon-Fri", "time": "2:55pm"}, {"days": "Sat", "time": "10:30am"}, {"days": "Sun", "time": "Closed"}], "id": "2067000026", "name": "USPS COLLECTION BOX - BLUE BOX", "address": {"city": "PATUXENT RIVER", "state": "MD", "street": "22541 MILLSTONE RD", "postcode": "20670"}}},
{"geometry": {"type": "Point", "coordinates": [-76.451128241, 38.2664857004]}, "type": "Feature", "properties": {"collection_times": [{"days": "Mon-Fri", "time": "4:45pm"}, {"days": "Sat", "time": "1:30pm"}, {"days": "Sun", "time": "Closed"}], "id": "2067000027", "name": "USPS COLLECTION BOX - PO LOBBY", "address": {"city": "PATUXENT RIVER", "state": "MD", "street": "459 CEDAR POINT RD", "postcode": "20670"}}},
{"geometry": {"type": "Point", "coordinates": [-76.51159899, 38.1461659792]}, "type": "Feature", "properties": {"collection_times": [{"days": "Mon-Fri", "time": "4:20pm"}, {"days": "Sat", "time": "12:00pm"}, {"days": "Sun", "time": "Closed"}], "id": "2067400000", "name": "USPS COLLECTION BOX - BLUE BOX", "address": {"city": "PINEY POINT", "state": "MD", "street": "17160 PINEY POINT RD", "postcode": "20674"}}},
{"geometry": {"type": "Point", "coordinates": [-76.51159899, 38.1461659792]}, "type": "Feature", "properties": {"collection_times": [{"days": "Mon-Fri", "time": "4:15pm"}, {"days": "Sat", "time": "12:00pm"}, {"days": "Sun", "time": "Closed"}], "id": "2067400001", "name": "USPS COLLECTION BOX - PO LOBBY", "address": {"city": "PINEY POINT", "state": "MD", "street": "17160 PINEY POINT RD", "postcode": "20674"}}},
{"geometry": {"type": "Point", "coordinates": [-77.0270323554, 38.5841528776]}, "type": "Feature", "properties": {"collection_times": [{"days": "Mon-Fri", "time": "5:00pm"}, {"days": "Sat", "time": "12:00pm"}, {"days": "Sun", "time": "Closed"}], "id": "2067500000", "name": "USPS COLLECTION BOX - BLUE BOX", "address": {"city": "POMFRET", "state": "MD", "street": "8205 MARSHALL CORNER RD", "postcode": "20675"}}},
{"geometry": {"type": "Point", "coordinates": [-77.0270323554, 38.5841528776]}, "type": "Feature", "properties": {"collection_times": [{"days": "Mon-Fri", "time": "5:00pm"}, {"days": "Sat", "time": "12:00pm"}, {"days": "Sun", "time": "Closed"}], "id": "2067500001", "name": "USPS COLLECTION BOX - PO LOBBY", "address": {"city": "POMFRET", "state": "MD", "street": "8205 MARSHALL CORNER RD", "postcode": "20675"}}},
{"geometry": {"type": "Point", "coordinates": [-76.5198623584, 38.4983623275]}, "type": "Feature", "properties": {"collection_times": [{"days": "Mon-Fri", "time": "4:30pm"}, {"days": "Sat", "time": "12:00pm"}, {"days": "Sun", "time": "Closed"}], "id": "2067600000", "name": "USPS COLLECTION BOX - BLUE BOX", "address": {"city": "PORT REPUBLIC", "state": "MD", "street": "3000 SAINT LEONARD RD", "postcode": "20676"}}},
{"geometry": {"type": "Point", "coordinates": [-76.5198623584, 38.4983623275]}, "type": "Feature", "properties": {"collection_times": [{"days": "Mon-Fri", "time": "4:30pm"}, {"days": "Sat", "time": "12:00pm"}, {"days": "Sun", "time": "Closed"}], "id": "2067600001", "name": "USPS COLLECTION BOX - PO LOBBY", "address": {"city": "PORT REPUBLIC", "state": "MD", "street": "3000 SAINT LEONARD RD", "postcode": "20676"}}},
{"geometry": {"type": "Point", "coordinates": [-77.0365328183, 38.509595274]}, "type": "Feature", "properties": {"collection_times": [{"days": "Mon-Fri", "time": "4:15pm"}, {"days": "Sat", "time": "11:45am"}, {"days": "Sun", "time": "Closed"}], "id": "2067700000", "name": "USPS COLLECTION BOX - BLUE BOX", "address": {"city": "PORT TOBACCO", "state": "MD", "street": "8200 PORT TOBACCO RD", "postcode": "20677"}}},
{"geometry": {"type": "Point", "coordinates": [-77.0365328183, 38.509595274]}, "type": "Feature", "properties": {"collection_times": [{"days": "Mon-Fri", "time": "4:15pm"}, {"days": "Sat", "time": "11:45am"}, {"days": "Sun", "time": "Closed"}], "id": "2067700001", "name": "USPS COLLECTION BOX - PO LOBBY", "address": {"city": "PORT TOBACCO", "state": "MD", "street": "8200 PORT TOBACCO RD", "postcode": "20677"}}},
{"geometry": {"type": "Point", "coordinates": [-76.5979045272, 38.5605410166]}, "type": "Feature", "properties": {"collection_times": [{"days": "Mon-Sat", "time": "10:30am"}, {"days": "Sun", "time": "Closed"}], "id": "2067800005", "name": "USPS COLLECTION BOX - BLUE BOX", "address": {"city": "PRNC FREDERCK", "state": "MD", "street": "110 HOSPITAL RD", "postcode": "20678"}}},
{"geometry": {"type": "Point", "coordinates": [-76.6419212473, 38.508639875]}, "type": "Feature", "properties": {"collection_times": [{"days": "Mon-Fri", "time": "11:00am"}, {"days": "Sat", "time": "10:00am"}, {"days": "Sun", "time": "Closed"}], "id": "2067800006", "name": "USPS COLLECTION BOX - BLUE BOX", "address": {"city": "PRNC FREDERCK", "state": "MD", "street": "101 SKIPJACK RD", "postcode": "20678"}}},
{"geometry": {"type": "Point", "coordinates": [-76.5848115374, 38.5364784483]}, "type": "Feature", "properties": {"collection_times": [{"days": "Mon-Fri", "time": "4:30pm"}, {"days": "Sat", "time": "1:00pm"}, {"days": "Sun", "time": "Closed"}], "id": "2067800008", "name": "USPS COLLECTION BOX - BLUE BOX", "address": {"city": "PRNC FREDERCK", "state": "MD", "street": "35 DUKE ST", "postcode": "20678"}}},
{"geometry": {"type": "Point", "coordinates": [-76.5848115374, 38.5364784483]}, "type": "Feature", "properties": {"collection_times": [{"days": "Mon-Fri", "time": "4:30pm"}, {"days": "Sat", "time": "1:00pm"}, {"days": "Sun", "time": "Closed"}], "id": "2067800009", "name": "USPS COLLECTION BOX - BLUE BOX", "address": {"city": "PRNC FREDERCK", "state": "MD", "street": "35 DUKE ST", "postcode": "20678"}}},
{"geometry": {"type": "Point", "coordinates": [-76.5969687347, 38.5561890884]}, "type": "Feature", "properties": {"collection_times": [{"days": "Mon-Fri", "time": "1:30pm"}, {"days": "Sat", "time": "12:30pm"}, {"days": "Sun", "time": "Closed"}], "id": "2067800011", "name": "USPS COLLECTION BOX - BLUE BOX", "address": {"city": "PRNC FREDERCK", "state": "MD", "street": "770 SOLOMONS ISLAND RD N", "postcode": "20678"}}},
{"geometry": {"type": "Point", "coordinates": [-76.5914372905, 38.5511530543]}, "type": "Feature", "properties": {"collection_times": [{"days": "Mon-Sat", "time": "10:30am"}, {"days": "Sun", "time": "Closed"}], "id": "2067800014", "name": "USPS COLLECTION BOX - BLUE BOX", "address": {"city": "PRNC FREDERCK", "state": "MD", "street": "205 STEEPLE CHASE DR", "postcode": "20678"}}},
{"geometry": {"type": "Point", "coordinates": [-76.5848115374, 38.5364784483]}, "type": "Feature", "properties": {"collection_times": [{"days": "Mon-Fri", "time": "5:00pm"}, {"days": "Sat", "time": "12:30pm"}, {"days": "Sun", "time": "Closed"}], "id": "2067800015", "name": "USPS COLLECTION BOX - PO LOBBY", "address": {"city": "PRNC FREDERCK", "state": "MD", "street": "35 DUKE ST", "postcode": "20678"}}},
{"geometry": {"type": "Point", "coordinates": [-76.5848115374, 38.5364784483]}, "type": "Feature", "properties": {"collection_times": [{"days": "Mon-Fri", "time": "5:00pm"}, {"days": "Sat", "time": "12:00pm"}, {"days": "Sun", "time": "Closed"}], "id": "2067800016", "name": "USPS COLLECTION BOX - PO LOBBY", "address": {"city": "PRNC FREDERCK", "state": "MD", "street": "35 DUKE ST", "postcode": "20678"}}},
{"geometry": {"type": "Point", "coordinates": [-76.3659503898, 38.1063208034]}, "type": "Feature", "properties": {"collection_times": [{"days": "Mon-Fri", "time": "4:00pm"}, {"days": "Sat", "time": "11:30am"}, {"days": "Sun", "time": "Closed"}], "id": "2068000000", "name": "USPS COLLECTION BOX - BLUE BOX", "address": {"city": "RIDGE", "state": "MD", "street": "13274 POINT LOOKOUT RD", "postcode": "20680"}}},
{"geometry": {"type": "Point", "coordinates": [-76.3659503898, 38.1063208034]}, "type": "Feature", "properties": {"collection_times": [{"days": "Mon-Fri", "time": "4:00pm"}, {"days": "Sat", "time": "12:00pm"}, {"days": "Sun", "time": "Closed"}], "id": "2068000001", "name": "USPS COLLECTION BOX - PO LOBBY", "address": {"city": "RIDGE", "state": "MD", "street": "13274 POINT LOOKOUT RD", "postcode": "20680"}}},
{"geometry": {"type": "Point", "coordinates": [-76.3936775814, 38.1524615387]}, "type": "Feature", "properties": {"collection_times": [{"days": "Mon-Fri", "time": "4:30pm"}, {"days": "Sat", "time": "12:00pm"}, {"days": "Sun", "time": "Closed"}], "id": "2068400000", "name": "USPS COLLECTION BOX - BLUE BOX", "address": {"city": "SAINT INIGOES", "state": "MD", "street": "15066 POINT LOOKOUT RD", "postcode": "20684"}}},
{"geometry": {"type": "Point", "coordinates": [-76.4073791503, 38.1554913313]}, "type": "Feature", "properties": {"collection_times": [{"days": "Mon-Fri", "time": "4:30pm"}, {"days": "Sat", "time": "12:00pm"}, {"days": "Sun", "time": "Closed"}], "id": "2068400001", "name": "USPS COLLECTION BOX - EXPRESS", "address": {"city": "SAINT INIGOES", "state": "MD", "street": "15066 POINT LOOKOUT RD", "postcode": "20684"}}},
{"geometry": {"type": "Point", "coordinates": [-76.3936775814, 38.1524615387]}, "type": "Feature", "properties": {"collection_times": [{"days": "Mon-Fri", "time": "4:30pm"}, {"days": "Sat", "time": "12:00pm"}, {"days": "Sun", "time": "Closed"}], "id": "2068400002", "name": "USPS COLLECTION BOX - PO LOBBY", "address": {"city": "SAINT INIGOES", "state": "MD", "street": "15066 POINT LOOKOUT RD", "postcode": "20684"}}},
{"geometry": {"type": "Point", "coordinates": [-76.5036211576, 38.4678963609]}, "type": "Feature", "properties": {"collection_times": [{"days": "Mon-Fri", "time": "4:30pm"}, {"days": "Sat", "time": "1:00pm"}, {"days": "Sun", "time": "Closed"}], "id": "2068500000", "name": "USPS COLLECTION BOX - BLUE BOX", "address": {"city": "SAINT LEONARD", "state": "MD", "street": "4244 SAINT LEONARD RD", "postcode": "20685"}}},
{"geometry": {"type": "Point", "coordinates": [-76.5036211576, 38.4678963609]}, "type": "Feature", "properties": {"collection_times": [{"days": "Mon-Fri", "time": "4:30pm"}, {"days": "Sat", "time": "1:00pm"}, {"days": "Sun", "time": "Closed"}], "id": "2068500001", "name": "USPS COLLECTION BOX - PO LOBBY", "address": {"city": "SAINT LEONARD", "state": "MD", "street": "4244 SAINT LEONARD RD", "postcode": "20685"}}},
{"geometry": {"type": "Point", "coordinates": [-76.5036211576, 38.4678963609]}, "type": "Feature", "properties": {"collection_times": [{"days": "Mon-Fri", "time": "4:30pm"}, {"days": "Sat", "time": "1:00pm"}, {"days": "Sun", "time": "Closed"}], "id": "2068500002", "name": "USPS COLLECTION BOX - PO LOBBY", "address": {"city": "SAINT LEONARD", "state": "MD", "street": "4244 SAINT LEONARD RD", "postcode": "20685"}}},
{"geometry": {"type": "Point", "coordinates": [-76.4281084163, 38.1839061896]}, "type": "Feature", "properties": {"collection_times": [{"days": "Mon-Fri", "time": "4:45pm"}, {"days": "Sat", "time": "12:00pm"}, {"days": "Sun", "time": "Closed"}], "id": "2068600000", "name": "USPS COLLECTION BOX - BLUE BOX", "address": {"city": "ST MARYS CITY", "state": "MD", "street": "16855 POINT LOOKOUT RD", "postcode": "20686"}}},
{"geometry": {"type": "Point", "coordinates": [-76.4281084163, 38.1839061896]}, "type": "Feature", "properties": {"collection_times": [{"days": "Mon-Fri", "time": "4:45pm"}, {"days": "Sat", "time": "12:00pm"}, {"days": "Sun", "time": "Closed"}], "id": "2068600001", "name": "USPS COLLECTION BOX - PO LOBBY", "address": {"city": "ST MARYS CITY", "state": "MD", "street": "16855 POINT LOOKOUT RD", "postcode": "20686"}}},
{"geometry": {"type": "Point", "coordinates": [-76.4630483614, 38.3307968897]}, "type": "Feature", "properties": {"collection_times": [{"days": "Mon-Sat", "time": "10:00am"}, {"days": "Sun", "time": "Closed"}], "id": "2068800000", "name": "USPS COLLECTION BOX - BLUE BOX", "address": {"city": "SOLOMONS", "state": "MD", "street": "13401 SHIPWRIGHT CIR", "postcode": "20688"}}},
{"geometry": {"type": "Point", "coordinates": [-76.4630483614, 38.3307968897]}, "type": "Feature", "properties": {"collection_times": [{"days": "Mon-Fri", "time": "4:00pm"}, {"days": "Sat", "time": "12:00pm"}, {"days": "Sun", "time": "Closed"}], "id": "2068800001", "name": "USPS COLLECTION BOX - BLUE BOX", "address": {"city": "SOLOMONS", "state": "MD", "street": "13946 HG TRUEMAN RD", "postcode": "20688"}}},
{"geometry": {"type": "Point", "coordinates": [-76.4630483614, 38.3307968897]}, "type": "Feature", "properties": {"collection_times": [{"days": "Mon-Fri", "time": "4:15pm"}, {"days": "Sat", "time": "12:00pm"}, {"days": "Sun", "time": "Closed"}], "id": "2068800002", "name": "USPS COLLECTION BOX - PO LOBBY", "address": {"city": "SOLOMONS", "state": "MD", "street": "13946 HG TRUEMAN RD", "postcode": "20688"}}},
{"geometry": {"type": "Point", "coordinates": [-76.5143830091, 38.1937606852]}, "type": "Feature", "properties": {"collection_times": [{"days": "Mon-Fri", "time": "4:15pm"}, {"days": "Sat", "time": "12:00pm"}, {"days": "Sun", "time": "Closed"}], "id": "2069200000", "name": "USPS COLLECTION BOX - BLUE BOX", "address": {"city": "VALLEY LEE", "state": "MD", "street": "45150 BLAKE CREEK RD", "postcode": "20692"}}},
{"geometry": {"type": "Point", "coordinates": [-76.5143830091, 38.1937606852]}, "type": "Feature", "properties": {"collection_times": [{"days": "Mon-Fri", "time": "4:15pm"}, {"days": "Sat", "time": "12:00pm"}, {"days": "Sun", "time": "Closed"}], "id": "2069200002", "name": "USPS COLLECTION BOX - PO LOBBY", "address": {"city": "VALLEY LEE", "state": "MD", "street": "45150 BLAKE CREEK RD", "postcode": "20692"}}},
{"geometry": {"type": "Point", "coordinates": [-77.0983056878, 38.4826180309]}, "type": "Feature", "properties": {"collection_times": [{"days": "Mon-Fri", "time": "5:00pm"}, {"days": "Sat", "time": "12:00pm"}, {"days": "Sun", "time": "Closed"}], "id": "2069300000", "name": "USPS COLLECTION BOX - BLUE BOX", "address": {"city": "WELCOME", "state": "MD", "street": "6204 WELCOME RD", "postcode": "20693"}}},
{"geometry": {"type": "Point", "coordinates": [-77.0983056878, 38.4826180309]}, "type": "Feature", "properties": {"collection_times": [{"days": "Mon-Fri", "time": "5:00pm"}, {"days": "Sat", "time": "12:00pm"}, {"days": "Sun", "time": "Closed"}], "id": "2069300001", "name": "USPS COLLECTION BOX - PO LOBBY", "address": {"city": "WELCOME", "state": "MD", "street": "6204 WELCOME RD", "postcode": "20693"}}},
{"geometry": {"type": "Point", "coordinates": [-76.948835219, 38.5844154945]}, "type": "Feature", "properties": {"collection_times": [{"days": "Mon-Fri", "time": "5:00pm"}, {"days": "Sat", "time": "12:00pm"}, {"days": "Sun", "time": "Closed"}], "id": "2069500002", "name": "USPS COLLECTION BOX - BLUE BOX", "address": {"city": "WHITE PLAINS", "state": "MD", "street": "4660 CRAIN HWY", "postcode": "20695"}}},
{"geometry": {"type": "Point", "coordinates": [-76.948835219, 38.5844154945]}, "type": "Feature", "properties": {"collection_times": [{"days": "Mon-Fri", "time": "5:00pm"}, {"days": "Sat", "time": "12:00pm"}, {"days": "Sun", "time": "Closed"}], "id": "2069500003", "name": "USPS COLLECTION BOX - BLUE BOX", "address": {"city": "WHITE PLAINS", "state": "MD", "street": "4660 CRAIN HWY", "postcode": "20695"}}},
{"geometry": {"type": "Point", "coordinates": [-76.948835219, 38.5844154945]}, "type": "Feature", "properties": {"collection_times": [{"days": "Mon-Fri", "time": "5:00pm"}, {"days": "Sat", "time": "12:00pm"}, {"days": "Sun", "time": "Closed"}], "id": "2069500004", "name": "USPS COLLECTION BOX - PO LOBBY", "address": {"city": "WHITE PLAINS", "state": "MD", "street": "4660 CRAIN HWY", "postcode": "20695"}}}
]}
