{"type": "FeatureCollection", "features": [
{"geometry": {"type": "Point", "coordinates": [-77.0180276718, 39.0220180407]}, "type": "Feature", "properties": {"collection_times": [{"days": "Mon-Sat", "time": "10:00am"}, {"days": "Sun", "time": "Closed"}], "id": "2090100002", "name": "USPS COLLECTION BOX - BLUE BOX", "address": {"city": "SILVER SPRING", "state": "MD", "street": "10201 BRUNETT AVE", "postcode": "20901"}}},
{"geometry": {"type": "Point", "coordinates": [-77.0217454487, 39.0165428471]}, "type": "Feature", "properties": {"collection_times": [{"days": "Mon-Sat", "time": "10:00am"}, {"days": "Sun", "time": "Closed"}], "id": "2090100003", "name": "USPS COLLECTION BOX - BLUE BOX", "address": {"city": "SILVER SPRING", "state": "MD", "street": "9811 BRUNETT", "postcode": "20901"}}},
{"geometry": {"type": "Point", "coordinates": [-77.0249027588, 39.0117920373]}, "type": "Feature", "properties": {"collection_times": [{"days": "Mon-Sat", "time": "10:00am"}, {"days": "Sun", "time": "Closed"}], "id": "2090100004", "name": "USPS COLLECTION BOX - BLUE BOX", "address": {"city": "SILVER SPRING", "state": "MD", "street": "9505 BRISTOL", "postcode": "20901"}}},
{"geometry": {"type": "Point", "coordinates": [-77.008359857, 39.0214177517]}, "type": "Feature", "properties": {"collection_times": [{"days": "Mon-Sat", "time": "10:00am"}, {"days": "Sun", "time": "Closed"}], "id": "2090100006", "name": "USPS COLLECTION BOX - BLUE BOX", "address": {"city": "SILVER SPRING", "state": "MD", "street": "11501 OAKLEAF", "postcode": "20901"}}},
{"geometry": {"type": "Point", "coordinates": [-77.0123589324, 39.0241840386]}, "type": "Feature", "properties": {"collection_times": [{"days": "Mon-Sat", "time": "10:00am"}, {"days": "Sun", "time": "Closed"}], "id": "2090100007", "name": "USPS COLLECTION BOX - BLUE BOX", "address": {"city": "SILVER SPRING", "state": "MD", "street": "10201 SUTHERLAND RD", "postcode": "20901"}}},
{"geometry": {"type": "Point", "coordinates": [-77.0156357288, 39.0270740073]}, "type": "Feature", "properties": {"collection_times": [{"days": "Mon-Sat", "time": "10:00am"}, {"days": "Sun", "time": "Closed"}], "id": "2090100009", "name": "USPS COLLECTION BOX - BLUE BOX", "address": {"city": "SILVER SPRING", "state": "MD", "street": "10425 EDGEWOOD AVE", "postcode": "20901"}}},
{"geometry": {"type": "Point", "coordinates": [-77.008359857, 39.0214177517]}, "type": "Feature", "properties": {"collection_times": [{"days": "Mon-Sat", "time": "10:00am"}, {"days": "Sun", "time": "Closed"}], "id": "2090100010", "name": "USPS COLLECTION BOX - BLUE BOX", "address": {"city": "SILVER SPRING", "state": "MD", "street": "10800 GLENWILD", "postcode": "20901"}}},
{"geometry": {"type": "Point", "coordinates": [-77.00902772, 39.0123982184]}, "type": "Feature", "properties": {"collection_times": [{"days": "Mon-Sat", "time": "10:00am"}, {"days": "Sun", "time": "Closed"}], "id": "2090100011", "name": "USPS COLLECTION BOX - BLUE BOX", "address": {"city": "SILVER SPRING", "state": "MD", "street": "5 E INDIAN SPRING DR", "postcode": "20901"}}},
{"geometry": {"type": "Point", "coordinates": [-77.0028692356, 39.0196485739]}, "type": "Feature", "properties": {"collection_times": [{"days": "Mon-Sat", "time": "11:00am"}, {"days": "Sun", "time": "Closed"}], "id": "2090100028", "name": "USPS COLLECTION BOX - BLUE BOX", "address": {"city": "SILVER SPRING", "state": "MD", "street": "301 WILLIAMSBURG DR", "postcode": "20901"}}},
{"geometry": {"type": "Point", "coordinates": [-76.9995049003, 39.0136959244]}, "type": "Feature", "properties": {"collection_times": [{"days": "Mon-Sat", "time": "10:00am"}, {"days": "Sun", "time": "Closed"}], "id": "2090100051", "name": "USPS COLLECTION BOX - BLUE BOX", "address": {"city": "SILVER SPRING", "state": "MD", "street": "9601 BURGESS LN", "postcode": "20901"}}},
{"geometry": {"type": "Point", "coordinates": [-77.0201392535, 39.0305010395]}, "type": "Feature", "properties": {"collection_times": [{"days": "Mon-Sat", "time": "10:00am"}, {"days": "Sun", "time": "Closed"}], "id": "2090100063", "name": "USPS COLLECTION BOX - BLUE BOX", "address": {"city": "SILVER SPRING", "state": "MD", "street": "10701 EDGEWOOD AVE", "postcode": "20901"}}},
{"geometry": {"type": "Point", "coordinates": [-77.0035965653, 39.0117365922]}, "type": "Feature", "properties": {"collection_times": [{"days": "Mon-Sat", "time": "10:00am"}, {"days": "Sun", "time": "Closed"}], "id": "2090100090", "name": "USPS COLLECTION BOX - BLUE BOX", "address": {"city": "SILVER SPRING", "state": "MD", "street": "300 E FRANKLIN AVE", "postcode": "20901"}}},
{"geometry": {"type": "Point", "coordinates": [-76.9897246719, 39.0400851175]}, "type": "Feature", "properties": {"collection_times": [{"days": "Mon-Sat", "time": "2:00pm"}, {"days": "Sun", "time": "Closed"}], "id": "2090100141", "name": "USPS COLLECTION BOX - BLUE BOX", "address": {"city": "SILVER SPRING", "state": "MD", "street": "11243 LOCKWOOD DR", "postcode": "20901"}}},
{"geometry": {"type": "Point", "coordinates": [-77.0040900493, 39.0320802897]}, "type": "Feature", "properties": {"collection_times": [{"days": "Mon-Sat", "time": "5:00pm"}, {"days": "Sun", "time": "Closed"}], "id": "2090100145", "name": "USPS COLLECTION BOX - BLUE BOX", "address": {"city": "SILVER SPRING", "state": "MD", "street": "10750 COLUMBIA PIKE", "postcode": "20901"}}},
{"geometry": {"type": "Point", "coordinates": [-77.0039291668, 38.9996269934]}, "type": "Feature", "properties": {"collection_times": [{"days": "Mon-Sat", "time": "11:00am"}, {"days": "Sun", "time": "Closed"}], "id": "2090100155", "name": "USPS COLLECTION BOX - BLUE BOX", "address": {"city": "SILVER SPRING", "state": "MD", "street": "8701 FLOWER AVE", "postcode": "20901"}}},
{"geometry": {"type": "Point", "coordinates": [-77.0016198243, 39.0334358221]}, "type": "Feature", "properties": {"collection_times": [{"days": "Mon-Sat", "time": "5:00pm"}, {"days": "Sun", "time": "Closed"}], "id": "2090100157", "name": "USPS COLLECTION BOX - BLUE BOX", "address": {"city": "SILVER SPRING", "state": "MD", "street": "10801 LOCKWOOD DR", "postcode": "20901"}}},
{"geometry": {"type": "Point", "coordinates": [-77.011421465, 39.0225080442]}, "type": "Feature", "properties": {"collection_times": [{"days": "Mon-Sat", "time": "11:00am"}, {"days": "Sun", "time": "Closed"}], "id": "2090100158", "name": "USPS COLLECTION BOX - BLUE BOX", "address": {"city": "SILVER SPRING", "state": "MD", "street": "10121 COLESVILLE RD", "postcode": "20901"}}},
{"geometry": {"type": "Point", "coordinates": [-77.0141160092, 39.0203557986]}, "type": "Feature", "properties": {"collection_times": [{"days": "Mon-Sat", "time": "5:00pm"}, {"days": "Sun", "time": "Closed"}], "id": "2090100159", "name": "USPS COLLECTION BOX - BLUE BOX", "address": {"city": "SILVER SPRING", "state": "MD", "street": "110 UNIVERSITY BLVD W", "postcode": "20901"}}},
{"geometry": {"type": "Point", "coordinates": [-77.0116807182, 39.0264566724]}, "type": "Feature", "properties": {"collection_times": [{"days": "Mon-Sat", "time": "10:00am"}, {"days": "Sun", "time": "Closed"}], "id": "2090100166", "name": "USPS COLLECTION BOX - BLUE BOX", "address": {"city": "SILVER SPRING", "state": "MD", "street": "10401 MOUNTAIN QUAIL RD", "postcode": "20901"}}},
{"geometry": {"type": "Point", "coordinates": [-77.007742262, 38.998626919]}, "type": "Feature", "properties": {"collection_times": [{"days": "Mon-Sat", "time": "11:00am"}, {"days": "Sun", "time": "Closed"}], "id": "2090100169", "name": "USPS COLLECTION BOX - BLUE BOX", "address": {"city": "SILVER SPRING", "state": "MD", "street": "8601 MANCHESTER RD", "postcode": "20901"}}},
{"geometry": {"type": "Point", "coordinates": [-77.0071503459, 38.9960740644]}, "type": "Feature", "properties": {"collection_times": [{"days": "Mon-Sat", "time": "10:00am"}, {"days": "Sun", "time": "Closed"}], "id": "2090100170", "name": "USPS COLLECTION BOX - BLUE BOX", "address": {"city": "SILVER SPRING", "state": "MD", "street": "9039 SLIGO CREEK PKWY", "postcode": "20901"}}},
{"geometry": {"type": "Point", "coordinates": [-76.9921432877, 39.0389167491]}, "type": "Feature", "properties": {"collection_times": [{"days": "Mon-Fri", "time": "9:30am"}, {"days": "Sat", "time": "11:00am"}, {"days": "Sun", "time": "Closed"}], "id": "2090100171", "name": "USPS COLLECTION BOX - BLUE BOX", "address": {"city": "SILVER SPRING", "state": "MD", "street": "11200 LOCKWOOD DR", "postcode": "20901"}}},
{"geometry": {"type": "Point", "coordinates": [-76.9954079985, 39.0398574894]}, "type": "Feature", "properties": {"collection_times": [{"days": "Mon-Fri", "time": "9:30am"}, {"days": "Sat", "time": "11:00am"}, {"days": "Sun", "time": "Closed"}], "id": "2090100172", "name": "USPS COLLECTION BOX - BLUE BOX", "address": {"city": "SILVER SPRING", "state": "MD", "street": "11235 OAK LEAF DR", "postcode": "20901"}}},
{"geometry": {"type": "Point", "coordinates": [-76.9953650675, 39.0393235053]}, "type": "Feature", "properties": {"collection_times": [{"days": "Mon-Fri", "time": "9:30am"}, {"days": "Sat", "time": "11:00am"}, {"days": "Sun", "time": "Closed"}], "id": "2090100173", "name": "USPS COLLECTION BOX - BLUE BOX", "address": {"city": "SILVER SPRING", "state": "MD", "street": "11215 OAK LEAF DR", "postcode": "20901"}}},
{"geometry": {"type": "Point", "coordinates": [-77.0141160092, 39.0203557986]}, "type": "Feature", "properties": {"collection_times": [{"days": "Mon-Fri", "time": "5:00pm"}, {"days": "Sat", "time": "3:00pm"}, {"days": "Sun", "time": "Closed"}], "id": "2090100174", "name": "USPS COLLECTION BOX - PO LOBBY", "address": {"city": "SILVER SPRING", "state": "MD", "street": "110 UNIVERSITY BLVD W", "postcode": "20901"}}},
{"geometry": {"type": "Point", "coordinates": [-77.0105047302, 39.0099258877]}, "type": "Feature", "properties": {"collection_times": [{"days": "Mon-Sat", "time": "10:00am"}, {"days": "Sun", "time": "Closed"}], "id": "2090100175", "name": "USPS COLLECTION BOX - BLUE BOX", "address": {"city": "SILVER SPRING", "state": "MD", "street": "101 FRANKLIN AVE", "postcode": "20901"}}},
{"geometry": {"type": "Point", "coordinates": [-77.0141160092, 39.0203557986]}, "type": "Feature", "properties": {"collection_times": [{"days": "Mon-Fri", "time": "5:00pm"}, {"days": "Sat", "time": "3:00pm"}, {"days": "Sun", "time": "Closed"}], "id": "2090100176", "name": "USPS COLLECTION BOX - PO LOBBY", "address": {"city": "SILVER SPRING", "state": "MD", "street": "110 UNIVERSITY BLVD W", "postcode": "20901"}}},
{"geometry": {"type": "Point", "coordinates": [-77.0413526342, 39.0205747279]}, "type": "Feature", "properties": {"collection_times": [{"days": "Mon-Sat", "time": "1:00pm"}, {"days": "Sun", "time": "Closed"}], "id": "2090200033", "name": "USPS COLLECTION BOX - BLUE BOX", "address": {"city": "SILVER SPRING", "state": "MD", "street": "1814 BRISBANE ST", "postcode": "20902"}}},
{"geometry": {"type": "Point", "coordinates": [-77.035576868, 39.0261938859]}, "type": "Feature", "properties": {"collection_times": [{"days": "Mon-Sat", "time": "11:00am"}, {"days": "Sun", "time": "Closed"}], "id": "2090200034", "name": "USPS COLLECTION BOX - BLUE BOX", "address": {"city": "SILVER SPRING", "state": "MD", "street": "1600 DENNIS AVE", "postcode": "20902"}}},
{"geometry": {"type": "Point", "coordinates": [-77.0296551207, 39.0410306365]}, "type": "Feature", "properties": {"collection_times": [{"days": "Mon-Sat", "time": "3:00pm"}, {"days": "Sun", "time": "Closed"}], "id": "2090200048", "name": "USPS COLLECTION BOX - BLUE BOX", "address": {"city": "SILVER SPRING", "state": "MD", "street": "1361 LAMBERTON DR", "postcode": "20902"}}},
{"geometry": {"type": "Point", "coordinates": [-77.043130061, 39.0170874677]}, "type": "Feature", "properties": {"collection_times": [{"days": "Mon-Sat", "time": "2:00pm"}, {"days": "Sun", "time": "Closed"}], "id": "2090200050", "name": "USPS COLLECTION BOX - BLUE BOX", "address": {"city": "SILVER SPRING", "state": "MD", "street": "9801 GEORGIA AVE", "postcode": "20902"}}},
{"geometry": {"type": "Point", "coordinates": [-77.0526988349, 39.0381142981]}, "type": "Feature", "properties": {"collection_times": [{"days": "Mon-Sat", "time": "4:00pm"}, {"days": "Sun", "time": "Closed"}], "id": "2090200093", "name": "USPS COLLECTION BOX - BLUE BOX", "address": {"city": "SILVER SPRING", "state": "MD", "street": "11160 VEIRS MILL RD", "postcode": "20902"}}},
{"geometry": {"type": "Point", "coordinates": [-77.0479432156, 39.0419918575]}, "type": "Feature", "properties": {"collection_times": [{"days": "Mon-Sat", "time": "5:00pm"}, {"days": "Sun", "time": "Closed"}], "id": "2090200112", "name": "USPS COLLECTION BOX - BLUE BOX", "address": {"city": "SILVER SPRING", "state": "MD", "street": "11431 AMHERST AVE", "postcode": "20902"}}},
{"geometry": {"type": "Point", "coordinates": [-77.0464599393, 39.0399432708]}, "type": "Feature", "properties": {"collection_times": [{"days": "Mon-Sat", "time": "5:00pm"}, {"days": "Sun", "time": "Closed"}], "id": "2090200113", "name": "USPS COLLECTION BOX - EXPRESS", "address": {"city": "SILVER SPRING", "state": "MD", "street": "11431 AMHERST AVE", "postcode": "20902"}}},
{"geometry": {"type": "Point", "coordinates": [-77.047885733, 39.042672547]}, "type": "Feature", "properties": {"collection_times": [{"days": "Mon-Sat", "time": "5:00pm"}, {"days": "Sun", "time": "Closed"}], "id": "2090200147", "name": "USPS COLLECTION BOX - BLUE BOX", "address": {"city": "SILVER SPRING", "state": "MD", "street": "11431 AMHERST AVE", "postcode": "20902"}}},
{"geometry": {"type": "Point", "coordinates": [-77.0479432156, 39.0419918575]}, "type": "Feature", "properties": {"collection_times": [{"days": "Mon-Sat", "time": "5:00pm"}, {"days": "Sun", "time": "Closed"}], "id": "2090200150", "name": "USPS COLLECTION BOX - BLUE BOX", "address": {"city": "SILVER SPRING", "state": "MD", "street": "11431 AMHERST AVE", "postcode": "20902"}}},
{"geometry": {"type": "Point", "coordinates": [-77.0503440876, 39.0361801032]}, "type": "Feature", "properties": {"collection_times": [{"days": "Mon-Sat", "time": "11:00am"}, {"days": "Sun", "time": "Closed"}], "id": "2090200151", "name": "USPS COLLECTION BOX - BLUE BOX", "address": {"city": "SILVER SPRING", "state": "MD", "street": "11010 VEIRS MILL RD", "postcode": "20902"}}},
{"geometry": {"type": "Point", "coordinates": [-77.0297377062, 39.0366120646]}, "type": "Feature", "properties": {"collection_times": [{"days": "Mon-Sat", "time": "3:00pm"}, {"days": "Sun", "time": "Closed"}], "id": "2090200152", "name": "USPS COLLECTION BOX - BLUE BOX", "address": {"city": "SILVER SPRING", "state": "MD", "street": "1111 UNIVERSITY BLVD W", "postcode": "20902"}}},
{"geometry": {"type": "Point", "coordinates": [-77.0300905151, 39.0366590268]}, "type": "Feature", "properties": {"collection_times": [{"days": "Mon-Sat", "time": "3:00pm"}, {"days": "Sun", "time": "Closed"}], "id": "2090200153", "name": "USPS COLLECTION BOX - BLUE BOX", "address": {"city": "SILVER SPRING", "state": "MD", "street": "1121 UNIVERSITY BLVD W", "postcode": "20902"}}},
{"geometry": {"type": "Point", "coordinates": [-77.0304836384, 39.0367006775]}, "type": "Feature", "properties": {"collection_times": [{"days": "Mon-Sat", "time": "3:00pm"}, {"days": "Sun", "time": "Closed"}], "id": "2090200154", "name": "USPS COLLECTION BOX - BLUE BOX", "address": {"city": "SILVER SPRING", "state": "MD", "street": "1131 UNIVERSITY BLVD W", "postcode": "20902"}}},
{"geometry": {"type": "Point", "coordinates": [-77.0504277349, 39.0376756856]}, "type": "Feature", "properties": {"collection_times": [{"days": "Mon-Sat", "time": "11:00am"}, {"days": "Sun", "time": "Closed"}], "id": "2090200156", "name": "USPS COLLECTION BOX - BLUE BOX", "address": {"city": "SILVER SPRING", "state": "MD", "street": "11141 GEORGIA AVE", "postcode": "20902"}}},
{"geometry": {"type": "Point", "coordinates": [-77.0558502696, 39.0396538856]}, "type": "Feature", "properties": {"collection_times": [{"days": "Mon-Sat", "time": "4:00pm"}, {"days": "Sun", "time": "Closed"}], "id": "2090200158", "name": "USPS COLLECTION BOX - BLUE BOX", "address": {"city": "SILVER SPRING", "state": "MD", "street": "2730 UNIVERSITY BLVD W", "postcode": "20902"}}},
{"geometry": {"type": "Point", "coordinates": [-77.0558502696, 39.0396538856]}, "type": "Feature", "properties": {"collection_times": [{"days": "Mon-Sat", "time": "4:00pm"}, {"days": "Sun", "time": "Closed"}], "id": "2090200160", "name": "USPS COLLECTION BOX - BLUE BOX", "address": {"city": "SILVER SPRING", "state": "MD", "street": "2730 UNIVERSITY BLVD W", "postcode": "20902"}}},
{"geometry": {"type": "Point", "coordinates": [-77.0479432156, 39.0419918575]}, "type": "Feature", "properties": {"collection_times": [{"days": "Mon-Fri", "time": "5:00pm"}, {"days": "Sat", "time": "1:00pm"}, {"days": "Sun", "time": "Closed"}], "id": "2090200162", "name": "USPS COLLECTION BOX - PO LOBBY", "address": {"city": "SILVER SPRING", "state": "MD", "street": "11431 AMHERST AVE", "postcode": "20902"}}},
{"geometry": {"type": "Point", "coordinates": [-76.9841010227, 39.0062498527]}, "type": "Feature", "properties": {"collection_times": [{"days": "Mon-Sat", "time": "10:00am"}, {"days": "Sun", "time": "Closed"}], "id": "2090300004", "name": "USPS COLLECTION BOX - BLUE BOX", "address": {"city": "SILVER SPRING", "state": "MD", "street": "475 SOUTHAMPTON DR", "postcode": "20903"}}},
{"geometry": {"type": "Point", "coordinates": [-76.9835202726, 39.0184028459]}, "type": "Feature", "properties": {"collection_times": [{"days": "Mon-Sat", "time": "10:00am"}, {"days": "Sun", "time": "Closed"}], "id": "2090300006", "name": "USPS COLLECTION BOX - BLUE BOX", "address": {"city": "SILVER SPRING", "state": "MD", "street": "619 S HAMPTON", "postcode": "20903"}}},
{"geometry": {"type": "Point", "coordinates": [-76.9751618294, 39.0200064969]}, "type": "Feature", "properties": {"collection_times": [{"days": "Mon-Sat", "time": "2:00pm"}, {"days": "Sun", "time": "Closed"}], "id": "2090300010", "name": "USPS COLLECTION BOX - BLUE BOX", "address": {"city": "SILVER SPRING", "state": "MD", "street": "1717 ELTON RD", "postcode": "20903"}}},
{"geometry": {"type": "Point", "coordinates": [-76.9747523696, 39.0199072029]}, "type": "Feature", "properties": {"collection_times": [{"days": "Mon-Sat", "time": "2:00pm"}, {"days": "Sun", "time": "Closed"}], "id": "2090300014", "name": "USPS COLLECTION BOX - BLUE BOX", "address": {"city": "SILVER SPRING", "state": "MD", "street": "1751 ELTON RD", "postcode": "20903"}}},
{"geometry": {"type": "Point", "coordinates": [-76.9807931471, 39.0042898122]}, "type": "Feature", "properties": {"collection_times": [{"days": "Mon-Sat", "time": "2:00pm"}, {"days": "Sun", "time": "Closed"}], "id": "2090300016", "name": "USPS COLLECTION BOX - BLUE BOX", "address": {"city": "SILVER SPRING", "state": "MD", "street": "9201 NEW HAMPSHIRE AVE", "postcode": "20903"}}},
{"geometry": {"type": "Point", "coordinates": [-76.9770708241, 39.0146696275]}, "type": "Feature", "properties": {"collection_times": [{"days": "Mon-Sat", "time": "2:00pm"}, {"days": "Sun", "time": "Closed"}], "id": "2090300024", "name": "USPS COLLECTION BOX - BLUE BOX", "address": {"city": "SILVER SPRING", "state": "MD", "street": "9627 MOUNT PISGAH RD", "postcode": "20903"}}},
{"geometry": {"type": "Point", "coordinates": [-76.9769364071, 39.0216473965]}, "type": "Feature", "properties": {"collection_times": [{"days": "Mon-Sat", "time": "2:00pm"}, {"days": "Sun", "time": "Closed"}], "id": "2090300029", "name": "USPS COLLECTION BOX - BLUE BOX", "address": {"city": "SILVER SPRING", "state": "MD", "street": "10165 NEW HAMPSHIRE AVE", "postcode": "20903"}}},
{"geometry": {"type": "Point", "coordinates": [-76.9919416381, 38.9998175226]}, "type": "Feature", "properties": {"collection_times": [{"days": "Mon-Fri", "time": "9:30am"}, {"days": "Sat", "time": "10:00am"}, {"days": "Sun", "time": "Closed"}], "id": "2090300031", "name": "USPS COLLECTION BOX - BLUE BOX", "address": {"city": "SILVER SPRING", "state": "MD", "street": "8860 PINEY BRANCH RD", "postcode": "20903"}}},
{"geometry": {"type": "Point", "coordinates": [-76.9879043822, 39.0011947635]}, "type": "Feature", "properties": {"collection_times": [{"days": "Mon-Sat", "time": "10:00am"}, {"days": "Sun", "time": "Closed"}], "id": "2090300033", "name": "USPS COLLECTION BOX - BLUE BOX", "address": {"city": "SILVER SPRING", "state": "MD", "street": "9120 PINEY BRANCH RD", "postcode": "20903"}}},
{"geometry": {"type": "Point", "coordinates": [-76.9771221337, 39.0214573182]}, "type": "Feature", "properties": {"collection_times": [{"days": "Mon-Sat", "time": "2:00pm"}, {"days": "Sun", "time": "Closed"}], "id": "2090300040", "name": "USPS COLLECTION BOX - BLUE BOX", "address": {"city": "SILVER SPRING", "state": "MD", "street": "10110 NEW HAMPSHIRE AVE", "postcode": "20903"}}},
{"geometry": {"type": "Point", "coordinates": [-76.9762281952, 39.016416391]}, "type": "Feature", "properties": {"collection_times": [{"days": "Mon-Sat", "time": "2:00pm"}, {"days": "Sun", "time": "Closed"}], "id": "2090300042", "name": "USPS COLLECTION BOX - BLUE BOX", "address": {"city": "SILVER SPRING", "state": "MD", "street": "9727 MOUNT PISGAH RD", "postcode": "20903"}}},
{"geometry": {"type": "Point", "coordinates": [-76.9761534625, 39.0165247386]}, "type": "Feature", "properties": {"collection_times": [{"days": "Mon-Sat", "time": "2:00pm"}, {"days": "Sun", "time": "Closed"}], "id": "2090300043", "name": "USPS COLLECTION BOX - BLUE BOX", "address": {"city": "SILVER SPRING", "state": "MD", "street": "9737 MOUNT PISGAH RD", "postcode": "20903"}}},
{"geometry": {"type": "Point", "coordinates": [-76.9929914677, 38.9947667123]}, "type": "Feature", "properties": {"collection_times": [{"days": "Mon-Sat", "time": "3:00pm"}, {"days": "Sun", "time": "Closed"}], "id": "2090300044", "name": "USPS COLLECTION BOX - BLUE BOX", "address": {"city": "SILVER SPRING", "state": "MD", "street": "831 UNIVERSITY BLVD E", "postcode": "20903"}}},
{"geometry": {"type": "Point", "coordinates": [-76.9861735352, 39.0337557764]}, "type": "Feature", "properties": {"collection_times": [{"days": "Mon-Fri", "time": "3:00pm"}, {"days": "Sat-Sun", "time": "Closed"}], "id": "2090300045", "name": "USPS COLLECTION BOX - BLUE BOX", "address": {"city": "SILVER SPRING", "state": "MD", "street": "10903 NEW HAMPSHIRE AVE", "postcode": "20903"}}},
{"geometry": {"type": "Point", "coordinates": [-76.9861735352, 39.0337557764]}, "type": "Feature", "properties": {"collection_times": [{"days": "Mon-Fri", "time": "3:00pm"}, {"days": "Sat-Sun", "time": "Closed"}], "id": "2090300046", "name": "USPS COLLECTION BOX - BLUE BOX", "address": {"city": "SILVER SPRING", "state": "MD", "street": "10903 NEW HAMPSHIRE AVE", "postcode": "20903"}}},
{"geometry": {"type": "Point", "coordinates": [-76.9700285857, 39.0549492537]}, "type": "Feature", "properties": {"collection_times": [{"days": "Mon-Sat", "time": "3:00pm"}, {"days": "Sun", "time": "Closed"}], "id": "2090400004", "name": "USPS COLLECTION BOX - BLUE BOX", "address": {"city": "SILVER SPRING", "state": "MD", "street": "2120 INDUSTRIAL PKWY", "postcode": "20904"}}},
{"geometry": {"type": "Point", "coordinates": [-76.9584844015, 39.0696279441]}, "type": "Feature", "properties": {"collection_times": [{"days": "Mon-Sat", "time": "3:00pm"}, {"days": "Sun", "time": "Closed"}], "id": "2090400012", "name": "USPS COLLECTION BOX - BLUE BOX", "address": {"city": "SILVER SPRING", "state": "MD", "street": "13100 COLUMBIA PIKE", "postcode": "20904"}}},
{"geometry": {"type": "Point", "coordinates": [-76.9410084441, 39.0776606912]}, "type": "Feature", "properties": {"collection_times": [{"days": "Mon-Sat", "time": "10:00am"}, {"days": "Sun", "time": "Closed"}], "id": "2090400013", "name": "USPS COLLECTION BOX - BLUE BOX", "address": {"city": "SILVER SPRING", "state": "MD", "street": "3343 HAMPTON POINT DR", "postcode": "20904"}}},
{"geometry": {"type": "Point", "coordinates": [-76.9603090409, 39.055312821]}, "type": "Feature", "properties": {"collection_times": [{"days": "Mon-Sat", "time": "3:00pm"}, {"days": "Sun", "time": "Closed"}], "id": "2090400017", "name": "USPS COLLECTION BOX - BLUE BOX", "address": {"city": "SILVER SPRING", "state": "MD", "street": "2301 BROADBIRCH DR", "postcode": "20904"}}},
{"geometry": {"type": "Point", "coordinates": [-76.9469157831, 39.0824973197]}, "type": "Feature", "properties": {"collection_times": [{"days": "Mon-Sat", "time": "10:00am"}, {"days": "Sun", "time": "Closed"}], "id": "2090400018", "name": "USPS COLLECTION BOX - BLUE BOX", "address": {"city": "SILVER SPRING", "state": "MD", "street": "13820 OUTLET DR", "postcode": "20904"}}},
{"geometry": {"type": "Point", "coordinates": [-76.9720691001, 39.0664304243]}, "type": "Feature", "properties": {"collection_times": [{"days": "Mon-Sat", "time": "3:00pm"}, {"days": "Sun", "time": "Closed"}], "id": "2090400029", "name": "USPS COLLECTION BOX - EXPRESS", "address": {"city": "SILVER SPRING", "state": "MD", "street": "2120 INDUSTRIAL PKWY", "postcode": "20904"}}},
{"geometry": {"type": "Point", "coordinates": [-76.9720691001, 39.0664304243]}, "type": "Feature", "properties": {"collection_times": [{"days": "Mon-Sat", "time": "3:00pm"}, {"days": "Sun", "time": "Closed"}], "id": "2090400030", "name": "USPS COLLECTION BOX - EXPRESS", "address": {"city": "SILVER SPRING", "state": "MD", "street": "2301 BROADBIRCH DR", "postcode": "20904"}}},
{"geometry": {"type": "Point", "coordinates": [-76.9720691001, 39.0664304243]}, "type": "Feature", "properties": {"collection_times": [{"days": "Mon-Sat", "time": "5:00pm"}, {"days": "Sun", "time": "Closed"}], "id": "2090400031", "name": "USPS COLLECTION BOX - EXPRESS", "address": {"city": "SILVER SPRING", "state": "MD", "street": "13217 NEW HAMPSHIRE AVE", "postcode": "20904"}}},
{"geometry": {"type": "Point", "coordinates": [-76.9907118652, 39.0403108591]}, "type": "Feature", "properties": {"collection_times": [{"days": "Mon-Sat", "time": "11:00am"}, {"days": "Sun", "time": "Closed"}], "id": "2090400038", "name": "USPS COLLECTION BOX - BLUE BOX", "address": {"city": "SILVER SPRING", "state": "MD", "street": "11223 NEW HAMPSHIRE AVE", "postcode": "20904"}}},
{"geometry": {"type": "Point", "coordinates": [-76.9828109834, 39.0414741668]}, "type": "Feature", "properties": {"collection_times": [{"days": "Mon-Sat", "time": "11:00am"}, {"days": "Sun", "time": "Closed"}], "id": "2090400040", "name": "USPS COLLECTION BOX - BLUE BOX", "address": {"city": "SILVER SPRING", "state": "MD", "street": "11600 LOCKWOOD DR", "postcode": "20904"}}},
{"geometry": {"type": "Point", "coordinates": [-76.9842536394, 39.0414462674]}, "type": "Feature", "properties": {"collection_times": [{"days": "Mon-Sat", "time": "11:00am"}, {"days": "Sun", "time": "Closed"}], "id": "2090400045", "name": "USPS COLLECTION BOX - BLUE BOX", "address": {"city": "SILVER SPRING", "state": "MD", "street": "11520 LOCKWOOD DR", "postcode": "20904"}}},
{"geometry": {"type": "Point", "coordinates": [-76.9669049171, 39.0618660135]}, "type": "Feature", "properties": {"collection_times": [{"days": "Mon-Sat", "time": "10:00am"}, {"days": "Sun", "time": "Closed"}], "id": "2090400050", "name": "USPS COLLECTION BOX - BLUE BOX", "address": {"city": "SILVER SPRING", "state": "MD", "street": "12501 OLD COLUMBIA PIKE", "postcode": "20904"}}},
{"geometry": {"type": "Point", "coordinates": [-76.9867164898, 39.0465394891]}, "type": "Feature", "properties": {"collection_times": [{"days": "Mon-Fri", "time": "9:30am"}, {"days": "Sat", "time": "11:00am"}, {"days": "Sun", "time": "Closed"}], "id": "2090400053", "name": "USPS COLLECTION BOX - BLUE BOX", "address": {"city": "SILVER SPRING", "state": "MD", "street": "11407 COLUMBIA PIKE", "postcode": "20904"}}},
{"geometry": {"type": "Point", "coordinates": [-76.97953537, 39.0492391095]}, "type": "Feature", "properties": {"collection_times": [{"days": "Mon-Sat", "time": "11:00am"}, {"days": "Sun", "time": "Closed"}], "id": "2090400060", "name": "USPS COLLECTION BOX - BLUE BOX", "address": {"city": "SILVER SPRING", "state": "MD", "street": "11700 OLD COLUMBIA PIKE", "postcode": "20904"}}},
{"geometry": {"type": "Point", "coordinates": [-76.9791425937, 39.0470084731]}, "type": "Feature", "properties": {"collection_times": [{"days": "Mon-Sat", "time": "11:00am"}, {"days": "Sun", "time": "Closed"}], "id": "2090400062", "name": "USPS COLLECTION BOX - BLUE BOX", "address": {"city": "SILVER SPRING", "state": "MD", "street": "11556 FEBRUARY CIR", "postcode": "20904"}}},
{"geometry": {"type": "Point", "coordinates": [-76.9606565279, 39.0680126682]}, "type": "Feature", "properties": {"collection_times": [{"days": "Mon-Sat", "time": "3:00pm"}, {"days": "Sun", "time": "Closed"}], "id": "2090400067", "name": "USPS COLLECTION BOX - BLUE BOX", "address": {"city": "SILVER SPRING", "state": "MD", "street": "2415 MUSGROVE RD", "postcode": "20904"}}},
{"geometry": {"type": "Point", "coordinates": [-76.9513245096, 39.0840635044]}, "type": "Feature", "properties": {"collection_times": [{"days": "Mon-Sat", "time": "10:00am"}, {"days": "Sun", "time": "Closed"}], "id": "2090400068", "name": "USPS COLLECTION BOX - BLUE BOX", "address": {"city": "SILVER SPRING", "state": "MD", "street": "13872 OLD COLUMBIA PIKE", "postcode": "20904"}}},
{"geometry": {"type": "Point", "coordinates": [-77.0027627693, 39.0726557822]}, "type": "Feature", "properties": {"collection_times": [{"days": "Mon-Sat", "time": "5:00pm"}, {"days": "Sun", "time": "Closed"}], "id": "2090400070", "name": "USPS COLLECTION BOX - BLUE BOX", "address": {"city": "SILVER SPRING", "state": "MD", "street": "13217 NEW HAMPSHIRE AVE", "postcode": "20904"}}},
{"geometry": {"type": "Point", "coordinates": [-77.0027627693, 39.0726557822]}, "type": "Feature", "properties": {"collection_times": [{"days": "Mon-Sat", "time": "5:00pm"}, {"days": "Sun", "time": "Closed"}], "id": "2090400071", "name": "USPS COLLECTION BOX - BLUE BOX", "address": {"city": "SILVER SPRING", "state": "MD", "street": "13217 NEW HAMPSHIRE AVE", "postcode": "20904"}}},
{"geometry": {"type": "Point", "coordinates": [-77.0027627693, 39.0726557822]}, "type": "Feature", "properties": {"collection_times": [{"days": "Mon-Sat", "time": "5:00pm"}, {"days": "Sun", "time": "Closed"}], "id": "2090400072", "name": "USPS COLLECTION BOX - BLUE BOX", "address": {"city": "SILVER SPRING", "state": "MD", "street": "13217 NEW HAMPSHIRE AVE", "postcode": "20904"}}},
{"geometry": {"type": "Point", "coordinates": [-76.9532743968, 39.0524271751]}, "type": "Feature", "properties": {"collection_times": [{"days": "Mon-Sat", "time": "3:00pm"}, {"days": "Sun", "time": "Closed"}], "id": "2090400076", "name": "USPS COLLECTION BOX - BLUE BOX", "address": {"city": "SILVER SPRING", "state": "MD", "street": "12010 PLUM ORCHARD DR", "postcode": "20904"}}},
{"geometry": {"type": "Point", "coordinates": [-76.9553548387, 39.0581602692]}, "type": "Feature", "properties": {"collection_times": [{"days": "Mon-Sat", "time": "3:00pm"}, {"days": "Sun", "time": "Closed"}], "id": "2090400079", "name": "USPS COLLECTION BOX - BLUE BOX", "address": {"city": "SILVER SPRING", "state": "MD", "street": "12028 CHERRY HILL RD", "postcode": "20904"}}},
{"geometry": {"type": "Point", "coordinates": [-76.9899832636, 39.0381618817]}, "type": "Feature", "properties": {"collection_times": [{"days": "Mon-Sat", "time": "2:00pm"}, {"days": "Sun", "time": "Closed"}], "id": "2090400080", "name": "USPS COLLECTION BOX - BLUE BOX", "address": {"city": "SILVER SPRING", "state": "MD", "street": "11120 NEW HAMPSHIRE AVE", "postcode": "20904"}}},
{"geometry": {"type": "Point", "coordinates": [-76.9671722659, 39.054730405]}, "type": "Feature", "properties": {"collection_times": [{"days": "Mon-Sat", "time": "3:00pm"}, {"days": "Sun", "time": "Closed"}], "id": "2090400083", "name": "USPS COLLECTION BOX - BLUE BOX", "address": {"city": "SILVER SPRING", "state": "MD", "street": "12200 TECH RD", "postcode": "20904"}}},
{"geometry": {"type": "Point", "coordinates": [-76.9607653601, 39.0615927499]}, "type": "Feature", "properties": {"collection_times": [{"days": "Mon-Sat", "time": "3:00pm"}, {"days": "Sun", "time": "Closed"}], "id": "2090400084", "name": "USPS COLLECTION BOX - BLUE BOX", "address": {"city": "SILVER SPRING", "state": "MD", "street": "12520 PROSPERITY DR", "postcode": "20904"}}},
{"geometry": {"type": "Point", "coordinates": [-76.9626450819, 39.06069725]}, "type": "Feature", "properties": {"collection_times": [{"days": "Mon-Sat", "time": "3:00pm"}, {"days": "Sun", "time": "Closed"}], "id": "2090400085", "name": "USPS COLLECTION BOX - BLUE BOX", "address": {"city": "SILVER SPRING", "state": "MD", "street": "12510 PROSPERITY DR", "postcode": "20904"}}},
{"geometry": {"type": "Point", "coordinates": [-76.9639416049, 39.0603246179]}, "type": "Feature", "properties": {"collection_times": [{"days": "Mon-Sat", "time": "3:00pm"}, {"days": "Sun", "time": "Closed"}], "id": "2090400086", "name": "USPS COLLECTION BOX - BLUE BOX", "address": {"city": "SILVER SPRING", "state": "MD", "street": "12501 PROSPERITY DR", "postcode": "20904"}}},
{"geometry": {"type": "Point", "coordinates": [-76.9676927678, 39.0542595873]}, "type": "Feature", "properties": {"collection_times": [{"days": "Mon-Sat", "time": "4:00pm"}, {"days": "Sun", "time": "Closed"}], "id": "2090400087", "name": "USPS COLLECTION BOX - BLUE BOX", "address": {"city": "SILVER SPRING", "state": "MD", "street": "12121 TECH RD", "postcode": "20904"}}},
{"geometry": {"type": "Point", "coordinates": [-76.9639416049, 39.0603246179]}, "type": "Feature", "properties": {"collection_times": [{"days": "Mon-Sat", "time": "3:00pm"}, {"days": "Sun", "time": "Closed"}], "id": "2090400088", "name": "USPS COLLECTION BOX - BLUE BOX", "address": {"city": "SILVER SPRING", "state": "MD", "street": "12501 PROSPERITY DR", "postcode": "20904"}}},
{"geometry": {"type": "Point", "coordinates": [-77.0027627693, 39.0726557822]}, "type": "Feature", "properties": {"collection_times": [{"days": "Mon-Fri", "time": "5:00pm"}, {"days": "Sat", "time": "3:00pm"}, {"days": "Sun", "time": "Closed"}], "id": "2090400089", "name": "USPS COLLECTION BOX - PO LOBBY", "address": {"city": "SILVER SPRING", "state": "MD", "street": "13217 NEW HAMPSHIRE AVE", "postcode": "20904"}}},
{"geometry": {"type": "Point", "coordinates": [-76.9881035735, 39.0456708672]}, "type": "Feature", "properties": {"collection_times": [{"days": "Mon-Fri", "time": "9:30am"}, {"days": "Sat", "time": "11:00am"}, {"days": "Sun", "time": "Closed"}], "id": "2090400090", "name": "USPS COLLECTION BOX - BLUE BOX", "address": {"city": "SILVER SPRING", "state": "MD", "street": "11353 COLUMBIA PIKE", "postcode": "20904"}}},
{"geometry": {"type": "Point", "coordinates": [-77.0027627693, 39.0726557822]}, "type": "Feature", "properties": {"collection_times": [{"days": "Mon-Fri", "time": "5:00pm"}, {"days": "Sat", "time": "3:00pm"}, {"days": "Sun", "time": "Closed"}], "id": "2090400092", "name": "USPS COLLECTION BOX - APC", "address": {"city": "SILVER SPRING", "state": "MD", "street": "13217 NEW HAMPSHIRE AVE", "postcode": "20904"}}},
{"geometry": {"type": "Point", "coordinates": [-77.0770917259, 39.0532590737]}, "type": "Feature", "properties": {"collection_times": [{"days": "Mon-Sat", "time": "12:00pm"}, {"days": "Sun", "time": "Closed"}], "id": "2090600006", "name": "USPS COLLECTION BOX - BLUE BOX", "address": {"city": "SILVER SPRING", "state": "MD", "street": "12013 VEIRS MILL RD", "postcode": "20906"}}},
{"geometry": {"type": "Point", "coordinates": [-77.0800957285, 39.0555727887]}, "type": "Feature", "properties": {"collection_times": [{"days": "Mon-Sat", "time": "12:00pm"}, {"days": "Sun", "time": "Closed"}], "id": "2090600008", "name": "USPS COLLECTION BOX - BLUE BOX", "address": {"city": "SILVER SPRING", "state": "MD", "street": "12125 HERITAGE PARK CIR", "postcode": "20906"}}},
{"geometry": {"type": "Point", "coordinates": [-77.0355961209, 39.0671212124]}, "type": "Feature", "properties": {"collection_times": [{"days": "Mon-Sat", "time": "10:00am"}, {"days": "Sun", "time": "Closed"}], "id": "2090600009", "name": "USPS COLLECTION BOX - BLUE BOX", "address": {"city": "SILVER SPRING", "state": "MD", "street": "2 WILCOX CT", "postcode": "20906"}}},
{"geometry": {"type": "Point", "coordinates": [-77.0754048052, 39.1021356865]}, "type": "Feature", "properties": {"collection_times": [{"days": "Mon-Sat", "time": "5:00pm"}, {"days": "Sun", "time": "Closed"}], "id": "2090600018", "name": "USPS COLLECTION BOX - BLUE BOX", "address": {"city": "SILVER SPRING", "state": "MD", "street": "3802 INTERNATIONAL DR", "postcode": "20906"}}},
{"geometry": {"type": "Point", "coordinates": [-77.0828138466, 39.0564723556]}, "type": "Feature", "properties": {"collection_times": [{"days": "Mon-Sat", "time": "12:00pm"}, {"days": "Sun", "time": "Closed"}], "id": "2090600023", "name": "USPS COLLECTION BOX - BLUE BOX", "address": {"city": "SILVER SPRING", "state": "MD", "street": "12209 VEIRS MILL RD", "postcode": "20906"}}},
{"geometry": {"type": "Point", "coordinates": [-77.074870382, 39.1007573669]}, "type": "Feature", "properties": {"collection_times": [{"days": "Mon-Sat", "time": "3:00pm"}, {"days": "Sun", "time": "Closed"}], "id": "2090600028", "name": "USPS COLLECTION BOX - BLUE BOX", "address": {"city": "SILVER SPRING", "state": "MD", "street": "3701 ROSSMOOR BLVD", "postcode": "20906"}}},
{"geometry": {"type": "Point", "coordinates": [-77.0702966325, 39.098848215]}, "type": "Feature", "properties": {"collection_times": [{"days": "Mon-Sat", "time": "3:00pm"}, {"days": "Sun", "time": "Closed"}], "id": "2090600029", "name": "USPS COLLECTION BOX - BLUE BOX", "address": {"city": "SILVER SPRING", "state": "MD", "street": "3514 CHISWICK CT", "postcode": "20906"}}},
{"geometry": {"type": "Point", "coordinates": [-77.0744116469, 39.078718137]}, "type": "Feature", "properties": {"collection_times": [{"days": "Mon-Sat", "time": "1:00pm"}, {"days": "Sun", "time": "Closed"}], "id": "2090600035", "name": "USPS COLLECTION BOX - BLUE BOX", "address": {"city": "SILVER SPRING", "state": "MD", "street": "13605 LOYOLA ST", "postcode": "20906"}}},
{"geometry": {"type": "Point", "coordinates": [-77.0793635743, 39.0829467484]}, "type": "Feature", "properties": {"collection_times": [{"days": "Mon-Sat", "time": "2:00pm"}, {"days": "Sun", "time": "Closed"}], "id": "2090600036", "name": "USPS COLLECTION BOX - BLUE BOX", "address": {"city": "SILVER SPRING", "state": "MD", "street": "13975 CONNECTICUT AVE", "postcode": "20906"}}},
{"geometry": {"type": "Point", "coordinates": [-77.0799386759, 39.0811206818]}, "type": "Feature", "properties": {"collection_times": [{"days": "Mon-Sat", "time": "5:00pm"}, {"days": "Sun", "time": "Closed"}], "id": "2090600038", "name": "USPS COLLECTION BOX - BLUE BOX", "address": {"city": "SILVER SPRING", "state": "MD", "street": "13751 CONNECTICUT AVE", "postcode": "20906"}}},
{"geometry": {"type": "Point", "coordinates": [-77.0767414741, 39.0498223082]}, "type": "Feature", "properties": {"collection_times": [{"days": "Mon-Sat", "time": "12:00pm"}, {"days": "Sun", "time": "Closed"}], "id": "2090600041", "name": "USPS COLLECTION BOX - BLUE BOX", "address": {"city": "SILVER SPRING", "state": "MD", "street": "3950 FERRARA DR", "postcode": "20906"}}},
{"geometry": {"type": "Point", "coordinates": [-77.0613377062, 39.0909699249]}, "type": "Feature", "properties": {"collection_times": [{"days": "Mon-Sat", "time": "1:00pm"}, {"days": "Sun", "time": "Closed"}], "id": "2090600042", "name": "USPS COLLECTION BOX - BLUE BOX", "address": {"city": "SILVER SPRING", "state": "MD", "street": "2924 BEL PRE RD", "postcode": "20906"}}},
{"geometry": {"type": "Point", "coordinates": [-77.0674015922, 39.0988244262]}, "type": "Feature", "properties": {"collection_times": [{"days": "Mon-Sat", "time": "3:00pm"}, {"days": "Sun", "time": "Closed"}], "id": "2090600048", "name": "USPS COLLECTION BOX - BLUE BOX", "address": {"city": "SILVER SPRING", "state": "MD", "street": "3358 CHISWICK CT", "postcode": "20906"}}},
{"geometry": {"type": "Point", "coordinates": [-77.0605031441, 39.0802469992]}, "type": "Feature", "properties": {"collection_times": [{"days": "Mon-Sat", "time": "1:00pm"}, {"days": "Sun", "time": "Closed"}], "id": "2090600058", "name": "USPS COLLECTION BOX - BLUE BOX", "address": {"city": "SILVER SPRING", "state": "MD", "street": "3020 HEWITT AVE", "postcode": "20906"}}},
{"geometry": {"type": "Point", "coordinates": [-77.0763466817, 39.0937473474]}, "type": "Feature", "properties": {"collection_times": [{"days": "Mon-Sat", "time": "1:00pm"}, {"days": "Sun", "time": "Closed"}], "id": "2090600061", "name": "USPS COLLECTION BOX - BLUE BOX", "address": {"city": "SILVER SPRING", "state": "MD", "street": "3840 BEL PRE RD", "postcode": "20906"}}},
{"geometry": {"type": "Point", "coordinates": [-77.0632379788, 39.0875022623]}, "type": "Feature", "properties": {"collection_times": [{"days": "Mon-Sat", "time": "1:00pm"}, {"days": "Sun", "time": "Closed"}], "id": "2090600063", "name": "USPS COLLECTION BOX - BLUE BOX", "address": {"city": "SILVER SPRING", "state": "MD", "street": "14115 WHISPERING PNES", "postcode": "20906"}}},
{"geometry": {"type": "Point", "coordinates": [-77.0639761639, 39.0750311638]}, "type": "Feature", "properties": {"collection_times": [{"days": "Mon-Sat", "time": "1:00pm"}, {"days": "Sun", "time": "Closed"}], "id": "2090600065", "name": "USPS COLLECTION BOX - BLUE BOX", "address": {"city": "SILVER SPRING", "state": "MD", "street": "3117 REGINA DR", "postcode": "20906"}}},
{"geometry": {"type": "Point", "coordinates": [-77.0795226412, 39.0882557757]}, "type": "Feature", "properties": {"collection_times": [{"days": "Mon-Sat", "time": "1:00pm"}, {"days": "Sun", "time": "Closed"}], "id": "2090600069", "name": "USPS COLLECTION BOX - BLUE BOX", "address": {"city": "SILVER SPRING", "state": "MD", "street": "14231 GEORGIA AVE", "postcode": "20906"}}},
{"geometry": {"type": "Point", "coordinates": [-77.0484166555, 39.0905496308]}, "type": "Feature", "properties": {"collection_times": [{"days": "Mon-Sat", "time": "1:00pm"}, {"days": "Sun", "time": "Closed"}], "id": "2090600073", "name": "USPS COLLECTION BOX - BLUE BOX", "address": {"city": "SILVER SPRING", "state": "MD", "street": "2255 BEL PRE RD", "postcode": "20906"}}},
{"geometry": {"type": "Point", "coordinates": [-77.0743424333, 39.0860693539]}, "type": "Feature", "properties": {"collection_times": [{"days": "Mon-Sat", "time": "5:00pm"}, {"days": "Sun", "time": "Closed"}], "id": "2090600074", "name": "USPS COLLECTION BOX - BLUE BOX", "address": {"city": "SILVER SPRING", "state": "MD", "street": "14030 CONNECTICUT AVE", "postcode": "20906"}}},
{"geometry": {"type": "Point", "coordinates": [-77.074417021, 39.085958196]}, "type": "Feature", "properties": {"collection_times": [{"days": "Mon-Sat", "time": "5:00pm"}, {"days": "Sun", "time": "Closed"}], "id": "2090600076", "name": "USPS COLLECTION BOX - BLUE BOX", "address": {"city": "SILVER SPRING", "state": "MD", "street": "14030 CONNECTICUT AVE", "postcode": "20906"}}},
{"geometry": {"type": "Point", "coordinates": [-77.0633967707, 39.0840928717]}, "type": "Feature", "properties": {"collection_times": [{"days": "Mon-Sat", "time": "1:00pm"}, {"days": "Sun", "time": "Closed"}], "id": "2090600089", "name": "USPS COLLECTION BOX - EXPRESS", "address": {"city": "SILVER SPRING", "state": "MD", "street": "12345 GEORGIA AVE", "postcode": "20906"}}},
{"geometry": {"type": "Point", "coordinates": [-77.0633967707, 39.0840928717]}, "type": "Feature", "properties": {"collection_times": [{"days": "Mon-Sat", "time": "2:00pm"}, {"days": "Sun", "time": "Closed"}], "id": "2090600090", "name": "USPS COLLECTION BOX - EXPRESS", "address": {"city": "SILVER SPRING", "state": "MD", "street": "13975 CONNECTICUT AVE", "postcode": "20906"}}},
{"geometry": {"type": "Point", "coordinates": [-77.0633967707, 39.0840928717]}, "type": "Feature", "properties": {"collection_times": [{"days": "Mon-Sat", "time": "5:00pm"}, {"days": "Sun", "time": "Closed"}], "id": "2090600095", "name": "USPS COLLECTION BOX - EXPRESS", "address": {"city": "SILVER SPRING", "state": "MD", "street": "3802 INTERNATIONAL DR", "postcode": "20906"}}},
{"geometry": {"type": "Point", "coordinates": [-77.0464269677, 39.0887937084]}, "type": "Feature", "properties": {"collection_times": [{"days": "Mon-Sat", "time": "1:00pm"}, {"days": "Sun", "time": "Closed"}], "id": "2090600107", "name": "USPS COLLECTION BOX - BLUE BOX", "address": {"city": "SILVER SPRING", "state": "MD", "street": "14118 PARKER FARM WAY", "postcode": "20906"}}},
{"geometry": {"type": "Point", "coordinates": [-77.0686612167, 39.0952620158]}, "type": "Feature", "properties": {"collection_times": [{"days": "Mon-Sat", "time": "3:00pm"}, {"days": "Sun", "time": "Closed"}], "id": "2090600109", "name": "USPS COLLECTION BOX - BLUE BOX", "address": {"city": "SILVER SPRING", "state": "MD", "street": "3435 S LEISURE WORLD BLVD", "postcode": "20906"}}},
{"geometry": {"type": "Point", "coordinates": [-77.0528847406, 39.0617276073]}, "type": "Feature", "properties": {"collection_times": [{"days": "Mon-Sat", "time": "12:00pm"}, {"days": "Sun", "time": "Closed"}], "id": "2090600111", "name": "USPS COLLECTION BOX - BLUE BOX", "address": {"city": "SILVER SPRING", "state": "MD", "street": "12501 GEORGIA AVE", "postcode": "20906"}}},
{"geometry": {"type": "Point", "coordinates": [-77.0754048052, 39.1021356865]}, "type": "Feature", "properties": {"collection_times": [{"days": "Mon-Fri", "time": "5:00pm"}, {"days": "Sat-Sun", "time": "Closed"}], "id": "2090600121", "name": "USPS COLLECTION BOX - PO LOBBY", "address": {"city": "SILVER SPRING", "state": "MD", "street": "3802 INTERNATIONAL DR", "postcode": "20906"}}},
{"geometry": {"type": "Point", "coordinates": [-77.0138488948, 38.9885149275]}, "type": "Feature", "properties": {"collection_times": [{"days": "Mon-Sat", "time": "11:00am"}, {"days": "Sun", "time": "Closed"}], "id": "2091000001", "name": "USPS COLLECTION BOX - BLUE BOX", "address": {"city": "SILVER SPRING", "state": "MD", "street": "600 RITCHIE AVE", "postcode": "20910"}}},
{"geometry": {"type": "Point", "coordinates": [-77.0230150268, 38.9901751513]}, "type": "Feature", "properties": {"collection_times": [{"days": "Mon-Sat", "time": "11:00am"}, {"days": "Sun", "time": "Closed"}], "id": "2091000007", "name": "USPS COLLECTION BOX - BLUE BOX", "address": {"city": "SILVER SPRING", "state": "MD", "street": "801 SLIGO AVE", "postcode": "20910"}}},
{"geometry": {"type": "Point", "coordinates": [-77.0140683081, 38.9911853983]}, "type": "Feature", "properties": {"collection_times": [{"days": "Mon-Sat", "time": "11:00am"}, {"days": "Sun", "time": "Closed"}], "id": "2091000009", "name": "USPS COLLECTION BOX - BLUE BOX", "address": {"city": "SILVER SPRING", "state": "MD", "street": "617 SLIGO AVE", "postcode": "20910"}}},
{"geometry": {"type": "Point", "coordinates": [-77.0227942825, 39.0038591775]}, "type": "Feature", "properties": {"collection_times": [{"days": "Mon-Sat", "time": "1:00pm"}, {"days": "Sun", "time": "Closed"}], "id": "2091000011", "name": "USPS COLLECTION BOX - BLUE BOX", "address": {"city": "SILVER SPRING", "state": "MD", "street": "9108 KINGSBURY DR", "postcode": "20910"}}},
{"geometry": {"type": "Point", "coordinates": [-77.0318387177, 38.9886822571]}, "type": "Feature", "properties": {"collection_times": [{"days": "Mon-Sat", "time": "2:00pm"}, {"days": "Sun", "time": "Closed"}], "id": "2091000012", "name": "USPS COLLECTION BOX - BLUE BOX", "address": {"city": "SILVER SPRING", "state": "MD", "street": "8001 EASTERN AVE", "postcode": "20910"}}},
{"geometry": {"type": "Point", "coordinates": [-77.0476062263, 38.9927490187]}, "type": "Feature", "properties": {"collection_times": [{"days": "Mon-Sat", "time": "12:00pm"}, {"days": "Sun", "time": "Closed"}], "id": "2091000039", "name": "USPS COLLECTION BOX - BLUE BOX", "address": {"city": "SILVER SPRING", "state": "MD", "street": "2248 WASHINGTON AVE", "postcode": "20910"}}},
{"geometry": {"type": "Point", "coordinates": [-77.0418946943, 38.9976181014]}, "type": "Feature", "properties": {"collection_times": [{"days": "Mon-Sat", "time": "12:00pm"}, {"days": "Sun", "time": "Closed"}], "id": "2091000043", "name": "USPS COLLECTION BOX - BLUE BOX", "address": {"city": "SILVER SPRING", "state": "MD", "street": "1900 ROSEMARY HILLS DR", "postcode": "20910"}}},
{"geometry": {"type": "Point", "coordinates": [-77.0174594844, 39.0001050294]}, "type": "Feature", "properties": {"collection_times": [{"days": "Mon-Sat", "time": "1:00pm"}, {"days": "Sun", "time": "Closed"}], "id": "2091000049", "name": "USPS COLLECTION BOX - BLUE BOX", "address": {"city": "SILVER SPRING", "state": "MD", "street": "501 DALE DR", "postcode": "20910"}}},
{"geometry": {"type": "Point", "coordinates": [-77.029001354, 38.993378581]}, "type": "Feature", "properties": {"collection_times": [{"days": "Mon-Sat", "time": "4:00pm"}, {"days": "Sun", "time": "Closed"}], "id": "2091000058", "name": "USPS COLLECTION BOX - BLUE BOX", "address": {"city": "SILVER SPRING", "state": "MD", "street": "1111 BONIFANT ST", "postcode": "20910"}}},
{"geometry": {"type": "Point", "coordinates": [-77.0437242921, 39.0154667241]}, "type": "Feature", "properties": {"collection_times": [{"days": "Mon-Sat", "time": "1:00pm"}, {"days": "Sun", "time": "Closed"}], "id": "2091000072", "name": "USPS COLLECTION BOX - BLUE BOX", "address": {"city": "SILVER SPRING", "state": "MD", "street": "2102 COLERIDGE DR", "postcode": "20910"}}},
{"geometry": {"type": "Point", "coordinates": [-77.0385450864, 39.0143379081]}, "type": "Feature", "properties": {"collection_times": [{"days": "Mon-Sat", "time": "1:00pm"}, {"days": "Sun", "time": "Closed"}], "id": "2091000073", "name": "USPS COLLECTION BOX - BLUE BOX", "address": {"city": "SILVER SPRING", "state": "MD", "street": "9728 ADMIRALTY DR", "postcode": "20910"}}},
{"geometry": {"type": "Point", "coordinates": [-77.037389643, 38.9973307121]}, "type": "Feature", "properties": {"collection_times": [{"days": "Mon-Sat", "time": "12:00pm"}, {"days": "Sun", "time": "Closed"}], "id": "2091000076", "name": "USPS COLLECTION BOX - BLUE BOX", "address": {"city": "SILVER SPRING", "state": "MD", "street": "8518 16TH ST", "postcode": "20910"}}},
{"geometry": {"type": "Point", "coordinates": [-77.0372614268, 38.997241768]}, "type": "Feature", "properties": {"collection_times": [{"days": "Mon-Sat", "time": "12:00pm"}, {"days": "Sun", "time": "Closed"}], "id": "2091000078", "name": "USPS COLLECTION BOX - BLUE BOX", "address": {"city": "SILVER SPRING", "state": "MD", "street": "8500 16TH ST", "postcode": "20910"}}},
{"geometry": {"type": "Point", "coordinates": [-77.0354300738, 39.0037275575]}, "type": "Feature", "properties": {"collection_times": [{"days": "Mon-Sat", "time": "1:00pm"}, {"days": "Sun", "time": "Closed"}], "id": "2091000094", "name": "USPS COLLECTION BOX - BLUE BOX", "address": {"city": "SILVER SPRING", "state": "MD", "street": "940 MONROE ST", "postcode": "20910"}}},
{"geometry": {"type": "Point", "coordinates": [-77.0256163535, 39.0003545132]}, "type": "Feature", "properties": {"collection_times": [{"days": "Mon-Sat", "time": "1:00pm"}, {"days": "Sun", "time": "Closed"}], "id": "2091000101", "name": "USPS COLLECTION BOX - BLUE BOX", "address": {"city": "SILVER SPRING", "state": "MD", "street": "8901 COLESVILLE RD", "postcode": "20910"}}},
{"geometry": {"type": "Point", "coordinates": [-77.047598097, 38.9997523871]}, "type": "Feature", "properties": {"collection_times": [{"days": "Mon-Sat", "time": "12:00pm"}, {"days": "Sun", "time": "Closed"}], "id": "2091000103", "name": "USPS COLLECTION BOX - BLUE BOX", "address": {"city": "SILVER SPRING", "state": "MD", "street": "8800 LANIER DR", "postcode": "20910"}}},
{"geometry": {"type": "Point", "coordinates": [-77.0354300738, 39.0037275575]}, "type": "Feature", "properties": {"collection_times": [{"days": "Mon-Sat", "time": "12:00pm"}, {"days": "Sun", "time": "Closed"}], "id": "2091000104", "name": "USPS COLLECTION BOX - BLUE BOX", "address": {"city": "SILVER SPRING", "state": "MD", "street": "8512 RICHLAND DR", "postcode": "20910"}}},
{"geometry": {"type": "Point", "coordinates": [-77.0419504056, 38.9971703368]}, "type": "Feature", "properties": {"collection_times": [{"days": "Mon-Sat", "time": "12:00pm"}, {"days": "Sun", "time": "Closed"}], "id": "2091000114", "name": "USPS COLLECTION BOX - BLUE BOX", "address": {"city": "SILVER SPRING", "state": "MD", "street": "1901 E WEST HWY", "postcode": "20910"}}},
{"geometry": {"type": "Point", "coordinates": [-77.0219349154, 38.9917259551]}, "type": "Feature", "properties": {"collection_times": [{"days": "Mon-Sat", "time": "11:00am"}, {"days": "Sun", "time": "Closed"}], "id": "2091000121", "name": "USPS COLLECTION BOX - BLUE BOX", "address": {"city": "SILVER SPRING", "state": "MD", "street": "800 SILVER SPRING AVE", "postcode": "20910"}}},
{"geometry": {"type": "Point", "coordinates": [-77.0124448307, 38.9972223652]}, "type": "Feature", "properties": {"collection_times": [{"days": "Mon-Sat", "time": "11:00am"}, {"days": "Sun", "time": "Closed"}], "id": "2091000130", "name": "USPS COLLECTION BOX - BLUE BOX", "address": {"city": "SILVER SPRING", "state": "MD", "street": "201 FLEETWOOD TER", "postcode": "20910"}}},
{"geometry": {"type": "Point", "coordinates": [-77.0325081266, 38.9979835527]}, "type": "Feature", "properties": {"collection_times": [{"days": "Mon-Sat", "time": "5:00pm"}, {"days": "Sun", "time": "Closed"}], "id": "2091000145", "name": "USPS COLLECTION BOX - BLUE BOX", "address": {"city": "SILVER SPRING", "state": "MD", "street": "8653 16TH ST", "postcode": "20910"}}},
{"geometry": {"type": "Point", "coordinates": [-77.0299578129, 38.9978158833]}, "type": "Feature", "properties": {"collection_times": [{"days": "Mon-Fri", "time": "4:00pm"}, {"days": "Sat", "time": "3:00pm"}, {"days": "Sun", "time": "Closed"}], "id": "2091000149", "name": "USPS COLLECTION BOX - BLUE BOX", "address": {"city": "SILVER SPRING", "state": "MD", "street": "8701 GEORGIA AVE", "postcode": "20910"}}},
{"geometry": {"type": "Point", "coordinates": [-77.0284542721, 38.9964057962]}, "type": "Feature", "properties": {"collection_times": [{"days": "Mon-Sat", "time": "4:00pm"}, {"days": "Sun", "time": "Closed"}], "id": "2091000153", "name": "USPS COLLECTION BOX - BLUE BOX", "address": {"city": "SILVER SPRING", "state": "MD", "street": "8601 GEORGIA AVE", "postcode": "20910"}}},
{"geometry": {"type": "Point", "coordinates": [-77.023756742, 38.9901952616]}, "type": "Feature", "properties": {"collection_times": [{"days": "Mon-Sat", "time": "12:00pm"}, {"days": "Sun", "time": "Closed"}], "id": "2091000184", "name": "USPS COLLECTION BOX - BLUE BOX", "address": {"city": "SILVER SPRING", "state": "MD", "street": "850 SLIGO AVE", "postcode": "20910"}}},
{"geometry": {"type": "Point", "coordinates": [-77.0494837336, 38.9922985626]}, "type": "Feature", "properties": {"collection_times": [{"days": "Mon-Sat", "time": "12:00pm"}, {"days": "Sun", "time": "Closed"}], "id": "2091000187", "name": "USPS COLLECTION BOX - BLUE BOX", "address": {"city": "SILVER SPRING", "state": "MD", "street": "8309 GRUBB RD", "postcode": "20910"}}},
{"geometry": {"type": "Point", "coordinates": [-77.0240841883, 38.9917672827]}, "type": "Feature", "properties": {"collection_times": [{"days": "Mon-Sat", "time": "3:00pm"}, {"days": "Sun", "time": "Closed"}], "id": "2091000230", "name": "USPS COLLECTION BOX - BLUE BOX", "address": {"city": "SILVER SPRING", "state": "MD", "street": "8204 FENTON ST", "postcode": "20910"}}},
{"geometry": {"type": "Point", "coordinates": [-77.02405294, 38.9905257852]}, "type": "Feature", "properties": {"collection_times": [{"days": "Mon-Sat", "time": "3:00pm"}, {"days": "Sun", "time": "Closed"}], "id": "2091000231", "name": "USPS COLLECTION BOX - BLUE BOX", "address": {"city": "SILVER SPRING", "state": "MD", "street": "8120 FENTON ST", "postcode": "20910"}}},
{"geometry": {"type": "Point", "coordinates": [-77.0316580199, 38.9929899267]}, "type": "Feature", "properties": {"collection_times": [{"days": "Mon-Sat", "time": "2:00pm"}, {"days": "Sun", "time": "Closed"}], "id": "2091000278", "name": "USPS COLLECTION BOX - BLUE BOX", "address": {"city": "SILVER SPRING", "state": "MD", "street": "1325 E WEST HWY", "postcode": "20910"}}},
{"geometry": {"type": "Point", "coordinates": [-77.0325081266, 38.9979835527]}, "type": "Feature", "properties": {"collection_times": [{"days": "Mon-Sat", "time": "2:00pm"}, {"days": "Sun", "time": "Closed"}], "id": "2091000296", "name": "USPS COLLECTION BOX - EXPRESS", "address": {"city": "SILVER SPRING", "state": "MD", "street": "8726 GEORGIA AVE", "postcode": "20910"}}},
{"geometry": {"type": "Point", "coordinates": [-77.0284542721, 38.9964057962]}, "type": "Feature", "properties": {"collection_times": [{"days": "Mon-Sat", "time": "4:00pm"}, {"days": "Sun", "time": "Closed"}], "id": "2091000301", "name": "USPS COLLECTION BOX - BLUE BOX", "address": {"city": "SILVER SPRING", "state": "MD", "street": "8601 GEORGIA AVE", "postcode": "20910"}}},
{"geometry": {"type": "Point", "coordinates": [-77.026364947, 38.991032389]}, "type": "Feature", "properties": {"collection_times": [{"days": "Mon-Sat", "time": "3:00pm"}, {"days": "Sun", "time": "Closed"}], "id": "2091000302", "name": "USPS COLLECTION BOX - BLUE BOX", "address": {"city": "SILVER SPRING", "state": "MD", "street": "8121 GEORGIA AVE", "postcode": "20910"}}},
{"geometry": {"type": "Point", "coordinates": [-77.0325081266, 38.9979835527]}, "type": "Feature", "properties": {"collection_times": [{"days": "Mon-Sat", "time": "5:00pm"}, {"days": "Sun", "time": "Closed"}], "id": "2091000303", "name": "USPS COLLECTION BOX - EXPRESS", "address": {"city": "SILVER SPRING", "state": "MD", "street": "8653 16TH ST", "postcode": "20910"}}},
{"geometry": {"type": "Point", "coordinates": [-77.0302836349, 38.9979316661]}, "type": "Feature", "properties": {"collection_times": [{"days": "Mon-Sat", "time": "2:00pm"}, {"days": "Sun", "time": "Closed"}], "id": "2091000329", "name": "USPS COLLECTION BOX - BLUE BOX", "address": {"city": "SILVER SPRING", "state": "MD", "street": "8726 GEORGIA AVE", "postcode": "20910"}}},
{"geometry": {"type": "Point", "coordinates": [-77.0325081266, 38.9979835527]}, "type": "Feature", "properties": {"collection_times": [{"days": "Mon-Sat", "time": "3:00pm"}, {"days": "Sun", "time": "Closed"}], "id": "2091000332", "name": "USPS COLLECTION BOX - EXPRESS", "address": {"city": "SILVER SPRING", "state": "MD", "street": "9170 BROOKVILLE RD", "postcode": "20910"}}},
{"geometry": {"type": "Point", "coordinates": [-77.0315046717, 38.9928251535]}, "type": "Feature", "properties": {"collection_times": [{"days": "Mon-Sat", "time": "2:00pm"}, {"days": "Sun", "time": "Closed"}], "id": "2091000333", "name": "USPS COLLECTION BOX - BLUE BOX", "address": {"city": "SILVER SPRING", "state": "MD", "street": "1307 E WEST HWY", "postcode": "20910"}}},
{"geometry": {"type": "Point", "coordinates": [-77.0243935852, 38.9988695904]}, "type": "Feature", "properties": {"collection_times": [{"days": "Mon-Sat", "time": "1:00pm"}, {"days": "Sun", "time": "Closed"}], "id": "2091000337", "name": "USPS COLLECTION BOX - BLUE BOX", "address": {"city": "SILVER SPRING", "state": "MD", "street": "900 SPRING ST", "postcode": "20910"}}},
{"geometry": {"type": "Point", "coordinates": [-77.0507655842, 39.0096006154]}, "type": "Feature", "properties": {"collection_times": [{"days": "Mon-Sat", "time": "3:00pm"}, {"days": "Sun", "time": "Closed"}], "id": "2091000338", "name": "USPS COLLECTION BOX - BLUE BOX", "address": {"city": "SILVER SPRING", "state": "MD", "street": "2413 LINDEN LN", "postcode": "20910"}}},
{"geometry": {"type": "Point", "coordinates": [-77.0322775955, 38.9978064196]}, "type": "Feature", "properties": {"collection_times": [{"days": "Mon-Sat", "time": "12:00pm"}, {"days": "Sun", "time": "Closed"}], "id": "2091000342", "name": "USPS COLLECTION BOX - BLUE BOX", "address": {"city": "SILVER SPRING", "state": "MD", "street": "8708 1ST AVE", "postcode": "20910"}}},
{"geometry": {"type": "Point", "coordinates": [-77.0280002864, 38.999739383]}, "type": "Feature", "properties": {"collection_times": [{"days": "Mon-Sat", "time": "3:00pm"}, {"days": "Sun", "time": "Closed"}], "id": "2091000343", "name": "USPS COLLECTION BOX - BLUE BOX", "address": {"city": "SILVER SPRING", "state": "MD", "street": "1109 SPRING ST", "postcode": "20910"}}},
{"geometry": {"type": "Point", "coordinates": [-77.0459928205, 39.0155191038]}, "type": "Feature", "properties": {"collection_times": [{"days": "Mon-Sat", "time": "1:00pm"}, {"days": "Sun", "time": "Closed"}], "id": "2091000345", "name": "USPS COLLECTION BOX - BLUE BOX", "address": {"city": "SILVER SPRING", "state": "MD", "street": "2201 FOREST GLEN RD", "postcode": "20910"}}},
{"geometry": {"type": "Point", "coordinates": [-77.025646986, 38.998029008]}, "type": "Feature", "properties": {"collection_times": [{"days": "Mon-Sat", "time": "3:00pm"}, {"days": "Sun", "time": "Closed"}], "id": "2091000347", "name": "USPS COLLECTION BOX - BLUE BOX", "address": {"city": "SILVER SPRING", "state": "MD", "street": "801 ROEDER RD", "postcode": "20910"}}},
{"geometry": {"type": "Point", "coordinates": [-77.0221325394, 38.9969357618]}, "type": "Feature", "properties": {"collection_times": [{"days": "Mon-Sat", "time": "1:00pm"}, {"days": "Sun", "time": "Closed"}], "id": "2091000349", "name": "USPS COLLECTION BOX - BLUE BOX", "address": {"city": "SILVER SPRING", "state": "MD", "street": "801 WAYNE AVE", "postcode": "20910"}}},
{"geometry": {"type": "Point", "coordinates": [-77.027535113, 38.9944444502]}, "type": "Feature", "properties": {"collection_times": [{"days": "Mon-Sat", "time": "4:00pm"}, {"days": "Sun", "time": "Closed"}], "id": "2091000353", "name": "USPS COLLECTION BOX - BLUE BOX", "address": {"city": "SILVER SPRING", "state": "MD", "street": "1010 WAYNE AVE", "postcode": "20910"}}},
{"geometry": {"type": "Point", "coordinates": [-77.027535113, 38.9944444502]}, "type": "Feature", "properties": {"collection_times": [{"days": "Mon-Sat", "time": "4:00pm"}, {"days": "Sun", "time": "Closed"}], "id": "2091000354", "name": "USPS COLLECTION BOX - BLUE BOX", "address": {"city": "SILVER SPRING", "state": "MD", "street": "1010 WAYNE AVE", "postcode": "20910"}}},
{"geometry": {"type": "Point", "coordinates": [-77.0292130737, 38.9968997015]}, "type": "Feature", "properties": {"collection_times": [{"days": "Mon-Sat", "time": "12:00pm"}, {"days": "Sun", "time": "Closed"}], "id": "2091000357", "name": "USPS COLLECTION BOX - BLUE BOX", "address": {"city": "SILVER SPRING", "state": "MD", "street": "1110 FIDLER LN", "postcode": "20910"}}},
{"geometry": {"type": "Point", "coordinates": [-77.0293610483, 38.9899318505]}, "type": "Feature", "properties": {"collection_times": [{"days": "Mon-Sat", "time": "2:00pm"}, {"days": "Sun", "time": "Closed"}], "id": "2091000360", "name": "USPS COLLECTION BOX - BLUE BOX", "address": {"city": "SILVER SPRING", "state": "MD", "street": "1220 BLAIR MILL RD", "postcode": "20910"}}},
{"geometry": {"type": "Point", "coordinates": [-77.0294709465, 38.9904305576]}, "type": "Feature", "properties": {"collection_times": [{"days": "Mon-Sat", "time": "2:00pm"}, {"days": "Sun", "time": "Closed"}], "id": "2091000361", "name": "USPS COLLECTION BOX - BLUE BOX", "address": {"city": "SILVER SPRING", "state": "MD", "street": "1220 E WEST HWY", "postcode": "20910"}}},
{"geometry": {"type": "Point", "coordinates": [-77.0320064216, 38.9991931814]}, "type": "Feature", "properties": {"collection_times": [{"days": "Mon-Sat", "time": "4:00pm"}, {"days": "Sun", "time": "Closed"}], "id": "2091000362", "name": "USPS COLLECTION BOX - BLUE BOX", "address": {"city": "SILVER SPRING", "state": "MD", "street": "1300 SPRING ST", "postcode": "20910"}}},
{"geometry": {"type": "Point", "coordinates": [-77.0307712371, 38.9980871297]}, "type": "Feature", "properties": {"collection_times": [{"days": "Mon-Sat", "time": "12:00pm"}, {"days": "Sun", "time": "Closed"}], "id": "2091000363", "name": "USPS COLLECTION BOX - BLUE BOX", "address": {"city": "SILVER SPRING", "state": "MD", "street": "1316 FENWICK LN", "postcode": "20910"}}},
{"geometry": {"type": "Point", "coordinates": [-77.03081582, 38.9980499127]}, "type": "Feature", "properties": {"collection_times": [{"days": "Mon-Sat", "time": "4:00pm"}, {"days": "Sun", "time": "Closed"}], "id": "2091000364", "name": "USPS COLLECTION BOX - BLUE BOX", "address": {"city": "SILVER SPRING", "state": "MD", "street": "1320 FENWICK LN", "postcode": "20910"}}},
{"geometry": {"type": "Point", "coordinates": [-77.0317599963, 38.9972872578]}, "type": "Feature", "properties": {"collection_times": [{"days": "Mon-Sat", "time": "12:00pm"}, {"days": "Sun", "time": "Closed"}], "id": "2091000365", "name": "USPS COLLECTION BOX - BLUE BOX", "address": {"city": "SILVER SPRING", "state": "MD", "street": "1400 FENWICK LN", "postcode": "20910"}}},
{"geometry": {"type": "Point", "coordinates": [-77.0323859754, 38.9936117345]}, "type": "Feature", "properties": {"collection_times": [{"days": "Mon-Sat", "time": "12:00pm"}, {"days": "Sun", "time": "Closed"}], "id": "2091000367", "name": "USPS COLLECTION BOX - BLUE BOX", "address": {"city": "SILVER SPRING", "state": "MD", "street": "1400 E WEST HWY", "postcode": "20910"}}},
{"geometry": {"type": "Point", "coordinates": [-77.0319862484, 38.9901946234]}, "type": "Feature", "properties": {"collection_times": [{"days": "Mon-Fri", "time": "2:00pm"}, {"days": "Sat", "time": "12:00pm"}, {"days": "Sun", "time": "Closed"}], "id": "2091000368", "name": "USPS COLLECTION BOX - BLUE BOX", "address": {"city": "SILVER SPRING", "state": "MD", "street": "1401 BLAIR MILL RD", "postcode": "20910"}}},
{"geometry": {"type": "Point", "coordinates": [-77.0402917067, 39.0017630148]}, "type": "Feature", "properties": {"collection_times": [{"days": "Mon-Sat", "time": "12:00pm"}, {"days": "Sun", "time": "Closed"}], "id": "2091000371", "name": "USPS COLLECTION BOX - BLUE BOX", "address": {"city": "SILVER SPRING", "state": "MD", "street": "1900 LYTTONSVILLE RD", "postcode": "20910"}}},
{"geometry": {"type": "Point", "coordinates": [-77.0519568023, 38.999158511]}, "type": "Feature", "properties": {"collection_times": [{"days": "Mon-Sat", "time": "12:00pm"}, {"days": "Sun", "time": "Closed"}], "id": "2091000372", "name": "USPS COLLECTION BOX - BLUE BOX", "address": {"city": "SILVER SPRING", "state": "MD", "street": "2445 LYTTONSVILLE RD", "postcode": "20910"}}},
{"geometry": {"type": "Point", "coordinates": [-77.0263911917, 38.9910375284]}, "type": "Feature", "properties": {"collection_times": [{"days": "Mon-Sat", "time": "3:00pm"}, {"days": "Sun", "time": "Closed"}], "id": "2091000373", "name": "USPS COLLECTION BOX - BLUE BOX", "address": {"city": "SILVER SPRING", "state": "MD", "street": "8121 GEORGIA AVE", "postcode": "20910"}}},
{"geometry": {"type": "Point", "coordinates": [-77.0361442933, 38.9924195817]}, "type": "Feature", "properties": {"collection_times": [{"days": "Mon-Sat", "time": "2:00pm"}, {"days": "Sun", "time": "Closed"}], "id": "2091000374", "name": "USPS COLLECTION BOX - BLUE BOX", "address": {"city": "SILVER SPRING", "state": "MD", "street": "8201 16TH ST", "postcode": "20910"}}},
{"geometry": {"type": "Point", "coordinates": [-77.0331636317, 38.993095877]}, "type": "Feature", "properties": {"collection_times": [{"days": "Mon-Sat", "time": "2:00pm"}, {"days": "Sun", "time": "Closed"}], "id": "2091000375", "name": "USPS COLLECTION BOX - BLUE BOX", "address": {"city": "SILVER SPRING", "state": "MD", "street": "8300 COLESVILLE RD", "postcode": "20910"}}},
{"geometry": {"type": "Point", "coordinates": [-77.0312011683, 38.9943388264]}, "type": "Feature", "properties": {"collection_times": [{"days": "Mon-Sat", "time": "5:00pm"}, {"days": "Sun", "time": "Closed"}], "id": "2091000376", "name": "USPS COLLECTION BOX - BLUE BOX", "address": {"city": "SILVER SPRING", "state": "MD", "street": "8403 COLESVILLE RD", "postcode": "20910"}}},
{"geometry": {"type": "Point", "coordinates": [-77.0312011683, 38.9943388264]}, "type": "Feature", "properties": {"collection_times": [{"days": "Mon-Sat", "time": "5:00pm"}, {"days": "Sun", "time": "Closed"}], "id": "2091000377", "name": "USPS COLLECTION BOX - BLUE BOX", "address": {"city": "SILVER SPRING", "state": "MD", "street": "8403 COLESVILLE RD", "postcode": "20910"}}},
{"geometry": {"type": "Point", "coordinates": [-77.0312011683, 38.9943388264]}, "type": "Feature", "properties": {"collection_times": [{"days": "Mon-Sat", "time": "5:00pm"}, {"days": "Sun", "time": "Closed"}], "id": "2091000379", "name": "USPS COLLECTION BOX - BLUE BOX", "address": {"city": "SILVER SPRING", "state": "MD", "street": "8403 COLESVILLE RD", "postcode": "20910"}}},
{"geometry": {"type": "Point", "coordinates": [-77.0312011683, 38.9943388264]}, "type": "Feature", "properties": {"collection_times": [{"days": "Mon-Sat", "time": "5:00pm"}, {"days": "Sun", "time": "Closed"}], "id": "2091000380", "name": "USPS COLLECTION BOX - BLUE BOX", "address": {"city": "SILVER SPRING", "state": "MD", "street": "8403 COLESVILLE RD", "postcode": "20910"}}},
{"geometry": {"type": "Point", "coordinates": [-77.0370441682, 38.9974228093]}, "type": "Feature", "properties": {"collection_times": [{"days": "Mon-Sat", "time": "4:00pm"}, {"days": "Sun", "time": "Closed"}], "id": "2091000386", "name": "USPS COLLECTION BOX - BLUE BOX", "address": {"city": "SILVER SPRING", "state": "MD", "street": "8555 16TH ST", "postcode": "20910"}}},
{"geometry": {"type": "Point", "coordinates": [-77.0360950041, 39.0159754863]}, "type": "Feature", "properties": {"collection_times": [{"days": "Mon-Sat", "time": "2:00pm"}, {"days": "Sun", "time": "Closed"}], "id": "2091000392", "name": "USPS COLLECTION BOX - BLUE BOX", "address": {"city": "SILVER SPRING", "state": "MD", "street": "1500 FOREST GLEN RD", "postcode": "20910"}}},
{"geometry": {"type": "Point", "coordinates": [-77.032679581, 38.998261098]}, "type": "Feature", "properties": {"collection_times": [{"days": "Mon-Sat", "time": "12:00pm"}, {"days": "Sun", "time": "Closed"}], "id": "2091000394", "name": "USPS COLLECTION BOX - BLUE BOX", "address": {"city": "SILVER SPRING", "state": "MD", "street": "8715 1ST AVE", "postcode": "20910"}}},
{"geometry": {"type": "Point", "coordinates": [-77.0307220044, 38.9985457689]}, "type": "Feature", "properties": {"collection_times": [{"days": "Mon-Sat", "time": "4:00pm"}, {"days": "Sun", "time": "Closed"}], "id": "2091000401", "name": "USPS COLLECTION BOX - BLUE BOX", "address": {"city": "SILVER SPRING", "state": "MD", "street": "8777 GEORGIA AVE", "postcode": "20910"}}},
{"geometry": {"type": "Point", "coordinates": [-77.0313880103, 38.9991573587]}, "type": "Feature", "properties": {"collection_times": [{"days": "Mon-Sat", "time": "4:00pm"}, {"days": "Sun", "time": "Closed"}], "id": "2091000402", "name": "USPS COLLECTION BOX - BLUE BOX", "address": {"city": "SILVER SPRING", "state": "MD", "street": "8787 GEORGIA AVE", "postcode": "20910"}}},
{"geometry": {"type": "Point", "coordinates": [-77.0258352009, 38.9996057002]}, "type": "Feature", "properties": {"collection_times": [{"days": "Mon-Sat", "time": "1:00pm"}, {"days": "Sun", "time": "Closed"}], "id": "2091000403", "name": "USPS COLLECTION BOX - BLUE BOX", "address": {"city": "SILVER SPRING", "state": "MD", "street": "8811 COLESVILLE RD", "postcode": "20910"}}},
{"geometry": {"type": "Point", "coordinates": [-77.0273789624, 39.0001723375]}, "type": "Feature", "properties": {"collection_times": [{"days": "Mon-Sat", "time": "3:00pm"}, {"days": "Sun", "time": "Closed"}], "id": "2091000404", "name": "USPS COLLECTION BOX - BLUE BOX", "address": {"city": "SILVER SPRING", "state": "MD", "street": "8830 CAMERON ST", "postcode": "20910"}}},
{"geometry": {"type": "Point", "coordinates": [-77.026150702, 38.9990939826]}, "type": "Feature", "properties": {"collection_times": [{"days": "Mon-Sat", "time": "1:00pm"}, {"days": "Sun", "time": "Closed"}], "id": "2091000406", "name": "USPS COLLECTION BOX - BLUE BOX", "address": {"city": "SILVER SPRING", "state": "MD", "street": "1001 SPRING ST", "postcode": "20910"}}},
{"geometry": {"type": "Point", "coordinates": [-77.0285133517, 38.9882116688]}, "type": "Feature", "properties": {"collection_times": [{"days": "Mon-Sat", "time": "1:00pm"}, {"days": "Sun", "time": "Closed"}], "id": "2091000413", "name": "USPS COLLECTION BOX - BLUE BOX", "address": {"city": "SILVER SPRING", "state": "MD", "street": "8045 KENNETT ST", "postcode": "20910"}}},
{"geometry": {"type": "Point", "coordinates": [-77.0285027734, 38.9944397184]}, "type": "Feature", "properties": {"collection_times": [{"days": "Mon-Sat", "time": "4:00pm"}, {"days": "Sun", "time": "Closed"}], "id": "2091000417", "name": "USPS COLLECTION BOX - BLUE BOX", "address": {"city": "SILVER SPRING", "state": "MD", "street": "1100 WAYNE AVE", "postcode": "20910"}}},
{"geometry": {"type": "Point", "coordinates": [-77.0312011683, 38.9943388264]}, "type": "Feature", "properties": {"collection_times": [{"days": "Mon-Sat", "time": "5:00pm"}, {"days": "Sun", "time": "Closed"}], "id": "2091000419", "name": "USPS COLLECTION BOX - BLUE BOX", "address": {"city": "SILVER SPRING", "state": "MD", "street": "8403 COLESVILLE RD", "postcode": "20910"}}},
{"geometry": {"type": "Point", "coordinates": [-77.0284542721, 38.9964057962]}, "type": "Feature", "properties": {"collection_times": [{"days": "Mon-Sat", "time": "4:00pm"}, {"days": "Sun", "time": "Closed"}], "id": "2091000421", "name": "USPS COLLECTION BOX - BLUE BOX", "address": {"city": "SILVER SPRING", "state": "MD", "street": "8601 GEORGIA AVE", "postcode": "20910"}}},
{"geometry": {"type": "Point", "coordinates": [-77.0325081266, 38.9979835527]}, "type": "Feature", "properties": {"collection_times": [{"days": "Mon-Sat", "time": "4:00pm"}, {"days": "Sun", "time": "Closed"}], "id": "2091000422", "name": "USPS COLLECTION BOX - EXPRESS", "address": {"city": "SILVER SPRING", "state": "MD", "street": "8601 GEORGIA AVE", "postcode": "20910"}}},
{"geometry": {"type": "Point", "coordinates": [-77.0257470274, 38.9979322321]}, "type": "Feature", "properties": {"collection_times": [{"days": "Mon-Sat", "time": "3:00pm"}, {"days": "Sun", "time": "Closed"}], "id": "2091000431", "name": "USPS COLLECTION BOX - BLUE BOX", "address": {"city": "SILVER SPRING", "state": "MD", "street": "801 ROEDER RD", "postcode": "20910"}}},
{"geometry": {"type": "Point", "coordinates": [-76.9947816386, 38.9944293316]}, "type": "Feature", "properties": {"collection_times": [{"days": "Mon-Sat", "time": "11:00am"}, {"days": "Sun", "time": "Closed"}], "id": "2091200002", "name": "USPS COLLECTION BOX - BLUE BOX", "address": {"city": "SILVER SPRING", "state": "MD", "street": "804 FORSTON ST", "postcode": "20912"}}},
{"geometry": {"type": "Point", "coordinates": [-76.9971230382, 38.9983946744]}, "type": "Feature", "properties": {"collection_times": [{"days": "Mon-Sat", "time": "11:00am"}, {"days": "Sun", "time": "Closed"}], "id": "2091200003", "name": "USPS COLLECTION BOX - BLUE BOX", "address": {"city": "SILVER SPRING", "state": "MD", "street": "8707 BARRON ST", "postcode": "20912"}}},
{"geometry": {"type": "Point", "coordinates": [-77.0014212938, 38.9950087216]}, "type": "Feature", "properties": {"collection_times": [{"days": "Mon-Sat", "time": "11:00am"}, {"days": "Sun", "time": "Closed"}], "id": "2091200004", "name": "USPS COLLECTION BOX - BLUE BOX", "address": {"city": "SILVER SPRING", "state": "MD", "street": "8501 GREENWOOD AVE", "postcode": "20912"}}},
{"geometry": {"type": "Point", "coordinates": [-77.0016064475, 38.9828803136]}, "type": "Feature", "properties": {"collection_times": [{"days": "Mon-Sat", "time": "3:00pm"}, {"days": "Sun", "time": "Closed"}], "id": "2091200005", "name": "USPS COLLECTION BOX - BLUE BOX", "address": {"city": "SILVER SPRING", "state": "MD", "street": "7910 GREENWOOD AVE", "postcode": "20912"}}},
{"geometry": {"type": "Point", "coordinates": [-77.0048708022, 38.9889176659]}, "type": "Feature", "properties": {"collection_times": [{"days": "Mon-Sat", "time": "11:00am"}, {"days": "Sun", "time": "Closed"}], "id": "2091200007", "name": "USPS COLLECTION BOX - BLUE BOX", "address": {"city": "SILVER SPRING", "state": "MD", "street": "600 KENNEBEC AVE", "postcode": "20912"}}},
{"geometry": {"type": "Point", "coordinates": [-77.0192969867, 38.9849228135]}, "type": "Feature", "properties": {"collection_times": [{"days": "Mon-Sat", "time": "12:00pm"}, {"days": "Sun", "time": "Closed"}], "id": "2091200013", "name": "USPS COLLECTION BOX - BLUE BOX", "address": {"city": "SILVER SPRING", "state": "MD", "street": "7715 TAKOMA AVE", "postcode": "20912"}}},
{"geometry": {"type": "Point", "coordinates": [-77.0021748387, 38.9923257707]}, "type": "Feature", "properties": {"collection_times": [{"days": "Mon-Sat", "time": "11:00am"}, {"days": "Sun", "time": "Closed"}], "id": "2091200015", "name": "USPS COLLECTION BOX - BLUE BOX", "address": {"city": "SILVER SPRING", "state": "MD", "street": "8240 FLOWER AVE", "postcode": "20912"}}},
{"geometry": {"type": "Point", "coordinates": [-77.0030502283, 38.9962401819]}, "type": "Feature", "properties": {"collection_times": [{"days": "Mon-Sat", "time": "11:00am"}, {"days": "Sun", "time": "Closed"}], "id": "2091200018", "name": "USPS COLLECTION BOX - BLUE BOX", "address": {"city": "SILVER SPRING", "state": "MD", "street": "8514 FLOWER AVE", "postcode": "20912"}}},
{"geometry": {"type": "Point", "coordinates": [-76.9962068107, 38.9862548253]}, "type": "Feature", "properties": {"collection_times": [{"days": "Mon-Sat", "time": "11:00am"}, {"days": "Sun", "time": "Closed"}], "id": "2091200019", "name": "USPS COLLECTION BOX - BLUE BOX", "address": {"city": "SILVER SPRING", "state": "MD", "street": "7800 CARROLL AVE", "postcode": "20912"}}},
{"geometry": {"type": "Point", "coordinates": [-77.0060294352, 38.9712570662]}, "type": "Feature", "properties": {"collection_times": [{"days": "Mon-Fri", "time": "2:30pm"}, {"days": "Sat", "time": "2:00pm"}, {"days": "Sun", "time": "Closed"}], "id": "2091200021", "name": "USPS COLLECTION BOX - BLUE BOX", "address": {"city": "SILVER SPRING", "state": "MD", "street": "6600 ALLEGHENY AVE", "postcode": "20912"}}},
{"geometry": {"type": "Point", "coordinates": [-76.9971361249, 38.9777905041]}, "type": "Feature", "properties": {"collection_times": [{"days": "Mon-Sat", "time": "12:30pm"}, {"days": "Sun", "time": "Closed"}], "id": "2091200028", "name": "USPS COLLECTION BOX - BLUE BOX", "address": {"city": "SILVER SPRING", "state": "MD", "street": "506 LINCOLN AVE", "postcode": "20912"}}},
{"geometry": {"type": "Point", "coordinates": [-77.0001781483, 38.9799464228]}, "type": "Feature", "properties": {"collection_times": [{"days": "Mon-Sat", "time": "11:00am"}, {"days": "Sun", "time": "Closed"}], "id": "2091200030", "name": "USPS COLLECTION BOX - BLUE BOX", "address": {"city": "SILVER SPRING", "state": "MD", "street": "403 LINCOLN AVE", "postcode": "20912"}}},
{"geometry": {"type": "Point", "coordinates": [-76.9941389984, 38.9787288403]}, "type": "Feature", "properties": {"collection_times": [{"days": "Mon-Sat", "time": "11:00am"}, {"days": "Sun", "time": "Closed"}], "id": "2091200031", "name": "USPS COLLECTION BOX - BLUE BOX", "address": {"city": "SILVER SPRING", "state": "MD", "street": "1001 ELM AVE", "postcode": "20912"}}},
{"geometry": {"type": "Point", "coordinates": [-77.0125227316, 38.9740794574]}, "type": "Feature", "properties": {"collection_times": [{"days": "Mon-Sat", "time": "4:00pm"}, {"days": "Sun", "time": "Closed"}], "id": "2091200032", "name": "USPS COLLECTION BOX - BLUE BOX", "address": {"city": "SILVER SPRING", "state": "MD", "street": "6931 LAUREL AVE", "postcode": "20912"}}},
{"geometry": {"type": "Point", "coordinates": [-77.0016064475, 38.9828803136]}, "type": "Feature", "properties": {"collection_times": [{"days": "Mon-Sat", "time": "4:00pm"}, {"days": "Sun", "time": "Closed"}], "id": "2091200033", "name": "USPS COLLECTION BOX - EXPRESS", "address": {"city": "SILVER SPRING", "state": "MD", "street": "6931 LAUREL AVE", "postcode": "20912"}}},
{"geometry": {"type": "Point", "coordinates": [-77.0109240032, 38.9750380084]}, "type": "Feature", "properties": {"collection_times": [{"days": "Mon-Sat", "time": "1:00pm"}, {"days": "Sun", "time": "Closed"}], "id": "2091200034", "name": "USPS COLLECTION BOX - BLUE BOX", "address": {"city": "SILVER SPRING", "state": "MD", "street": "7051 CARROLL AVE", "postcode": "20912"}}},
{"geometry": {"type": "Point", "coordinates": [-77.0046614184, 38.973923661]}, "type": "Feature", "properties": {"collection_times": [{"days": "Mon-Sat", "time": "1:00pm"}, {"days": "Sun", "time": "Closed"}], "id": "2091200038", "name": "USPS COLLECTION BOX - BLUE BOX", "address": {"city": "SILVER SPRING", "state": "MD", "street": "301 ELM AVE", "postcode": "20912"}}},
{"geometry": {"type": "Point", "coordinates": [-76.9990801457, 38.9729207259]}, "type": "Feature", "properties": {"collection_times": [{"days": "Mon-Sat", "time": "1:00pm"}, {"days": "Sun", "time": "Closed"}], "id": "2091200040", "name": "USPS COLLECTION BOX - BLUE BOX", "address": {"city": "SILVER SPRING", "state": "MD", "street": "407 BELFORD PL", "postcode": "20912"}}},
{"geometry": {"type": "Point", "coordinates": [-77.0094960091, 38.9816016506]}, "type": "Feature", "properties": {"collection_times": [{"days": "Mon-Sat", "time": "3:00pm"}, {"days": "Sun", "time": "Closed"}], "id": "2091200046", "name": "USPS COLLECTION BOX - BLUE BOX", "address": {"city": "SILVER SPRING", "state": "MD", "street": "7500 MAPLE AVE", "postcode": "20912"}}},
{"geometry": {"type": "Point", "coordinates": [-77.0133289588, 38.9770135499]}, "type": "Feature", "properties": {"collection_times": [{"days": "Mon-Sat", "time": "12:00pm"}, {"days": "Sun", "time": "Closed"}], "id": "2091200049", "name": "USPS COLLECTION BOX - BLUE BOX", "address": {"city": "SILVER SPRING", "state": "MD", "street": "7200 MAPLE AVE", "postcode": "20912"}}},
{"geometry": {"type": "Point", "coordinates": [-76.9885954118, 38.9835449988]}, "type": "Feature", "properties": {"collection_times": [{"days": "Mon-Fri", "time": "3:15pm"}, {"days": "Sat", "time": "3:00pm"}, {"days": "Sun", "time": "Closed"}], "id": "2091200053", "name": "USPS COLLECTION BOX - BLUE BOX", "address": {"city": "SILVER SPRING", "state": "MD", "street": "7400 NEW HAMPSHIRE AVE", "postcode": "20912"}}},
{"geometry": {"type": "Point", "coordinates": [-76.9996311091, 38.9841503079]}, "type": "Feature", "properties": {"collection_times": [{"days": "Mon-Sat", "time": "3:00pm"}, {"days": "Sun", "time": "Closed"}], "id": "2091200058", "name": "USPS COLLECTION BOX - BLUE BOX", "address": {"city": "SILVER SPRING", "state": "MD", "street": "7600 CARROLL AVE", "postcode": "20912"}}},
{"geometry": {"type": "Point", "coordinates": [-77.00594138, 38.9781941429]}, "type": "Feature", "properties": {"collection_times": [{"days": "Mon-Sat", "time": "11:00am"}, {"days": "Sun", "time": "Closed"}], "id": "2091200061", "name": "USPS COLLECTION BOX - BLUE BOX", "address": {"city": "SILVER SPRING", "state": "MD", "street": "7300 CARROLL AVE", "postcode": "20912"}}},
{"geometry": {"type": "Point", "coordinates": [-76.9930927676, 38.9765921305]}, "type": "Feature", "properties": {"collection_times": [{"days": "Mon-Fri", "time": "2:30pm"}, {"days": "Sat", "time": "2:15pm"}, {"days": "Sun", "time": "Closed"}], "id": "2091200065", "name": "USPS COLLECTION BOX - BLUE BOX", "address": {"city": "SILVER SPRING", "state": "MD", "street": "6912 NEW HAMPSHIRE AVE", "postcode": "20912"}}},
{"geometry": {"type": "Point", "coordinates": [-77.0049264012, 38.9841065718]}, "type": "Feature", "properties": {"collection_times": [{"days": "Mon-Sat", "time": "12:00pm"}, {"days": "Sun", "time": "Closed"}], "id": "2091200073", "name": "USPS COLLECTION BOX - BLUE BOX", "address": {"city": "SILVER SPRING", "state": "MD", "street": "7777 MAPLE AVE", "postcode": "20912"}}},
{"geometry": {"type": "Point", "coordinates": [-77.0062075458, 38.9835730573]}, "type": "Feature", "properties": {"collection_times": [{"days": "Mon-Sat", "time": "12:00pm"}, {"days": "Sun", "time": "Closed"}], "id": "2091200074", "name": "USPS COLLECTION BOX - BLUE BOX", "address": {"city": "SILVER SPRING", "state": "MD", "street": "7620 MAPLE AVE", "postcode": "20912"}}},
{"geometry": {"type": "Point", "coordinates": [-77.014013892, 38.9747990507]}, "type": "Feature", "properties": {"collection_times": [{"days": "Mon-Sat", "time": "12:00pm"}, {"days": "Sun", "time": "Closed"}], "id": "2091200075", "name": "USPS COLLECTION BOX - BLUE BOX", "address": {"city": "SILVER SPRING", "state": "MD", "street": "6930 CARROLL AVE", "postcode": "20912"}}},
{"geometry": {"type": "Point", "coordinates": [-76.9995052998, 38.9842045727]}, "type": "Feature", "properties": {"collection_times": [{"days": "Mon-Sat", "time": "3:00pm"}, {"days": "Sun", "time": "Closed"}], "id": "2091200076", "name": "USPS COLLECTION BOX - BLUE BOX", "address": {"city": "SILVER SPRING", "state": "MD", "street": "7610 CARROLL AVE", "postcode": "20912"}}},
{"geometry": {"type": "Point", "coordinates": [-77.0074386765, 38.9826738741]}, "type": "Feature", "properties": {"collection_times": [{"days": "Mon-Fri", "time": "12:30pm"}, {"days": "Sat", "time": "12:15pm"}, {"days": "Sun", "time": "Closed"}], "id": "2091200080", "name": "USPS COLLECTION BOX - BLUE BOX", "address": {"city": "SILVER SPRING", "state": "MD", "street": "7600 MAPLE AVE", "postcode": "20912"}}},
{"geometry": {"type": "Point", "coordinates": [-76.98772871, 38.9876046123]}, "type": "Feature", "properties": {"collection_times": [{"days": "Mon-Fri", "time": "12:30pm"}, {"days": "Sat", "time": "12:15pm"}, {"days": "Sun", "time": "Closed"}], "id": "2091200082", "name": "USPS COLLECTION BOX - BLUE BOX", "address": {"city": "SILVER SPRING", "state": "MD", "street": "7653 NEW HAMPSHIRE AVE", "postcode": "20912"}}},
{"geometry": {"type": "Point", "coordinates": [-76.9879438423, 38.9862985948]}, "type": "Feature", "properties": {"collection_times": [{"days": "Mon-Sat", "time": "1:00pm"}, {"days": "Sun", "time": "Closed"}], "id": "2091200085", "name": "USPS COLLECTION BOX - BLUE BOX", "address": {"city": "SILVER SPRING", "state": "MD", "street": "7401 NEW HAMPSHIRE AVE", "postcode": "20912"}}},
{"geometry": {"type": "Point", "coordinates": [-76.9879521231, 38.9876968523]}, "type": "Feature", "properties": {"collection_times": [{"days": "Mon-Sat", "time": "1:00pm"}, {"days": "Sun", "time": "Closed"}], "id": "2091200086", "name": "USPS COLLECTION BOX - BLUE BOX", "address": {"city": "SILVER SPRING", "state": "MD", "street": "7676 NEW HAMPSHIRE AVE", "postcode": "20912"}}},
{"geometry": {"type": "Point", "coordinates": [-77.0125227316, 38.9740794574]}, "type": "Feature", "properties": {"collection_times": [{"days": "Mon-Fri", "time": "5:00pm"}, {"days": "Sat", "time": "3:00pm"}, {"days": "Sun", "time": "Closed"}], "id": "2091200087", "name": "USPS COLLECTION BOX - PO LOBBY", "address": {"city": "SILVER SPRING", "state": "MD", "street": "6931 LAUREL AVE", "postcode": "20912"}}},
{"geometry": {"type": "Point", "coordinates": [-77.0125227316, 38.9740794574]}, "type": "Feature", "properties": {"collection_times": [{"days": "Mon-Fri", "time": "5:00pm"}, {"days": "Sat", "time": "3:00pm"}, {"days": "Sun", "time": "Closed"}], "id": "2091200088", "name": "USPS COLLECTION BOX - PO LOBBY", "address": {"city": "SILVER SPRING", "state": "MD", "street": "6931 LAUREL AVE", "postcode": "20912"}}}
]}
