{"type": "FeatureCollection", "features": [
{"geometry": {"type": "Point", "coordinates": [-76.1708444351, 39.5070212337]}, "type": "Feature", "properties": {"collection_times": [{"days": "Mon-Fri", "time": "4:15pm"}, {"days": "Sat", "time": "12:15pm"}, {"days": "Sun", "time": "Closed"}], "id": "2100100003", "name": "USPS COLLECTION BOX - BLUE BOX", "address": {"city": "ABERDEEN", "state": "MD", "street": "309 PLATER ST", "postcode": "21001"}}},
{"geometry": {"type": "Point", "coordinates": [-76.1760187738, 39.5014973343]}, "type": "Feature", "properties": {"collection_times": [{"days": "Mon-Fri", "time": "4:10pm"}, {"days": "Sat", "time": "12:00pm"}, {"days": "Sun", "time": "Closed"}], "id": "2100100012", "name": "USPS COLLECTION BOX - BLUE BOX", "address": {"city": "ABERDEEN", "state": "MD", "street": "700 WALKER ST", "postcode": "21001"}}},
{"geometry": {"type": "Point", "coordinates": [-76.1751658603, 39.5265748814]}, "type": "Feature", "properties": {"collection_times": [{"days": "Mon-Fri", "time": "4:50pm"}, {"days": "Sat", "time": "11:15am"}, {"days": "Sun", "time": "Closed"}], "id": "2100100025", "name": "USPS COLLECTION BOX - BLUE BOX", "address": {"city": "ABERDEEN", "state": "MD", "street": "474 BERNICE TER", "postcode": "21001"}}},
{"geometry": {"type": "Point", "coordinates": [-76.1641033911, 39.508758884]}, "type": "Feature", "properties": {"collection_times": [{"days": "Mon-Fri", "time": "4:55pm"}, {"days": "Sat", "time": "12:15pm"}, {"days": "Sun", "time": "Closed"}], "id": "2100100028", "name": "USPS COLLECTION BOX - BLUE BOX", "address": {"city": "ABERDEEN", "state": "MD", "street": "4 BUCHANAN LN", "postcode": "21001"}}},
{"geometry": {"type": "Point", "coordinates": [-76.1650409146, 39.5097993403]}, "type": "Feature", "properties": {"collection_times": [{"days": "Mon-Fri", "time": "5:00pm"}, {"days": "Sat", "time": "12:15pm"}, {"days": "Sun", "time": "Closed"}], "id": "2100100030", "name": "USPS COLLECTION BOX - BLUE BOX", "address": {"city": "ABERDEEN", "state": "MD", "street": "30 W BEL AIR AVE", "postcode": "21001"}}},
{"geometry": {"type": "Point", "coordinates": [-76.1835258313, 39.5250110097]}, "type": "Feature", "properties": {"collection_times": [{"days": "Mon-Fri", "time": "4:45pm"}, {"days": "Sat", "time": "11:15am"}, {"days": "Sun", "time": "Closed"}], "id": "2100100031", "name": "USPS COLLECTION BOX - BLUE BOX", "address": {"city": "ABERDEEN", "state": "MD", "street": "939 BEARDS HILL RD", "postcode": "21001"}}},
{"geometry": {"type": "Point", "coordinates": [-76.1760566284, 39.4971121054]}, "type": "Feature", "properties": {"collection_times": [{"days": "Mon-Fri", "time": "4:05pm"}, {"days": "Sat", "time": "12:00pm"}, {"days": "Sun", "time": "Closed"}], "id": "2100100034", "name": "USPS COLLECTION BOX - BLUE BOX", "address": {"city": "ABERDEEN", "state": "MD", "street": "645 S PHILADELPHIA BLVD", "postcode": "21001"}}},
{"geometry": {"type": "Point", "coordinates": [-76.1650409146, 39.5097993403]}, "type": "Feature", "properties": {"collection_times": [{"days": "Mon-Fri", "time": "5:00pm"}, {"days": "Sat", "time": "12:15pm"}, {"days": "Sun", "time": "Closed"}], "id": "2100100036", "name": "USPS COLLECTION BOX - PO LOBBY", "address": {"city": "ABERDEEN", "state": "MD", "street": "30 W BEL AIR AVE", "postcode": "21001"}}},
{"geometry": {"type": "Point", "coordinates": [-76.1650409146, 39.5097993403]}, "type": "Feature", "properties": {"collection_times": [{"days": "Mon-Fri", "time": "5:00pm"}, {"days": "Sat", "time": "12:15pm"}, {"days": "Sun", "time": "Closed"}], "id": "2100100037", "name": "USPS COLLECTION BOX - PO LOBBY", "address": {"city": "ABERDEEN", "state": "MD", "street": "30 W BEL AIR AVE", "postcode": "21001"}}},
{"geometry": {"type": "Point", "coordinates": [-76.183576607, 39.512471309]}, "type": "Feature", "properties": {"collection_times": [{"days": "Mon-Fri", "time": "4:45pm"}, {"days": "Sat", "time": "11:00am"}, {"days": "Sun", "time": "Closed"}], "id": "2100100038", "name": "USPS COLLECTION BOX - BLUE BOX", "address": {"city": "ABERDEEN", "state": "MD", "street": "15 ABERDEEN SHOPPING PLZ", "postcode": "21001"}}},
{"geometry": {"type": "Point", "coordinates": [-76.184603507, 39.5220453315]}, "type": "Feature", "properties": {"collection_times": [{"days": "Mon-Fri", "time": "4:45pm"}, {"days": "Sat", "time": "11:00am"}, {"days": "Sun", "time": "Closed"}], "id": "2100100041", "name": "USPS COLLECTION BOX - BLUE BOX", "address": {"city": "ABERDEEN", "state": "MD", "street": "1010 BEARDS HILL RD", "postcode": "21001"}}},
{"geometry": {"type": "Point", "coordinates": [-76.1641749886, 39.5118931777]}, "type": "Feature", "properties": {"collection_times": [{"days": "Mon-Fri", "time": "4:30pm"}, {"days": "Sat", "time": "10:00am"}, {"days": "Sun", "time": "Closed"}], "id": "2100100054", "name": "USPS COLLECTION BOX - BLUE BOX", "address": {"city": "ABERDEEN", "state": "MD", "street": "60 N PARKE ST", "postcode": "21001"}}},
{"geometry": {"type": "Point", "coordinates": [-76.1631106997, 39.4363878511]}, "type": "Feature", "properties": {"collection_times": [{"days": "Mon-Sat", "time": "10:00am"}, {"days": "Sun", "time": "Closed"}], "id": "2100500003", "name": "USPS COLLECTION BOX - BLUE BOX", "address": {"city": "ABER PROV GRD", "state": "MD", "street": "5101 HOADLEY RD", "postcode": "21005"}}},
{"geometry": {"type": "Point", "coordinates": [-76.1505744841, 39.4935381784]}, "type": "Feature", "properties": {"collection_times": [{"days": "Mon-Fri", "time": "2:00pm"}, {"days": "Sat", "time": "12:30pm"}, {"days": "Sun", "time": "Closed"}], "id": "2100500004", "name": "USPS COLLECTION BOX - BLUE BOX", "address": {"city": "ABER PROV GRD", "state": "MD", "street": "2401 ABERDEEN BLVD", "postcode": "21005"}}},
{"geometry": {"type": "Point", "coordinates": [-76.14471, 39.494545]}, "type": "Feature", "properties": {"collection_times": [{"days": "Mon-Sat", "time": "10:00am"}, {"days": "Sun", "time": "Closed"}], "id": "2100500006", "name": "USPS COLLECTION BOX - BLUE BOX", "address": {"city": "ABER PROV GRD", "state": "MD", "street": "RICKETTS PT RD", "postcode": "21005"}}},
{"geometry": {"type": "Point", "coordinates": [-76.1188283722, 39.4753455912]}, "type": "Feature", "properties": {"collection_times": [{"days": "Mon-Sat", "time": "9:30am"}, {"days": "Sun", "time": "Closed"}], "id": "2100500007", "name": "USPS COLLECTION BOX - BLUE BOX", "address": {"city": "ABER PROV GRD", "state": "MD", "street": "310 LONGS CORNER RD", "postcode": "21005"}}},
{"geometry": {"type": "Point", "coordinates": [-76.1377060619, 39.4861843119]}, "type": "Feature", "properties": {"collection_times": [{"days": "Mon-Fri", "time": "2:00pm"}, {"days": "Sat", "time": "12:30pm"}, {"days": "Sun", "time": "Closed"}], "id": "2100500011", "name": "USPS COLLECTION BOX - BLUE BOX", "address": {"city": "ABER PROV GRD", "state": "MD", "street": "2501 OAKINGTON ST", "postcode": "21005"}}},
{"geometry": {"type": "Point", "coordinates": [-76.1631106997, 39.4363878511]}, "type": "Feature", "properties": {"collection_times": [{"days": "Mon-Fri", "time": "5:00pm"}, {"days": "Sat", "time": "1:00pm"}, {"days": "Sun", "time": "Closed"}], "id": "2100500013", "name": "USPS COLLECTION BOX - BLUE BOX", "address": {"city": "ABER PROV GRD", "state": "MD", "street": "4510 BOOTHBY HILL AVE", "postcode": "21005"}}},
{"geometry": {"type": "Point", "coordinates": [-76.1631106997, 39.4363878511]}, "type": "Feature", "properties": {"collection_times": [{"days": "Mon-Sat", "time": "10:00am"}, {"days": "Sun", "time": "Closed"}], "id": "2100500016", "name": "USPS COLLECTION BOX - BLUE BOX", "address": {"city": "ABER PROV GRD", "state": "MD", "street": "4405 AUSTIN RD", "postcode": "21005"}}},
{"geometry": {"type": "Point", "coordinates": [-76.14055, 39.484215]}, "type": "Feature", "properties": {"collection_times": [{"days": "Mon-Sat", "time": "10:00am"}, {"days": "Sun", "time": "Closed"}], "id": "2100500017", "name": "USPS COLLECTION BOX - BLUE BOX", "address": {"city": "ABER PROV GRD", "state": "MD", "street": "SPRINGFIELD ST", "postcode": "21005"}}},
{"geometry": {"type": "Point", "coordinates": [-76.1447061878, 39.4945438163]}, "type": "Feature", "properties": {"collection_times": [{"days": "Mon-Fri", "time": "2:00pm"}, {"days": "Sat", "time": "12:30pm"}, {"days": "Sun", "time": "Closed"}], "id": "2100500019", "name": "USPS COLLECTION BOX - BLUE BOX", "address": {"city": "ABER PROV GRD", "state": "MD", "street": "3400 SPRINGFIELD ST", "postcode": "21005"}}},
{"geometry": {"type": "Point", "coordinates": [-76.1631106997, 39.4363878511]}, "type": "Feature", "properties": {"collection_times": [{"days": "Mon-Fri", "time": "1:30pm"}, {"days": "Sat", "time": "12:30pm"}, {"days": "Sun", "time": "Closed"}], "id": "2100500020", "name": "USPS COLLECTION BOX - BLUE BOX", "address": {"city": "ABER PROV GRD", "state": "MD", "street": "2514 HARFORD BLVD", "postcode": "21005"}}},
{"geometry": {"type": "Point", "coordinates": [-76.1631106997, 39.4363878511]}, "type": "Feature", "properties": {"collection_times": [{"days": "Mon-Sat", "time": "10:00am"}, {"days": "Sun", "time": "Closed"}], "id": "2100500021", "name": "USPS COLLECTION BOX - BLUE BOX", "address": {"city": "ABER PROV GRD", "state": "MD", "street": "4117 BOOTHBY HILL AVE", "postcode": "21005"}}},
{"geometry": {"type": "Point", "coordinates": [-76.1631106997, 39.4363878511]}, "type": "Feature", "properties": {"collection_times": [{"days": "Mon-Sat", "time": "10:00am"}, {"days": "Sun", "time": "Closed"}], "id": "2100500022", "name": "USPS COLLECTION BOX - BLUE BOX", "address": {"city": "ABER PROV GRD", "state": "MD", "street": "4215 OTTO RD", "postcode": "21005"}}},
{"geometry": {"type": "Point", "coordinates": [-76.1631106997, 39.4363878511]}, "type": "Feature", "properties": {"collection_times": [{"days": "Mon-Fri", "time": "4:00pm"}, {"days": "Sat", "time": "1:00pm"}, {"days": "Sun", "time": "Closed"}], "id": "2100500023", "name": "USPS COLLECTION BOX - PO LOBBY", "address": {"city": "ABER PROV GRD", "state": "MD", "street": "4510 BOOTHBY HILL AVE", "postcode": "21005"}}},
{"geometry": {"type": "Point", "coordinates": [-76.1631106997, 39.4363878511]}, "type": "Feature", "properties": {"collection_times": [{"days": "Mon-Sat", "time": "12:00pm"}, {"days": "Sun", "time": "Closed"}], "id": "2100500025", "name": "USPS COLLECTION BOX - BLUE BOX", "address": {"city": "ABER PROV GRD", "state": "MD", "street": "6006 COMBAT DR", "postcode": "21005"}}},
{"geometry": {"type": "Point", "coordinates": [-76.3115750574, 39.4661549212]}, "type": "Feature", "properties": {"collection_times": [{"days": "Mon-Sat", "time": "9:30am"}, {"days": "Sun", "time": "Closed"}], "id": "2100900001", "name": "USPS COLLECTION BOX - BLUE BOX", "address": {"city": "ABINGDON", "state": "MD", "street": "3430 EMMORTON RD", "postcode": "21009"}}},
{"geometry": {"type": "Point", "coordinates": [-76.3067232925, 39.4615815561]}, "type": "Feature", "properties": {"collection_times": [{"days": "Mon-Sat", "time": "10:30am"}, {"days": "Sun", "time": "Closed"}], "id": "2100900002", "name": "USPS COLLECTION BOX - BLUE BOX", "address": {"city": "ABINGDON", "state": "MD", "street": "120 WALDON RD", "postcode": "21009"}}},
{"geometry": {"type": "Point", "coordinates": [-76.3079850135, 39.4621663394]}, "type": "Feature", "properties": {"collection_times": [{"days": "Mon-Sat", "time": "11:00am"}, {"days": "Sun", "time": "Closed"}], "id": "2100900003", "name": "USPS COLLECTION BOX - BLUE BOX", "address": {"city": "ABINGDON", "state": "MD", "street": "3631 WOODSDALE RD", "postcode": "21009"}}},
{"geometry": {"type": "Point", "coordinates": [-76.3266752596, 39.466113086]}, "type": "Feature", "properties": {"collection_times": [{"days": "Mon-Sat", "time": "10:15am"}, {"days": "Sun", "time": "Closed"}], "id": "2100900004", "name": "USPS COLLECTION BOX - BLUE BOX", "address": {"city": "ABINGDON", "state": "MD", "street": "500 EASTVIEW TER", "postcode": "21009"}}},
{"geometry": {"type": "Point", "coordinates": [-76.2969952553, 39.448059529]}, "type": "Feature", "properties": {"collection_times": [{"days": "Mon-Fri", "time": "10:30am"}, {"days": "Sat", "time": "9:30am"}, {"days": "Sun", "time": "Closed"}], "id": "2100900006", "name": "USPS COLLECTION BOX - BLUE BOX", "address": {"city": "ABINGDON", "state": "MD", "street": "1306 CONTINENTAL DR", "postcode": "21009"}}},
{"geometry": {"type": "Point", "coordinates": [-76.3102290172, 39.4783515592]}, "type": "Feature", "properties": {"collection_times": [{"days": "Mon-Fri", "time": "5:00pm"}, {"days": "Sat", "time": "2:30pm"}, {"days": "Sun", "time": "Closed"}], "id": "2100900008", "name": "USPS COLLECTION BOX - BLUE BOX", "address": {"city": "ABINGDON", "state": "MD", "street": "2945 EMMORTON RD", "postcode": "21009"}}},
{"geometry": {"type": "Point", "coordinates": [-76.3192586238, 39.4851323489]}, "type": "Feature", "properties": {"collection_times": [{"days": "Mon-Sat", "time": "10:00am"}, {"days": "Sun", "time": "Closed"}], "id": "2100900009", "name": "USPS COLLECTION BOX - BLUE BOX", "address": {"city": "ABINGDON", "state": "MD", "street": "295 MAPLE WREATH CT", "postcode": "21009"}}},
{"geometry": {"type": "Point", "coordinates": [-76.3167948256, 39.4819631163]}, "type": "Feature", "properties": {"collection_times": [{"days": "Mon-Sat", "time": "10:30am"}, {"days": "Sun", "time": "Closed"}], "id": "2100900010", "name": "USPS COLLECTION BOX - BLUE BOX", "address": {"city": "ABINGDON", "state": "MD", "street": "311 LAUREL WOODS DR", "postcode": "21009"}}},
{"geometry": {"type": "Point", "coordinates": [-76.3102290172, 39.4783515592]}, "type": "Feature", "properties": {"collection_times": [{"days": "Mon-Fri", "time": "5:00pm"}, {"days": "Sat", "time": "2:30pm"}, {"days": "Sun", "time": "Closed"}], "id": "2100900011", "name": "USPS COLLECTION BOX - BLUE BOX", "address": {"city": "ABINGDON", "state": "MD", "street": "2945 EMMORTON RD", "postcode": "21009"}}},
{"geometry": {"type": "Point", "coordinates": [-76.3102290172, 39.4783515592]}, "type": "Feature", "properties": {"collection_times": [{"days": "Mon-Fri", "time": "5:00pm"}, {"days": "Sat", "time": "1:30pm"}, {"days": "Sun", "time": "Closed"}], "id": "2100900014", "name": "USPS COLLECTION BOX - PO LOBBY", "address": {"city": "ABINGDON", "state": "MD", "street": "2945 EMMORTON RD", "postcode": "21009"}}},
{"geometry": {"type": "Point", "coordinates": [-76.3102290172, 39.4783515592]}, "type": "Feature", "properties": {"collection_times": [{"days": "Mon-Fri", "time": "5:00pm"}, {"days": "Sat", "time": "1:30pm"}, {"days": "Sun", "time": "Closed"}], "id": "2100900015", "name": "USPS COLLECTION BOX - PO LOBBY", "address": {"city": "ABINGDON", "state": "MD", "street": "2945 EMMORTON RD", "postcode": "21009"}}},
{"geometry": {"type": "Point", "coordinates": [-76.3102290172, 39.4783515592]}, "type": "Feature", "properties": {"collection_times": [{"days": "Mon-Fri", "time": "5:00pm"}, {"days": "Sat", "time": "2:30pm"}, {"days": "Sun", "time": "Closed"}], "id": "2100900017", "name": "USPS COLLECTION BOX - BLUE BOX", "address": {"city": "ABINGDON", "state": "MD", "street": "2945 EMMORTON RD", "postcode": "21009"}}},
{"geometry": {"type": "Point", "coordinates": [-76.3102290172, 39.4783515592]}, "type": "Feature", "properties": {"collection_times": [{"days": "Mon-Fri", "time": "5:00pm"}, {"days": "Sat", "time": "1:30pm"}, {"days": "Sun", "time": "Closed"}], "id": "2100900018", "name": "USPS COLLECTION BOX - APC", "address": {"city": "ABINGDON", "state": "MD", "street": "2945 EMMORTON RD", "postcode": "21009"}}},
{"geometry": {"type": "Point", "coordinates": [-76.5007859028, 39.0254775991]}, "type": "Feature", "properties": {"collection_times": [{"days": "Mon-Fri", "time": "5:00pm"}, {"days": "Sat", "time": "1:30pm"}, {"days": "Sun", "time": "Closed"}], "id": "2101200000", "name": "USPS COLLECTION BOX - BLUE BOX", "address": {"city": "ARNOLD", "state": "MD", "street": "1521 RITCHIE HWY", "postcode": "21012"}}},
{"geometry": {"type": "Point", "coordinates": [-76.5007859028, 39.0254775991]}, "type": "Feature", "properties": {"collection_times": [{"days": "Mon-Fri", "time": "5:00pm"}, {"days": "Sat", "time": "1:30pm"}, {"days": "Sun", "time": "Closed"}], "id": "2101200002", "name": "USPS COLLECTION BOX - BLUE BOX", "address": {"city": "ARNOLD", "state": "MD", "street": "1521 RITCHIE HWY", "postcode": "21012"}}},
{"geometry": {"type": "Point", "coordinates": [-76.504051422, 39.0289721572]}, "type": "Feature", "properties": {"collection_times": [{"days": "Mon-Sat", "time": "1:25pm"}, {"days": "Sun", "time": "Closed"}], "id": "2101200004", "name": "USPS COLLECTION BOX - BLUE BOX", "address": {"city": "ARNOLD", "state": "MD", "street": "1460 RITCHIE HWY", "postcode": "21012"}}},
{"geometry": {"type": "Point", "coordinates": [-76.4791886803, 39.038555807]}, "type": "Feature", "properties": {"collection_times": [{"days": "Mon-Sat", "time": "1:15pm"}, {"days": "Sun", "time": "Closed"}], "id": "2101200005", "name": "USPS COLLECTION BOX - BLUE BOX", "address": {"city": "ARNOLD", "state": "MD", "street": "1290 BAY DALE DR", "postcode": "21012"}}},
{"geometry": {"type": "Point", "coordinates": [-76.5007859028, 39.0254775991]}, "type": "Feature", "properties": {"collection_times": [{"days": "Mon-Fri", "time": "5:00pm"}, {"days": "Sat", "time": "3:00pm"}, {"days": "Sun", "time": "Closed"}], "id": "2101200011", "name": "USPS COLLECTION BOX - PO LOBBY", "address": {"city": "ARNOLD", "state": "MD", "street": "1521 RITCHIE HWY", "postcode": "21012"}}},
{"geometry": {"type": "Point", "coordinates": [-76.5007859028, 39.0254775991]}, "type": "Feature", "properties": {"collection_times": [{"days": "Mon-Fri", "time": "5:00pm"}, {"days": "Sat", "time": "3:00pm"}, {"days": "Sun", "time": "Closed"}], "id": "2101200012", "name": "USPS COLLECTION BOX - PO LOBBY", "address": {"city": "ARNOLD", "state": "MD", "street": "1521 RITCHIE HWY", "postcode": "21012"}}},
{"geometry": {"type": "Point", "coordinates": [-76.5007859028, 39.0254775991]}, "type": "Feature", "properties": {"collection_times": [{"days": "Mon-Fri", "time": "5:00pm"}, {"days": "Sat", "time": "1:30pm"}, {"days": "Sun", "time": "Closed"}], "id": "2101200013", "name": "USPS COLLECTION BOX - APC", "address": {"city": "ARNOLD", "state": "MD", "street": "1521 RITCHIE HWY", "postcode": "21012"}}},
{"geometry": {"type": "Point", "coordinates": [-76.4711185342, 39.4939441413]}, "type": "Feature", "properties": {"collection_times": [{"days": "Mon-Fri", "time": "4:15pm"}, {"days": "Sat", "time": "11:30am"}, {"days": "Sun", "time": "Closed"}], "id": "2101300000", "name": "USPS COLLECTION BOX - BLUE BOX", "address": {"city": "BALDWIN", "state": "MD", "street": "13516 LONG GREEN PIKE", "postcode": "21013"}}},
{"geometry": {"type": "Point", "coordinates": [-76.4711185342, 39.4939441413]}, "type": "Feature", "properties": {"collection_times": [{"days": "Mon-Fri", "time": "4:15pm"}, {"days": "Sat", "time": "11:45am"}, {"days": "Sun", "time": "Closed"}], "id": "2101300002", "name": "USPS COLLECTION BOX - PO LOBBY", "address": {"city": "BALDWIN", "state": "MD", "street": "13516 LONG GREEN PIKE", "postcode": "21013"}}},
{"geometry": {"type": "Point", "coordinates": [-76.4711185342, 39.4939441413]}, "type": "Feature", "properties": {"collection_times": [{"days": "Mon-Fri", "time": "4:15pm"}, {"days": "Sat", "time": "11:45am"}, {"days": "Sun", "time": "Closed"}], "id": "2101300003", "name": "USPS COLLECTION BOX - PO LOBBY", "address": {"city": "BALDWIN", "state": "MD", "street": "13516 LONG GREEN PIKE", "postcode": "21013"}}},
{"geometry": {"type": "Point", "coordinates": [-76.3538346018, 39.5268810301]}, "type": "Feature", "properties": {"collection_times": [{"days": "Mon-Fri", "time": "11:05am"}, {"days": "Sat", "time": "10:00am"}, {"days": "Sun", "time": "Closed"}], "id": "2101400003", "name": "USPS COLLECTION BOX - BLUE BOX", "address": {"city": "BEL AIR", "state": "MD", "street": "579 BALTIMORE PIKE", "postcode": "21014"}}},
{"geometry": {"type": "Point", "coordinates": [-76.3335794442, 39.5178872308]}, "type": "Feature", "properties": {"collection_times": [{"days": "Mon-Fri", "time": "3:15pm"}, {"days": "Sat", "time": "10:45am"}, {"days": "Sun", "time": "Closed"}], "id": "2101400008", "name": "USPS COLLECTION BOX - BLUE BOX", "address": {"city": "BEL AIR", "state": "MD", "street": "1 E RING FACTORY RD", "postcode": "21014"}}},
{"geometry": {"type": "Point", "coordinates": [-76.349671235, 39.5367850003]}, "type": "Feature", "properties": {"collection_times": [{"days": "Mon-Fri", "time": "4:00pm"}, {"days": "Sat", "time": "11:30am"}, {"days": "Sun", "time": "Closed"}], "id": "2101400021", "name": "USPS COLLECTION BOX - BLUE BOX", "address": {"city": "BEL AIR", "state": "MD", "street": "1 N MAIN ST", "postcode": "21014"}}},
{"geometry": {"type": "Point", "coordinates": [-76.3526771338, 39.5384565213]}, "type": "Feature", "properties": {"collection_times": [{"days": "Mon-Fri", "time": "4:15pm"}, {"days": "Sat", "time": "11:45am"}, {"days": "Sun", "time": "Closed"}], "id": "2101400023", "name": "USPS COLLECTION BOX - BLUE BOX", "address": {"city": "BEL AIR", "state": "MD", "street": "143 N Main Street", "postcode": "21014"}}},
{"geometry": {"type": "Point", "coordinates": [-76.3539641931, 39.5390065972]}, "type": "Feature", "properties": {"collection_times": [{"days": "Mon-Fri", "time": "11:35am"}, {"days": "Sat", "time": "11:45am"}, {"days": "Sun", "time": "Closed"}], "id": "2101400024", "name": "USPS COLLECTION BOX - BLUE BOX", "address": {"city": "BEL AIR", "state": "MD", "street": "223 N Main Street", "postcode": "21014"}}},
{"geometry": {"type": "Point", "coordinates": [-76.3485036545, 39.538868191]}, "type": "Feature", "properties": {"collection_times": [{"days": "Mon-Fri", "time": "4:00pm"}, {"days": "Sat", "time": "11:30am"}, {"days": "Sun", "time": "Closed"}], "id": "2101400027", "name": "USPS COLLECTION BOX - BLUE BOX", "address": {"city": "BEL AIR", "state": "MD", "street": "30 N HICKORY AVE", "postcode": "21014"}}},
{"geometry": {"type": "Point", "coordinates": [-76.3503171306, 39.5357593748]}, "type": "Feature", "properties": {"collection_times": [{"days": "Mon-Fri", "time": "4:30pm"}, {"days": "Sat", "time": "12:15pm"}, {"days": "Sun", "time": "Closed"}], "id": "2101400032", "name": "USPS COLLECTION BOX - BLUE BOX", "address": {"city": "BEL AIR", "state": "MD", "street": "2 S BOND ST", "postcode": "21014"}}},
{"geometry": {"type": "Point", "coordinates": [-76.3506886938, 39.5338052105]}, "type": "Feature", "properties": {"collection_times": [{"days": "Mon-Fri", "time": "4:30pm"}, {"days": "Sat", "time": "12:15pm"}, {"days": "Sun", "time": "Closed"}], "id": "2101400033", "name": "USPS COLLECTION BOX - BLUE BOX", "address": {"city": "BEL AIR", "state": "MD", "street": "116 S HAYS ST", "postcode": "21014"}}},
{"geometry": {"type": "Point", "coordinates": [-76.3492082167, 39.536190694]}, "type": "Feature", "properties": {"collection_times": [{"days": "Mon-Fri", "time": "5:00pm"}, {"days": "Sat", "time": "2:45pm"}, {"days": "Sun", "time": "Closed"}], "id": "2101400037", "name": "USPS COLLECTION BOX - BLUE BOX", "address": {"city": "BEL AIR", "state": "MD", "street": "202 BLUM CT", "postcode": "21014"}}},
{"geometry": {"type": "Point", "coordinates": [-76.3489295197, 39.5353595347]}, "type": "Feature", "properties": {"collection_times": [{"days": "Mon-Fri", "time": "4:00pm"}, {"days": "Sat", "time": "11:30am"}, {"days": "Sun", "time": "Closed"}], "id": "2101400044", "name": "USPS COLLECTION BOX - BLUE BOX", "address": {"city": "BEL AIR", "state": "MD", "street": "20 W COURTLAND ST", "postcode": "21014"}}},
{"geometry": {"type": "Point", "coordinates": [-76.3489295197, 39.5353595347]}, "type": "Feature", "properties": {"collection_times": [{"days": "Mon-Fri", "time": "4:00pm"}, {"days": "Sat", "time": "11:30am"}, {"days": "Sun", "time": "Closed"}], "id": "2101400045", "name": "USPS COLLECTION BOX - BLUE BOX", "address": {"city": "BEL AIR", "state": "MD", "street": "20 W COURTLAND ST", "postcode": "21014"}}},
{"geometry": {"type": "Point", "coordinates": [-76.3492082167, 39.536190694]}, "type": "Feature", "properties": {"collection_times": [{"days": "Mon-Fri", "time": "5:00pm"}, {"days": "Sat", "time": "2:45pm"}, {"days": "Sun", "time": "Closed"}], "id": "2101400054", "name": "USPS COLLECTION BOX - BLUE BOX", "address": {"city": "BEL AIR", "state": "MD", "street": "202 BLUM CT", "postcode": "21014"}}},
{"geometry": {"type": "Point", "coordinates": [-76.3492082167, 39.536190694]}, "type": "Feature", "properties": {"collection_times": [{"days": "Mon-Fri", "time": "5:00pm"}, {"days": "Sat", "time": "2:45pm"}, {"days": "Sun", "time": "Closed"}], "id": "2101400055", "name": "USPS COLLECTION BOX - BLUE BOX", "address": {"city": "BEL AIR", "state": "MD", "street": "202 BLUM CT", "postcode": "21014"}}},
{"geometry": {"type": "Point", "coordinates": [-76.3633212808, 39.5513855788]}, "type": "Feature", "properties": {"collection_times": [{"days": "Mon-Fri", "time": "3:45pm"}, {"days": "Sat", "time": "11:45am"}, {"days": "Sun", "time": "Closed"}], "id": "2101400062", "name": "USPS COLLECTION BOX - BLUE BOX", "address": {"city": "BEL AIR", "state": "MD", "street": "2 NORTH AVE", "postcode": "21014"}}},
{"geometry": {"type": "Point", "coordinates": [-76.3492082167, 39.536190694]}, "type": "Feature", "properties": {"collection_times": [{"days": "Mon-Fri", "time": "5:00pm"}, {"days": "Sat", "time": "2:45pm"}, {"days": "Sun", "time": "Closed"}], "id": "2101400064", "name": "USPS COLLECTION BOX - BLUE BOX", "address": {"city": "BEL AIR", "state": "MD", "street": "202 BLUM CT", "postcode": "21014"}}},
{"geometry": {"type": "Point", "coordinates": [-76.3492082167, 39.536190694]}, "type": "Feature", "properties": {"collection_times": [{"days": "Mon-Fri", "time": "5:00pm"}, {"days": "Sat", "time": "4:45pm"}, {"days": "Sun", "time": "Closed"}], "id": "2101400066", "name": "USPS COLLECTION BOX - PO LOBBY", "address": {"city": "BEL AIR", "state": "MD", "street": "202 BLUM CT", "postcode": "21014"}}},
{"geometry": {"type": "Point", "coordinates": [-76.3492082167, 39.536190694]}, "type": "Feature", "properties": {"collection_times": [{"days": "Mon-Fri", "time": "5:00pm"}, {"days": "Sat", "time": "4:45pm"}, {"days": "Sun", "time": "Closed"}], "id": "2101400067", "name": "USPS COLLECTION BOX - PO LOBBY", "address": {"city": "BEL AIR", "state": "MD", "street": "202 BLUM CT", "postcode": "21014"}}},
{"geometry": {"type": "Point", "coordinates": [-76.3152364825, 39.547863411]}, "type": "Feature", "properties": {"collection_times": [{"days": "Mon-Fri", "time": "3:30pm"}, {"days": "Sat", "time": "11:15am"}, {"days": "Sun", "time": "Closed"}], "id": "2101400068", "name": "USPS COLLECTION BOX - BLUE BOX", "address": {"city": "BEL AIR", "state": "MD", "street": "1204 AGORA DR", "postcode": "21014"}}},
{"geometry": {"type": "Point", "coordinates": [-76.3468656621, 39.5187035448]}, "type": "Feature", "properties": {"collection_times": [{"days": "Mon-Fri", "time": "3:00pm"}, {"days": "Sat", "time": "10:15am"}, {"days": "Sun", "time": "Closed"}], "id": "2101400069", "name": "USPS COLLECTION BOX - BLUE BOX", "address": {"city": "BEL AIR", "state": "MD", "street": "520 UPPER CHESAPEAKE DR", "postcode": "21014"}}},
{"geometry": {"type": "Point", "coordinates": [-76.3698137663, 39.5575943507]}, "type": "Feature", "properties": {"collection_times": [{"days": "Mon-Fri", "time": "11:40am"}, {"days": "Sat", "time": "12:00pm"}, {"days": "Sun", "time": "Closed"}], "id": "2101400070", "name": "USPS COLLECTION BOX - BLUE BOX", "address": {"city": "BEL AIR", "state": "MD", "street": "1439 ROCK SPRING RD", "postcode": "21014"}}},
{"geometry": {"type": "Point", "coordinates": [-76.3492082167, 39.536190694]}, "type": "Feature", "properties": {"collection_times": [{"days": "Mon-Fri", "time": "5:00pm"}, {"days": "Sat", "time": "4:45pm"}, {"days": "Sun", "time": "Closed"}], "id": "2101400072", "name": "USPS COLLECTION BOX - APC", "address": {"city": "BEL AIR", "state": "MD", "street": "202 BLUM CT", "postcode": "21014"}}},
{"geometry": {"type": "Point", "coordinates": [-76.3507560084, 39.5376532921]}, "type": "Feature", "properties": {"collection_times": [{"days": "Mon-Fri", "time": "11:30am"}, {"days": "Sat", "time": "11:45am"}, {"days": "Sun", "time": "Closed"}], "id": "2101400073", "name": "USPS COLLECTION BOX - BLUE BOX", "address": {"city": "BEL AIR", "state": "MD", "street": "101 N MAIN ST", "postcode": "21014"}}},
{"geometry": {"type": "Point", "coordinates": [-76.3568193611, 39.5239772416]}, "type": "Feature", "properties": {"collection_times": [{"days": "Mon-Fri", "time": "11:05am"}, {"days": "Sat", "time": "10:00am"}, {"days": "Sun", "time": "Closed"}], "id": "2101400075", "name": "USPS COLLECTION BOX - BLUE BOX", "address": {"city": "BEL AIR", "state": "MD", "street": "696 BALTIMORE PIKE", "postcode": "21014"}}},
{"geometry": {"type": "Point", "coordinates": [-76.3492082167, 39.536190694]}, "type": "Feature", "properties": {"collection_times": [{"days": "Mon-Fri", "time": "5:00pm"}, {"days": "Sat", "time": "4:45pm"}, {"days": "Sun", "time": "Closed"}], "id": "2101400079", "name": "USPS COLLECTION BOX - PO LOBBY", "address": {"city": "BEL AIR", "state": "MD", "street": "202 BLUM CT", "postcode": "21014"}}},
{"geometry": {"type": "Point", "coordinates": [-76.352281195, 39.53751831]}, "type": "Feature", "properties": {"collection_times": [{"days": "Mon-Fri", "time": "4:00pm"}, {"days": "Sat", "time": "12:00pm"}, {"days": "Sun", "time": "Closed"}], "id": "2101400080", "name": "USPS COLLECTION BOX - BLUE BOX", "address": {"city": "BEL AIR", "state": "MD", "street": "130 N BOND ST", "postcode": "21014"}}},
{"geometry": {"type": "Point", "coordinates": [-76.3320006212, 39.4972424176]}, "type": "Feature", "properties": {"collection_times": [{"days": "Mon-Fri", "time": "3:15pm"}, {"days": "Sat", "time": "10:15am"}, {"days": "Sun", "time": "Closed"}], "id": "2101500000", "name": "USPS COLLECTION BOX - BLUE BOX", "address": {"city": "BEL AIR", "state": "MD", "street": "2014 S TOLLGATE RD", "postcode": "21015"}}},
{"geometry": {"type": "Point", "coordinates": [-76.3285636982, 39.4971002759]}, "type": "Feature", "properties": {"collection_times": [{"days": "Mon-Fri", "time": "3:15pm"}, {"days": "Sat", "time": "10:30am"}, {"days": "Sun", "time": "Closed"}], "id": "2101500001", "name": "USPS COLLECTION BOX - BLUE BOX", "address": {"city": "BEL AIR", "state": "MD", "street": "5 BEL AIR SOUTH PKWY", "postcode": "21015"}}},
{"geometry": {"type": "Point", "coordinates": [-76.3241666397, 39.4981874151]}, "type": "Feature", "properties": {"collection_times": [{"days": "Mon-Fri", "time": "3:15pm"}, {"days": "Sat", "time": "10:30am"}, {"days": "Sun", "time": "Closed"}], "id": "2101500002", "name": "USPS COLLECTION BOX - BLUE BOX", "address": {"city": "BEL AIR", "state": "MD", "street": "2103 LAUREL BUSH RD", "postcode": "21015"}}},
{"geometry": {"type": "Point", "coordinates": [-76.3261540108, 39.5009401607]}, "type": "Feature", "properties": {"collection_times": [{"days": "Mon-Fri", "time": "3:15pm"}, {"days": "Sat", "time": "10:45am"}, {"days": "Sun", "time": "Closed"}], "id": "2101500008", "name": "USPS COLLECTION BOX - BLUE BOX", "address": {"city": "BEL AIR", "state": "MD", "street": "2021 EMMORTON RD", "postcode": "21015"}}},
{"geometry": {"type": "Point", "coordinates": [-76.3263331803, 39.5417567834]}, "type": "Feature", "properties": {"collection_times": [{"days": "Mon-Fri", "time": "3:30pm"}, {"days": "Sat", "time": "11:00am"}, {"days": "Sun", "time": "Closed"}], "id": "2101500009", "name": "USPS COLLECTION BOX - BLUE BOX", "address": {"city": "BEL AIR", "state": "MD", "street": "225 BRIERHILL DR", "postcode": "21015"}}},
{"geometry": {"type": "Point", "coordinates": [-76.2423261205, 39.4668463986]}, "type": "Feature", "properties": {"collection_times": [{"days": "Mon-Fri", "time": "4:45pm"}, {"days": "Sat", "time": "12:00pm"}, {"days": "Sun", "time": "Closed"}], "id": "2101700001", "name": "USPS COLLECTION BOX - BLUE BOX", "address": {"city": "BELCAMP", "state": "MD", "street": "4405 PULASKI HWY", "postcode": "21017"}}},
{"geometry": {"type": "Point", "coordinates": [-76.2401789191, 39.4745720053]}, "type": "Feature", "properties": {"collection_times": [{"days": "Mon-Sat", "time": "11:30am"}, {"days": "Sun", "time": "Closed"}], "id": "2101700002", "name": "USPS COLLECTION BOX - BLUE BOX", "address": {"city": "BELCAMP", "state": "MD", "street": "5 CHURCH CREEK RD", "postcode": "21017"}}},
{"geometry": {"type": "Point", "coordinates": [-76.2487679597, 39.4787297948]}, "type": "Feature", "properties": {"collection_times": [{"days": "Mon-Sat", "time": "11:00am"}, {"days": "Sun", "time": "Closed"}], "id": "2101700003", "name": "USPS COLLECTION BOX - BLUE BOX", "address": {"city": "BELCAMP", "state": "MD", "street": "1321E RIVERSIDE PKWY", "postcode": "21017"}}},
{"geometry": {"type": "Point", "coordinates": [-76.2367769818, 39.4764099441]}, "type": "Feature", "properties": {"collection_times": [{"days": "Mon-Sat", "time": "11:30am"}, {"days": "Sun", "time": "Closed"}], "id": "2101700004", "name": "USPS COLLECTION BOX - BLUE BOX", "address": {"city": "BELCAMP", "state": "MD", "street": "4600 BANEBERRY DR", "postcode": "21017"}}},
{"geometry": {"type": "Point", "coordinates": [-76.2396080052, 39.4681708601]}, "type": "Feature", "properties": {"collection_times": [{"days": "Mon-Fri", "time": "4:45pm"}, {"days": "Sat", "time": "12:00pm"}, {"days": "Sun", "time": "Closed"}], "id": "2101700006", "name": "USPS COLLECTION BOX - PO LOBBY", "address": {"city": "BELCAMP", "state": "MD", "street": "4405 PULASKI HWY, BAY A", "postcode": "21017"}}},
{"geometry": {"type": "Point", "coordinates": [-76.2396080052, 39.4681708601]}, "type": "Feature", "properties": {"collection_times": [{"days": "Mon-Fri", "time": "4:45pm"}, {"days": "Sat", "time": "12:00pm"}, {"days": "Sun", "time": "Closed"}], "id": "2101700007", "name": "USPS COLLECTION BOX - PO LOBBY", "address": {"city": "BELCAMP", "state": "MD", "street": "4405 PULASKI HWY, BAY A", "postcode": "21017"}}},
{"geometry": {"type": "Point", "coordinates": [-76.3739296214, 39.5117022438]}, "type": "Feature", "properties": {"collection_times": [{"days": "Mon-Fri", "time": "4:15pm"}, {"days": "Sat", "time": "11:45am"}, {"days": "Sun", "time": "Closed"}], "id": "2101800000", "name": "USPS COLLECTION BOX - BLUE BOX", "address": {"city": "BENSON", "state": "MD", "street": "108 CONNOLLY RD", "postcode": "21018"}}},
{"geometry": {"type": "Point", "coordinates": [-76.3739296214, 39.5117022438]}, "type": "Feature", "properties": {"collection_times": [{"days": "Mon-Fri", "time": "4:15pm"}, {"days": "Sat", "time": "11:45am"}, {"days": "Sun", "time": "Closed"}], "id": "2101800002", "name": "USPS COLLECTION BOX - PO LOBBY", "address": {"city": "BENSON", "state": "MD", "street": "108 CONNOLLY RD", "postcode": "21018"}}},
{"geometry": {"type": "Point", "coordinates": [-76.3739296214, 39.5117022438]}, "type": "Feature", "properties": {"collection_times": [{"days": "Mon-Fri", "time": "4:15pm"}, {"days": "Sat", "time": "11:45am"}, {"days": "Sun", "time": "Closed"}], "id": "2101800003", "name": "USPS COLLECTION BOX - PO LOBBY", "address": {"city": "BENSON", "state": "MD", "street": "108 CONNOLLY RD", "postcode": "21018"}}},
{"geometry": {"type": "Point", "coordinates": [-76.8369762441, 39.5636447231]}, "type": "Feature", "properties": {"collection_times": [{"days": "Mon-Fri", "time": "12:30pm"}, {"days": "Sat", "time": "11:00am"}, {"days": "Sun", "time": "Closed"}], "id": "2102000000", "name": "USPS COLLECTION BOX - BLUE BOX", "address": {"city": "BORING", "state": "MD", "street": "14707 OLD HANOVER RD", "postcode": "21020"}}},
{"geometry": {"type": "Point", "coordinates": [-76.8369762441, 39.5636447231]}, "type": "Feature", "properties": {"collection_times": [{"days": "Mon-Sat", "time": "11:00am"}, {"days": "Sun", "time": "Closed"}], "id": "2102000001", "name": "USPS COLLECTION BOX - PO LOBBY", "address": {"city": "BORING", "state": "MD", "street": "14707 OLD HANOVER RD", "postcode": "21020"}}},
{"geometry": {"type": "Point", "coordinates": [-76.6702272319, 39.4203685001]}, "type": "Feature", "properties": {"collection_times": [{"days": "Mon-Fri", "time": "4:45pm"}, {"days": "Sat", "time": "11:00am"}, {"days": "Sun", "time": "Closed"}], "id": "2102200002", "name": "USPS COLLECTION BOX - PO LOBBY", "address": {"city": "BROOKLANDVILLE", "state": "MD", "street": "10807 FALLS RD", "postcode": "21022"}}},
{"geometry": {"type": "Point", "coordinates": [-76.6702272319, 39.4203685001]}, "type": "Feature", "properties": {"collection_times": [{"days": "Mon-Fri", "time": "4:45pm"}, {"days": "Sat", "time": "11:00am"}, {"days": "Sun", "time": "Closed"}], "id": "2102200004", "name": "USPS COLLECTION BOX - BLUE BOX", "address": {"city": "BROOKLANDVILLE", "state": "MD", "street": "10807 FALLS RD", "postcode": "21022"}}},
{"geometry": {"type": "Point", "coordinates": [-76.6459630654, 39.5306512535]}, "type": "Feature", "properties": {"collection_times": [{"days": "Mon-Fri", "time": "4:45pm"}, {"days": "Sat", "time": "12:00pm"}, {"days": "Sun", "time": "Closed"}], "id": "2102300000", "name": "USPS COLLECTION BOX - BLUE BOX", "address": {"city": "BUTLER", "state": "MD", "street": "14921 FALLS RD", "postcode": "21023"}}},
{"geometry": {"type": "Point", "coordinates": [-76.6459630654, 39.5306512535]}, "type": "Feature", "properties": {"collection_times": [{"days": "Mon-Fri", "time": "4:45pm"}, {"days": "Sat", "time": "12:00pm"}, {"days": "Sun", "time": "Closed"}], "id": "2102300001", "name": "USPS COLLECTION BOX - BLUE BOX", "address": {"city": "BUTLER", "state": "MD", "street": "14921 FALLS RD", "postcode": "21023"}}},
{"geometry": {"type": "Point", "coordinates": [-76.6459630654, 39.5306512535]}, "type": "Feature", "properties": {"collection_times": [{"days": "Mon-Fri", "time": "4:45pm"}, {"days": "Sat", "time": "11:45am"}, {"days": "Sun", "time": "Closed"}], "id": "2102300002", "name": "USPS COLLECTION BOX - PO LOBBY", "address": {"city": "BUTLER", "state": "MD", "street": "14921 FALLS RD", "postcode": "21023"}}},
{"geometry": {"type": "Point", "coordinates": [-76.6459630654, 39.5306512535]}, "type": "Feature", "properties": {"collection_times": [{"days": "Mon-Fri", "time": "4:45pm"}, {"days": "Sat", "time": "11:45am"}, {"days": "Sun", "time": "Closed"}], "id": "2102300003", "name": "USPS COLLECTION BOX - PO LOBBY", "address": {"city": "BUTLER", "state": "MD", "street": "14921 FALLS RD", "postcode": "21023"}}},
{"geometry": {"type": "Point", "coordinates": [-76.4288074426, 39.3351839139]}, "type": "Feature", "properties": {"collection_times": [{"days": "Mon-Fri", "time": "3:45pm"}, {"days": "Sat", "time": "11:30am"}, {"days": "Sun", "time": "Closed"}], "id": "2102700001", "name": "USPS COLLECTION BOX - BLUE BOX", "address": {"city": "CHASE", "state": "MD", "street": "12404 EASTERN AVE", "postcode": "21027"}}},
{"geometry": {"type": "Point", "coordinates": [-76.4288074426, 39.3351839139]}, "type": "Feature", "properties": {"collection_times": [{"days": "Mon-Fri", "time": "3:45pm"}, {"days": "Sat", "time": "11:30am"}, {"days": "Sun", "time": "Closed"}], "id": "2102700002", "name": "USPS COLLECTION BOX - PO LOBBY", "address": {"city": "CHASE", "state": "MD", "street": "12404 EASTERN AVE", "postcode": "21027"}}},
{"geometry": {"type": "Point", "coordinates": [-76.4288074426, 39.3351839139]}, "type": "Feature", "properties": {"collection_times": [{"days": "Mon-Fri", "time": "3:45pm"}, {"days": "Sat", "time": "11:30am"}, {"days": "Sun", "time": "Closed"}], "id": "2102700003", "name": "USPS COLLECTION BOX - PO LOBBY", "address": {"city": "CHASE", "state": "MD", "street": "12404 EASTERN AVE", "postcode": "21027"}}},
{"geometry": {"type": "Point", "coordinates": [-76.2459150872, 39.5589205284]}, "type": "Feature", "properties": {"collection_times": [{"days": "Mon-Fri", "time": "4:45pm"}, {"days": "Sat", "time": "11:45am"}, {"days": "Sun", "time": "Closed"}], "id": "2102800001", "name": "USPS COLLECTION BOX - BLUE BOX", "address": {"city": "CHURCHVILLE", "state": "MD", "street": "2931 CHURCHVILLE RD", "postcode": "21028"}}},
{"geometry": {"type": "Point", "coordinates": [-76.2459150872, 39.5589205284]}, "type": "Feature", "properties": {"collection_times": [{"days": "Mon-Fri", "time": "4:45pm"}, {"days": "Sat", "time": "12:15pm"}, {"days": "Sun", "time": "Closed"}], "id": "2102800002", "name": "USPS COLLECTION BOX - PO LOBBY", "address": {"city": "CHURCHVILLE", "state": "MD", "street": "2931 CHURCHVILLE RD", "postcode": "21028"}}},
{"geometry": {"type": "Point", "coordinates": [-76.2459150872, 39.5589205284]}, "type": "Feature", "properties": {"collection_times": [{"days": "Mon-Fri", "time": "4:45pm"}, {"days": "Sat", "time": "12:15pm"}, {"days": "Sun", "time": "Closed"}], "id": "2102800003", "name": "USPS COLLECTION BOX - PO LOBBY", "address": {"city": "CHURCHVILLE", "state": "MD", "street": "2931 CHURCHVILLE RD", "postcode": "21028"}}},
{"geometry": {"type": "Point", "coordinates": [-76.9369878285, 39.2123268647]}, "type": "Feature", "properties": {"collection_times": [{"days": "Mon-Sat", "time": "10:30am"}, {"days": "Sun", "time": "Closed"}], "id": "2102900002", "name": "USPS COLLECTION BOX - BLUE BOX", "address": {"city": "CLARKSVILLE", "state": "MD", "street": "12210 CLARKSVILLE PIKE", "postcode": "21029"}}},
{"geometry": {"type": "Point", "coordinates": [-76.9439289422, 39.2065306128]}, "type": "Feature", "properties": {"collection_times": [{"days": "Mon-Sat", "time": "10:30am"}, {"days": "Sun", "time": "Closed"}], "id": "2102900008", "name": "USPS COLLECTION BOX - BLUE BOX", "address": {"city": "CLARKSVILLE", "state": "MD", "street": "6355 TEN OAKS RD", "postcode": "21029"}}},
{"geometry": {"type": "Point", "coordinates": [-76.9414889514, 39.2025811717]}, "type": "Feature", "properties": {"collection_times": [{"days": "Mon-Sat", "time": "10:30am"}, {"days": "Sun", "time": "Closed"}], "id": "2102900009", "name": "USPS COLLECTION BOX - BLUE BOX", "address": {"city": "CLARKSVILLE", "state": "MD", "street": "6501 AUTUMN WIND CIR", "postcode": "21029"}}},
{"geometry": {"type": "Point", "coordinates": [-76.6360359031, 39.4630679803]}, "type": "Feature", "properties": {"collection_times": [{"days": "Mon-Sat", "time": "2:15pm"}, {"days": "Sun", "time": "Closed"}], "id": "2103000001", "name": "USPS COLLECTION BOX - BLUE BOX", "address": {"city": "HUNT VALLEY", "state": "MD", "street": "9974 York Road", "postcode": "21030"}}},
{"geometry": {"type": "Point", "coordinates": [-76.61783822, 39.4686468017]}, "type": "Feature", "properties": {"collection_times": [{"days": "Mon-Sat", "time": "2:15pm"}, {"days": "Sun", "time": "Closed"}], "id": "2103000003", "name": "USPS COLLECTION BOX - BLUE BOX", "address": {"city": "HUNT VALLEY", "state": "MD", "street": "10310 MALCOLM CIR", "postcode": "21030"}}},
{"geometry": {"type": "Point", "coordinates": [-76.6225280655, 39.471834143]}, "type": "Feature", "properties": {"collection_times": [{"days": "Mon-Fri", "time": "4:00pm"}, {"days": "Sat", "time": "2:30pm"}, {"days": "Sun", "time": "Closed"}], "id": "2103000005", "name": "USPS COLLECTION BOX - BLUE BOX", "address": {"city": "HUNT VALLEY", "state": "MD", "street": "558 CRANBROOK RD", "postcode": "21030"}}},
{"geometry": {"type": "Point", "coordinates": [-76.6341619479, 39.4642564814]}, "type": "Feature", "properties": {"collection_times": [{"days": "Mon-Fri", "time": "4:00pm"}, {"days": "Sat", "time": "2:45pm"}, {"days": "Sun", "time": "Closed"}], "id": "2103000007", "name": "USPS COLLECTION BOX - BLUE BOX", "address": {"city": "HUNT VALLEY", "state": "MD", "street": "100 CRANBROOK RD", "postcode": "21030"}}},
{"geometry": {"type": "Point", "coordinates": [-76.6399588091, 39.4749074988]}, "type": "Feature", "properties": {"collection_times": [{"days": "Mon-Fri", "time": "4:15pm"}, {"days": "Sat", "time": "2:45pm"}, {"days": "Sun", "time": "Closed"}], "id": "2103000009", "name": "USPS COLLECTION BOX - BLUE BOX", "address": {"city": "HUNT VALLEY", "state": "MD", "street": "10 WARREN RD", "postcode": "21030"}}},
{"geometry": {"type": "Point", "coordinates": [-76.6228511556, 39.4796280222]}, "type": "Feature", "properties": {"collection_times": [{"days": "Mon-Fri", "time": "4:15pm"}, {"days": "Sat", "time": "2:45pm"}, {"days": "Sun", "time": "Closed"}], "id": "2103000010", "name": "USPS COLLECTION BOX - BLUE BOX", "address": {"city": "HUNT VALLEY", "state": "MD", "street": "50 Scott Adams Road", "postcode": "21030"}}},
{"geometry": {"type": "Point", "coordinates": [-76.6588536786, 39.4931102662]}, "type": "Feature", "properties": {"collection_times": [{"days": "Mon-Fri", "time": "5:00pm"}, {"days": "Sat", "time": "1:45pm"}, {"days": "Sun", "time": "Closed"}], "id": "2103000012", "name": "USPS COLLECTION BOX - BLUE BOX", "address": {"city": "HUNT VALLEY", "state": "MD", "street": "11350 MCCORMICK RD", "postcode": "21030"}}},
{"geometry": {"type": "Point", "coordinates": [-76.6589215506, 39.4930226163]}, "type": "Feature", "properties": {"collection_times": [{"days": "Mon-Fri", "time": "5:00pm"}, {"days": "Sat", "time": "1:45pm"}, {"days": "Sun", "time": "Closed"}], "id": "2103000013", "name": "USPS COLLECTION BOX - BLUE BOX", "address": {"city": "HUNT VALLEY", "state": "MD", "street": "11350 MCCORMICK RD", "postcode": "21030"}}},
{"geometry": {"type": "Point", "coordinates": [-76.6589215506, 39.4930226163]}, "type": "Feature", "properties": {"collection_times": [{"days": "Mon-Fri", "time": "5:00pm"}, {"days": "Sat", "time": "1:30pm"}, {"days": "Sun", "time": "Closed"}], "id": "2103000015", "name": "USPS COLLECTION BOX - BLUE BOX", "address": {"city": "HUNT VALLEY", "state": "MD", "street": "11350 MCCORMICK RD", "postcode": "21030"}}},
{"geometry": {"type": "Point", "coordinates": [-76.6546540327, 39.4956111523]}, "type": "Feature", "properties": {"collection_times": [{"days": "Mon-Sat", "time": "1:45pm"}, {"days": "Sun", "time": "Closed"}], "id": "2103000016", "name": "USPS COLLECTION BOX - BLUE BOX", "address": {"city": "HUNT VALLEY", "state": "MD", "street": "245 SHAWAN RD", "postcode": "21030"}}},
{"geometry": {"type": "Point", "coordinates": [-76.6378070964, 39.4675228266]}, "type": "Feature", "properties": {"collection_times": [{"days": "Mon-Fri", "time": "4:00pm"}, {"days": "Sat", "time": "2:45pm"}, {"days": "Sun", "time": "Closed"}], "id": "2103000025", "name": "USPS COLLECTION BOX - BLUE BOX", "address": {"city": "HUNT VALLEY", "state": "MD", "street": "10155 YORK RD", "postcode": "21030"}}},
{"geometry": {"type": "Point", "coordinates": [-76.6592082029, 39.4775806283]}, "type": "Feature", "properties": {"collection_times": [{"days": "Mon-Fri", "time": "4:30pm"}, {"days": "Sat", "time": "2:00pm"}, {"days": "Sun", "time": "Closed"}], "id": "2103000028", "name": "USPS COLLECTION BOX - BLUE BOX", "address": {"city": "HUNT VALLEY", "state": "MD", "street": "117 LAKE FRONT DR", "postcode": "21030"}}},
{"geometry": {"type": "Point", "coordinates": [-76.6116734578, 39.4715569088]}, "type": "Feature", "properties": {"collection_times": [{"days": "Mon-Sat", "time": "2:30pm"}, {"days": "Sun", "time": "Closed"}], "id": "2103000030", "name": "USPS COLLECTION BOX - BLUE BOX", "address": {"city": "HUNT VALLEY", "state": "MD", "street": "2 SUGAR PLUM CT", "postcode": "21030"}}},
{"geometry": {"type": "Point", "coordinates": [-76.6299744945, 39.464721379]}, "type": "Feature", "properties": {"collection_times": [{"days": "Mon-Sat", "time": "2:15pm"}, {"days": "Sun", "time": "Closed"}], "id": "2103000032", "name": "USPS COLLECTION BOX - BLUE BOX", "address": {"city": "HUNT VALLEY", "state": "MD", "street": "301 LIMESTONE VALLEY DR", "postcode": "21030"}}},
{"geometry": {"type": "Point", "coordinates": [-76.6004305196, 39.4781246869]}, "type": "Feature", "properties": {"collection_times": [{"days": "Mon-Sat", "time": "2:30pm"}, {"days": "Sun", "time": "Closed"}], "id": "2103000035", "name": "USPS COLLECTION BOX - BLUE BOX", "address": {"city": "HUNT VALLEY", "state": "MD", "street": "10700 WESTCASTLE PL", "postcode": "21030"}}},
{"geometry": {"type": "Point", "coordinates": [-76.6490540546, 39.4930541904]}, "type": "Feature", "properties": {"collection_times": [{"days": "Mon-Sat", "time": "1:00pm"}, {"days": "Sun", "time": "Closed"}], "id": "2103000041", "name": "USPS COLLECTION BOX - BLUE BOX", "address": {"city": "HUNT VALLEY", "state": "MD", "street": "11221 YORK RD", "postcode": "21030"}}},
{"geometry": {"type": "Point", "coordinates": [-76.639363473, 39.4710979795]}, "type": "Feature", "properties": {"collection_times": [{"days": "Mon-Sat", "time": "2:45pm"}, {"days": "Sun", "time": "Closed"}], "id": "2103000043", "name": "USPS COLLECTION BOX - BLUE BOX", "address": {"city": "HUNT VALLEY", "state": "MD", "street": "10283 YORK RD", "postcode": "21030"}}},
{"geometry": {"type": "Point", "coordinates": [-76.6493242045, 39.4981945129]}, "type": "Feature", "properties": {"collection_times": [{"days": "Mon-Fri", "time": "4:30pm"}, {"days": "Sat", "time": "1:00pm"}, {"days": "Sun", "time": "Closed"}], "id": "2103000045", "name": "USPS COLLECTION BOX - BLUE BOX", "address": {"city": "HUNT VALLEY", "state": "MD", "street": "4 N PARK DR", "postcode": "21030"}}},
{"geometry": {"type": "Point", "coordinates": [-76.6609621548, 39.496864867]}, "type": "Feature", "properties": {"collection_times": [{"days": "Mon-Fri", "time": "5:00pm"}, {"days": "Sat", "time": "1:30pm"}, {"days": "Sun", "time": "Closed"}], "id": "2103000048", "name": "USPS COLLECTION BOX - BLUE BOX", "address": {"city": "HUNT VALLEY", "state": "MD", "street": "201 International Circle", "postcode": "21030"}}},
{"geometry": {"type": "Point", "coordinates": [-76.6413865499, 39.5016546679]}, "type": "Feature", "properties": {"collection_times": [{"days": "Mon-Sat", "time": "1:00pm"}, {"days": "Sun", "time": "Closed"}], "id": "2103000054", "name": "USPS COLLECTION BOX - BLUE BOX", "address": {"city": "HUNT VALLEY", "state": "MD", "street": "11506 HUNTERS RUN DR", "postcode": "21030"}}},
{"geometry": {"type": "Point", "coordinates": [-76.6498138898, 39.4946996764]}, "type": "Feature", "properties": {"collection_times": [{"days": "Mon-Fri", "time": "4:30pm"}, {"days": "Sat", "time": "1:00pm"}, {"days": "Sun", "time": "Closed"}], "id": "2103000055", "name": "USPS COLLECTION BOX - BLUE BOX", "address": {"city": "HUNT VALLEY", "state": "MD", "street": "11321 YORK RD", "postcode": "21030"}}},
{"geometry": {"type": "Point", "coordinates": [-76.6559570554, 39.4877667296]}, "type": "Feature", "properties": {"collection_times": [{"days": "Mon-Fri", "time": "5:30pm"}, {"days": "Sat", "time": "3:00pm"}, {"days": "Sun", "time": "Closed"}], "id": "2103000056", "name": "USPS COLLECTION BOX - BLUE BOX", "address": {"city": "HUNT VALLEY", "state": "MD", "street": "115 Wight Avenue", "postcode": "21030"}}},
{"geometry": {"type": "Point", "coordinates": [-76.6559570554, 39.4877667296]}, "type": "Feature", "properties": {"collection_times": [{"days": "Mon-Fri", "time": "5:30pm"}, {"days": "Sat", "time": "3:00pm"}, {"days": "Sun", "time": "Closed"}], "id": "2103000057", "name": "USPS COLLECTION BOX - BLUE BOX", "address": {"city": "HUNT VALLEY", "state": "MD", "street": "115 WIGHT AVE", "postcode": "21030"}}},
{"geometry": {"type": "Point", "coordinates": [-76.6559570554, 39.4877667296]}, "type": "Feature", "properties": {"collection_times": [{"days": "Mon-Fri", "time": "5:30pm"}, {"days": "Sat", "time": "3:00pm"}, {"days": "Sun", "time": "Closed"}], "id": "2103000058", "name": "USPS COLLECTION BOX - BLUE BOX", "address": {"city": "HUNT VALLEY", "state": "MD", "street": "115 WIGHT AVE", "postcode": "21030"}}},
{"geometry": {"type": "Point", "coordinates": [-76.6589215506, 39.4930226163]}, "type": "Feature", "properties": {"collection_times": [{"days": "Mon-Fri", "time": "5:00pm"}, {"days": "Sat", "time": "1:30pm"}, {"days": "Sun", "time": "Closed"}], "id": "2103000065", "name": "USPS COLLECTION BOX - BLUE BOX", "address": {"city": "HUNT VALLEY", "state": "MD", "street": "11350 MCCORMICK RD", "postcode": "21030"}}},
{"geometry": {"type": "Point", "coordinates": [-76.6426132783, 39.4783633888]}, "type": "Feature", "properties": {"collection_times": [{"days": "Mon-Fri", "time": "4:15pm"}, {"days": "Sat", "time": "2:00pm"}, {"days": "Sun", "time": "Closed"}], "id": "2103000066", "name": "USPS COLLECTION BOX - BLUE BOX", "address": {"city": "HUNT VALLEY", "state": "MD", "street": "10600 YORK RD", "postcode": "21030"}}},
{"geometry": {"type": "Point", "coordinates": [-76.6201311432, 39.471411139]}, "type": "Feature", "properties": {"collection_times": [{"days": "Mon-Fri", "time": "4:00pm"}, {"days": "Sat", "time": "2:15pm"}, {"days": "Sun", "time": "Closed"}], "id": "2103000070", "name": "USPS COLLECTION BOX - BLUE BOX", "address": {"city": "HUNT VALLEY", "state": "MD", "street": "1025 CRANBROOK RD", "postcode": "21030"}}},
{"geometry": {"type": "Point", "coordinates": [-76.6493242045, 39.4981945129]}, "type": "Feature", "properties": {"collection_times": [{"days": "Mon-Fri", "time": "4:30pm"}, {"days": "Sat", "time": "1:00pm"}, {"days": "Sun", "time": "Closed"}], "id": "2103000073", "name": "USPS COLLECTION BOX - BLUE BOX", "address": {"city": "HUNT VALLEY", "state": "MD", "street": "4 N PARK DR", "postcode": "21030"}}},
{"geometry": {"type": "Point", "coordinates": [-76.6345186578, 39.4759428477]}, "type": "Feature", "properties": {"collection_times": [{"days": "Mon-Fri", "time": "5:00pm"}, {"days": "Sat", "time": "2:45pm"}, {"days": "Sun", "time": "Closed"}], "id": "2103000075", "name": "USPS COLLECTION BOX - EXPRESS", "address": {"city": "HUNT VALLEY", "state": "MD", "street": "115 WIGHT AVE", "postcode": "21030"}}},
{"geometry": {"type": "Point", "coordinates": [-76.6622918007, 39.4918112663]}, "type": "Feature", "properties": {"collection_times": [{"days": "Mon-Fri", "time": "4:15pm"}, {"days": "Sat", "time": "1:45pm"}, {"days": "Sun", "time": "Closed"}], "id": "2103000079", "name": "USPS COLLECTION BOX - BLUE BOX", "address": {"city": "HUNT VALLEY", "state": "MD", "street": "216 SCHILLING CIR", "postcode": "21030"}}},
{"geometry": {"type": "Point", "coordinates": [-76.6492853039, 39.4977412091]}, "type": "Feature", "properties": {"collection_times": [{"days": "Mon-Fri", "time": "4:30pm"}, {"days": "Sat", "time": "1:15pm"}, {"days": "Sun", "time": "Closed"}], "id": "2103000082", "name": "USPS COLLECTION BOX - BLUE BOX", "address": {"city": "HUNT VALLEY", "state": "MD", "street": "6 NORTH PARK DR", "postcode": "21030"}}},
{"geometry": {"type": "Point", "coordinates": [-76.6559570554, 39.4877667296]}, "type": "Feature", "properties": {"collection_times": [{"days": "Mon-Fri", "time": "5:30pm"}, {"days": "Sat", "time": "3:00pm"}, {"days": "Sun", "time": "Closed"}], "id": "2103000083", "name": "USPS COLLECTION BOX - APC", "address": {"city": "HUNT VALLEY", "state": "MD", "street": "115 WIGHT AVE", "postcode": "21030"}}},
{"geometry": {"type": "Point", "coordinates": [-76.6655070832, 39.4992130406]}, "type": "Feature", "properties": {"collection_times": [{"days": "Mon-Fri", "time": "5:00pm"}, {"days": "Sat", "time": "1:30pm"}, {"days": "Sun", "time": "Closed"}], "id": "2103000084", "name": "USPS COLLECTION BOX - BLUE BOX", "address": {"city": "HUNT VALLEY", "state": "MD", "street": "301 INTERNATIONAL CIR", "postcode": "21030"}}},
{"geometry": {"type": "Point", "coordinates": [-76.6493892673, 39.489370822]}, "type": "Feature", "properties": {"collection_times": [{"days": "Mon-Fri", "time": "4:45pm"}, {"days": "Sat", "time": "2:45pm"}, {"days": "Sun", "time": "Closed"}], "id": "2103000085", "name": "USPS COLLECTION BOX - BLUE BOX", "address": {"city": "HUNT VALLEY", "state": "MD", "street": "20 WIGHT AVE", "postcode": "21030"}}},
{"geometry": {"type": "Point", "coordinates": [-76.6587535894, 39.4928758894]}, "type": "Feature", "properties": {"collection_times": [{"days": "Mon-Fri", "time": "4:15pm"}, {"days": "Sat-Sun", "time": "Closed"}], "id": "2103000088", "name": "USPS COLLECTION BOX - BLUE BOX", "address": {"city": "HUNT VALLEY", "state": "MD", "street": "11311 MCCORMICK RD", "postcode": "21030"}}},
{"geometry": {"type": "Point", "coordinates": [-76.6646515241, 39.5013240182]}, "type": "Feature", "properties": {"collection_times": [{"days": "Mon-Fri", "time": "5:00pm"}, {"days": "Sat", "time": "1:30pm"}, {"days": "Sun", "time": "Closed"}], "id": "2103000091", "name": "USPS COLLECTION BOX - BLUE BOX", "address": {"city": "HUNT VALLEY", "state": "MD", "street": "307 INTERNATIONAL CIR", "postcode": "21030"}}},
{"geometry": {"type": "Point", "coordinates": [-76.6036268216, 39.031471484]}, "type": "Feature", "properties": {"collection_times": [{"days": "Mon-Fri", "time": "5:00pm"}, {"days": "Sat", "time": "12:00pm"}, {"days": "Sun", "time": "Closed"}], "id": "2103200004", "name": "USPS COLLECTION BOX - BLUE BOX", "address": {"city": "CROWNSVILLE", "state": "MD", "street": "1333 GENERALS HWY", "postcode": "21032"}}},
{"geometry": {"type": "Point", "coordinates": [-76.5911362324, 39.0083501894]}, "type": "Feature", "properties": {"collection_times": [{"days": "Mon-Sat", "time": "9:30am"}, {"days": "Sun", "time": "Closed"}], "id": "2103200005", "name": "USPS COLLECTION BOX - BLUE BOX", "address": {"city": "CROWNSVILLE", "state": "MD", "street": "1 SUMMERHILL TRAILER PARK", "postcode": "21032"}}},
{"geometry": {"type": "Point", "coordinates": [-76.6036176389, 39.031322458]}, "type": "Feature", "properties": {"collection_times": [{"days": "Mon-Fri", "time": "5:00pm"}, {"days": "Sat", "time": "12:00pm"}, {"days": "Sun", "time": "Closed"}], "id": "2103200006", "name": "USPS COLLECTION BOX - PO LOBBY", "address": {"city": "CROWNSVILLE", "state": "MD", "street": "1333 GENERALS HWY", "postcode": "21032"}}},
{"geometry": {"type": "Point", "coordinates": [-76.6036176389, 39.031322458]}, "type": "Feature", "properties": {"collection_times": [{"days": "Mon-Fri", "time": "5:00pm"}, {"days": "Sat", "time": "12:00pm"}, {"days": "Sun", "time": "Closed"}], "id": "2103200007", "name": "USPS COLLECTION BOX - PO LOBBY", "address": {"city": "CROWNSVILLE", "state": "MD", "street": "1333 GENERALS HWY", "postcode": "21032"}}},
{"geometry": {"type": "Point", "coordinates": [-76.202979762, 39.6412735561]}, "type": "Feature", "properties": {"collection_times": [{"days": "Mon-Fri", "time": "4:45pm"}, {"days": "Sat", "time": "12:00pm"}, {"days": "Sun", "time": "Closed"}], "id": "2103400000", "name": "USPS COLLECTION BOX - BLUE BOX", "address": {"city": "DARLINGTON", "state": "MD", "street": "1113 MAIN ST", "postcode": "21034"}}},
{"geometry": {"type": "Point", "coordinates": [-76.202979762, 39.6412735561]}, "type": "Feature", "properties": {"collection_times": [{"days": "Mon-Fri", "time": "4:45pm"}, {"days": "Sat", "time": "12:00pm"}, {"days": "Sun", "time": "Closed"}], "id": "2103400002", "name": "USPS COLLECTION BOX - PO LOBBY", "address": {"city": "DARLINGTON", "state": "MD", "street": "1113 MAIN ST", "postcode": "21034"}}},
{"geometry": {"type": "Point", "coordinates": [-76.202979762, 39.6412735561]}, "type": "Feature", "properties": {"collection_times": [{"days": "Mon-Fri", "time": "4:45pm"}, {"days": "Sat", "time": "12:00pm"}, {"days": "Sun", "time": "Closed"}], "id": "2103400003", "name": "USPS COLLECTION BOX - PO LOBBY", "address": {"city": "DARLINGTON", "state": "MD", "street": "1113 MAIN ST", "postcode": "21034"}}},
{"geometry": {"type": "Point", "coordinates": [-76.630105136, 38.922314245]}, "type": "Feature", "properties": {"collection_times": [{"days": "Mon-Fri", "time": "4:30pm"}, {"days": "Sat", "time": "2:30pm"}, {"days": "Sun", "time": "Closed"}], "id": "2103500001", "name": "USPS COLLECTION BOX - BLUE BOX", "address": {"city": "DAVIDSONVILLE", "state": "MD", "street": "820 W CENTRAL AVE", "postcode": "21035"}}},
{"geometry": {"type": "Point", "coordinates": [-76.630105136, 38.922314245]}, "type": "Feature", "properties": {"collection_times": [{"days": "Mon-Fri", "time": "5:00pm"}, {"days": "Sat", "time": "2:30pm"}, {"days": "Sun", "time": "Closed"}], "id": "2103500003", "name": "USPS COLLECTION BOX - PO LOBBY", "address": {"city": "DAVIDSONVILLE", "state": "MD", "street": "820 W CENTRAL AVE", "postcode": "21035"}}},
{"geometry": {"type": "Point", "coordinates": [-76.630105136, 38.922314245]}, "type": "Feature", "properties": {"collection_times": [{"days": "Mon-Fri", "time": "5:00pm"}, {"days": "Sat", "time": "2:30pm"}, {"days": "Sun", "time": "Closed"}], "id": "2103500004", "name": "USPS COLLECTION BOX - PO LOBBY", "address": {"city": "DAVIDSONVILLE", "state": "MD", "street": "820 W CENTRAL AVE", "postcode": "21035"}}},
{"geometry": {"type": "Point", "coordinates": [-76.9834735771, 39.2362547231]}, "type": "Feature", "properties": {"collection_times": [{"days": "Mon-Fri", "time": "4:30pm"}, {"days": "Sat", "time": "11:30am"}, {"days": "Sun", "time": "Closed"}], "id": "2103600000", "name": "USPS COLLECTION BOX - BLUE BOX", "address": {"city": "DAYTON", "state": "MD", "street": "4924A TEN OAKS RD", "postcode": "21036"}}},
{"geometry": {"type": "Point", "coordinates": [-76.9834735771, 39.2362547231]}, "type": "Feature", "properties": {"collection_times": [{"days": "Mon-Fri", "time": "4:15pm"}, {"days": "Sat", "time": "11:15am"}, {"days": "Sun", "time": "Closed"}], "id": "2103600001", "name": "USPS COLLECTION BOX - PO LOBBY", "address": {"city": "DAYTON", "state": "MD", "street": "4924A TEN OAKS RD", "postcode": "21036"}}},
{"geometry": {"type": "Point", "coordinates": [-76.5682714198, 38.9376463619]}, "type": "Feature", "properties": {"collection_times": [{"days": "Mon-Sat", "time": "12:00pm"}, {"days": "Sun", "time": "Closed"}], "id": "2103700002", "name": "USPS COLLECTION BOX - BLUE BOX", "address": {"city": "EDGEWATER", "state": "MD", "street": "60 SOUTHDOWN RD", "postcode": "21037"}}},
{"geometry": {"type": "Point", "coordinates": [-76.5629717901, 38.9270153904]}, "type": "Feature", "properties": {"collection_times": [{"days": "Mon-Fri", "time": "4:45pm"}, {"days": "Sat", "time": "2:30pm"}, {"days": "Sun", "time": "Closed"}], "id": "2103700004", "name": "USPS COLLECTION BOX - BLUE BOX", "address": {"city": "EDGEWATER", "state": "MD", "street": "39 STEPNEY LN", "postcode": "21037"}}},
{"geometry": {"type": "Point", "coordinates": [-76.5629717901, 38.9270153904]}, "type": "Feature", "properties": {"collection_times": [{"days": "Mon-Fri", "time": "4:45pm"}, {"days": "Sat", "time": "2:30pm"}, {"days": "Sun", "time": "Closed"}], "id": "2103700005", "name": "USPS COLLECTION BOX - BLUE BOX", "address": {"city": "EDGEWATER", "state": "MD", "street": "39 STEPNEY LN", "postcode": "21037"}}},
{"geometry": {"type": "Point", "coordinates": [-76.5515850823, 38.953460121]}, "type": "Feature", "properties": {"collection_times": [{"days": "Mon-Sat", "time": "10:30am"}, {"days": "Sun", "time": "Closed"}], "id": "2103700007", "name": "USPS COLLECTION BOX - BLUE BOX", "address": {"city": "EDGEWATER", "state": "MD", "street": "64 OLD SOUTH RIVER RD", "postcode": "21037"}}},
{"geometry": {"type": "Point", "coordinates": [-76.56764652, 38.9308369229]}, "type": "Feature", "properties": {"collection_times": [{"days": "Mon-Sat", "time": "12:30pm"}, {"days": "Sun", "time": "Closed"}], "id": "2103700008", "name": "USPS COLLECTION BOX - BLUE BOX", "address": {"city": "EDGEWATER", "state": "MD", "street": "3255 SOLOMONS ISLAND RD", "postcode": "21037"}}},
{"geometry": {"type": "Point", "coordinates": [-76.5498786441, 38.9423882766]}, "type": "Feature", "properties": {"collection_times": [{"days": "Mon-Sat", "time": "10:00am"}, {"days": "Sun", "time": "Closed"}], "id": "2103700009", "name": "USPS COLLECTION BOX - BLUE BOX", "address": {"city": "EDGEWATER", "state": "MD", "street": "1300 SOUTH RIVER LANDING RD", "postcode": "21037"}}},
{"geometry": {"type": "Point", "coordinates": [-76.5417267204, 38.9181223516]}, "type": "Feature", "properties": {"collection_times": [{"days": "Mon-Fri", "time": "4:00pm"}, {"days": "Sat", "time": "1:30pm"}, {"days": "Sun", "time": "Closed"}], "id": "2103700010", "name": "USPS COLLECTION BOX - EXPRESS", "address": {"city": "EDGEWATER", "state": "MD", "street": "39 STEPNEY LN", "postcode": "21037"}}},
{"geometry": {"type": "Point", "coordinates": [-76.5629717901, 38.9270153904]}, "type": "Feature", "properties": {"collection_times": [{"days": "Mon-Fri", "time": "4:45pm"}, {"days": "Sat", "time": "2:30pm"}, {"days": "Sun", "time": "Closed"}], "id": "2103700011", "name": "USPS COLLECTION BOX - BLUE BOX", "address": {"city": "EDGEWATER", "state": "MD", "street": "39 STEPNEY LN", "postcode": "21037"}}},
{"geometry": {"type": "Point", "coordinates": [-76.5629717901, 38.9270153904]}, "type": "Feature", "properties": {"collection_times": [{"days": "Mon-Fri", "time": "5:00pm"}, {"days": "Sat", "time": "3:45pm"}, {"days": "Sun", "time": "Closed"}], "id": "2103700013", "name": "USPS COLLECTION BOX - PO LOBBY", "address": {"city": "EDGEWATER", "state": "MD", "street": "39 STEPNEY LN", "postcode": "21037"}}},
{"geometry": {"type": "Point", "coordinates": [-76.2991359093, 39.4266912557]}, "type": "Feature", "properties": {"collection_times": [{"days": "Mon-Fri", "time": "4:55pm"}, {"days": "Sat", "time": "4:40pm"}, {"days": "Sun", "time": "Closed"}], "id": "2104000004", "name": "USPS COLLECTION BOX - BLUE BOX", "address": {"city": "EDGEWOOD", "state": "MD", "street": "705 EDGEWOOD RD", "postcode": "21040"}}},
{"geometry": {"type": "Point", "coordinates": [-76.31986369, 39.4343742488]}, "type": "Feature", "properties": {"collection_times": [{"days": "Mon-Fri", "time": "4:57pm"}, {"days": "Sat", "time": "4:38pm"}, {"days": "Sun", "time": "Closed"}], "id": "2104000009", "name": "USPS COLLECTION BOX - BLUE BOX", "address": {"city": "EDGEWOOD", "state": "MD", "street": "1801 PULASKI HWY", "postcode": "21040"}}},
{"geometry": {"type": "Point", "coordinates": [-76.3265656805, 39.4309208195]}, "type": "Feature", "properties": {"collection_times": [{"days": "Mon-Fri", "time": "4:55pm"}, {"days": "Sat", "time": "4:35pm"}, {"days": "Sun", "time": "Closed"}], "id": "2104000011", "name": "USPS COLLECTION BOX - BLUE BOX", "address": {"city": "EDGEWOOD", "state": "MD", "street": "910 WOODBRIDGE CENTER WAY", "postcode": "21040"}}},
{"geometry": {"type": "Point", "coordinates": [-76.2958714443, 39.4286625509]}, "type": "Feature", "properties": {"collection_times": [{"days": "Mon-Fri", "time": "5:00pm"}, {"days": "Sat", "time": "4:45pm"}, {"days": "Sun", "time": "Closed"}], "id": "2104000015", "name": "USPS COLLECTION BOX - BLUE BOX", "address": {"city": "EDGEWOOD", "state": "MD", "street": "2290 HANSON RD", "postcode": "21040"}}},
{"geometry": {"type": "Point", "coordinates": [-76.3244730261, 39.4337291641]}, "type": "Feature", "properties": {"collection_times": [{"days": "Mon-Fri", "time": "4:56pm"}, {"days": "Sat", "time": "4:36pm"}, {"days": "Sun", "time": "Closed"}], "id": "2104000020", "name": "USPS COLLECTION BOX - BLUE BOX", "address": {"city": "EDGEWOOD", "state": "MD", "street": "1401 PULASKI HWY", "postcode": "21040"}}},
{"geometry": {"type": "Point", "coordinates": [-76.2958714443, 39.4286625509]}, "type": "Feature", "properties": {"collection_times": [{"days": "Mon-Fri", "time": "5:00pm"}, {"days": "Sat", "time": "4:45pm"}, {"days": "Sun", "time": "Closed"}], "id": "2104000021", "name": "USPS COLLECTION BOX - PO LOBBY", "address": {"city": "EDGEWOOD", "state": "MD", "street": "2290 HANSON RD", "postcode": "21040"}}},
{"geometry": {"type": "Point", "coordinates": [-76.8607283342, 39.2737914668]}, "type": "Feature", "properties": {"collection_times": [{"days": "Mon-Fri", "time": "3:30pm"}, {"days": "Sat", "time": "2:15pm"}, {"days": "Sun", "time": "Closed"}], "id": "2104200002", "name": "USPS COLLECTION BOX - EXPRESS", "address": {"city": "ELLICOTT CITY", "state": "MD", "street": "4725 DORSEY HALL DR", "postcode": "21042"}}},
{"geometry": {"type": "Point", "coordinates": [-76.8274756483, 39.2771332647]}, "type": "Feature", "properties": {"collection_times": [{"days": "Mon-Fri", "time": "2:00pm"}, {"days": "Sat", "time": "1:45pm"}, {"days": "Sun", "time": "Closed"}], "id": "2104200004", "name": "USPS COLLECTION BOX - BLUE BOX", "address": {"city": "ELLICOTT CITY", "state": "MD", "street": "9150 BALTIMORE NATIONAL PIKE", "postcode": "21042"}}},
{"geometry": {"type": "Point", "coordinates": [-76.8342064952, 39.277571483]}, "type": "Feature", "properties": {"collection_times": [{"days": "Mon-Fri", "time": "2:00pm"}, {"days": "Sat", "time": "1:45pm"}, {"days": "Sun", "time": "Closed"}], "id": "2104200006", "name": "USPS COLLECTION BOX - BLUE BOX", "address": {"city": "ELLICOTT CITY", "state": "MD", "street": "9338 BALTIMORE NATIONAL PIKE", "postcode": "21042"}}},
{"geometry": {"type": "Point", "coordinates": [-76.8643648511, 39.2811854226]}, "type": "Feature", "properties": {"collection_times": [{"days": "Mon-Fri", "time": "2:15pm"}, {"days": "Sat", "time": "1:45pm"}, {"days": "Sun", "time": "Closed"}], "id": "2104200007", "name": "USPS COLLECTION BOX - BLUE BOX", "address": {"city": "ELLICOTT CITY", "state": "MD", "street": "3277 PINE ORCHARD LN", "postcode": "21042"}}},
{"geometry": {"type": "Point", "coordinates": [-76.8393890385, 39.2976391988]}, "type": "Feature", "properties": {"collection_times": [{"days": "Mon-Fri", "time": "2:25pm"}, {"days": "Sat", "time": "2:00pm"}, {"days": "Sun", "time": "Closed"}], "id": "2104200010", "name": "USPS COLLECTION BOX - BLUE BOX", "address": {"city": "ELLICOTT CITY", "state": "MD", "street": "9421 FREDERICK RD", "postcode": "21042"}}},
{"geometry": {"type": "Point", "coordinates": [-76.82589, 39.27154]}, "type": "Feature", "properties": {"collection_times": [{"days": "Mon-Fri", "time": "10:35am"}, {"days": "Sat", "time": "2:00pm"}, {"days": "Sun", "time": "Closed"}], "id": "2104200011", "name": "USPS COLLECTION BOX - BLUE BOX", "address": {"city": "ELLICOTT CITY", "state": "MD", "street": "9064 FREDERICK RD", "postcode": "21042"}}},
{"geometry": {"type": "Point", "coordinates": [-76.838142583, 39.2510211196]}, "type": "Feature", "properties": {"collection_times": [{"days": "Mon-Fri", "time": "3:40pm"}, {"days": "Sat", "time": "2:15pm"}, {"days": "Sun", "time": "Closed"}], "id": "2104200013", "name": "USPS COLLECTION BOX - BLUE BOX", "address": {"city": "ELLICOTT CITY", "state": "MD", "street": "4649 COLUMBIA RD", "postcode": "21042"}}},
{"geometry": {"type": "Point", "coordinates": [-76.8428890294, 39.2444318508]}, "type": "Feature", "properties": {"collection_times": [{"days": "Mon-Fri", "time": "3:20pm"}, {"days": "Sat", "time": "2:15pm"}, {"days": "Sun", "time": "Closed"}], "id": "2104200014", "name": "USPS COLLECTION BOX - BLUE BOX", "address": {"city": "ELLICOTT CITY", "state": "MD", "street": "4725 DORSEY HALL DR", "postcode": "21042"}}},
{"geometry": {"type": "Point", "coordinates": [-76.8428890294, 39.2444318508]}, "type": "Feature", "properties": {"collection_times": [{"days": "Mon-Fri", "time": "3:30pm"}, {"days": "Sat", "time": "2:15pm"}, {"days": "Sun", "time": "Closed"}], "id": "2104200015", "name": "USPS COLLECTION BOX - BLUE BOX", "address": {"city": "ELLICOTT CITY", "state": "MD", "street": "4725 DORSEY HALL DR", "postcode": "21042"}}},
{"geometry": {"type": "Point", "coordinates": [-76.826562695, 39.276873315]}, "type": "Feature", "properties": {"collection_times": [{"days": "Mon-Fri", "time": "4:35pm"}, {"days": "Sat", "time": "2:00pm"}, {"days": "Sun", "time": "Closed"}], "id": "2104200017", "name": "USPS COLLECTION BOX - BLUE BOX", "address": {"city": "ELLICOTT CITY", "state": "MD", "street": "9125 BALTIMORE NATIONAL PIKE", "postcode": "21042"}}},
{"geometry": {"type": "Point", "coordinates": [-76.8627974305, 39.279530463]}, "type": "Feature", "properties": {"collection_times": [{"days": "Mon-Fri", "time": "2:25pm"}, {"days": "Sat", "time": "2:00pm"}, {"days": "Sun", "time": "Closed"}], "id": "2104200018", "name": "USPS COLLECTION BOX - BLUE BOX", "address": {"city": "ELLICOTT CITY", "state": "MD", "street": "10163 BALTIMORE NATIONAL PIKE", "postcode": "21042"}}},
{"geometry": {"type": "Point", "coordinates": [-76.8679230563, 39.280407078]}, "type": "Feature", "properties": {"collection_times": [{"days": "Mon-Fri", "time": "2:20pm"}, {"days": "Sat", "time": "1:45pm"}, {"days": "Sun", "time": "Closed"}], "id": "2104200019", "name": "USPS COLLECTION BOX - BLUE BOX", "address": {"city": "ELLICOTT CITY", "state": "MD", "street": "10328 BALTIMORE NATIONAL PIKE", "postcode": "21042"}}},
{"geometry": {"type": "Point", "coordinates": [-76.8565926863, 39.2792584575]}, "type": "Feature", "properties": {"collection_times": [{"days": "Mon-Fri", "time": "5:00pm"}, {"days": "Sat", "time": "1:45pm"}, {"days": "Sun", "time": "Closed"}], "id": "2104200020", "name": "USPS COLLECTION BOX - BLUE BOX", "address": {"city": "ELLICOTT CITY", "state": "MD", "street": "10020 BALTIMORE NATIONAL PIKE", "postcode": "21042"}}},
{"geometry": {"type": "Point", "coordinates": [-76.8565926863, 39.2792584575]}, "type": "Feature", "properties": {"collection_times": [{"days": "Mon-Fri", "time": "4:30pm"}, {"days": "Sat", "time": "12:30pm"}, {"days": "Sun", "time": "Closed"}], "id": "2104200021", "name": "USPS COLLECTION BOX - PO LOBBY", "address": {"city": "ELLICOTT CITY", "state": "MD", "street": "10020 BALTIMORE NATIONAL PIKE", "postcode": "21042"}}},
{"geometry": {"type": "Point", "coordinates": [-76.8565926863, 39.2792584575]}, "type": "Feature", "properties": {"collection_times": [{"days": "Mon-Fri", "time": "4:30pm"}, {"days": "Sat", "time": "12:30pm"}, {"days": "Sun", "time": "Closed"}], "id": "2104200022", "name": "USPS COLLECTION BOX - PO LOBBY", "address": {"city": "ELLICOTT CITY", "state": "MD", "street": "10020 BALTIMORE NATIONAL PIKE", "postcode": "21042"}}},
{"geometry": {"type": "Point", "coordinates": [-76.8565926863, 39.2792584575]}, "type": "Feature", "properties": {"collection_times": [{"days": "Mon-Fri", "time": "4:30pm"}, {"days": "Sat", "time": "12:30pm"}, {"days": "Sun", "time": "Closed"}], "id": "2104200023", "name": "USPS COLLECTION BOX - PO LOBBY", "address": {"city": "ELLICOTT CITY", "state": "MD", "street": "10020 BALTIMORE NATIONAL PIKE", "postcode": "21042"}}},
{"geometry": {"type": "Point", "coordinates": [-76.8031396313, 39.2595615738]}, "type": "Feature", "properties": {"collection_times": [{"days": "Mon-Fri", "time": "2:50pm"}, {"days": "Sat", "time": "3:00pm"}, {"days": "Sun", "time": "Closed"}], "id": "2104300004", "name": "USPS COLLECTION BOX - EXPRESS", "address": {"city": "ELLICOTT CITY", "state": "MD", "street": "3451 COURT HOUSE DR", "postcode": "21043"}}},
{"geometry": {"type": "Point", "coordinates": [-76.7989747641, 39.2682093081]}, "type": "Feature", "properties": {"collection_times": [{"days": "Mon-Fri", "time": "2:50pm"}, {"days": "Sat", "time": "3:15pm"}, {"days": "Sun", "time": "Closed"}], "id": "2104300005", "name": "USPS COLLECTION BOX - EXPRESS", "address": {"city": "ELLICOTT CITY", "state": "MD", "street": "8360 COURT AVE", "postcode": "21043"}}},
{"geometry": {"type": "Point", "coordinates": [-76.804417868, 39.2747928547]}, "type": "Feature", "properties": {"collection_times": [{"days": "Mon-Fri", "time": "2:50pm"}, {"days": "Sat", "time": "3:00pm"}, {"days": "Sun", "time": "Closed"}], "id": "2104300006", "name": "USPS COLLECTION BOX - BLUE BOX", "address": {"city": "ELLICOTT CITY", "state": "MD", "street": "3505 ELLICOTT MILLS DR", "postcode": "21043"}}},
{"geometry": {"type": "Point", "coordinates": [-76.8103414811, 39.2826463769]}, "type": "Feature", "properties": {"collection_times": [{"days": "Mon-Fri", "time": "2:35pm"}, {"days": "Sat", "time": "1:30pm"}, {"days": "Sun", "time": "Closed"}], "id": "2104300008", "name": "USPS COLLECTION BOX - BLUE BOX", "address": {"city": "ELLICOTT CITY", "state": "MD", "street": "8593 BALTIMORE NATIONAL PIKE", "postcode": "21043"}}},
{"geometry": {"type": "Point", "coordinates": [-76.8032353659, 39.2865411785]}, "type": "Feature", "properties": {"collection_times": [{"days": "Mon-Fri", "time": "10:05am"}, {"days": "Sat", "time": "1:30pm"}, {"days": "Sun", "time": "Closed"}], "id": "2104300009", "name": "USPS COLLECTION BOX - BLUE BOX", "address": {"city": "ELLICOTT CITY", "state": "MD", "street": "8407 BALTIMORE NATIONAL PIKE", "postcode": "21043"}}},
{"geometry": {"type": "Point", "coordinates": [-76.8060792799, 39.2853115835]}, "type": "Feature", "properties": {"collection_times": [{"days": "Mon-Fri", "time": "1:45pm"}, {"days": "Sat", "time": "1:30pm"}, {"days": "Sun", "time": "Closed"}], "id": "2104300010", "name": "USPS COLLECTION BOX - BLUE BOX", "address": {"city": "ELLICOTT CITY", "state": "MD", "street": "8450 BALTIMORE NATIONAL PIKE", "postcode": "21043"}}},
{"geometry": {"type": "Point", "coordinates": [-76.81072, 39.28614]}, "type": "Feature", "properties": {"collection_times": [{"days": "Mon-Fri", "time": "1:50pm"}, {"days": "Sat", "time": "1:30pm"}, {"days": "Sun", "time": "Closed"}], "id": "2104300011", "name": "USPS COLLECTION BOX - BLUE BOX", "address": {"city": "ELLICOTT CITY", "state": "MD", "street": "8645 TOWN AND COUNTRY BLVD", "postcode": "21043"}}},
{"geometry": {"type": "Point", "coordinates": [-76.8177184132, 39.2783758951]}, "type": "Feature", "properties": {"collection_times": [{"days": "Mon-Fri", "time": "2:30pm"}, {"days": "Sat", "time": "1:30pm"}, {"days": "Sun", "time": "Closed"}], "id": "2104300013", "name": "USPS COLLECTION BOX - BLUE BOX", "address": {"city": "ELLICOTT CITY", "state": "MD", "street": "8801 BALTIMORE NATIONAL PIKE", "postcode": "21043"}}},
{"geometry": {"type": "Point", "coordinates": [-76.7839079578, 39.2026787918]}, "type": "Feature", "properties": {"collection_times": [{"days": "Mon-Fri", "time": "4:00pm"}, {"days": "Sat", "time": "2:45pm"}, {"days": "Sun", "time": "Closed"}], "id": "2104300014", "name": "USPS COLLECTION BOX - BLUE BOX", "address": {"city": "ELLICOTT CITY", "state": "MD", "street": "7800 MAYFAIR CIR", "postcode": "21043"}}},
{"geometry": {"type": "Point", "coordinates": [-76.7972695653, 39.2577156111]}, "type": "Feature", "properties": {"collection_times": [{"days": "Mon-Fri", "time": "11:15am"}, {"days": "Sat", "time": "2:45pm"}, {"days": "Sun", "time": "Closed"}], "id": "2104300015", "name": "USPS COLLECTION BOX - BLUE BOX", "address": {"city": "ELLICOTT CITY", "state": "MD", "street": "8500 MONTGOMERY RUN RD", "postcode": "21043"}}},
{"geometry": {"type": "Point", "coordinates": [-76.8140358619, 39.2780564961]}, "type": "Feature", "properties": {"collection_times": [{"days": "Mon-Fri", "time": "5:00pm"}, {"days": "Sat", "time": "4:00pm"}, {"days": "Sun", "time": "Closed"}], "id": "2104300018", "name": "USPS COLLECTION BOX - BLUE BOX", "address": {"city": "ELLICOTT CITY", "state": "MD", "street": "3375 ELLICOTT CENTER DR", "postcode": "21043"}}},
{"geometry": {"type": "Point", "coordinates": [-76.8140358619, 39.2780564961]}, "type": "Feature", "properties": {"collection_times": [{"days": "Mon-Fri", "time": "5:00pm"}, {"days": "Sat", "time": "4:00pm"}, {"days": "Sun", "time": "Closed"}], "id": "2104300019", "name": "USPS COLLECTION BOX - BLUE BOX", "address": {"city": "ELLICOTT CITY", "state": "MD", "street": "3375 ELLICOTT CENTER DR", "postcode": "21043"}}},
{"geometry": {"type": "Point", "coordinates": [-76.8140358619, 39.2780564961]}, "type": "Feature", "properties": {"collection_times": [{"days": "Mon-Fri", "time": "5:00pm"}, {"days": "Sat", "time": "4:00pm"}, {"days": "Sun", "time": "Closed"}], "id": "2104300020", "name": "USPS COLLECTION BOX - BLUE BOX", "address": {"city": "ELLICOTT CITY", "state": "MD", "street": "3375 ELLICOTT CENTER DR", "postcode": "21043"}}},
{"geometry": {"type": "Point", "coordinates": [-76.8031396313, 39.2595615738]}, "type": "Feature", "properties": {"collection_times": [{"days": "Mon-Fri", "time": "2:40pm"}, {"days": "Sat", "time": "3:30pm"}, {"days": "Sun", "time": "Closed"}], "id": "2104300021", "name": "USPS COLLECTION BOX - EXPRESS", "address": {"city": "ELLICOTT CITY", "state": "MD", "street": "3430 COURT HOUSE DR", "postcode": "21043"}}},
{"geometry": {"type": "Point", "coordinates": [-76.8174106069, 39.2806521063]}, "type": "Feature", "properties": {"collection_times": [{"days": "Mon-Fri", "time": "3:15pm"}, {"days": "Sat", "time": "1:30pm"}, {"days": "Sun", "time": "Closed"}], "id": "2104300022", "name": "USPS COLLECTION BOX - BLUE BOX", "address": {"city": "ELLICOTT CITY", "state": "MD", "street": "3300 NORTH RIDGE RD", "postcode": "21043"}}},
{"geometry": {"type": "Point", "coordinates": [-76.8058911375, 39.2760574969]}, "type": "Feature", "properties": {"collection_times": [{"days": "Mon-Fri", "time": "2:40pm"}, {"days": "Sat", "time": "3:30pm"}, {"days": "Sun", "time": "Closed"}], "id": "2104300023", "name": "USPS COLLECTION BOX - BLUE BOX", "address": {"city": "ELLICOTT CITY", "state": "MD", "street": "3430 COURT HOUSE DR", "postcode": "21043"}}},
{"geometry": {"type": "Point", "coordinates": [-76.80491325, 39.2757364238]}, "type": "Feature", "properties": {"collection_times": [{"days": "Mon-Fri", "time": "2:50pm"}, {"days": "Sat", "time": "3:30pm"}, {"days": "Sun", "time": "Closed"}], "id": "2104300024", "name": "USPS COLLECTION BOX - BLUE BOX", "address": {"city": "ELLICOTT CITY", "state": "MD", "street": "3451 COURT HOUSE DR", "postcode": "21043"}}},
{"geometry": {"type": "Point", "coordinates": [-76.80491325, 39.2757364238]}, "type": "Feature", "properties": {"collection_times": [{"days": "Mon-Fri", "time": "2:50pm"}, {"days": "Sat", "time": "3:30pm"}, {"days": "Sun", "time": "Closed"}], "id": "2104300025", "name": "USPS COLLECTION BOX - BLUE BOX", "address": {"city": "ELLICOTT CITY", "state": "MD", "street": "3451 COURT HOUSE DR", "postcode": "21043"}}},
{"geometry": {"type": "Point", "coordinates": [-76.7989747641, 39.2682093081]}, "type": "Feature", "properties": {"collection_times": [{"days": "Mon-Fri", "time": "2:50pm"}, {"days": "Sat", "time": "3:15pm"}, {"days": "Sun", "time": "Closed"}], "id": "2104300027", "name": "USPS COLLECTION BOX - BLUE BOX", "address": {"city": "ELLICOTT CITY", "state": "MD", "street": "8360 COURT AVE", "postcode": "21043"}}},
{"geometry": {"type": "Point", "coordinates": [-76.7981960414, 39.2357385051]}, "type": "Feature", "properties": {"collection_times": [{"days": "Mon-Fri", "time": "10:55am"}, {"days": "Sat", "time": "2:45pm"}, {"days": "Sun", "time": "Closed"}], "id": "2104300028", "name": "USPS COLLECTION BOX - BLUE BOX", "address": {"city": "ELLICOTT CITY", "state": "MD", "street": "4900 WATERLOO RD", "postcode": "21043"}}},
{"geometry": {"type": "Point", "coordinates": [-76.799573931, 39.26795494]}, "type": "Feature", "properties": {"collection_times": [{"days": "Mon-Fri", "time": "4:20pm"}, {"days": "Sat", "time": "3:00pm"}, {"days": "Sun", "time": "Closed"}], "id": "2104300030", "name": "USPS COLLECTION BOX - BLUE BOX", "address": {"city": "ELLICOTT CITY", "state": "MD", "street": "8308 MAIN ST", "postcode": "21043"}}},
{"geometry": {"type": "Point", "coordinates": [-76.8153373358, 39.2518686471]}, "type": "Feature", "properties": {"collection_times": [{"days": "Mon-Fri", "time": "10:50am"}, {"days": "Sat", "time": "2:30pm"}, {"days": "Sun", "time": "Closed"}], "id": "2104300031", "name": "USPS COLLECTION BOX - BLUE BOX", "address": {"city": "ELLICOTT CITY", "state": "MD", "street": "4370 MONTGOMERY RD", "postcode": "21043"}}},
{"geometry": {"type": "Point", "coordinates": [-76.8140358619, 39.2780564961]}, "type": "Feature", "properties": {"collection_times": [{"days": "Mon-Fri", "time": "5:00pm"}, {"days": "Sat", "time": "1:30pm"}, {"days": "Sun", "time": "Closed"}], "id": "2104300032", "name": "USPS COLLECTION BOX - PO LOBBY", "address": {"city": "ELLICOTT CITY", "state": "MD", "street": "3375 ELLICOTT CENTER DR", "postcode": "21043"}}},
{"geometry": {"type": "Point", "coordinates": [-76.8140358619, 39.2780564961]}, "type": "Feature", "properties": {"collection_times": [{"days": "Mon-Fri", "time": "5:00pm"}, {"days": "Sat", "time": "1:30pm"}, {"days": "Sun", "time": "Closed"}], "id": "2104300034", "name": "USPS COLLECTION BOX - PO LOBBY", "address": {"city": "ELLICOTT CITY", "state": "MD", "street": "3375 ELLICOTT CENTER DR", "postcode": "21043"}}},
{"geometry": {"type": "Point", "coordinates": [-76.8140358619, 39.2780564961]}, "type": "Feature", "properties": {"collection_times": [{"days": "Mon-Fri", "time": "5:00pm"}, {"days": "Sat", "time": "1:45pm"}, {"days": "Sun", "time": "Closed"}], "id": "2104300035", "name": "USPS COLLECTION BOX - APC", "address": {"city": "ELLICOTT CITY", "state": "MD", "street": "3375 ELLICOTT CENTER DR", "postcode": "21043"}}},
{"geometry": {"type": "Point", "coordinates": [-76.7975335844, 39.2096980294]}, "type": "Feature", "properties": {"collection_times": [{"days": "Mon-Fri", "time": "4:05pm"}, {"days": "Sat", "time": "2:45pm"}, {"days": "Sun", "time": "Closed"}], "id": "2104300036", "name": "USPS COLLECTION BOX - BLUE BOX", "address": {"city": "ELLICOTT CITY", "state": "MD", "street": "6021 UNIVERSITY BLVD", "postcode": "21043"}}},
{"geometry": {"type": "Point", "coordinates": [-76.797382032, 39.210006857]}, "type": "Feature", "properties": {"collection_times": [{"days": "Mon-Fri", "time": "4:05pm"}, {"days": "Sat", "time": "2:45pm"}, {"days": "Sun", "time": "Closed"}], "id": "2104300037", "name": "USPS COLLECTION BOX - BLUE BOX", "address": {"city": "ELLICOTT CITY", "state": "MD", "street": "6021 UNIVERSITY BLVD", "postcode": "21043"}}},
{"geometry": {"type": "Point", "coordinates": [-76.8713815543, 39.220062567]}, "type": "Feature", "properties": {"collection_times": [{"days": "Mon-Sat", "time": "12:45pm"}, {"days": "Sun", "time": "Closed"}], "id": "2104400001", "name": "USPS COLLECTION BOX - BLUE BOX", "address": {"city": "COLUMBIA", "state": "MD", "street": "10850 GREEN MOUNTAIN CIR", "postcode": "21044"}}},
{"geometry": {"type": "Point", "coordinates": [-76.8809416551, 39.2347176115]}, "type": "Feature", "properties": {"collection_times": [{"days": "Mon-Sat", "time": "1:15pm"}, {"days": "Sun", "time": "Closed"}], "id": "2104400004", "name": "USPS COLLECTION BOX - BLUE BOX", "address": {"city": "COLUMBIA", "state": "MD", "street": "4990 ELIOTS OAK RD", "postcode": "21044"}}},
{"geometry": {"type": "Point", "coordinates": [-76.857503225, 39.2265192152]}, "type": "Feature", "properties": {"collection_times": [{"days": "Mon-Sat", "time": "12:30pm"}, {"days": "Sun", "time": "Closed"}], "id": "2104400005", "name": "USPS COLLECTION BOX - BLUE BOX", "address": {"city": "COLUMBIA", "state": "MD", "street": "5255 W RUNNING BROOK RD", "postcode": "21044"}}},
{"geometry": {"type": "Point", "coordinates": [-76.868536637, 39.2346426647]}, "type": "Feature", "properties": {"collection_times": [{"days": "Mon-Sat", "time": "1:15pm"}, {"days": "Sun", "time": "Closed"}], "id": "2104400006", "name": "USPS COLLECTION BOX - BLUE BOX", "address": {"city": "COLUMBIA", "state": "MD", "street": "4994 BEAVERBROOK RD", "postcode": "21044"}}},
{"geometry": {"type": "Point", "coordinates": [-76.8779073653, 39.2159830904]}, "type": "Feature", "properties": {"collection_times": [{"days": "Mon-Sat", "time": "12:15pm"}, {"days": "Sun", "time": "Closed"}], "id": "2104400024", "name": "USPS COLLECTION BOX - BLUE BOX", "address": {"city": "COLUMBIA", "state": "MD", "street": "10840 LITTLE PATUXENT PKWY", "postcode": "21044"}}},
{"geometry": {"type": "Point", "coordinates": [-76.8813851398, 39.2162185523]}, "type": "Feature", "properties": {"collection_times": [{"days": "Mon-Sat", "time": "12:00pm"}, {"days": "Sun", "time": "Closed"}], "id": "2104400025", "name": "USPS COLLECTION BOX - BLUE BOX", "address": {"city": "COLUMBIA", "state": "MD", "street": "10901 LITTLE PATUXENT PKWY", "postcode": "21044"}}},
{"geometry": {"type": "Point", "coordinates": [-76.8743759965, 39.2146211819]}, "type": "Feature", "properties": {"collection_times": [{"days": "Mon-Sat", "time": "12:30pm"}, {"days": "Sun", "time": "Closed"}], "id": "2104400026", "name": "USPS COLLECTION BOX - EXPRESS", "address": {"city": "COLUMBIA", "state": "MD", "street": "5550 STERRETT PL", "postcode": "21044"}}},
{"geometry": {"type": "Point", "coordinates": [-76.8567134371, 39.2242831463]}, "type": "Feature", "properties": {"collection_times": [{"days": "Mon-Sat", "time": "12:30pm"}, {"days": "Sun", "time": "Closed"}], "id": "2104400029", "name": "USPS COLLECTION BOX - BLUE BOX", "address": {"city": "COLUMBIA", "state": "MD", "street": "5401 VANTAGE POINT RD", "postcode": "21044"}}},
{"geometry": {"type": "Point", "coordinates": [-76.8743673063, 39.2146212282]}, "type": "Feature", "properties": {"collection_times": [{"days": "Mon-Fri", "time": "3:15pm"}, {"days": "Sat", "time": "12:45pm"}, {"days": "Sun", "time": "Closed"}], "id": "2104400030", "name": "USPS COLLECTION BOX - EXPRESS", "address": {"city": "COLUMBIA", "state": "MD", "street": "10320 LITTLE PATUXENT PKWY", "postcode": "21044"}}},
{"geometry": {"type": "Point", "coordinates": [-76.8848205775, 39.2158103784]}, "type": "Feature", "properties": {"collection_times": [{"days": "Mon-Fri", "time": "3:45pm"}, {"days": "Sat", "time": "12:15pm"}, {"days": "Sun", "time": "Closed"}], "id": "2104400032", "name": "USPS COLLECTION BOX - BLUE BOX", "address": {"city": "COLUMBIA", "state": "MD", "street": "11055 LITTLE PATUXENT PKWY", "postcode": "21044"}}},
{"geometry": {"type": "Point", "coordinates": [-76.8859905239, 39.2154152701]}, "type": "Feature", "properties": {"collection_times": [{"days": "Mon-Fri", "time": "3:45pm"}, {"days": "Sat", "time": "12:00pm"}, {"days": "Sun", "time": "Closed"}], "id": "2104400033", "name": "USPS COLLECTION BOX - BLUE BOX", "address": {"city": "COLUMBIA", "state": "MD", "street": "11085 Little Patuxent Pkwy", "postcode": "21044"}}},
{"geometry": {"type": "Point", "coordinates": [-76.8846767966, 39.2110011106]}, "type": "Feature", "properties": {"collection_times": [{"days": "Mon-Fri", "time": "4:00pm"}, {"days": "Sat", "time": "12:00pm"}, {"days": "Sun", "time": "Closed"}], "id": "2104400034", "name": "USPS COLLECTION BOX - BLUE BOX", "address": {"city": "COLUMBIA", "state": "MD", "street": "10750 HICKORY RIDGE RD", "postcode": "21044"}}},
{"geometry": {"type": "Point", "coordinates": [-76.883999564, 39.2118167989]}, "type": "Feature", "properties": {"collection_times": [{"days": "Mon-Fri", "time": "3:30pm"}, {"days": "Sat", "time": "12:00pm"}, {"days": "Sun", "time": "Closed"}], "id": "2104400035", "name": "USPS COLLECTION BOX - BLUE BOX", "address": {"city": "COLUMBIA", "state": "MD", "street": "10705 CHARTER DR", "postcode": "21044"}}},
{"geometry": {"type": "Point", "coordinates": [-76.8871510067, 39.2141258448]}, "type": "Feature", "properties": {"collection_times": [{"days": "Mon-Fri", "time": "3:45pm"}, {"days": "Sat", "time": "12:00pm"}, {"days": "Sun", "time": "Closed"}], "id": "2104400036", "name": "USPS COLLECTION BOX - BLUE BOX", "address": {"city": "COLUMBIA", "state": "MD", "street": "5755 CEDAR LN", "postcode": "21044"}}},
{"geometry": {"type": "Point", "coordinates": [-76.8932329353, 39.2235626796]}, "type": "Feature", "properties": {"collection_times": [{"days": "Mon-Sat", "time": "1:00pm"}, {"days": "Sun", "time": "Closed"}], "id": "2104400039", "name": "USPS COLLECTION BOX - BLUE BOX", "address": {"city": "COLUMBIA", "state": "MD", "street": "5400 HARPERS FARM RD", "postcode": "21044"}}},
{"geometry": {"type": "Point", "coordinates": [-76.8590802583, 39.2085353687]}, "type": "Feature", "properties": {"collection_times": [{"days": "Mon-Fri", "time": "4:00pm"}, {"days": "Sat", "time": "12:15pm"}, {"days": "Sun", "time": "Closed"}], "id": "2104400041", "name": "USPS COLLECTION BOX - BLUE BOX", "address": {"city": "COLUMBIA", "state": "MD", "street": "5950 SYMPHONY WOODS RD", "postcode": "21044"}}},
{"geometry": {"type": "Point", "coordinates": [-76.8971848646, 39.2057670567]}, "type": "Feature", "properties": {"collection_times": [{"days": "Mon-Sat", "time": "12:30pm"}, {"days": "Sun", "time": "Closed"}], "id": "2104400042", "name": "USPS COLLECTION BOX - BLUE BOX", "address": {"city": "COLUMBIA", "state": "MD", "street": "11601 DARK FIRE WAY", "postcode": "21044"}}},
{"geometry": {"type": "Point", "coordinates": [-76.881770525, 39.1955411123]}, "type": "Feature", "properties": {"collection_times": [{"days": "Mon-Fri", "time": "3:30pm"}, {"days": "Sat", "time": "1:00pm"}, {"days": "Sun", "time": "Closed"}], "id": "2104400046", "name": "USPS COLLECTION BOX - BLUE BOX", "address": {"city": "COLUMBIA", "state": "MD", "street": "6470 FREETOWN RD", "postcode": "21044"}}},
{"geometry": {"type": "Point", "coordinates": [-76.8956103462, 39.2134764003]}, "type": "Feature", "properties": {"collection_times": [{"days": "Mon-Sat", "time": "12:30pm"}, {"days": "Sun", "time": "Closed"}], "id": "2104400049", "name": "USPS COLLECTION BOX - BLUE BOX", "address": {"city": "COLUMBIA", "state": "MD", "street": "12119 GRAY STAR WAY", "postcode": "21044"}}},
{"geometry": {"type": "Point", "coordinates": [-76.8937937764, 39.2257982179]}, "type": "Feature", "properties": {"collection_times": [{"days": "Mon-Sat", "time": "1:15pm"}, {"days": "Sun", "time": "Closed"}], "id": "2104400051", "name": "USPS COLLECTION BOX - BLUE BOX", "address": {"city": "COLUMBIA", "state": "MD", "street": "5295 RIVENDELL", "postcode": "21044"}}},
{"geometry": {"type": "Point", "coordinates": [-76.9153231744, 39.1966156862]}, "type": "Feature", "properties": {"collection_times": [{"days": "Mon-Sat", "time": "11:00am"}, {"days": "Sun", "time": "Closed"}], "id": "2104400053", "name": "USPS COLLECTION BOX - BLUE BOX", "address": {"city": "COLUMBIA", "state": "MD", "street": "6400 SUMMER SUNRISE DR", "postcode": "21044"}}},
{"geometry": {"type": "Point", "coordinates": [-76.8743673063, 39.2146212282]}, "type": "Feature", "properties": {"collection_times": [{"days": "Mon-Fri", "time": "3:15pm"}, {"days": "Sat", "time": "12:45pm"}, {"days": "Sun", "time": "Closed"}], "id": "2104400063", "name": "USPS COLLECTION BOX - BLUE BOX", "address": {"city": "COLUMBIA", "state": "MD", "street": "10320 LITTLE PATUXENT PKWY", "postcode": "21044"}}},
{"geometry": {"type": "Point", "coordinates": [-76.8843335034, 39.1976052397]}, "type": "Feature", "properties": {"collection_times": [{"days": "Mon-Sat", "time": "12:30pm"}, {"days": "Sun", "time": "Closed"}], "id": "2104400071", "name": "USPS COLLECTION BOX - BLUE BOX", "address": {"city": "COLUMBIA", "state": "MD", "street": "6334 CEDAR LN", "postcode": "21044"}}},
{"geometry": {"type": "Point", "coordinates": [-76.8898268599, 39.2216376342]}, "type": "Feature", "properties": {"collection_times": [{"days": "Mon-Fri", "time": "3:45pm"}, {"days": "Sat", "time": "1:00pm"}, {"days": "Sun", "time": "Closed"}], "id": "2104400072", "name": "USPS COLLECTION BOX - BLUE BOX", "address": {"city": "COLUMBIA", "state": "MD", "street": "5485 HARPERS FARM RD", "postcode": "21044"}}},
{"geometry": {"type": "Point", "coordinates": [-76.858999999, 39.2116035357]}, "type": "Feature", "properties": {"collection_times": [{"days": "Mon-Fri", "time": "3:15pm"}, {"days": "Sat", "time": "12:00pm"}, {"days": "Sun", "time": "Closed"}], "id": "2104400079", "name": "USPS COLLECTION BOX - BLUE BOX", "address": {"city": "COLUMBIA", "state": "MD", "street": "10400 LITTLE PATUXENT PKWY", "postcode": "21044"}}},
{"geometry": {"type": "Point", "coordinates": [-76.8572978542, 39.2154140871]}, "type": "Feature", "properties": {"collection_times": [{"days": "Mon-Fri", "time": "5:00pm"}, {"days": "Sat", "time": "12:00pm"}, {"days": "Sun", "time": "Closed"}], "id": "2104400084", "name": "USPS COLLECTION BOX - BLUE BOX", "address": {"city": "COLUMBIA", "state": "MD", "street": "10227 WINCOPIN CIR", "postcode": "21044"}}},
{"geometry": {"type": "Point", "coordinates": [-76.8571499844, 39.2191344931]}, "type": "Feature", "properties": {"collection_times": [{"days": "Mon-Sat", "time": "12:30pm"}, {"days": "Sun", "time": "Closed"}], "id": "2104400085", "name": "USPS COLLECTION BOX - BLUE BOX", "address": {"city": "COLUMBIA", "state": "MD", "street": "5550 STERRETT PL", "postcode": "21044"}}},
{"geometry": {"type": "Point", "coordinates": [-76.8743759965, 39.2146211819]}, "type": "Feature", "properties": {"collection_times": [{"days": "Mon-Fri", "time": "3:30pm"}, {"days": "Sat", "time": "12:00pm"}, {"days": "Sun", "time": "Closed"}], "id": "2104400088", "name": "USPS COLLECTION BOX - EXPRESS", "address": {"city": "COLUMBIA", "state": "MD", "street": "10750 HICKORY RIDGE RD", "postcode": "21044"}}},
{"geometry": {"type": "Point", "coordinates": [-76.8857109781, 39.2108743786]}, "type": "Feature", "properties": {"collection_times": [{"days": "Mon-Sat", "time": "12:00pm"}, {"days": "Sun", "time": "Closed"}], "id": "2104400089", "name": "USPS COLLECTION BOX - BLUE BOX", "address": {"city": "COLUMBIA", "state": "MD", "street": "10805 HICKORY RIDGE RD", "postcode": "21044"}}},
{"geometry": {"type": "Point", "coordinates": [-76.8743759965, 39.2146211819]}, "type": "Feature", "properties": {"collection_times": [{"days": "Mon-Fri", "time": "3:30pm"}, {"days": "Sat", "time": "1:00pm"}, {"days": "Sun", "time": "Closed"}], "id": "2104400090", "name": "USPS COLLECTION BOX - EXPRESS", "address": {"city": "COLUMBIA", "state": "MD", "street": "6470 FREETOWN RD", "postcode": "21044"}}},
{"geometry": {"type": "Point", "coordinates": [-76.8582737954, 39.2187050789]}, "type": "Feature", "properties": {"collection_times": [{"days": "Mon-Fri", "time": "4:15pm"}, {"days": "Sat", "time": "12:15pm"}, {"days": "Sun", "time": "Closed"}], "id": "2104400091", "name": "USPS COLLECTION BOX - BLUE BOX", "address": {"city": "COLUMBIA", "state": "MD", "street": "5575 STERRETT PL", "postcode": "21044"}}},
{"geometry": {"type": "Point", "coordinates": [-76.8675881371, 39.2136028162]}, "type": "Feature", "properties": {"collection_times": [{"days": "Mon-Sat", "time": "12:15pm"}, {"days": "Sun", "time": "Closed"}], "id": "2104400092", "name": "USPS COLLECTION BOX - BLUE BOX", "address": {"city": "COLUMBIA", "state": "MD", "street": "10661 GRAMERCY PL", "postcode": "21044"}}},
{"geometry": {"type": "Point", "coordinates": [-76.8572978542, 39.2154140871]}, "type": "Feature", "properties": {"collection_times": [{"days": "Mon-Fri", "time": "4:45pm"}, {"days": "Sat", "time": "12:00pm"}, {"days": "Sun", "time": "Closed"}], "id": "2104400093", "name": "USPS COLLECTION BOX - PO LOBBY", "address": {"city": "COLUMBIA", "state": "MD", "street": "10227 WINCOPIN CIR", "postcode": "21044"}}},
{"geometry": {"type": "Point", "coordinates": [-76.8950295808, 39.1871489769]}, "type": "Feature", "properties": {"collection_times": [{"days": "Mon-Sat", "time": "12:45pm"}, {"days": "Sun", "time": "Closed"}], "id": "2104400094", "name": "USPS COLLECTION BOX - BLUE BOX", "address": {"city": "COLUMBIA", "state": "MD", "street": "7300 GRACE DR", "postcode": "21044"}}},
{"geometry": {"type": "Point", "coordinates": [-76.8584949431, 39.2115484716]}, "type": "Feature", "properties": {"collection_times": [{"days": "Mon-Sat", "time": "12:15pm"}, {"days": "Sun", "time": "Closed"}], "id": "2104400095", "name": "USPS COLLECTION BOX - BLUE BOX", "address": {"city": "COLUMBIA", "state": "MD", "street": "10375 LITTLE PATUXENT PKWY", "postcode": "21044"}}},
{"geometry": {"type": "Point", "coordinates": [-76.881520122, 39.2110040161]}, "type": "Feature", "properties": {"collection_times": [{"days": "Mon-Sat", "time": "12:00pm"}, {"days": "Sun", "time": "Closed"}], "id": "2104400096", "name": "USPS COLLECTION BOX - BLUE BOX", "address": {"city": "COLUMBIA", "state": "MD", "street": "10650 HICKORY RIDGE RD", "postcode": "21044"}}},
{"geometry": {"type": "Point", "coordinates": [-76.8605805654, 39.2203588556]}, "type": "Feature", "properties": {"collection_times": [{"days": "Mon-Fri", "time": "4:30pm"},