{"type": "FeatureCollection", "features": [
{"geometry": {"type": "Point", "coordinates": [-76.8857024343, 39.6608503006]}, "type": "Feature", "properties": {"collection_times": [{"days": "Mon-Fri", "time": "5:00pm"}, {"days": "Sat", "time": "1:00pm"}, {"days": "Sun", "time": "Closed"}], "id": "2110200003", "name": "USPS COLLECTION BOX - BLUE BOX", "address": {"city": "MANCHESTER", "state": "MD", "street": "3100 WESTMINSTER ST", "postcode": "21102"}}},
{"geometry": {"type": "Point", "coordinates": [-76.8857024343, 39.6608503006]}, "type": "Feature", "properties": {"collection_times": [{"days": "Mon-Fri", "time": "5:00pm"}, {"days": "Sat", "time": "1:00pm"}, {"days": "Sun", "time": "Closed"}], "id": "2110200005", "name": "USPS COLLECTION BOX - PO LOBBY", "address": {"city": "MANCHESTER", "state": "MD", "street": "3100 WESTMINSTER ST", "postcode": "21102"}}},
{"geometry": {"type": "Point", "coordinates": [-76.8857024343, 39.6608503006]}, "type": "Feature", "properties": {"collection_times": [{"days": "Mon-Fri", "time": "5:00pm"}, {"days": "Sat", "time": "1:00pm"}, {"days": "Sun", "time": "Closed"}], "id": "2110200006", "name": "USPS COLLECTION BOX - PO LOBBY", "address": {"city": "MANCHESTER", "state": "MD", "street": "3100 WESTMINSTER ST", "postcode": "21102"}}},
{"geometry": {"type": "Point", "coordinates": [-76.7063961559, 39.717640769]}, "type": "Feature", "properties": {"collection_times": [{"days": "Mon-Fri", "time": "3:45pm"}, {"days": "Sat", "time": "10:45am"}, {"days": "Sun", "time": "Closed"}], "id": "2110500001", "name": "USPS COLLECTION BOX - BLUE BOX", "address": {"city": "MARYLAND LINE", "state": "MD", "street": "21400 YORK RD", "postcode": "21105"}}},
{"geometry": {"type": "Point", "coordinates": [-76.7063961559, 39.717640769]}, "type": "Feature", "properties": {"collection_times": [{"days": "Mon-Fri", "time": "4:00pm"}, {"days": "Sat", "time": "11:00am"}, {"days": "Sun", "time": "Closed"}], "id": "2110500003", "name": "USPS COLLECTION BOX - PO LOBBY", "address": {"city": "MARYLAND LINE", "state": "MD", "street": "21400 YORK RD", "postcode": "21105"}}},
{"geometry": {"type": "Point", "coordinates": [-76.511979031, 38.8959352393]}, "type": "Feature", "properties": {"collection_times": [{"days": "Mon-Fri", "time": "4:30pm"}, {"days": "Sat", "time": "11:45am"}, {"days": "Sun", "time": "Closed"}], "id": "2110600001", "name": "USPS COLLECTION BOX - BLUE BOX", "address": {"city": "MAYO", "state": "MD", "street": "1157 MAYO RD", "postcode": "21106"}}},
{"geometry": {"type": "Point", "coordinates": [-76.511979031, 38.8959352393]}, "type": "Feature", "properties": {"collection_times": [{"days": "Mon-Fri", "time": "5:00pm"}, {"days": "Sat", "time": "11:30am"}, {"days": "Sun", "time": "Closed"}], "id": "2110600002", "name": "USPS COLLECTION BOX - PO LOBBY", "address": {"city": "MAYO", "state": "MD", "street": "1157 MAYO RD", "postcode": "21106"}}},
{"geometry": {"type": "Point", "coordinates": [-76.511979031, 38.8959352393]}, "type": "Feature", "properties": {"collection_times": [{"days": "Mon-Fri", "time": "5:00pm"}, {"days": "Sat", "time": "11:30am"}, {"days": "Sun", "time": "Closed"}], "id": "2110600003", "name": "USPS COLLECTION BOX - PO LOBBY", "address": {"city": "MAYO", "state": "MD", "street": "1157 MAYO RD", "postcode": "21106"}}},
{"geometry": {"type": "Point", "coordinates": [-76.6307585461, 39.1176641772]}, "type": "Feature", "properties": {"collection_times": [{"days": "Mon-Sat", "time": "12:00pm"}, {"days": "Sun", "time": "Closed"}], "id": "2110800002", "name": "USPS COLLECTION BOX - BLUE BOX", "address": {"city": "MILLERSVILLE", "state": "MD", "street": "659 OLD MILL RD", "postcode": "21108"}}},
{"geometry": {"type": "Point", "coordinates": [-76.6363335975, 39.1211072131]}, "type": "Feature", "properties": {"collection_times": [{"days": "Mon-Fri", "time": "1:00pm"}, {"days": "Sat", "time": "12:00pm"}, {"days": "Sun", "time": "Closed"}], "id": "2110800004", "name": "USPS COLLECTION BOX - BLUE BOX", "address": {"city": "MILLERSVILLE", "state": "MD", "street": "8200 CLOVERLEAF DR", "postcode": "21108"}}},
{"geometry": {"type": "Point", "coordinates": [-76.6305743049, 39.096934832]}, "type": "Feature", "properties": {"collection_times": [{"days": "Mon-Fri", "time": "4:45pm"}, {"days": "Sat", "time": "2:00pm"}, {"days": "Sun", "time": "Closed"}], "id": "2110800006", "name": "USPS COLLECTION BOX - BLUE BOX", "address": {"city": "MILLERSVILLE", "state": "MD", "street": "221 NAJOLES RD", "postcode": "21108"}}},
{"geometry": {"type": "Point", "coordinates": [-76.6305743049, 39.096934832]}, "type": "Feature", "properties": {"collection_times": [{"days": "Mon-Fri", "time": "4:45pm"}, {"days": "Sat", "time": "2:00pm"}, {"days": "Sun", "time": "Closed"}], "id": "2110800007", "name": "USPS COLLECTION BOX - BLUE BOX", "address": {"city": "MILLERSVILLE", "state": "MD", "street": "221 NAJOLES RD", "postcode": "21108"}}},
{"geometry": {"type": "Point", "coordinates": [-76.6305743049, 39.096934832]}, "type": "Feature", "properties": {"collection_times": [{"days": "Mon-Fri", "time": "5:00pm"}, {"days": "Sat", "time": "4:00pm"}, {"days": "Sun", "time": "Closed"}], "id": "2110800011", "name": "USPS COLLECTION BOX - PO LOBBY", "address": {"city": "MILLERSVILLE", "state": "MD", "street": "221 NAJOLES RD", "postcode": "21108"}}},
{"geometry": {"type": "Point", "coordinates": [-76.6305743049, 39.096934832]}, "type": "Feature", "properties": {"collection_times": [{"days": "Mon-Fri", "time": "5:00pm"}, {"days": "Sat", "time": "4:00pm"}, {"days": "Sun", "time": "Closed"}], "id": "2110800012", "name": "USPS COLLECTION BOX - PO LOBBY", "address": {"city": "MILLERSVILLE", "state": "MD", "street": "221 NAJOLES RD", "postcode": "21108"}}},
{"geometry": {"type": "Point", "coordinates": [-76.6632108364, 39.5893995712]}, "type": "Feature", "properties": {"collection_times": [{"days": "Mon-Fri", "time": "4:30pm"}, {"days": "Sat", "time": "11:45am"}, {"days": "Sun", "time": "Closed"}], "id": "2111100001", "name": "USPS COLLECTION BOX - BLUE BOX", "address": {"city": "MONKTON", "state": "MD", "street": "16944 YORK RD", "postcode": "21111"}}},
{"geometry": {"type": "Point", "coordinates": [-76.6632108364, 39.5893995712]}, "type": "Feature", "properties": {"collection_times": [{"days": "Mon-Fri", "time": "4:30pm"}, {"days": "Sat", "time": "11:45am"}, {"days": "Sun", "time": "Closed"}], "id": "2111100002", "name": "USPS COLLECTION BOX - PO LOBBY", "address": {"city": "MONKTON", "state": "MD", "street": "16944 YORK RD", "postcode": "21111"}}},
{"geometry": {"type": "Point", "coordinates": [-76.6632108364, 39.5893995712]}, "type": "Feature", "properties": {"collection_times": [{"days": "Mon-Fri", "time": "4:30pm"}, {"days": "Sat", "time": "11:45am"}, {"days": "Sun", "time": "Closed"}], "id": "2111100003", "name": "USPS COLLECTION BOX - PO LOBBY", "address": {"city": "MONKTON", "state": "MD", "street": "16944 YORK RD", "postcode": "21111"}}},
{"geometry": {"type": "Point", "coordinates": [-76.7013601847, 39.0810210298]}, "type": "Feature", "properties": {"collection_times": [{"days": "Mon-Fri", "time": "4:00pm"}, {"days": "Sat", "time": "2:00pm"}, {"days": "Sun", "time": "Closed"}], "id": "2111300001", "name": "USPS COLLECTION BOX - BLUE BOX", "address": {"city": "ODENTON", "state": "MD", "street": "8373 PINEY ORCHARD PKWY", "postcode": "21113"}}},
{"geometry": {"type": "Point", "coordinates": [-76.7003558713, 39.0654018778]}, "type": "Feature", "properties": {"collection_times": [{"days": "Mon-Fri", "time": "3:45pm"}, {"days": "Sat", "time": "2:00pm"}, {"days": "Sun", "time": "Closed"}], "id": "2111300002", "name": "USPS COLLECTION BOX - BLUE BOX", "address": {"city": "ODENTON", "state": "MD", "street": "728 CHAPELGATE DR", "postcode": "21113"}}},
{"geometry": {"type": "Point", "coordinates": [-76.6861225091, 39.0763856518]}, "type": "Feature", "properties": {"collection_times": [{"days": "Mon-Fri", "time": "3:45pm"}, {"days": "Sat", "time": "2:00pm"}, {"days": "Sun", "time": "Closed"}], "id": "2111300003", "name": "USPS COLLECTION BOX - BLUE BOX", "address": {"city": "ODENTON", "state": "MD", "street": "491 HIGGINS DR", "postcode": "21113"}}},
{"geometry": {"type": "Point", "coordinates": [-76.7139916726, 39.052007253]}, "type": "Feature", "properties": {"collection_times": [{"days": "Mon-Fri", "time": "3:45pm"}, {"days": "Sat", "time": "2:00pm"}, {"days": "Sun", "time": "Closed"}], "id": "2111300004", "name": "USPS COLLECTION BOX - BLUE BOX", "address": {"city": "ODENTON", "state": "MD", "street": "1206 STEHLIK DR", "postcode": "21113"}}},
{"geometry": {"type": "Point", "coordinates": [-76.6874607937, 39.0802632417]}, "type": "Feature", "properties": {"collection_times": [{"days": "Mon-Fri", "time": "3:45pm"}, {"days": "Sat", "time": "11:30am"}, {"days": "Sun", "time": "Closed"}], "id": "2111300005", "name": "USPS COLLECTION BOX - BLUE BOX", "address": {"city": "ODENTON", "state": "MD", "street": "1133 ANNAPOLIS RD", "postcode": "21113"}}},
{"geometry": {"type": "Point", "coordinates": [-76.6904302279, 39.0820332025]}, "type": "Feature", "properties": {"collection_times": [{"days": "Mon-Fri", "time": "5:00pm"}, {"days": "Sat", "time": "2:15pm"}, {"days": "Sun", "time": "Closed"}], "id": "2111300006", "name": "USPS COLLECTION BOX - BLUE BOX", "address": {"city": "ODENTON", "state": "MD", "street": "1177 ANNAPOLIS RD", "postcode": "21113"}}},
{"geometry": {"type": "Point", "coordinates": [-76.7026308241, 39.089624457]}, "type": "Feature", "properties": {"collection_times": [{"days": "Mon-Fri", "time": "4:15pm"}, {"days": "Sat", "time": "12:00pm"}, {"days": "Sun", "time": "Closed"}], "id": "2111300008", "name": "USPS COLLECTION BOX - BLUE BOX", "address": {"city": "ODENTON", "state": "MD", "street": "1350 BLAIR DR", "postcode": "21113"}}},
{"geometry": {"type": "Point", "coordinates": [-76.7174291255, 39.0613470098]}, "type": "Feature", "properties": {"collection_times": [{"days": "Mon-Fri", "time": "3:45pm"}, {"days": "Sat", "time": "12:00pm"}, {"days": "Sun", "time": "Closed"}], "id": "2111300011", "name": "USPS COLLECTION BOX - BLUE BOX", "address": {"city": "ODENTON", "state": "MD", "street": "2200 STREAM VALLEY DR", "postcode": "21113"}}},
{"geometry": {"type": "Point", "coordinates": [-76.6904302279, 39.0820332025]}, "type": "Feature", "properties": {"collection_times": [{"days": "Mon-Fri", "time": "5:00pm"}, {"days": "Sat", "time": "2:15pm"}, {"days": "Sun", "time": "Closed"}], "id": "2111300012", "name": "USPS COLLECTION BOX - BLUE BOX", "address": {"city": "ODENTON", "state": "MD", "street": "1177 ANNAPOLIS RD", "postcode": "21113"}}},
{"geometry": {"type": "Point", "coordinates": [-76.7139916726, 39.052007253]}, "type": "Feature", "properties": {"collection_times": [{"days": "Mon-Fri", "time": "3:45pm"}, {"days": "Sat", "time": "2:00pm"}, {"days": "Sun", "time": "Closed"}], "id": "2111300013", "name": "USPS COLLECTION BOX - BLUE BOX", "address": {"city": "ODENTON", "state": "MD", "street": "21 CHARTER OAKS BLVD", "postcode": "21113"}}},
{"geometry": {"type": "Point", "coordinates": [-76.7139916726, 39.052007253]}, "type": "Feature", "properties": {"collection_times": [{"days": "Mon-Fri", "time": "3:45pm"}, {"days": "Sat", "time": "2:00pm"}, {"days": "Sun", "time": "Closed"}], "id": "2111300014", "name": "USPS COLLECTION BOX - BLUE BOX", "address": {"city": "ODENTON", "state": "MD", "street": "N/A STRAWBERRY LAKE WAY", "postcode": "21113"}}},
{"geometry": {"type": "Point", "coordinates": [-76.6904302279, 39.0820332025]}, "type": "Feature", "properties": {"collection_times": [{"days": "Mon-Fri", "time": "5:00pm"}, {"days": "Sat", "time": "2:45pm"}, {"days": "Sun", "time": "Closed"}], "id": "2111300015", "name": "USPS COLLECTION BOX - PO LOBBY", "address": {"city": "ODENTON", "state": "MD", "street": "1177 ANNAPOLIS RD", "postcode": "21113"}}},
{"geometry": {"type": "Point", "coordinates": [-76.7085652246, 39.0903151667]}, "type": "Feature", "properties": {"collection_times": [{"days": "Mon-Fri", "time": "4:15pm"}, {"days": "Sat-Sun", "time": "Closed"}], "id": "2111300016", "name": "USPS COLLECTION BOX - BLUE BOX", "address": {"city": "ODENTON", "state": "MD", "street": "1413 ANNAPOLIS RD", "postcode": "21113"}}},
{"geometry": {"type": "Point", "coordinates": [-76.6904302279, 39.0820332025]}, "type": "Feature", "properties": {"collection_times": [{"days": "Mon-Fri", "time": "5:00pm"}, {"days": "Sat", "time": "2:45pm"}, {"days": "Sun", "time": "Closed"}], "id": "2111300018", "name": "USPS COLLECTION BOX - PO LOBBY", "address": {"city": "ODENTON", "state": "MD", "street": "1177 ANNAPOLIS RD", "postcode": "21113"}}},
{"geometry": {"type": "Point", "coordinates": [-76.6904302279, 39.0820332025]}, "type": "Feature", "properties": {"collection_times": [{"days": "Mon-Fri", "time": "5:00pm"}, {"days": "Sat", "time": "2:45pm"}, {"days": "Sun", "time": "Closed"}], "id": "2111300019", "name": "USPS COLLECTION BOX - PO LOBBY", "address": {"city": "ODENTON", "state": "MD", "street": "1177 ANNAPOLIS RD", "postcode": "21113"}}},
{"geometry": {"type": "Point", "coordinates": [-76.6853291522, 39.0109403591]}, "type": "Feature", "properties": {"collection_times": [{"days": "Mon-Sat", "time": "5:00pm"}, {"days": "Sun", "time": "Closed"}], "id": "2111400001", "name": "USPS COLLECTION BOX - EXPRESS", "address": {"city": "CROFTON", "state": "MD", "street": "1296 CRONSON BLVD", "postcode": "21114"}}},
{"geometry": {"type": "Point", "coordinates": [-76.6969450544, 39.0042580331]}, "type": "Feature", "properties": {"collection_times": [{"days": "Mon-Fri", "time": "4:15pm"}, {"days": "Sat", "time": "1:15pm"}, {"days": "Sun", "time": "Closed"}], "id": "2111400002", "name": "USPS COLLECTION BOX - BLUE BOX", "address": {"city": "CROFTON", "state": "MD", "street": "1691 CROFTON PKWY", "postcode": "21114"}}},
{"geometry": {"type": "Point", "coordinates": [-76.7019064489, 38.9916162514]}, "type": "Feature", "properties": {"collection_times": [{"days": "Mon-Fri", "time": "4:00pm"}, {"days": "Sat", "time": "1:00pm"}, {"days": "Sun", "time": "Closed"}], "id": "2111400003", "name": "USPS COLLECTION BOX - BLUE BOX", "address": {"city": "CROFTON", "state": "MD", "street": "2211 DEFENSE HWY", "postcode": "21114"}}},
{"geometry": {"type": "Point", "coordinates": [-76.6853291522, 39.0109403591]}, "type": "Feature", "properties": {"collection_times": [{"days": "Mon-Fri", "time": "4:05pm"}, {"days": "Sat", "time": "1:05pm"}, {"days": "Sun", "time": "Closed"}], "id": "2111400004", "name": "USPS COLLECTION BOX - EXPRESS", "address": {"city": "CROFTON", "state": "MD", "street": "2110 PRIESTBRIDGE DR", "postcode": "21114"}}},
{"geometry": {"type": "Point", "coordinates": [-76.6952138403, 38.9915426321]}, "type": "Feature", "properties": {"collection_times": [{"days": "Mon-Fri", "time": "4:05pm"}, {"days": "Sat", "time": "1:10pm"}, {"days": "Sun", "time": "Closed"}], "id": "2111400005", "name": "USPS COLLECTION BOX - BLUE BOX", "address": {"city": "CROFTON", "state": "MD", "street": "2111 BALDWIN AVE", "postcode": "21114"}}},
{"geometry": {"type": "Point", "coordinates": [-76.6816830278, 38.9985442333]}, "type": "Feature", "properties": {"collection_times": [{"days": "Mon-Fri", "time": "1:05pm"}, {"days": "Sat", "time": "1:15pm"}, {"days": "Sun", "time": "Closed"}], "id": "2111400006", "name": "USPS COLLECTION BOX - BLUE BOX", "address": {"city": "CROFTON", "state": "MD", "street": "1829 CROFTON PKWY", "postcode": "21114"}}},
{"geometry": {"type": "Point", "coordinates": [-76.6891868117, 39.0055988176]}, "type": "Feature", "properties": {"collection_times": [{"days": "Mon-Fri", "time": "1:20pm"}, {"days": "Sat", "time": "1:25pm"}, {"days": "Sun", "time": "Closed"}], "id": "2111400007", "name": "USPS COLLECTION BOX - BLUE BOX", "address": {"city": "CROFTON", "state": "MD", "street": "1577 ETON WAY", "postcode": "21114"}}},
{"geometry": {"type": "Point", "coordinates": [-76.6939888792, 39.0163860209]}, "type": "Feature", "properties": {"collection_times": [{"days": "Mon-Fri", "time": "4:30pm"}, {"days": "Sat", "time": "1:30pm"}, {"days": "Sun", "time": "Closed"}], "id": "2111400008", "name": "USPS COLLECTION BOX - BLUE BOX", "address": {"city": "CROFTON", "state": "MD", "street": "1649 CROFTON CTR", "postcode": "21114"}}},
{"geometry": {"type": "Point", "coordinates": [-76.6984009125, 39.0146617161]}, "type": "Feature", "properties": {"collection_times": [{"days": "Mon-Fri", "time": "4:40pm"}, {"days": "Sat", "time": "1:35pm"}, {"days": "Sun", "time": "Closed"}], "id": "2111400010", "name": "USPS COLLECTION BOX - BLUE BOX", "address": {"city": "CROFTON", "state": "MD", "street": "2411 CROFTON LN", "postcode": "21114"}}},
{"geometry": {"type": "Point", "coordinates": [-76.6994696863, 39.016195631]}, "type": "Feature", "properties": {"collection_times": [{"days": "Mon-Sat", "time": "5:00pm"}, {"days": "Sun", "time": "Closed"}], "id": "2111400013", "name": "USPS COLLECTION BOX - BLUE BOX", "address": {"city": "CROFTON", "state": "MD", "street": "1296 CRONSON BLVD", "postcode": "21114"}}},
{"geometry": {"type": "Point", "coordinates": [-76.6994696863, 39.016195631]}, "type": "Feature", "properties": {"collection_times": [{"days": "Mon-Sat", "time": "5:00pm"}, {"days": "Sun", "time": "Closed"}], "id": "2111400014", "name": "USPS COLLECTION BOX - BLUE BOX", "address": {"city": "CROFTON", "state": "MD", "street": "1296 CRONSON BLVD", "postcode": "21114"}}},
{"geometry": {"type": "Point", "coordinates": [-76.6982059984, 38.9908466475]}, "type": "Feature", "properties": {"collection_times": [{"days": "Mon-Fri", "time": "4:05pm"}, {"days": "Sat", "time": "1:05pm"}, {"days": "Sun", "time": "Closed"}], "id": "2111400015", "name": "USPS COLLECTION BOX - BLUE BOX", "address": {"city": "CROFTON", "state": "MD", "street": "2110 PRIEST BRIDGE DR", "postcode": "21114"}}},
{"geometry": {"type": "Point", "coordinates": [-76.6951788458, 39.0122221408]}, "type": "Feature", "properties": {"collection_times": [{"days": "Mon-Fri", "time": "1:15pm"}, {"days": "Sat", "time": "1:25pm"}, {"days": "Sun", "time": "Closed"}], "id": "2111400016", "name": "USPS COLLECTION BOX - BLUE BOX", "address": {"city": "CROFTON", "state": "MD", "street": "1668 CARLYLE DR", "postcode": "21114"}}},
{"geometry": {"type": "Point", "coordinates": [-76.6996188932, 38.9920503134]}, "type": "Feature", "properties": {"collection_times": [{"days": "Mon-Fri", "time": "4:10pm"}, {"days": "Sat", "time": "1:10pm"}, {"days": "Sun", "time": "Closed"}], "id": "2111400017", "name": "USPS COLLECTION BOX - BLUE BOX", "address": {"city": "CROFTON", "state": "MD", "street": "2200 DEFENSE HWY", "postcode": "21114"}}},
{"geometry": {"type": "Point", "coordinates": [-76.6969450544, 39.0042580331]}, "type": "Feature", "properties": {"collection_times": [{"days": "Mon-Fri", "time": "4:15pm"}, {"days": "Sat", "time": "1:15pm"}, {"days": "Sun", "time": "Closed"}], "id": "2111400018", "name": "USPS COLLECTION BOX - BLUE BOX", "address": {"city": "CROFTON", "state": "MD", "street": "1691 CROFTON PKWY", "postcode": "21114"}}},
{"geometry": {"type": "Point", "coordinates": [-76.6994696863, 39.016195631]}, "type": "Feature", "properties": {"collection_times": [{"days": "Mon-Fri", "time": "5:00pm"}, {"days": "Sat", "time": "1:45pm"}, {"days": "Sun", "time": "Closed"}], "id": "2111400019", "name": "USPS COLLECTION BOX - PO LOBBY", "address": {"city": "CROFTON", "state": "MD", "street": "1296 CRONSON BLVD", "postcode": "21114"}}},
{"geometry": {"type": "Point", "coordinates": [-76.6994696863, 39.016195631]}, "type": "Feature", "properties": {"collection_times": [{"days": "Mon-Fri", "time": "5:00pm"}, {"days": "Sat", "time": "1:45pm"}, {"days": "Sun", "time": "Closed"}], "id": "2111400020", "name": "USPS COLLECTION BOX - PO LOBBY", "address": {"city": "CROFTON", "state": "MD", "street": "1296 CRONSON BLVD", "postcode": "21114"}}},
{"geometry": {"type": "Point", "coordinates": [-76.6783695587, 39.0135346772]}, "type": "Feature", "properties": {"collection_times": [{"days": "Mon-Fri", "time": "1:25pm"}, {"days": "Sat", "time": "1:50pm"}, {"days": "Sun", "time": "Closed"}], "id": "2111400021", "name": "USPS COLLECTION BOX - BLUE BOX", "address": {"city": "CROFTON", "state": "MD", "street": "2225 ABERDEEN DR", "postcode": "21114"}}},
{"geometry": {"type": "Point", "coordinates": [-76.6843455725, 39.0096039243]}, "type": "Feature", "properties": {"collection_times": [{"days": "Mon-Fri", "time": "1:25pm"}, {"days": "Sat", "time": "1:50pm"}, {"days": "Sun", "time": "Closed"}], "id": "2111400022", "name": "USPS COLLECTION BOX - BLUE BOX", "address": {"city": "CROFTON", "state": "MD", "street": "1300 WELLFLEET LN", "postcode": "21114"}}},
{"geometry": {"type": "Point", "coordinates": [-76.7707076704, 39.4127256824]}, "type": "Feature", "properties": {"collection_times": [{"days": "Mon-Fri", "time": "12:00pm"}, {"days": "Sat", "time": "2:08pm"}, {"days": "Sun", "time": "Closed"}], "id": "2111700006", "name": "USPS COLLECTION BOX - BLUE BOX", "address": {"city": "OWINGS MILLS", "state": "MD", "street": "2 GARRISON VIEW RD", "postcode": "21117"}}},
{"geometry": {"type": "Point", "coordinates": [-76.75898, 39.40469]}, "type": "Feature", "properties": {"collection_times": [{"days": "Mon-Fri", "time": "1:30pm"}, {"days": "Sat", "time": "2:02pm"}, {"days": "Sun", "time": "Closed"}], "id": "2111700007", "name": "USPS COLLECTION BOX - BLUE BOX", "address": {"city": "OWINGS MILLS", "state": "MD", "street": "9616 REISTERSTOWN RD", "postcode": "21117"}}},
{"geometry": {"type": "Point", "coordinates": [-76.7831569861, 39.4277911229]}, "type": "Feature", "properties": {"collection_times": [{"days": "Mon-Fri", "time": "1:15pm"}, {"days": "Sat", "time": "2:16pm"}, {"days": "Sun", "time": "Closed"}], "id": "2111700008", "name": "USPS COLLECTION BOX - BLUE BOX", "address": {"city": "OWINGS MILLS", "state": "MD", "street": "25 CUE CT", "postcode": "21117"}}},
{"geometry": {"type": "Point", "coordinates": [-76.784584, 39.42361]}, "type": "Feature", "properties": {"collection_times": [{"days": "Mon-Fri", "time": "12:00pm"}, {"days": "Sat", "time": "2:18pm"}, {"days": "Sun", "time": "Closed"}], "id": "2111700009", "name": "USPS COLLECTION BOX - BLUE BOX", "address": {"city": "OWINGS MILLS", "state": "MD", "street": "12 STRAW HAT RD", "postcode": "21117"}}},
{"geometry": {"type": "Point", "coordinates": [-76.8026182407, 39.4377620297]}, "type": "Feature", "properties": {"collection_times": [{"days": "Mon-Fri", "time": "12:30pm"}, {"days": "Sat-Sun", "time": "Closed"}], "id": "2111700010", "name": "USPS COLLECTION BOX - BLUE BOX", "address": {"city": "OWINGS MILLS", "state": "MD", "street": "1 HIGHFALCON RD", "postcode": "21117"}}},
{"geometry": {"type": "Point", "coordinates": [-76.7990312104, 39.4434045855]}, "type": "Feature", "properties": {"collection_times": [{"days": "Mon-Fri", "time": "1:15pm"}, {"days": "Sat", "time": "2:24pm"}, {"days": "Sun", "time": "Closed"}], "id": "2111700011", "name": "USPS COLLECTION BOX - BLUE BOX", "address": {"city": "OWINGS MILLS", "state": "MD", "street": "400 HAMMERSHIRE RD", "postcode": "21117"}}},
{"geometry": {"type": "Point", "coordinates": [-76.7859358547, 39.4172257036]}, "type": "Feature", "properties": {"collection_times": [{"days": "Mon-Fri", "time": "12:45pm"}, {"days": "Sat", "time": "2:30pm"}, {"days": "Sun", "time": "Closed"}], "id": "2111700014", "name": "USPS COLLECTION BOX - BLUE BOX", "address": {"city": "OWINGS MILLS", "state": "MD", "street": "15 S RITTERS LN", "postcode": "21117"}}},
{"geometry": {"type": "Point", "coordinates": [-76.7745463743, 39.4197165431]}, "type": "Feature", "properties": {"collection_times": [{"days": "Mon-Fri", "time": "12:00pm"}, {"days": "Sat", "time": "2:27pm"}, {"days": "Sun", "time": "Closed"}], "id": "2111700015", "name": "USPS COLLECTION BOX - BLUE BOX", "address": {"city": "OWINGS MILLS", "state": "MD", "street": "12 BITTERROOT CT", "postcode": "21117"}}},
{"geometry": {"type": "Point", "coordinates": [-76.7976819617, 39.4338272771]}, "type": "Feature", "properties": {"collection_times": [{"days": "Mon-Fri", "time": "12:15pm"}, {"days": "Sat", "time": "2:27pm"}, {"days": "Sun", "time": "Closed"}], "id": "2111700018", "name": "USPS COLLECTION BOX - BLUE BOX", "address": {"city": "OWINGS MILLS", "state": "MD", "street": "11201 REISTERSTOWN RD", "postcode": "21117"}}},
{"geometry": {"type": "Point", "coordinates": [-76.7475701295, 39.39910987]}, "type": "Feature", "properties": {"collection_times": [{"days": "Mon-Fri", "time": "12:00pm"}, {"days": "Sat", "time": "2:00pm"}, {"days": "Sun", "time": "Closed"}], "id": "2111700019", "name": "USPS COLLECTION BOX - BLUE BOX", "address": {"city": "OWINGS MILLS", "state": "MD", "street": "9301 COUNTESS DR", "postcode": "21117"}}},
{"geometry": {"type": "Point", "coordinates": [-76.7474860822, 39.3962667432]}, "type": "Feature", "properties": {"collection_times": [{"days": "Mon-Fri", "time": "4:10pm"}, {"days": "Sat", "time": "2:06pm"}, {"days": "Sun", "time": "Closed"}], "id": "2111700020", "name": "USPS COLLECTION BOX - BLUE BOX", "address": {"city": "OWINGS MILLS", "state": "MD", "street": "9101 REISTERSTOWN RD", "postcode": "21117"}}},
{"geometry": {"type": "Point", "coordinates": [-76.7937189201, 39.4062536864]}, "type": "Feature", "properties": {"collection_times": [{"days": "Mon-Fri", "time": "2:00pm"}, {"days": "Sat-Sun", "time": "Closed"}], "id": "2111700025", "name": "USPS COLLECTION BOX - BLUE BOX", "address": {"city": "OWINGS MILLS", "state": "MD", "street": "10451 MILL RUN CIR", "postcode": "21117"}}},
{"geometry": {"type": "Point", "coordinates": [-76.7880805593, 39.4077596659]}, "type": "Feature", "properties": {"collection_times": [{"days": "Mon-Fri", "time": "4:00pm"}, {"days": "Sat-Sun", "time": "Closed"}], "id": "2111700027", "name": "USPS COLLECTION BOX - BLUE BOX", "address": {"city": "OWINGS MILLS", "state": "MD", "street": "10461 MILL RUN CIR", "postcode": "21117"}}},
{"geometry": {"type": "Point", "coordinates": [-76.7699557506, 39.4121336594]}, "type": "Feature", "properties": {"collection_times": [{"days": "Mon-Fri", "time": "4:00pm"}, {"days": "Sat", "time": "2:00pm"}, {"days": "Sun", "time": "Closed"}], "id": "2111700029", "name": "USPS COLLECTION BOX - BLUE BOX", "address": {"city": "OWINGS MILLS", "state": "MD", "street": "9938 REISTERSTOWN RD", "postcode": "21117"}}},
{"geometry": {"type": "Point", "coordinates": [-76.7526422879, 39.3978336197]}, "type": "Feature", "properties": {"collection_times": [{"days": "Mon-Fri", "time": "4:00pm"}, {"days": "Sat-Sun", "time": "Closed"}], "id": "2111700031", "name": "USPS COLLECTION BOX - BLUE BOX", "address": {"city": "OWINGS MILLS", "state": "MD", "street": "23 CROSSROADS DR", "postcode": "21117"}}},
{"geometry": {"type": "Point", "coordinates": [-76.7765517183, 39.4379405731]}, "type": "Feature", "properties": {"collection_times": [{"days": "Mon-Fri", "time": "4:30pm"}, {"days": "Sat", "time": "2:30pm"}, {"days": "Sun", "time": "Closed"}], "id": "2111700032", "name": "USPS COLLECTION BOX - BLUE BOX", "address": {"city": "OWINGS MILLS", "state": "MD", "street": "11438 CRONRIDGE DR", "postcode": "21117"}}},
{"geometry": {"type": "Point", "coordinates": [-76.7726980847, 39.4355592027]}, "type": "Feature", "properties": {"collection_times": [{"days": "Mon-Fri", "time": "4:40pm"}, {"days": "Sat", "time": "2:30pm"}, {"days": "Sun", "time": "Closed"}], "id": "2111700033", "name": "USPS COLLECTION BOX - BLUE BOX", "address": {"city": "OWINGS MILLS", "state": "MD", "street": "11400 CRONHILL DR", "postcode": "21117"}}},
{"geometry": {"type": "Point", "coordinates": [-76.7535298768, 39.3993819506]}, "type": "Feature", "properties": {"collection_times": [{"days": "Mon-Fri", "time": "4:01pm"}, {"days": "Sat-Sun", "time": "Closed"}], "id": "2111700044", "name": "USPS COLLECTION BOX - BLUE BOX", "address": {"city": "OWINGS MILLS", "state": "MD", "street": "4 PARK CENTER CT", "postcode": "21117"}}},
{"geometry": {"type": "Point", "coordinates": [-76.7527609535, 39.398013267]}, "type": "Feature", "properties": {"collection_times": [{"days": "Mon-Fri", "time": "3:55pm"}, {"days": "Sat-Sun", "time": "Closed"}], "id": "2111700045", "name": "USPS COLLECTION BOX - BLUE BOX", "address": {"city": "OWINGS MILLS", "state": "MD", "street": "20 CROSSROADS DR", "postcode": "21117"}}},
{"geometry": {"type": "Point", "coordinates": [-76.7804138022, 39.4131468611]}, "type": "Feature", "properties": {"collection_times": [{"days": "Mon-Fri", "time": "4:30pm"}, {"days": "Sat-Sun", "time": "Closed"}], "id": "2111700050", "name": "USPS COLLECTION BOX - BLUE BOX", "address": {"city": "OWINGS MILLS", "state": "MD", "street": "10221 S DOLFIELD RD", "postcode": "21117"}}},
{"geometry": {"type": "Point", "coordinates": [-76.809914763, 39.4054488194]}, "type": "Feature", "properties": {"collection_times": [{"days": "Mon-Fri", "time": "4:10pm"}, {"days": "Sat", "time": "3:45pm"}, {"days": "Sun", "time": "Closed"}], "id": "2111700054", "name": "USPS COLLECTION BOX - BLUE BOX", "address": {"city": "OWINGS MILLS", "state": "MD", "street": "9724 GROFFS MILL DR", "postcode": "21117"}}},
{"geometry": {"type": "Point", "coordinates": [-76.77176, 39.45956]}, "type": "Feature", "properties": {"collection_times": [{"days": "Mon-Fri", "time": "12:15pm"}, {"days": "Sat", "time": "3:30pm"}, {"days": "Sun", "time": "Closed"}], "id": "2111700056", "name": "USPS COLLECTION BOX - BLUE BOX", "address": {"city": "OWINGS MILLS", "state": "MD", "street": "3500 AVERY HILL DR", "postcode": "21117"}}},
{"geometry": {"type": "Point", "coordinates": [-76.81692, 39.39921]}, "type": "Feature", "properties": {"collection_times": [{"days": "Mon-Fri", "time": "4:15pm"}, {"days": "Sat", "time": "3:45pm"}, {"days": "Sun", "time": "Closed"}], "id": "2111700057", "name": "USPS COLLECTION BOX - BLUE BOX", "address": {"city": "OWINGS MILLS", "state": "MD", "street": "4700 NEW TOWN BLVD", "postcode": "21117"}}},
{"geometry": {"type": "Point", "coordinates": [-76.7765517183, 39.4379405731]}, "type": "Feature", "properties": {"collection_times": [{"days": "Mon-Fri", "time": "4:30pm"}, {"days": "Sat", "time": "3:30pm"}, {"days": "Sun", "time": "Closed"}], "id": "2111700059", "name": "USPS COLLECTION BOX - BLUE BOX", "address": {"city": "OWINGS MILLS", "state": "MD", "street": "11438 CRONRIDGE DR", "postcode": "21117"}}},
{"geometry": {"type": "Point", "coordinates": [-76.802069049, 39.4209342799]}, "type": "Feature", "properties": {"collection_times": [{"days": "Mon-Fri", "time": "4:45pm"}, {"days": "Sat", "time": "1:30pm"}, {"days": "Sun", "time": "Closed"}], "id": "2111700060", "name": "USPS COLLECTION BOX - PO LOBBY", "address": {"city": "OWINGS MILLS", "state": "MD", "street": "10821 RED RUN BLVD", "postcode": "21117"}}},
{"geometry": {"type": "Point", "coordinates": [-76.802069049, 39.4209342799]}, "type": "Feature", "properties": {"collection_times": [{"days": "Mon-Fri", "time": "4:45pm"}, {"days": "Sat", "time": "1:30pm"}, {"days": "Sun", "time": "Closed"}], "id": "2111700061", "name": "USPS COLLECTION BOX - PO LOBBY", "address": {"city": "OWINGS MILLS", "state": "MD", "street": "10821 RED RUN BLVD", "postcode": "21117"}}},
{"geometry": {"type": "Point", "coordinates": [-76.7804942434, 39.4347441429]}, "type": "Feature", "properties": {"collection_times": [{"days": "Mon-Fri", "time": "4:35pm"}, {"days": "Sat", "time": "3:00pm"}, {"days": "Sun", "time": "Closed"}], "id": "2111700062", "name": "USPS COLLECTION BOX - BLUE BOX", "address": {"city": "OWINGS MILLS", "state": "MD", "street": "11299 OWINGS MILLS BLVD", "postcode": "21117"}}},
{"geometry": {"type": "Point", "coordinates": [-76.802069049, 39.4209342799]}, "type": "Feature", "properties": {"collection_times": [{"days": "Mon-Fri", "time": "4:45pm"}, {"days": "Sat", "time": "3:00pm"}, {"days": "Sun", "time": "Closed"}], "id": "2111700064", "name": "USPS COLLECTION BOX - BLUE BOX", "address": {"city": "OWINGS MILLS", "state": "MD", "street": "10821 RED RUN BLVD", "postcode": "21117"}}},
{"geometry": {"type": "Point", "coordinates": [-76.802069049, 39.4209342799]}, "type": "Feature", "properties": {"collection_times": [{"days": "Mon-Fri", "time": "4:45pm"}, {"days": "Sat", "time": "3:00pm"}, {"days": "Sun", "time": "Closed"}], "id": "2111700065", "name": "USPS COLLECTION BOX - BLUE BOX", "address": {"city": "OWINGS MILLS", "state": "MD", "street": "10821 RED RUN BLVD", "postcode": "21117"}}},
{"geometry": {"type": "Point", "coordinates": [-76.7854858739, 39.4174721087]}, "type": "Feature", "properties": {"collection_times": [{"days": "Mon-Fri", "time": "4:45pm"}, {"days": "Sat", "time": "3:00pm"}, {"days": "Sun", "time": "Closed"}], "id": "2111700066", "name": "USPS COLLECTION BOX - EXPRESS", "address": {"city": "OWINGS MILLS", "state": "MD", "street": "10821 RED RUN BLVD", "postcode": "21117"}}},
{"geometry": {"type": "Point", "coordinates": [-76.7775699381, 39.4177164255]}, "type": "Feature", "properties": {"collection_times": [{"days": "Mon-Fri", "time": "12:00pm"}, {"days": "Sat", "time": "2:15pm"}, {"days": "Sun", "time": "Closed"}], "id": "2111700067", "name": "USPS COLLECTION BOX - BLUE BOX", "address": {"city": "OWINGS MILLS", "state": "MD", "street": "10347 REISTERSTOWN RD", "postcode": "21117"}}},
{"geometry": {"type": "Point", "coordinates": [-76.7870667635, 39.3964103576]}, "type": "Feature", "properties": {"collection_times": [{"days": "Mon-Fri", "time": "12:45pm"}, {"days": "Sat", "time": "2:00pm"}, {"days": "Sun", "time": "Closed"}], "id": "2111700068", "name": "USPS COLLECTION BOX - BLUE BOX", "address": {"city": "OWINGS MILLS", "state": "MD", "street": "4555 PAINTERS MILL RD", "postcode": "21117"}}},
{"geometry": {"type": "Point", "coordinates": [-76.802069049, 39.4209342799]}, "type": "Feature", "properties": {"collection_times": [{"days": "Mon-Fri", "time": "4:45pm"}, {"days": "Sat", "time": "1:30pm"}, {"days": "Sun", "time": "Closed"}], "id": "2111700069", "name": "USPS COLLECTION BOX - APC", "address": {"city": "OWINGS MILLS", "state": "MD", "street": "10821 RED RUN BLVD", "postcode": "21117"}}},
{"geometry": {"type": "Point", "coordinates": [-76.7804138022, 39.4131468611]}, "type": "Feature", "properties": {"collection_times": [{"days": "Mon-Fri", "time": "4:30pm"}, {"days": "Sat-Sun", "time": "Closed"}], "id": "2111700070", "name": "USPS COLLECTION BOX - BLUE BOX", "address": {"city": "OWINGS MILLS", "state": "MD", "street": "10221 S DOLFIELD RD", "postcode": "21117"}}},
{"geometry": {"type": "Point", "coordinates": [-76.6561331765, 39.6535019199]}, "type": "Feature", "properties": {"collection_times": [{"days": "Mon-Fri", "time": "4:30pm"}, {"days": "Sat", "time": "1:00pm"}, {"days": "Sun", "time": "Closed"}], "id": "2112000001", "name": "USPS COLLECTION BOX - BLUE BOX", "address": {"city": "PARKTON", "state": "MD", "street": "645 HAPPY LN", "postcode": "21120"}}},
{"geometry": {"type": "Point", "coordinates": [-76.6698142368, 39.5911147566]}, "type": "Feature", "properties": {"collection_times": [{"days": "Mon-Sat", "time": "10:00am"}, {"days": "Sun", "time": "Closed"}], "id": "2112000002", "name": "USPS COLLECTION BOX - BLUE BOX", "address": {"city": "PARKTON", "state": "MD", "street": "212 MOUNT CARMEL RD", "postcode": "21120"}}},
{"geometry": {"type": "Point", "coordinates": [-76.6561331765, 39.6535019199]}, "type": "Feature", "properties": {"collection_times": [{"days": "Mon-Fri", "time": "4:45pm"}, {"days": "Sat", "time": "1:00pm"}, {"days": "Sun", "time": "Closed"}], "id": "2112000004", "name": "USPS COLLECTION BOX - PO LOBBY", "address": {"city": "PARKTON", "state": "MD", "street": "645 HAPPY LN", "postcode": "21120"}}},
{"geometry": {"type": "Point", "coordinates": [-76.6561331765, 39.6535019199]}, "type": "Feature", "properties": {"collection_times": [{"days": "Mon-Fri", "time": "4:45pm"}, {"days": "Sat", "time": "1:00pm"}, {"days": "Sun", "time": "Closed"}], "id": "2112000005", "name": "USPS COLLECTION BOX - PO LOBBY", "address": {"city": "PARKTON", "state": "MD", "street": "645 HAPPY LN", "postcode": "21120"}}},
{"geometry": {"type": "Point", "coordinates": [-76.519297802, 39.1274125765]}, "type": "Feature", "properties": {"collection_times": [{"days": "Mon-Fri", "time": "5:00pm"}, {"days": "Sat", "time": "2:30pm"}, {"days": "Sun", "time": "Closed"}], "id": "2112200001", "name": "USPS COLLECTION BOX - EXPRESS", "address": {"city": "PASADENA", "state": "MD", "street": "4301 MOUNTAIN RD", "postcode": "21122"}}},
{"geometry": {"type": "Point", "coordinates": [-76.5321051393, 39.1230735265]}, "type": "Feature", "properties": {"collection_times": [{"days": "Mon-Sat", "time": "2:30pm"}, {"days": "Sun", "time": "Closed"}], "id": "2112200003", "name": "USPS COLLECTION BOX - BLUE BOX", "address": {"city": "PASADENA", "state": "MD", "street": "600 DEERING RD", "postcode": "21122"}}},
{"geometry": {"type": "Point", "coordinates": [-76.505835302, 39.1221656169]}, "type": "Feature", "properties": {"collection_times": [{"days": "Mon-Fri", "time": "3:45pm"}, {"days": "Sat", "time": "1:30pm"}, {"days": "Sun", "time": "Closed"}], "id": "2112200005", "name": "USPS COLLECTION BOX - BLUE BOX", "address": {"city": "PASADENA", "state": "MD", "street": "8477 RIVIERA PLZ", "postcode": "21122"}}},
{"geometry": {"type": "Point", "coordinates": [-76.5174952201, 39.1487629555]}, "type": "Feature", "properties": {"collection_times": [{"days": "Mon-Sat", "time": "1:30pm"}, {"days": "Sun", "time": "Closed"}], "id": "2112200007", "name": "USPS COLLECTION BOX - BLUE BOX", "address": {"city": "PASADENA", "state": "MD", "street": "137 JACKPINE DR", "postcode": "21122"}}},
{"geometry": {"type": "Point", "coordinates": [-76.5252291166, 39.1440795189]}, "type": "Feature", "properties": {"collection_times": [{"days": "Mon-Fri", "time": "3:45pm"}, {"days": "Sat", "time": "1:30pm"}, {"days": "Sun", "time": "Closed"}], "id": "2112200008", "name": "USPS COLLECTION BOX - BLUE BOX", "address": {"city": "PASADENA", "state": "MD", "street": "8707 FORT SMALLWOOD RD", "postcode": "21122"}}},
{"geometry": {"type": "Point", "coordinates": [-76.5696601989, 39.1040183903]}, "type": "Feature", "properties": {"collection_times": [{"days": "Mon-Fri", "time": "4:30pm"}, {"days": "Sat", "time": "2:00pm"}, {"days": "Sun", "time": "Closed"}], "id": "2112200009", "name": "USPS COLLECTION BOX - BLUE BOX", "address": {"city": "PASADENA", "state": "MD", "street": "75 RITCHIE HWY", "postcode": "21122"}}},
{"geometry": {"type": "Point", "coordinates": [-76.5797142261, 39.1333529168]}, "type": "Feature", "properties": {"collection_times": [{"days": "Mon-Fri", "time": "4:45pm"}, {"days": "Sat", "time": "2:15pm"}, {"days": "Sun", "time": "Closed"}], "id": "2112200010", "name": "USPS COLLECTION BOX - BLUE BOX", "address": {"city": "PASADENA", "state": "MD", "street": "125 MOUNTAIN RD", "postcode": "21122"}}},
{"geometry": {"type": "Point", "coordinates": [-76.519297802, 39.1274125765]}, "type": "Feature", "properties": {"collection_times": [{"days": "Mon-Fri", "time": "4:30pm"}, {"days": "Sat", "time": "2:15pm"}, {"days": "Sun", "time": "Closed"}], "id": "2112200013", "name": "USPS COLLECTION BOX - EXPRESS", "address": {"city": "PASADENA", "state": "MD", "street": "8028 RITCHIE HWY", "postcode": "21122"}}},
{"geometry": {"type": "Point", "coordinates": [-76.5079864353, 39.1613406236]}, "type": "Feature", "properties": {"collection_times": [{"days": "Mon-Sat", "time": "1:30pm"}, {"days": "Sun", "time": "Closed"}], "id": "2112200016", "name": "USPS COLLECTION BOX - BLUE BOX", "address": {"city": "PASADENA", "state": "MD", "street": "8546 MAIN AVE", "postcode": "21122"}}},
{"geometry": {"type": "Point", "coordinates": [-76.5186691417, 39.1591999306]}, "type": "Feature", "properties": {"collection_times": [{"days": "Mon-Fri", "time": "1:45pm"}, {"days": "Sat", "time": "1:30pm"}, {"days": "Sun", "time": "Closed"}], "id": "2112200019", "name": "USPS COLLECTION BOX - BLUE BOX", "address": {"city": "PASADENA", "state": "MD", "street": "8480 FORT SMALLWOOD RD", "postcode": "21122"}}},
{"geometry": {"type": "Point", "coordinates": [-76.5180582229, 39.1568668033]}, "type": "Feature", "properties": {"collection_times": [{"days": "Mon-Fri", "time": "5:00pm"}, {"days": "Sat", "time": "1:45pm"}, {"days": "Sun", "time": "Closed"}], "id": "2112200020", "name": "USPS COLLECTION BOX - BLUE BOX", "address": {"city": "PASADENA", "state": "MD", "street": "8489 RUGBY RD", "postcode": "21122"}}},
{"geometry": {"type": "Point", "coordinates": [-76.505835302, 39.1221656169]}, "type": "Feature", "properties": {"collection_times": [{"days": "Mon-Fri", "time": "5:00pm"}, {"days": "Sat", "time": "12:30pm"}, {"days": "Sun", "time": "Closed"}], "id": "2112200021", "name": "USPS COLLECTION BOX - BLUE BOX", "address": {"city": "PASADENA", "state": "MD", "street": "534 BROADWATER WAY", "postcode": "21122"}}},
{"geometry": {"type": "Point", "coordinates": [-76.4732794474, 39.1041177531]}, "type": "Feature", "properties": {"collection_times": [{"days": "Mon-Fri", "time": "3:30pm"}, {"days": "Sat", "time": "1:15pm"}, {"days": "Sun", "time": "Closed"}], "id": "2112200022", "name": "USPS COLLECTION BOX - BLUE BOX", "address": {"city": "PASADENA", "state": "MD", "street": "4730 MOUNTAIN RD", "postcode": "21122"}}},
{"geometry": {"type": "Point", "coordinates": [-76.5481524963, 39.1287513156]}, "type": "Feature", "properties": {"collection_times": [{"days": "Mon-Fri", "time": "2:15pm"}, {"days": "Sat", "time": "2:30pm"}, {"days": "Sun", "time": "Closed"}], "id": "2112200023", "name": "USPS COLLECTION BOX - BLUE BOX", "address": {"city": "PASADENA", "state": "MD", "street": "2435 MOUNTAIN RD", "postcode": "21122"}}},
{"geometry": {"type": "Point", "coordinates": [-76.5120074831, 39.1210882907]}, "type": "Feature", "properties": {"collection_times": [{"days": "Mon-Fri", "time": "5:00pm"}, {"days": "Sat", "time": "2:30pm"}, {"days": "Sun", "time": "Closed"}], "id": "2112200025", "name": "USPS COLLECTION BOX - BLUE BOX", "address": {"city": "PASADENA", "state": "MD", "street": "4301 MOUNTAIN RD", "postcode": "21122"}}},
{"geometry": {"type": "Point", "coordinates": [-76.5120074831, 39.1210882907]}, "type": "Feature", "properties": {"collection_times": [{"days": "Mon-Fri", "time": "5:00pm"}, {"days": "Sat", "time": "2:30pm"}, {"days": "Sun", "time": "Closed"}], "id": "2112200026", "name": "USPS COLLECTION BOX - BLUE BOX", "address": {"city": "PASADENA", "state": "MD", "street": "4301 MOUNTAIN RD", "postcode": "21122"}}},
{"geometry": {"type": "Point", "coordinates": [-76.5881853363, 39.1245569238]}, "type": "Feature", "properties": {"collection_times": [{"days": "Mon-Fri", "time": "4:30pm"}, {"days": "Sat", "time": "2:00pm"}, {"days": "Sun", "time": "Closed"}], "id": "2112200027", "name": "USPS COLLECTION BOX - BLUE BOX", "address": {"city": "PASADENA", "state": "MD", "street": "8125 RITCHIE HWY", "postcode": "21122"}}},
{"geometry": {"type": "Point", "coordinates": [-76.5927553806, 39.1292282642]}, "type": "Feature", "properties": {"collection_times": [{"days": "Mon-Fri", "time": "4:30pm"}, {"days": "Sat", "time": "2:00pm"}, {"days": "Sun", "time": "Closed"}], "id": "2112200028", "name": "USPS COLLECTION BOX - BLUE BOX", "address": {"city": "PASADENA", "state": "MD", "street": "8028 RITCHIE HWY", "postcode": "21122"}}},
{"geometry": {"type": "Point", "coordinates": [-76.5927553806, 39.1292282642]}, "type": "Feature", "properties": {"collection_times": [{"days": "Mon-Fri", "time": "4:30pm"}, {"days": "Sat", "time": "2:00pm"}, {"days": "Sun", "time": "Closed"}], "id": "2112200029", "name": "USPS COLLECTION BOX - BLUE BOX", "address": {"city": "PASADENA", "state": "MD", "street": "8028 RITCHIE HWY", "postcode": "21122"}}},
{"geometry": {"type": "Point", "coordinates": [-76.5176008464, 39.1564821449]}, "type": "Feature", "properties": {"collection_times": [{"days": "Mon-Fri", "time": "5:00pm"}, {"days": "Sat", "time": "1:45pm"}, {"days": "Sun", "time": "Closed"}], "id": "2112200030", "name": "USPS COLLECTION BOX - BLUE BOX", "address": {"city": "PASADENA", "state": "MD", "street": "8489 RUGBY RD", "postcode": "21122"}}},
{"geometry": {"type": "Point", "coordinates": [-76.5120074831, 39.1210882907]}, "type": "Feature", "properties": {"collection_times": [{"days": "Mon-Fri", "time": "5:00pm"}, {"days": "Sat", "time": "2:30pm"}, {"days": "Sun", "time": "Closed"}], "id": "2112200031", "name": "USPS COLLECTION BOX - PO LOBBY", "address": {"city": "PASADENA", "state": "MD", "street": "4301 MOUNTAIN RD", "postcode": "21122"}}},
{"geometry": {"type": "Point", "coordinates": [-76.5176008464, 39.1564821449]}, "type": "Feature", "properties": {"collection_times": [{"days": "Mon-Fri", "time": "5:00pm"}, {"days": "Sat", "time": "1:45pm"}, {"days": "Sun", "time": "Closed"}], "id": "2112200032", "name": "USPS COLLECTION BOX - PO LOBBY", "address": {"city": "PASADENA", "state": "MD", "street": "8489 RUGBY RD", "postcode": "21122"}}},
{"geometry": {"type": "Point", "coordinates": [-76.5176008464, 39.1564821449]}, "type": "Feature", "properties": {"collection_times": [{"days": "Mon-Fri", "time": "5:00pm"}, {"days": "Sat", "time": "1:45pm"}, {"days": "Sun", "time": "Closed"}], "id": "2112200033", "name": "USPS COLLECTION BOX - PO LOBBY", "address": {"city": "PASADENA", "state": "MD", "street": "8489 RUGBY RD", "postcode": "21122"}}},
{"geometry": {"type": "Point", "coordinates": [-76.5120074831, 39.1210882907]}, "type": "Feature", "properties": {"collection_times": [{"days": "Mon-Fri", "time": "5:00pm"}, {"days": "Sat", "time": "2:30pm"}, {"days": "Sun", "time": "Closed"}], "id": "2112200034", "name": "USPS COLLECTION BOX - PO LOBBY", "address": {"city": "PASADENA", "state": "MD", "street": "4301 MOUNTAIN RD", "postcode": "21122"}}},
{"geometry": {"type": "Point", "coordinates": [-76.5120074831, 39.1210882907]}, "type": "Feature", "properties": {"collection_times": [{"days": "Mon-Fri", "time": "5:00pm"}, {"days": "Sat", "time": "2:30pm"}, {"days": "Sun", "time": "Closed"}], "id": "2112200035", "name": "USPS COLLECTION BOX - APC", "address": {"city": "PASADENA", "state": "MD", "street": "4301 MOUNTAIN RD", "postcode": "21122"}}},
{"geometry": {"type": "Point", "coordinates": [-76.4876512115, 39.3927163896]}, "type": "Feature", "properties": {"collection_times": [{"days": "Mon-Fri", "time": "4:45pm"}, {"days": "Sat", "time": "12:15pm"}, {"days": "Sun", "time": "Closed"}], "id": "2112800000", "name": "USPS COLLECTION BOX - PO LOBBY", "address": {"city": "PERRY HALL", "state": "MD", "street": "8744 BELAIR RD", "postcode": "21128"}}},
{"geometry": {"type": "Point", "coordinates": [-76.4876512115, 39.3927163896]}, "type": "Feature", "properties": {"collection_times": [{"days": "Mon-Fri", "time": "4:45pm"}, {"days": "Sat", "time": "12:15pm"}, {"days": "Sun", "time": "Closed"}], "id": "2112800001", "name": "USPS COLLECTION BOX - PO LOBBY", "address": {"city": "PERRY HALL", "state": "MD", "street": "8744 BELAIR RD", "postcode": "21128"}}},
{"geometry": {"type": "Point", "coordinates": [-76.2021025081, 39.4665051402]}, "type": "Feature", "properties": {"collection_times": [{"days": "Mon-Fri", "time": "4:00pm"}, {"days": "Sat", "time": "11:30am"}, {"days": "Sun", "time": "Closed"}], "id": "2113000000", "name": "USPS COLLECTION BOX - BLUE BOX", "address": {"city": "PERRYMAN", "state": "MD", "street": "428 MICHAELSVILLE RD", "postcode": "21130"}}},
{"geometry": {"type": "Point", "coordinates": [-76.2021025081, 39.4665051402]}, "type": "Feature", "properties": {"collection_times": [{"days": "Mon-Fri", "time": "4:00pm"}, {"days": "Sat", "time": "11:30am"}, {"days": "Sun", "time": "Closed"}], "id": "2113000001", "name": "USPS COLLECTION BOX - PO LOBBY", "address": {"city": "PERRYMAN", "state": "MD", "street": "428 MICHAELSVILLE RD", "postcode": "21130"}}},
{"geometry": {"type": "Point", "coordinates": [-76.2021025081, 39.4665051402]}, "type": "Feature", "properties": {"collection_times": [{"days": "Mon-Fri", "time": "4:00pm"}, {"days": "Sat", "time": "11:30am"}, {"days": "Sun", "time": "Closed"}], "id": "2113000002", "name": "USPS COLLECTION BOX - PO LOBBY", "address": {"city": "PERRYMAN", "state": "MD", "street": "428 MICHAELSVILLE RD", "postcode": "21130"}}},
{"geometry": {"type": "Point", "coordinates": [-76.5573875969, 39.5161771748]}, "type": "Feature", "properties": {"collection_times": [{"days": "Mon-Sat", "time": "10:00am"}, {"days": "Sun", "time": "Closed"}], "id": "2113100001", "name": "USPS COLLECTION BOX - BLUE BOX", "address": {"city": "PHOENIX", "state": "MD", "street": "3461 SWEET AIR RD", "postcode": "21131"}}},
{"geometry": {"type": "Point", "coordinates": [-76.5593235035, 39.5198331983]}, "type": "Feature", "properties": {"collection_times": [{"days": "Mon-Fri", "time": "5:00pm"}, {"days": "Sat", "time": "12:30pm"}, {"days": "Sun", "time": "Closed"}], "id": "2113100002", "name": "USPS COLLECTION BOX - BLUE BOX", "address": {"city": "PHOENIX", "state": "MD", "street": "14320 JARRETTSVILLE PIKE", "postcode": "21131"}}},
{"geometry": {"type": "Point", "coordinates": [-76.5593235035, 39.5198331983]}, "type": "Feature", "properties": {"collection_times": [{"days": "Mon-Fri", "time": "5:00pm"}, {"days": "Sat", "time": "12:30pm"}, {"days": "Sun", "time": "Closed"}], "id": "2113100003", "name": "USPS COLLECTION BOX - BLUE BOX", "address": {"city": "PHOENIX", "state": "MD", "street": "14320 JARRETTSVILLE PIKE", "postcode": "21131"}}},
{"geometry": {"type": "Point", "coordinates": [-76.5593235035, 39.5198331983]}, "type": "Feature", "properties": {"collection_times": [{"days": "Mon-Fri", "time": "5:00pm"}, {"days": "Sat", "time": "12:30pm"}, {"days": "Sun", "time": "Closed"}], "id": "2113100005", "name": "USPS COLLECTION BOX - PO LOBBY", "address": {"city": "PHOENIX", "state": "MD", "street": "14320 JARRETTSVILLE PIKE", "postcode": "21131"}}},
{"geometry": {"type": "Point", "coordinates": [-76.5593235035, 39.5198331983]}, "type": "Feature", "properties": {"collection_times": [{"days": "Mon-Fri", "time": "5:00pm"}, {"days": "Sat", "time": "12:30pm"}, {"days": "Sun", "time": "Closed"}], "id": "2113100006", "name": "USPS COLLECTION BOX - PO LOBBY", "address": {"city": "PHOENIX", "state": "MD", "street": "14320 JARRETTSVILLE PIKE", "postcode": "21131"}}},
{"geometry": {"type": "Point", "coordinates": [-76.5593946106, 39.5201330638]}, "type": "Feature", "properties": {"collection_times": [{"days": "Mon-Sat", "time": "12:00pm"}, {"days": "Sun", "time": "Closed"}], "id": "2113100007", "name": "USPS COLLECTION BOX - BLUE BOX", "address": {"city": "PHOENIX", "state": "MD", "street": "14330 JARRETTSVILLE PIKE", "postcode": "21131"}}},
{"geometry": {"type": "Point", "coordinates": [-76.3731233965, 39.6825279107]}, "type": "Feature", "properties": {"collection_times": [{"days": "Mon-Fri", "time": "3:45pm"}, {"days": "Sat", "time": "11:30am"}, {"days": "Sun", "time": "Closed"}], "id": "2113200002", "name": "USPS COLLECTION BOX - BLUE BOX", "address": {"city": "PYLESVILLE", "state": "MD", "street": "3965 ADY RD", "postcode": "21132"}}},
{"geometry": {"type": "Point", "coordinates": [-76.3731233965, 39.6825279107]}, "type": "Feature", "properties": {"collection_times": [{"days": "Mon-Fri", "time": "3:45pm"}, {"days": "Sat", "time": "11:30am"}, {"days": "Sun", "time": "Closed"}], "id": "2113200003", "name": "USPS COLLECTION BOX - PO LOBBY", "address": {"city": "PYLESVILLE", "state": "MD", "street": "3965 ADY RD", "postcode": "21132"}}},
{"geometry": {"type": "Point", "coordinates": [-76.3731233965, 39.6825279107]}, "type": "Feature", "properties": {"collection_times": [{"days": "Mon-Fri", "time": "3:45pm"}, {"days": "Sat", "time": "11:30am"}, {"days": "Sun", "time": "Closed"}], "id": "2113200004", "name": "USPS COLLECTION BOX - PO LOBBY", "address": {"city": "PYLESVILLE", "state": "MD", "street": "3965 ADY RD", "postcode": "21132"}}},
{"geometry": {"type": "Point", "coordinates": [-76.8191474276, 39.380516121]}, "type": "Feature", "properties": {"collection_times": [{"days": "Mon-Fri", "time": "1:45pm"}, {"days": "Sat", "time": "1:30pm"}, {"days": "Sun", "time": "Closed"}], "id": "2113300002", "name": "USPS COLLECTION BOX - BLUE BOX", "address": {"city": "RANDALLSTOWN", "state": "MD", "street": "3906 TIVERTON RD", "postcode": "21133"}}},
{"geometry": {"type": "Point", "coordinates": [-76.8276185224, 39.3750352717]}, "type": "Feature", "properties": {"collection_times": [{"days": "Mon-Fri", "time": "2:00pm"}, {"days": "Sat", "time": "1:45pm"}, {"days": "Sun", "time": "Closed"}], "id": "2113300005", "name": "USPS COLLECTION BOX - BLUE BOX", "address": {"city": "RANDALLSTOWN", "state": "MD", "street": "3701 KINGS POINT RD", "postcode": "21133"}}},
{"geometry": {"type": "Point", "coordinates": [-76.81115, 39.36877]}, "type": "Feature", "properties": {"collection_times": [{"days": "Mon-Fri", "time": "2:00pm"}, {"days": "Sat", "time": "1:45pm"}, {"days": "Sun", "time": "Closed"}], "id": "2113300006", "name": "USPS COLLECTION BOX - BLUE BOX", "address": {"city": "RANDALLSTOWN", "state": "MD", "street": "3456 CARRIAGE HILL CIR", "postcode": "21133"}}},
{"geometry": {"type": "Point", "coordinates": [-76.7867079713, 39.3601076609]}, "type": "Feature", "properties": {"collection_times": [{"days": "Mon-Fri", "time": "2:15pm"}, {"days": "Sat", "time": "1:15pm"}, {"days": "Sun", "time": "Closed"}], "id": "2113300009", "name": "USPS COLLECTION BOX - BLUE BOX", "address": {"city": "RANDALLSTOWN", "state": "MD", "street": "11 CINNAMON CIR", "postcode": "21133"}}},
{"geometry": {"type": "Point", "coordinates": [-76.7794556055, 39.3608860999]}, "type": "Feature", "properties": {"collection_times": [{"days": "Mon-Fri", "time": "2:15pm"}, {"days": "Sat", "time": "1:15pm"}, {"days": "Sun", "time": "Closed"}], "id": "2113300011", "name": "USPS COLLECTION BOX - BLUE BOX", "address": {"city": "RANDALLSTOWN", "state": "MD", "street": "5310 OLD COURT RD", "postcode": "21133"}}},
{"geometry": {"type": "Point", "coordinates": [-76.7824875293, 39.3593293259]}, "type": "Feature", "properties": {"collection_times": [{"days": "Mon-Fri", "time": "2:15pm"}, {"days": "Sat", "time": "1:15pm"}, {"days": "Sun", "time": "Closed"}], "id": "2113300012", "name": "USPS COLLECTION BOX - BLUE BOX", "address": {"city": "RANDALLSTOWN", "state": "MD", "street": "5400 OLD COURT RD", "postcode": "21133"}}},
{"geometry": {"type": "Point", "coordinates": [-76.7799240701, 39.3618730481]}, "type": "Feature", "properties": {"collection_times": [{"days": "Mon-Fri", "time": "2:30pm"}, {"days": "Sat", "time": "1:15pm"}, {"days": "Sun", "time": "Closed"}], "id": "2113300016", "name": "USPS COLLECTION BOX - BLUE BOX", "address": {"city": "RANDALLSTOWN", "state": "MD", "street": "8630 LIBERTY RD", "postcode": "21133"}}},
{"geometry": {"type": "Point", "coordinates": [-76.7764473408, 39.3793651019]}, "type": "Feature", "properties": {"collection_times": [{"days": "Mon-Fri", "time": "2:30pm"}, {"days": "Sat", "time": "1:30pm"}, {"days": "Sun", "time": "Closed"}], "id": "2113300029", "name": "USPS COLLECTION BOX - BLUE BOX", "address": {"city": "RANDALLSTOWN", "state": "MD", "street": "4100 CENTURY TOWNE RD", "postcode": "21133"}}},
{"geometry": {"type": "Point", "coordinates": [-76.8263504648, 39.3864332817]}, "type": "Feature", "properties": {"collection_times": [{"days": "Mon-Sat", "time": "1:45pm"}, {"days": "Sun", "time": "Closed"}], "id": "2113300030", "name": "USPS COLLECTION BOX - BLUE BOX", "address": {"city": "RANDALLSTOWN", "state": "MD", "street": "9901 WINANDS RD", "postcode": "21133"}}},
{"geometry": {"type": "Point", "coordinates": [-76.7882982237, 39.3629054109]}, "type": "Feature", "properties": {"collection_times": [{"days": "Mon-Fri", "time": "2:00pm"}, {"days": "Sat", "time": "1:15pm"}, {"days": "Sun", "time": "Closed"}], "id": "2113300036", "name": "USPS COLLECTION BOX - BLUE BOX", "address": {"city": "RANDALLSTOWN", "state": "MD", "street": "3525 RESOURCE DR", "postcode": "21133"}}},
{"geometry": {"type": "Point", "coordinates": [-76.7757647735, 39.3602591317]}, "type": "Feature", "properties": {"collection_times": [{"days": "Mon-Fri", "time": "2:15pm"}, {"days": "Sat", "time": "1:15pm"}, {"days": "Sun", "time": "Closed"}], "id": "2113300043", "name": "USPS COLLECTION BOX - BLUE BOX", "address": {"city": "RANDALLSTOWN", "state": "MD", "street": "8514 LIBERTY RD", "postcode": "21133"}}},
{"geometry": {"type": "Point", "coordinates": [-76.7987791457, 39.3697592382]}, "type": "Feature", "properties": {"collection_times": [{"days": "Mon-Fri", "time": "5:00pm"}, {"days": "Sat", "time": "4:30pm"}, {"days": "Sun", "time": "Closed"}], "id": "2113300045", "name": "USPS COLLECTION BOX - BLUE BOX", "address": {"city": "RANDALLSTOWN", "state": "MD", "street": "3608 OFFUTT RD", "postcode": "21133"}}},
{"geometry": {"type": "Point", "coordinates": [-76.7987791457, 39.3697592382]}, "type": "Feature", "properties": {"collection_times": [{"days": "Mon-Fri", "time": "5:00pm"}, {"days": "Sat", "time": "4:30pm"}, {"days": "Sun", "time": "Closed"}], "id": "2113300046", "name": "USPS COLLECTION BOX - BLUE BOX", "address": {"city": "RANDALLSTOWN", "state": "MD", "street": "3608 OFFUTT RD", "postcode": "21133"}}},
{"geometry": {"type": "Point", "coordinates": [-76.8009584385, 39.3731226376]}, "type": "Feature", "properties": {"collection_times": [{"days": "Mon-Fri", "time": "5:00pm"}, {"days": "Sat", "time": "4:30pm"}, {"days": "Sun", "time": "Closed"}], "id": "2113300047", "name": "USPS COLLECTION BOX - EXPRESS", "address": {"city": "RANDALLSTOWN", "state": "MD", "street": "3608 OFFUTT RD", "postcode": "21133"}}},
{"geometry": {"type": "Point", "coordinates": [-76.7987791457, 39.3697592382]}, "type": "Feature", "properties": {"collection_times": [{"days": "Mon-Fri", "time": "5:00pm"}, {"days": "Sat", "time": "4:45pm"}, {"days": "Sun", "time": "Closed"}], "id": "2113300048", "name": "USPS COLLECTION BOX - PO LOBBY", "address": {"city": "RANDALLSTOWN", "state": "MD", "street": "3608 OFFUTT RD", "postcode": "21133"}}},
{"geometry": {"type": "Point", "coordinates": [-76.7987791457, 39.3697592382]}, "type": "Feature", "properties": {"collection_times": [{"days": "Mon-Fri", "time": "5:00pm"}, {"days": "Sat", "time": "4:45pm"}, {"days": "Sun", "time": "Closed"}], "id": "2113300049", "name": "USPS COLLECTION BOX - PO LOBBY", "address": {"city": "RANDALLSTOWN", "state": "MD", "street": "3608 OFFUTT RD", "postcode": "21133"}}},
{"geometry": {"type": "Point", "coordinates": [-76.7825419454, 39.3593092156]}, "type": "Feature", "properties": {"collection_times": [{"days": "Mon-Fri", "time": "2:15pm"}, {"days": "Sat", "time": "1:15pm"}, {"days": "Sun", "time": "Closed"}], "id": "2113300050", "name": "USPS COLLECTION BOX - BLUE BOX", "address": {"city": "RANDALLSTOWN", "state": "MD", "street": "5401 OLD COURT RD", "postcode": "21133"}}},
{"geometry": {"type": "Point", "coordinates": [-76.8205428143, 39.4574844257]}, "type": "Feature", "properties": {"collection_times": [{"days": "Mon-Sat", "time": "9:00am"}, {"days": "Sun", "time": "Closed"}], "id": "2113600017", "name": "USPS COLLECTION BOX - BLUE BOX", "address": {"city": "GLYNDON", "state": "MD", "street": "122 CHARTLEY DR", "postcode": "21136"}}},
{"geometry": {"type": "Point", "coordinates": [-76.8178592368, 39.4760232074]}, "type": "Feature", "properties": {"collection_times": [{"days": "Mon-Sat", "time": "9:00am"}, {"days": "Sun", "time": "Closed"}], "id": "2113600027", "name": "USPS COLLECTION BOX - BLUE BOX", "address": {"city": "GLYNDON", "state": "MD", "street": "4854 BUTLER RD", "postcode": "21136"}}},
{"geometry": {"type": "Point", "coordinates": [-76.8157424714, 39.4483873579]}, "type": "Feature", "properties": {"collection_times": [{"days": "Mon-Fri", "time": "4:20pm"}, {"days": "Sat", "time": "3:30pm"}, {"days": "Sun", "time": "Closed"}], "id": "2113600029", "name": "USPS COLLECTION BOX - BLUE BOX", "address": {"city": "GLYNDON", "state": "MD", "street": "11931 REISTERSTOWN RD", "postcode": "21136"}}},
{"geometry": {"type": "Point", "coordinates": [-76.8292818371, 39.4655756024]}, "type": "Feature", "properties": {"collection_times": [{"days": "Mon-Sat", "time": "9:00am"}, {"days": "Sun", "time": "Closed"}], "id": "2113600030", "name": "USPS COLLECTION BOX - BLUE BOX", "address": {"city": "GLYNDON", "state": "MD", "street": "127 MAIN ST", "postcode": "21136"}}},
{"geometry": {"type": "Point", "coordinates": [-76.8271568177, 39.4598151386]}, "type": "Feature", "properties": {"collection_times": [{"days": "Mon-Fri", "time": "5:00pm"}, {"days": "Sat", "time": "3:30pm"}, {"days": "Sun", "time": "Closed"}], "id": "2113600031", "name": "USPS COLLECTION BOX - PO LOBBY", "address": {"city": "GLYNDON", "state": "MD", "street": "5 GLYNDON DR", "postcode": "21136"}}},
{"geometry": {"type": "Point", "coordinates": [-76.8271568177, 39.4598151386]}, "type": "Feature", "properties": {"collection_times": [{"days": "Mon-Fri", "time": "5:00pm"}, {"days": "Sat", "time": "3:30pm"}, {"days": "Sun", "time": "Closed"}], "id": "2113600032", "name": "USPS COLLECTION BOX - PO LOBBY", "address": {"city": "GLYNDON", "state": "MD", "street": "5 GLYNDON DR", "postcode": "21136"}}},
{"geometry": {"type": "Point", "coordinates": [-76.8271568177, 39.4598151386]}, "type": "Feature", "properties": {"collection_times": [{"days": "Mon-Fri", "time": "5:00pm"}, {"days": "Sat", "time": "3:30pm"}, {"days": "Sun", "time": "Closed"}], "id": "2113600034", "name": "USPS COLLECTION BOX - BLUE BOX", "address": {"city": "GLYNDON", "state": "MD", "street": "5 GLYNDON DR", "postcode": "21136"}}},
{"geometry": {"type": "Point", "coordinates": [-76.8271568177, 39.4598151386]}, "type": "Feature", "properties": {"collection_times": [{"days": "Mon-Fri", "time": "5:00pm"}, {"days": "Sat", "time": "3:30pm"}, {"days": "Sun", "time": "Closed"}], "id": "2113600035", "name": "USPS COLLECTION BOX - BLUE BOX", "address": {"city": "GLYNDON", "state": "MD", "street": "5 GLYNDON DR", "postcode": "21136"}}},
{"geometry": {"type": "Point", "coordinates": [-76.8070070041, 39.4411948401]}, "type": "Feature", "properties": {"collection_times": [{"days": "Mon-Fri", "time": "4:10pm"}, {"days": "Sat", "time": "3:30pm"}, {"days": "Sun", "time": "Closed"}], "id": "2113600037", "name": "USPS COLLECTION BOX - BLUE BOX", "address": {"city": "GLYNDON", "state": "MD", "street": "11620 REISTERSTOWN RD", "postcode": "21136"}}},
{"geometry": {"type": "Point", "coordinates": [-76.8271568177, 39.4598151386]}, "type": "Feature", "properties": {"collection_times": [{"days": "Mon-Fri", "time": "4:30pm"}, {"days": "Sat", "time": "3:30pm"}, {"days": "Sun", "time": "Closed"}], "id": "2113600049", "name": "USPS COLLECTION BOX - APC", "address": {"city": "GLYNDON", "state": "MD", "street": "5 GLYNDON DR", "postcode": "21136"}}},
{"geometry": {"type": "Point", "coordinates": [-76.5847783797, 39.3929857105]}, "type": "Feature", "properties": {"collection_times": [{"days": "Mon-Fri", "time": "5:45pm"}, {"days": "Sat", "time": "1:00pm"}, {"days": "Sun", "time": "Closed"}], "id": "2113900000", "name": "USPS COLLECTION BOX - PO LOBBY", "address": {"city": "RIDERWOOD", "state": "MD", "street": "8016 BELLONA AVE", "postcode": "21139"}}},
{"geometry": {"type": "Point", "coordinates": [-76.5847783797, 39.3929857105]}, "type": "Feature", "properties": {"collection_times": [{"days": "Mon-Fri", "time": "5:45pm"}, {"days": "Sat", "time": "1:00pm"}, {"days": "Sun", "time": "Closed"}], "id": "2113900001", "name": "USPS COLLECTION BOX - PO LOBBY", "address": {"city": "RIDERWOOD", "state": "MD", "street": "8016 BELLONA AVE", "postcode": "21139"}}},
{"geometry": {"type": "Point", "coordinates": [-76.5847783797, 39.3929857105]}, "type": "Feature", "properties": {"collection_times": [{"days": "Mon-Fri", "time": "5:45pm"}, {"days": "Sat", "time": "1:00pm"}, {"days": "Sun", "time": "Closed"}], "id": "2113900002", "name": "USPS COLLECTION BOX - BLUE BOX", "address": {"city": "RIDERWOOD", "state": "MD", "street": "8016 BELLONA AVE", "postcode": "21139"}}},
{"geometry": {"type": "Point", "coordinates": [-76.5847783797, 39.3929857105]}, "type": "Feature", "properties": {"collection_times": [{"days": "Mon-Fri", "time": "5:45pm"}, {"days": "Sat", "time": "1:00pm"}, {"days": "Sun", "time": "Closed"}], "id": "2113900003", "name": "USPS COLLECTION BOX - BLUE BOX", "address": {"city": "RIDERWOOD", "state": "MD", "street": "8016 BELLONA AVE", "postcode": "21139"}}},
{"geometry": {"type": "Point", "coordinates": [-76.5847783797, 39.3929857105]}, "type": "Feature", "properties": {"collection_times": [{"days": "Mon-Fri", "time": "5:45pm"}, {"days": "Sat", "time": "1:00pm"}, {"days": "Sun", "time": "Closed"}], "id": "2113900004", "name": "USPS COLLECTION BOX - BLUE BOX", "address": {"city": "RIDERWOOD", "state": "MD", "street": "8016 BELLONA AVE", "postcode": "21139"}}},
{"geometry": {"type": "Point", "coordinates": [-76.5808288565, 38.9516202257]}, "type": "Feature", "properties": {"collection_times": [{"days": "Mon-Fri", "time": "4:30pm"}, {"days": "Sat", "time": "1:00pm"}, {"days": "Sun", "time": "Closed"}], "id": "2114000003", "name": "USPS COLLECTION BOX - BLUE BOX", "address": {"city": "RIVA", "state": "MD", "street": "3123 RIVA RD", "postcode": "21140"}}},
{"geometry": {"type": "Point", "coordinates": [-76.5808288565, 38.9516202257]}, "type": "Feature", "properties": {"collection_times": [{"days": "Mon-Fri", "time": "4:45pm"}, {"days": "Sat", "time": "12:30pm"}, {"days": "Sun", "time": "Closed"}], "id": "2114000004", "name": "USPS COLLECTION BOX - PO LOBBY", "address": {"city": "RIVA", "state": "MD", "street": "3123 RIVA RD", "postcode": "21140"}}},
{"geometry": {"type": "Point", "coordinates": [-76.5808288565, 38.9516202257]}, "type": "Feature", "properties": {"collection_times": [{"days": "Mon-Fri", "time": "4:45pm"}, {"days": "Sat", "time": "12:30pm"}, {"days": "Sun", "time": "Closed"}], "id": "2114000005", "name": "USPS COLLECTION BOX - PO LOBBY", "address": {"city": "RIVA", "state": "MD", "street": "3123 RIVA RD", "postcode": "21140"}}},
{"geometry": {"type": "Point", "coordinates": [-76.6879052282, 39.1368431356]}, "type": "Feature", "properties": {"collection_times": [{"days": "Mon-Fri", "time": "5:00pm"}, {"days": "Sat", "time": "3:00pm"}, {"days": "Sun", "time": "Closed"}], "id": "2114400001", "name": "USPS COLLECTION BOX - BLUE BOX", "address": {"city": "SEVERN", "state": "MD", "street": "819 REECE RD", "postcode": "21144"}}},
{"geometry": {"type": "Point", "coordinates": [-76.7033452146, 39.1241068171]}, "type": "Feature", "properties": {"collection_times": [{"days": "Mon-Sat", "time": "10:30am"}, {"days": "Sun", "time": "Closed"}], "id": "2114400002", "name": "USPS COLLECTION BOX - BLUE BOX", "address": {"city": "SEVERN", "state": "MD", "street": "1100 REECE RD", "postcode": "21144"}}},
{"geometry": {"type": "Point", "coordinates": [-76.6890262138, 39.1274831106]}, "type": "Feature", "properties": {"collection_times": [{"days": "Mon-Sat", "time": "10:00am"}, {"days": "Sun", "time": "Closed"}], "id": "2114400003", "name": "USPS COLLECTION BOX - BLUE BOX", "address": {"city": "SEVERN", "state": "MD", "street": "7959 TELEGRAPH RD", "postcode": "21144"}}},
{"geometry": {"type": "Point", "coordinates": [-76.7370812648, 39.1295878158]}, "type": "Feature", "properties": {"collection_times": [{"days": "Mon-Sat", "time": "10:30am"}, {"days": "Sun", "time": "Closed"}], "id": "2114400004", "name": "USPS COLLECTION BOX - BLUE BOX", "address": {"city": "SEVERN", "state": "MD", "street": "2620 ANNAPOLIS RD", "postcode": "21144"}}},
{"geometry": {"type": "Point", "coordinates": [-76.6879052282, 39.1368431356]}, "type": "Feature", "properties": {"collection_times": [{"days": "Mon-Fri", "time": "5:00pm"}, {"days": "Sat", "time": "3:00pm"}, {"days": "Sun", "time": "Closed"}], "id": "2114400005", "name": "USPS COLLECTION BOX - BLUE BOX", "address": {"city": "SEVERN", "state": "MD", "street": "819 REECE RD", "postcode": "21144"}}},
{"geometry": {"type": "Point", "coordinates": [-76.6879052282, 39.1368431356]}, "type": "Feature", "properties": {"collection_times": [{"days": "Mon-Fri", "time": "5:00pm"}, {"days": "Sat", "time": "3:00pm"}, {"days": "Sun", "time": "Closed"}], "id": "2114400006", "name": "USPS COLLECTION BOX - BLUE BOX", "address": {"city": "SEVERN", "state": "MD", "street": "819 REECE RD", "postcode": "21144"}}},
{"geometry": {"type": "Point", "coordinates": [-76.6879052282, 39.1368431356]}, "type": "Feature", "properties": {"collection_times": [{"days": "Mon-Fri", "time": "5:00pm"}, {"days": "Sat", "time": "3:15pm"}, {"days": "Sun", "time": "Closed"}], "id": "2114400007", "name": "USPS COLLECTION BOX - PO LOBBY", "address": {"city": "SEVERN", "state": "MD", "street": "819 REECE RD", "postcode": "21144"}}},
{"geometry": {"type": "Point", "coordinates": [-76.6879052282, 39.1368431356]}, "type": "Feature", "properties": {"collection_times": [{"days": "Mon-Fri", "time": "5:00pm"}, {"days": "Sat", "time": "3:15pm"}, {"days": "Sun", "time": "Closed"}], "id": "2114400008", "name": "USPS COLLECTION BOX - PO LOBBY", "address": {"city": "SEVERN", "state": "MD", "street": "819 REECE RD", "postcode": "21144"}}},
{"geometry": {"type": "Point", "coordinates": [-76.6924548884, 39.1099532954]}, "type": "Feature", "properties": {"collection_times": [{"days": "Mon-Sat", "time": "10:30am"}, {"days": "Sun", "time": "Closed"}], "id": "2114400009", "name": "USPS COLLECTION BOX - BLUE BOX", "address": {"city": "SEVERN", "state": "MD", "street": "8141 TELEGRAPH RD", "postcode": "21144"}}},
{"geometry": {"type": "Point", "coordinates": [-76.5646213836, 39.0771932471]}, "type": "Feature", "properties": {"collection_times": [{"days": "Mon-Fri", "time": "3:00pm"}, {"days": "Sat", "time": "12:00pm"}, {"days": "Sun", "time": "Closed"}], "id": "2114600002", "name": "USPS COLLECTION BOX - BLUE BOX", "address": {"city": "SEVERNA PARK", "state": "MD", "street": "102 BALSAM DR", "postcode": "21146"}}},
{"geometry": {"type": "Point", "coordinates": [-76.6063627922, 39.087932513]}, "type": "Feature", "properties": {"collection_times": [{"days": "Mon-Fri", "time": "3:00pm"}, {"days": "Sat-Sun", "time": "Closed"}], "id": "2114600004", "name": "USPS COLLECTION BOX - BLUE BOX", "address": {"city": "SEVERNA PARK", "state": "MD", "street": "2 SAINT IVES DR", "postcode": "21146"}}},
{"geometry": {"type": "Point", "coordinates": [-76.5485724025, 39.0881468376]}, "type": "Feature", "properties": {"collection_times": [{"days": "Mon-Sat", "time": "12:00pm"}, {"days": "Sun", "time": "Closed"}], "id": "2114600005", "name": "USPS COLLECTION BOX - BLUE BOX", "address": {"city": "SEVERNA PARK", "state": "MD", "street": "96 BERRYWOOD DR", "postcode": "21146"}}},
{"geometry": {"type": "Point", "coordinates": [-76.5824697696, 39.0818308611]}, "type": "Feature", "properties": {"collection_times": [{"days": "Mon-Sat", "time": "3:00pm"}, {"days": "Sun", "time": "Closed"}], "id": "2114600008", "name": "USPS COLLECTION BOX - BLUE BOX", "address": {"city": "SEVERNA PARK", "state": "MD", "street": "544 BENFIELD RD", "postcode": "21146"}}},
{"geometry": {"type": "Point", "coordinates": [-76.5823937697, 39.0796157725]}, "type": "Feature", "properties": {"collection_times": [{"days": "Mon-Fri", "time": "3:00pm"}, {"days": "Sat", "time": "12:00pm"}, {"days": "Sun", "time": "Closed"}], "id": "2114600017", "name": "USPS COLLECTION BOX - BLUE BOX", "address": {"city": "SEVERNA PARK", "state": "MD", "street": "537 CENTER DR", "postcode": "21146"}}},
{"geometry": {"type": "Point", "coordinates": [-76.5824697696, 39.0818308611]}, "type": "Feature", "properties": {"collection_times": [{"days": "Mon-Sat", "time": "3:00pm"}, {"days": "Sun", "time": "Closed"}], "id": "2114600019", "name": "USPS COLLECTION BOX - BLUE BOX", "address": {"city": "SEVERNA PARK", "state": "MD", "street": "544 BENFIELD RD", "postcode": "21146"}}},
{"geometry": {"type": "Point", "coordinates": [-76.5441965048, 39.0758739531]}, "type": "Feature", "properties": {"collection_times": [{"days": "Mon-Fri", "time": "4:45pm"}, {"days": "Sat", "time": "3:30pm"}, {"days": "Sun", "time": "Closed"}], "id": "2114600031", "name": "USPS COLLECTION BOX - BLUE BOX", "address": {"city": "SEVERNA PARK", "state": "MD", "street": "575 RITCHIE HWY", "postcode": "21146"}}},
{"geometry": {"type": "Point", "coordinates": [-76.5441965048, 39.0758739531]}, "type": "Feature", "properties": {"collection_times": [{"days": "Mon-Fri", "time": "4:45pm"}, {"days": "Sat", "time": "3:30pm"}, {"days": "Sun", "time": "Closed"}], "id": "2114600032", "name": "USPS COLLECTION BOX - BLUE BOX", "address": {"city": "SEVERNA PARK", "state": "MD", "street": "575 RITCHIE HWY", "postcode": "21146"}}},
{"geometry": {"type": "Point", "coordinates": [-76.563677584, 39.099521995]}, "type": "Feature", "properties": {"collection_times": [{"days": "Mon-Fri", "time": "5:00pm"}, {"days": "Sat", "time": "4:00pm"}, {"days": "Sun", "time": "Closed"}], "id": "2114600036", "name": "USPS COLLECTION BOX - BLUE BOX", "address": {"city": "SEVERNA PARK", "state": "MD", "street": "21 MAGOTHY BRIDGE RD", "postcode": "21146"}}},
{"geometry": {"type": "Point", "coordinates": [-76.5636775838, 39.0995219952]}, "type": "Feature", "properties": {"collection_times": [{"days": "Mon-Fri", "time": "5:00pm"}, {"days": "Sat", "time": "4:00pm"}, {"days": "Sun", "time": "Closed"}], "id": "2114600037", "name": "USPS COLLECTION BOX - BLUE BOX", "address": {"city": "SEVERNA PARK", "state": "MD", "street": "21 MAGOTHY BRIDGE RD", "postcode": "21146"}}},
{"geometry": {"type": "Point", "coordinates": [-76.5636775838, 39.0995219952]}, "type": "Feature", "properties": {"collection_times": [{"days": "Mon-Fri", "time": "5:00pm"}, {"days": "Sat", "time": "4:00pm"}, {"days": "Sun", "time": "Closed"}], "id": "2114600038", "name": "USPS COLLECTION BOX - BLUE BOX", "address": {"city": "SEVERNA PARK", "state": "MD", "street": "21 MAGOTHY BRIDGE RD", "postcode": "21146"}}},
{"geometry": {"type": "Point", "coordinates": [-76.5638394396, 39.0994194617]}, "type": "Feature", "properties": {"collection_times": [{"days": "Mon-Fri", "time": "5:00pm"}, {"days": "Sat", "time": "4:00pm"}, {"days": "Sun", "time": "Closed"}], "id": "2114600039", "name": "USPS COLLECTION BOX - PO LOBBY", "address": {"city": "SEVERNA PARK", "state": "MD", "street": "21 MAGOTHY BRIDGE RD", "postcode": "21146"}}},
{"geometry": {"type": "Point", "coordinates": [-76.5638394396, 39.0994194617]}, "type": "Feature", "properties": {"collection_times": [{"days": "Mon-Fri", "time": "5:00pm"}, {"days": "Sat", "time": "4:00pm"}, {"days": "Sun", "time": "Closed"}], "id": "2114600040", "name": "USPS COLLECTION BOX - APC", "address": {"city": "SEVERNA PARK", "state": "MD", "street": "21 MAGOTHY BRIDGE RD", "postcode": "21146"}}},
{"geometry": {"type": "Point", "coordinates": [-76.5638394396, 39.0994194617]}, "type": "Feature", "properties": {"collection_times": [{"days": "Mon-Fri", "time": "5:00pm"}, {"days": "Sat", "time": "4:00pm"}, {"days": "Sun", "time": "Closed"}], "id": "2114600041", "name": "USPS COLLECTION BOX - PO LOBBY", "address": {"city": "SEVERNA PARK", "state": "MD", "street": "21 MAGOTHY BRIDGE RD", "postcode": "21146"}}},
{"geometry": {"type": "Point", "coordinates": [-76.5450965344, 39.0763932794]}, "type": "Feature", "properties": {"collection_times": [{"days": "Mon-Fri", "time": "4:30pm"}, {"days": "Sat", "time": "3:30pm"}, {"days": "Sun", "time": "Closed"}], "id": "2114600042", "name": "USPS COLLECTION BOX - BLUE BOX", "address": {"city": "SEVERNA PARK", "state": "MD", "street": "564 RITCHIE HWY", "postcode": "21146"}}},
{"geometry": {"type": "Point", "coordinates": [-76.8962357662, 39.1854530645]}, "type": "Feature", "properties": {"collection_times": [{"days": "Mon-Fri", "time": "5:00pm"}, {"days": "Sat", "time": "12:30pm"}, {"days": "Sun", "time": "Closed"}], "id": "2115000000", "name": "USPS COLLECTION BOX - BLUE BOX", "address": {"city": "SIMPSONVILLE", "state": "MD", "street": "10400 SHAKER DR", "postcode": "21150"}}},
{"geometry": {"type": "Point", "coordinates": [-76.8962357662, 39.1854530645]}, "type": "Feature", "properties": {"collection_times": [{"days": "Mon-Fri", "time": "5:00pm"}, {"days": "Sat", "time": "12:30pm"}, {"days": "Sun", "time": "Closed"}], "id": "2115000001", "name": "USPS COLLECTION BOX - PO LOBBY", "address": {"city": "SIMPSONVILLE", "state": "MD", "street": "10400 SHAKER DR", "postcode": "21150"}}},
{"geometry": {"type": "Point", "coordinates": [-76.6453399987, 39.5294435569]}, "type": "Feature", "properties": {"collection_times": [{"days": "Mon-Fri", "time": "5:00pm"}, {"days": "Sat", "time": "2:15pm"}, {"days": "Sun", "time": "Closed"}], "id": "2115200001", "name": "USPS COLLECTION BOX - BLUE BOX", "address": {"city": "SPARKS GLENCOE", "state": "MD", "street": "14800 YORK RD", "postcode": "21152"}}},
{"geometry": {"type": "Point", "coordinates": [-76.6427339401, 39.5159530929]}, "type": "Feature", "properties": {"collection_times": [{"days": "Mon-Sat", "time": "11:00am"}, {"days": "Sun", "time": "Closed"}], "id": "2115200003", "name": "USPS COLLECTION BOX - BLUE BOX", "address": {"city": "SPARKS GLENCOE", "state": "MD", "street": "72 LOVETON CIR", "postcode": "21152"}}},
{"geometry": {"type": "Point", "coordinates": [-76.6390667673, 39.5152409516]}, "type": "Feature", "properties": {"collection_times": [{"days": "Mon-Sat", "time": "12:00pm"}, {"days": "Sun", "time": "Closed"}], "id": "2115200004", "name": "USPS COLLECTION BOX - BLUE BOX", "address": {"city": "SPARKS GLENCOE", "state": "MD", "street": "14200 DOVE CREEK WAY", "postcode": "21152"}}},
{"geometry": {"type": "Point", "coordinates": [-76.6418242447, 39.5212645786]}, "type": "Feature", "properties": {"collection_times": [{"days": "Mon-Sat", "time": "12:00pm"}, {"days": "Sun", "time": "Closed"}], "id": "2115200005", "name": "USPS COLLECTION BOX - BLUE BOX", "address": {"city": "SPARKS GLENCOE", "state": "MD", "street": "16 CROSS FALLS WAY", "postcode": "21152"}}},
{"geometry": {"type": "Point", "coordinates": [-76.6453399987, 39.5294435569]}, "type": "Feature", "properties": {"collection_times": [{"days": "Mon-Fri", "time": "5:00pm"}, {"days": "Sat", "time": "2:15pm"}, {"days": "Sun", "time": "Closed"}], "id": "2115200006", "name": "USPS COLLECTION BOX - BLUE BOX", "address": {"city": "SPARKS GLENCOE", "state": "MD", "street": "14800 YORK RD", "postcode": "21152"}}},
{"geometry": {"type": "Point", "coordinates": [-76.6453399987, 39.5294435569]}, "type": "Feature", "properties": {"collection_times": [{"days": "Mon-Fri", "time": "5:00pm"}, {"days": "Sat", "time": "2:15pm"}, {"days": "Sun", "time": "Closed"}], "id": "2115200007", "name": "USPS COLLECTION BOX - PO LOBBY", "address": {"city": "SPARKS GLENCOE", "state": "MD", "street": "14800 YORK RD", "postcode": "21152"}}},
{"geometry": {"type": "Point", "coordinates": [-76.6453399987, 39.5294435569]}, "type": "Feature", "properties": {"collection_times": [{"days": "Mon-Fri", "time": "5:00pm"}, {"days": "Sat", "time": "2:15pm"}, {"days": "Sun", "time": "Closed"}], "id": "2115200008", "name": "USPS COLLECTION BOX - PO LOBBY", "address": {"city": "SPARKS GLENCOE", "state": "MD", "street": "14800 YORK RD", "postcode": "21152"}}},
{"geometry": {"type": "Point", "coordinates": [-76.7135900227, 39.4110667841]}, "type": "Feature", "properties": {"collection_times": [{"days": "Mon-Fri", "time": "5:00pm"}, {"days": "Sat", "time": "12:00pm"}, {"days": "Sun", "time": "Closed"}], "id": "2115300000", "name": "USPS COLLECTION BOX - BLUE BOX", "address": {"city": "STEVENSON", "state": "MD", "street": "10421 STEVENSON RD", "postcode": "21153"}}},
{"geometry": {"type": "Point", "coordinates": [-76.7135900227, 39.4110667841]}, "type": "Feature", "properties": {"collection_times": [{"days": "Mon-Fri", "time": "4:45pm"}, {"days": "Sat", "time": "12:00pm"}, {"days": "Sun", "time": "Closed"}], "id": "2115300001", "name": "USPS COLLECTION BOX - PO LOBBY", "address": {"city": "STEVENSON", "state": "MD", "street": "10421 STEVENSON RD", "postcode": "21153"}}},
{"geometry": {"type": "Point", "coordinates": [-76.7135900227, 39.4110667841]}, "type": "Feature", "properties": {"collection_times": [{"days": "Mon-Fri", "time": "4:45pm"}, {"days": "Sat", "time": "12:00pm"}, {"days": "Sun", "time": "Closed"}], "id": "2115300002", "name": "USPS COLLECTION BOX - PO LOBBY", "address": {"city": "STEVENSON", "state": "MD", "street": "10421 STEVENSON RD", "postcode": "21153"}}},
{"geometry": {"type": "Point", "coordinates": [-76.2669599271, 39.6507453521]}, "type": "Feature", "properties": {"collection_times": [{"days": "Mon-Sat", "time": "12:00pm"}, {"days": "Sun", "time": "Closed"}], "id": "2115400000", "name": "USPS COLLECTION BOX - BLUE BOX", "address": {"city": "STREET", "state": "MD", "street": "3269 DUBLIN RD", "postcode": "21154"}}},
{"geometry": {"type": "Point", "coordinates": [-76.3774411967, 39.6679396607]}, "type": "Feature", "properties": {"collection_times": [{"days": "Mon-Fri", "time": "4:45pm"}, {"days": "Sat", "time": "11:45am"}, {"days": "Sun", "time": "Closed"}], "id": "2115400002", "name": "USPS COLLECTION BOX - BLUE BOX", "address": {"city": "STREET", "state": "MD", "street": "708 HIGHLAND RD", "postcode": "21154"}}},
{"geometry": {"type": "Point", "coordinates": [-76.3774411967, 39.6679396607]}, "type": "Feature", "properties": {"collection_times": [{"days": "Mon-Fri", "time": "4:45pm"}, {"days": "Sat", "time": "11:45am"}, {"days": "Sun", "time": "Closed"}], "id": "2115400003", "name": "USPS COLLECTION BOX - PO LOBBY", "address": {"city": "STREET", "state": "MD", "street": "708 HIGHLAND RD", "postcode": "21154"}}},
{"geometry": {"type": "Point", "coordinates": [-76.8374928346, 39.5637728773]}, "type": "Feature", "properties": {"collection_times": [{"days": "Mon-Fri", "time": "4:30pm"}, {"days": "Sat", "time": "11:15am"}, {"days": "Sun", "time": "Closed"}], "id": "2115500000", "name": "USPS COLLECTION BOX - BLUE BOX", "address": {"city": "UPPERCO", "state": "MD", "street": "5420 ARCADIA AVE", "postcode": "21155"}}},
{"geometry": {"type": "Point", "coordinates": [-76.8374928346, 39.5637728773]}, "type": "Feature", "properties": {"collection_times": [{"days": "Mon-Fri", "time": "4:30pm"}, {"days": "Sat", "time": "12:00pm"}, {"days": "Sun", "time": "Closed"}], "id": "2115500002", "name": "USPS COLLECTION BOX - PO LOBBY", "address": {"city": "UPPERCO", "state": "MD", "street": "5420 ARCADIA AVE", "postcode": "21155"}}},
{"geometry": {"type": "Point", "coordinates": [-76.3933077082, 39.440968462]}, "type": "Feature", "properties": {"collection_times": [{"days": "Mon-Fri", "time": "4:45pm"}, {"days": "Sat", "time": "12:00pm"}, {"days": "Sun", "time": "Closed"}], "id": "2115600000", "name": "USPS COLLECTION BOX - BLUE BOX", "address": {"city": "UPPER FALLS", "state": "MD", "street": "7755 BRADSHAW RD", "postcode": "21156"}}},
{"geometry": {"type": "Point", "coordinates": [-76.3933077082, 39.440968462]}, "type": "Feature", "properties": {"collection_times": [{"days": "Mon-Fri", "time": "4:45pm"}, {"days": "Sat", "time": "12:00pm"}, {"days": "Sun", "time": "Closed"}], "id": "2115600002", "name": "USPS COLLECTION BOX - PO LOBBY", "address": {"city": "UPPER FALLS", "state": "MD", "street": "7755 BRADSHAW RD", "postcode": "21156"}}},
{"geometry": {"type": "Point", "coordinates": [-76.3933077082, 39.440968462]}, "type": "Feature", "properties": {"collection_times": [{"days": "Mon-Fri", "time": "4:45pm"}, {"days": "Sat", "time": "12:00pm"}, {"days": "Sun", "time": "Closed"}], "id": "2115600003", "name": "USPS COLLECTION BOX - PO LOBBY", "address": {"city": "UPPER FALLS", "state": "MD", "street": "7755 BRADSHAW RD", "postcode": "21156"}}},
{"geometry": {"type": "Point", "coordinates": [-76.9901852023, 39.5674558803]}, "type": "Feature", "properties": {"collection_times": [{"days": "Mon-Fri", "time": "4:00pm"}, {"days": "Sat", "time": "1:15pm"}, {"days": "Sun", "time": "Closed"}], "id": "2115700008", "name": "USPS COLLECTION BOX - BLUE BOX", "address": {"city": "WESTMINSTER", "state": "MD", "street": "246 E GREEN ST", "postcode": "21157"}}},
{"geometry": {"type": "Point", "coordinates": [-76.9793520114, 39.5623901471]}, "type": "Feature", "properties": {"collection_times": [{"days": "Mon-Fri", "time": "4:15pm"}, {"days": "Sat", "time": "1:30pm"}, {"days": "Sun", "time": "Closed"}], "id": "2115700015", "name": "USPS COLLECTION BOX - BLUE BOX", "address": {"city": "WESTMINSTER", "state": "MD", "street": "412 MALCOLM DR", "postcode": "21157"}}},
{"geometry": {"type": "Point", "coordinates": [-76.9725987084, 39.5633348285]}, "type": "Feature", "properties": {"collection_times": [{"days": "Mon-Fri", "time": "4:30pm"}, {"days": "Sat", "time": "1:45pm"}, {"days": "Sun", "time": "Closed"}], "id": "2115700016", "name": "USPS COLLECTION BOX - BLUE BOX", "address": {"city": "WESTMINSTER", "state": "MD", "street": "625 BALTIMORE BLVD", "postcode": "21157"}}},
{"geometry": {"type": "Point", "coordinates": [-76.9783908256, 39.5673421258]}, "type": "Feature", "properties": {"collection_times": [{"days": "Mon-Fri", "time": "4:15pm"}, {"days": "Sat", "time": "1:30pm"}, {"days": "Sun", "time": "Closed"}], "id": "2115700017", "name": "USPS COLLECTION BOX - BLUE BOX", "address": {"city": "WESTMINSTER", "state": "MD", "street": "531B BALTIMORE BLVD", "postcode": "21157"}}},
{"geometry": {"type": "Point", "coordinates": [-76.978094526, 39.5670699327]}, "type": "Feature", "properties": {"collection_times": [{"days": "Mon-Fri", "time": "4:45pm"}, {"days": "Sat", "time": "1:30pm"}, {"days": "Sun", "time": "Closed"}], "id": "2115700018", "name": "USPS COLLECTION BOX - BLUE BOX", "address": {"city": "WESTMINSTER", "state": "MD", "street": "532 BALTIMORE BLVD", "postcode": "21157"}}},
{"geometry": {"type": "Point", "coordinates": [-76.9874079619, 39.5734117757]}, "type": "Feature", "properties": {"collection_times": [{"days": "Mon-Fri", "time": "4:30pm"}, {"days": "Sat", "time": "1:30pm"}, {"days": "Sun", "time": "Closed"}], "id": "2115700020", "name": "USPS COLLECTION BOX - BLUE BOX", "address": {"city": "WESTMINSTER", "state": "MD", "street": "225 N CENTER ST", "postcode": "21157"}}},
{"geometry": {"type": "Point", "coordinates": [-76.9881082736, 39.5711499582]}, "type": "Feature", "properties": {"collection_times": [{"days": "Mon-Fri", "time": "4:30pm"}, {"days": "Sat", "time": "1:30pm"}, {"days": "Sun", "time": "Closed"}], "id": "2115700021", "name": "USPS COLLECTION BOX - BLUE BOX", "address": {"city": "WESTMINSTER", "state": "MD", "street": "55 N COURT ST", "postcode": "21157"}}},
{"geometry": {"type": "Point", "coordinates": [-76.9888653674, 39.5682800997]}, "type": "Feature", "properties": {"collection_times": [{"days": "Mon-Fri", "time": "4:30pm"}, {"days": "Sat", "time": "1:30pm"}, {"days": "Sun", "time": "Closed"}], "id": "2115700023", "name": "USPS COLLECTION BOX - BLUE BOX", "address": {"city": "WESTMINSTER", "state": "MD", "street": "255 E MAIN ST", "postcode": "21157"}}},
{"geometry": {"type": "Point", "coordinates": [-76.990590761, 39.5699943415]}, "type": "Feature", "properties": {"collection_times": [{"days": "Mon-Fri", "time": "4:30pm"}, {"days": "Sat", "time": "1:30pm"}, {"days": "Sun", "time": "Closed"}], "id": "2115700024", "name": "USPS COLLECTION BOX - BLUE BOX", "address": {"city": "WESTMINSTER", "state": "MD", "street": "2 N COURT ST", "postcode": "21157"}}},
{"geometry": {"type": "Point", "coordinates": [-76.990590761, 39.5699943415]}, "type": "Feature", "properties": {"collection_times": [{"days": "Mon-Fri", "time": "4:30pm"}, {"days": "Sat", "time": "1:30pm"}, {"days": "Sun", "time": "Closed"}], "id": "2115700025", "name": "USPS COLLECTION BOX - BLUE BOX", "address": {"city": "WESTMINSTER", "state": "MD", "street": "2 N COURT ST", "postcode": "21157"}}},
{"geometry": {"type": "Point", "coordinates": [-76.9931299344, 39.5724299198]}, "type": "Feature", "properties": {"collection_times": [{"days": "Mon-Fri", "time": "4:30pm"}, {"days": "Sat", "time": "1:45pm"}, {"days": "Sun", "time": "Closed"}], "id": "2115700026", "name": "USPS COLLECTION BOX - BLUE BOX", "address": {"city": "WESTMINSTER", "state": "MD", "street": "117 E MAIN ST", "postcode": "21157"}}},
{"geometry": {"type": "Point", "coordinates": [-76.9978025902, 39.577040503]}, "type": "Feature", "properties": {"collection_times": [{"days": "Mon-Fri", "time": "4:45pm"}, {"days": "Sat", "time": "1:45pm"}, {"days": "Sun", "time": "Closed"}], "id": "2115700035", "name": "USPS COLLECTION BOX - BLUE BOX", "address": {"city": "WESTMINSTER", "state": "MD", "street": "74 W MAIN ST", "postcode": "21157"}}},
{"geometry": {"type": "Point", "coordinates": [-76.9988258819, 39.5779850951]}, "type": "Feature", "properties": {"collection_times": [{"days": "Mon-Fri", "time": "4:00pm"}, {"days": "Sat", "time": "1:15pm"}, {"days": "Sun", "time": "Closed"}], "id": "2115700036", "name": "USPS COLLECTION BOX - BLUE BOX", "address": {"city": "WESTMINSTER", "state": "MD", "street": "101 W MAIN ST", "postcode": "21157"}}},
{"geometry": {"type": "Point", "coordinates": [-76.9890715642, 39.5845678256]}, "type": "Feature", "properties": {"collection_times": [{"days": "Mon-Fri", "time": "4:45pm"}, {"days": "Sat", "time": "1:45pm"}, {"days": "Sun", "time": "Closed"}], "id": "2115700043", "name": "USPS COLLECTION BOX - BLUE BOX", "address": {"city": "WESTMINSTER", "state": "MD", "street": "250 ENGLAR RD", "postcode": "21157"}}},
{"geometry": {"type": "Point", "coordinates": [-76.9917181151, 39.5813265955]}, "type": "Feature", "properties": {"collection_times": [{"days": "Mon-Fri", "time": "4:45pm"}, {"days": "Sat", "time": "1:45pm"}, {"days": "Sun", "time": "Closed"}], "id": "2115700044", "name": "USPS COLLECTION BOX - BLUE BOX", "address": {"city": "WESTMINSTER", "state": "MD", "street": "7 ENGLAR RD", "postcode": "21157"}}},
{"geometry": {"type": "Point", "coordinates": [-76.9934138446, 39.5753589262]}, "type": "Feature", "properties": {"collection_times": [{"days": "Mon-Sat", "time": "1:45pm"}, {"days": "Sun", "time": "Closed"}], "id": "2115700048", "name": "USPS COLLECTION BOX - BLUE BOX", "address": {"city": "WESTMINSTER", "state": "MD", "street": "30 LOCUST ST", "postcode": "21157"}}},
{"geometry": {"type": "Point", "coordinates": [-76.987981697, 39.5854389195]}, "type": "Feature", "properties": {"collection_times": [{"days": "Mon-Fri", "time": "3:45pm"}, {"days": "Sat", "time": "1:00pm"}, {"days": "Sun", "time": "Closed"}], "id": "2115700050", "name": "USPS COLLECTION BOX - BLUE BOX", "address": {"city": "WESTMINSTER", "state": "MD", "street": "400 ENGLAR RD", "postcode": "21157"}}},
{"geometry": {"type": "Point", "coordinates": [-76.9743397494, 39.5839676561]}, "type": "Feature", "properties": {"collection_times": [{"days": "Mon-Fri", "time": "4:45pm"}, {"days": "Sat", "time": "1:30pm"}, {"days": "Sun", "time": "Closed"}], "id": "2115700052", "name": "USPS COLLECTION BOX - BLUE BOX", "address": {"city": "WESTMINSTER", "state": "MD", "street": "405 N CRANBERRY RD", "postcode": "21157"}}},
{"geometry": {"type": "Point", "coordinates": [-76.9917103837, 39.5487317028]}, "type": "Feature", "properties": {"collection_times": [{"days": "Mon-Fri", "time": "4:15pm"}, {"days": "Sat", "time": "1:15pm"}, {"days": "Sun", "time": "Closed"}], "id": "2115700057", "name": "USPS COLLECTION BOX - BLUE BOX", "address": {"city": "WESTMINSTER", "state": "MD", "street": "908 WASHINGTON RD", "postcode": "21157"}}},
{"geometry": {"type": "Point", "coordinates": [-76.9871441517, 39.558757863]}, "type": "Feature", "properties": {"collection_times": [{"days": "Mon-Fri", "time": "4:00pm"}, {"days": "Sat", "time": "1:15pm"}, {"days": "Sun", "time": "Closed"}], "id": "2115700060", "name": "USPS COLLECTION BOX - BLUE BOX", "address": {"city": "WESTMINSTER", "state": "MD", "street": "295 STONER AVE", "postcode": "21157"}}},
{"geometry": {"type": "Point", "coordinates": [-76.9871784679, 39.5630715314]}, "type": "Feature", "properties": {"collection_times": [{"days": "Mon-Fri", "time": "4:15pm"}, {"days": "Sat", "time": "1:15pm"}, {"days": "Sun", "time": "Closed"}], "id": "2115700061", "name": "USPS COLLECTION BOX - BLUE BOX", "address": {"city": "WESTMINSTER", "state": "MD", "street": "210 WASHINGTON HEIGHTS MED CTR", "postcode": "21157"}}},
{"geometry": {"type": "Point", "coordinates": [-76.9835840394, 39.5846840124]}, "type": "Feature", "properties": {"collection_times": [{"days": "Mon-Fri", "time": "5:00pm"}, {"days": "Sat", "time": "1:45pm"}, {"days": "Sun", "time": "Closed"}], "id": "2115700068", "name": "USPS COLLECTION BOX - BLUE BOX", "address": {"city": "WESTMINSTER", "state": "MD", "street": "345 WOODWARD RD", "postcode": "21157"}}},
{"geometry": {"type": "Point", "coordinates": [-76.9835840394, 39.5846840124]}, "type": "Feature", "properties": {"collection_times": [{"days": "Mon-Fri", "time": "5:00pm"}, {"days": "Sat", "time": "1:45pm"}, {"days": "Sun", "time": "Closed"}], "id": "2115700070", "name": "USPS COLLECTION BOX - BLUE BOX", "address": {"city": "WESTMINSTER", "state": "MD", "street": "345 WOODWARD RD", "postcode": "21157"}}},
{"geometry": {"type": "Point", "coordinates": [-76.9939236999, 39.5732260512]}, "type": "Feature", "properties": {"collection_times": [{"days": "Mon-Fri", "time": "4:30pm"}, {"days": "Sat", "time": "1:45pm"}, {"days": "Sun", "time": "Closed"}], "id": "2115700071", "name": "USPS COLLECTION BOX - BLUE BOX", "address": {"city": "WESTMINSTER", "state": "MD", "street": "83 E MAIN ST", "postcode": "21157"}}},
{"geometry": {"type": "Point", "coordinates": [-76.9835840394, 39.5846840124]}, "type": "Feature", "properties": {"collection_times": [{"days": "Mon-Fri", "time": "5:00pm"}, {"days": "Sat", "time": "1:00pm"}, {"days": "Sun", "time": "Closed"}], "id": "2115700073", "name": "USPS COLLECTION BOX - PO LOBBY", "address": {"city": "WESTMINSTER", "state": "MD", "street": "345 WOODWARD RD", "postcode": "21157"}}},
{"geometry": {"type": "Point", "coordinates": [-76.9835840394, 39.5846840124]}, "type": "Feature", "properties": {"collection_times": [{"days": "Mon-Fri", "time": "5:00pm"}, {"days": "Sat", "time": "1:00pm"}, {"days": "Sun", "time": "Closed"}], "id": "2115700075", "name": "USPS COLLECTION BOX - PO LOBBY", "address": {"city": "WESTMINSTER", "state": "MD", "street": "345 WOODWARD RD", "postcode": "21157"}}},
{"geometry": {"type": "Point", "coordinates": [-77.0111793984, 39.5858913393]}, "type": "Feature", "properties": {"collection_times": [{"days": "Mon-Fri", "time": "1:00pm"}, {"days": "Sat", "time": "1:15pm"}, {"days": "Sun", "time": "Closed"}], "id": "2115700076", "name": "USPS COLLECTION BOX - BLUE BOX", "address": {"city": "WESTMINSTER", "state": "MD", "street": "444 WMC DR", "postcode": "21157"}}},
{"geometry": {"type": "Point", "coordinates": [-76.9823709227, 39.575623909]}, "type": "Feature", "properties": {"collection_times": [{"days": "Mon-Fri", "time": "4:45pm"}, {"days": "Sat", "time": "1:30pm"}, {"days": "Sun", "time": "Closed"}], "id": "2115700077", "name": "USPS COLLECTION BOX - BLUE BOX", "address": {"city": "WESTMINSTER", "state": "MD", "street": "400 N CENTER ST", "postcode": "21157"}}},
{"geometry": {"type": "Point", "coordinates": [-76.9835840394, 39.5846840124]}, "type": "Feature", "properties": {"collection_times": [{"days": "Mon-Fri", "time": "5:00pm"}, {"days": "Sat", "time": "1:00pm"}, {"days": "Sun", "time": "Closed"}], "id": "2115700078", "name": "USPS COLLECTION BOX - APC", "address": {"city": "WESTMINSTER", "state": "MD", "street": "345 WOODWARD RD", "postcode": "21157"}}},
{"geometry": {"type": "Point", "coordinates": [-76.3420151246, 39.7196408823]}, "type": "Feature", "properties": {"collection_times": [{"days": "Mon-Sat", "time": "9:00am"}, {"days": "Sun", "time": "Closed"}], "id": "2116000002", "name": "USPS COLLECTION BOX - BLUE BOX", "address": {"city": "WHITEFORD", "state": "MD", "street": "1606 DOOLEY RD", "postcode": "21160"}}},
{"geometry": {"type": "Point", "coordinates": [-76.3934750225, 39.7179563487]}, "type": "Feature", "properties": {"collection_times": [{"days": "Mon-Sat", "time": "10:00am"}, {"days": "Sun", "time": "Closed"}], "id": "2116000003", "name": "USPS COLLECTION BOX - BLUE BOX", "address": {"city": "WHITEFORD", "state": "MD", "street": "2902 WHITEFORD RD", "postcode": "21160"}}},
{"geometry": {"type": "Point", "coordinates": [-76.3449796198, 39.7094615204]}, "type": "Feature", "properties": {"collection_times": [{"days": "Mon-Fri", "time": "4:30pm"}, {"days": "Sat", "time": "12:00pm"}, {"days": "Sun", "time": "Closed"}], "id": "2116000004", "name": "USPS COLLECTION BOX - BLUE BOX", "address": {"city": "WHITEFORD", "state": "MD", "street": "1508 MAIN ST", "postcode": "21160"}}},
{"geometry": {"type": "Point", "coordinates": [-76.3449796198, 39.7094615204]}, "type": "Feature", "properties": {"collection_times": [{"days": "Mon-Fri", "time": "4:30pm"}, {"days": "Sat", "time": "12:00pm"}, {"days": "Sun", "time": "Closed"}], "id": "2116000005", "name": "USPS COLLECTION BOX - PO LOBBY", "address": {"city": "WHITEFORD", "state": "MD", "street": "1508 MAIN ST", "postcode": "21160"}}},
{"geometry": {"type": "Point", "coordinates": [-76.3449796198, 39.7094615204]}, "type": "Feature", "properties": {"collection_times": [{"days": "Mon-Fri", "time": "4:30pm"}, {"days": "Sat", "time": "12:00pm"}, {"days": "Sun", "time": "Closed"}], "id": "2116000006", "name": "USPS COLLECTION BOX - PO LOBBY", "address": {"city": "WHITEFORD", "state": "MD", "street": "1508 MAIN ST", "postcode": "21160"}}},
{"geometry": {"type": "Point", "coordinates": [-76.6291560962, 39.6220183003]}, "type": "Feature", "properties": {"collection_times": [{"days": "Mon-Fri", "time": "4:30pm"}, {"days": "Sat", "time": "12:00pm"}, {"days": "Sun", "time": "Closed"}], "id": "2116100005", "name": "USPS COLLECTION BOX - BLUE BOX", "address": {"city": "WHITE HALL", "state": "MD", "street": "1415 WISEBURG RD", "postcode": "21161"}}},
{"geometry": {"type": "Point", "coordinates": [-76.6291560962, 39.6220183003]}, "type": "Feature", "properties": {"collection_times": [{"days": "Mon-Fri", "time": "4:30pm"}, {"days": "Sat", "time": "12:00pm"}, {"days": "Sun", "time": "Closed"}], "id": "2116100006", "name": "USPS COLLECTION BOX - PO LOBBY", "address": {"city": "WHITE HALL", "state": "MD", "street": "1415 WISEBURG RD", "postcode": "21161"}}},
{"geometry": {"type": "Point", "coordinates": [-76.4311945185, 39.3833243018]}, "type": "Feature", "properties": {"collection_times": [{"days": "Mon-Fri", "time": "4:30pm"}, {"days": "Sat", "time": "11:30am"}, {"days": "Sun", "time": "Closed"}], "id": "2116200001", "name": "USPS COLLECTION BOX - BLUE BOX", "address": {"city": "WHITE MARSH", "state": "MD", "street": "5422 EBENEZER RD", "postcode": "21162"}}},
{"geometry": {"type": "Point", "coordinates": [-76.4311945185, 39.3833243018]}, "type": "Feature", "properties": {"collection_times": [{"days": "Mon-Fri", "time": "4:30pm"}, {"days": "Sat-Sun", "time": "Closed"}], "id": "2116200003", "name": "USPS COLLECTION BOX - PO LOBBY", "address": {"city": "WHITE MARSH", "state": "MD", "street": "5422 EBENEZER RD", "postcode": "21162"}}},
{"geometry": {"type": "Point", "coordinates": [-76.8823351807, 39.31625779]}, "type": "Feature", "properties": {"collection_times": [{"days": "Mon-Fri", "time": "4:00pm"}, {"days": "Sat", "time": "12:00pm"}, {"days": "Sun", "time": "Closed"}], "id": "2116300001", "name": "USPS COLLECTION BOX - BLUE BOX", "address": {"city": "WOODSTOCK", "state": "MD", "street": "10501 ROUTE 99", "postcode": "21163"}}},
{"geometry": {"type": "Point", "coordinates": [-76.8823351807, 39.31625779]}, "type": "Feature", "properties": {"collection_times": [{"days": "Mon-Fri", "time": "4:00pm"}, {"days": "Sat", "time": "12:00pm"}, {"days": "Sun", "time": "Closed"}], "id": "2116300003", "name": "USPS COLLECTION BOX - BLUE BOX", "address": {"city": "WOODSTOCK", "state": "MD", "street": "10501 ROUTE 99", "postcode": "21163"}}},
{"geometry": {"type": "Point", "coordinates": [-76.8823351807, 39.31625779]}, "type": "Feature", "properties": {"collection_times": [{"days": "Mon-Fri", "time": "4:45pm"}, {"days": "Sat", "time": "12:45pm"}, {"days": "Sun", "time": "Closed"}], "id": "2116300004", "name": "USPS COLLECTION BOX - PO LOBBY", "address": {"city": "WOODSTOCK", "state": "MD", "street": "10501 ROUTE 99", "postcode": "21163"}}},
{"geometry": {"type": "Point", "coordinates": [-76.8886019463, 39.3082312372]}, "type": "Feature", "properties": {"collection_times": [{"days": "Mon-Sat", "time": "10:00am"}, {"days": "Sun", "time": "Closed"}], "id": "2116300005", "name": "USPS COLLECTION BOX - BLUE BOX", "address": {"city": "WOODSTOCK", "state": "MD", "street": "10775 BIRMINGHAM WAY", "postcode": "21163"}}},
{"geometry": {"type": "Point", "coordinates": [-76.8823351807, 39.31625779]}, "type": "Feature", "properties": {"collection_times": [{"days": "Mon-Fri", "time": "4:45pm"}, {"days": "Sat", "time": "12:45pm"}, {"days": "Sun", "time": "Closed"}], "id": "2116300006", "name": "USPS COLLECTION BOX - PO LOBBY", "address": {"city": "WOODSTOCK", "state": "MD", "street": "10501 ROUTE 99", "postcode": "21163"}}}
]}
