{"type": "FeatureCollection", "features": [
{"geometry": {"type": "Point", "coordinates": [-76.487829186, 38.9774733137]}, "type": "Feature", "properties": {"collection_times": [{"days": "Mon-Fri", "time": "3:30pm"}, {"days": "Sat", "time": "11:10am"}, {"days": "Sun", "time": "Closed"}], "id": "2140100001", "name": "USPS COLLECTION BOX - BLUE BOX", "address": {"city": "ANNAPOLIS", "state": "MD", "street": "100 MAIN ST", "postcode": "21401"}}},
{"geometry": {"type": "Point", "coordinates": [-76.5035653365, 38.9876424039]}, "type": "Feature", "properties": {"collection_times": [{"days": "Mon-Fri", "time": "3:45pm"}, {"days": "Sat", "time": "11:55am"}, {"days": "Sun", "time": "Closed"}], "id": "2140100009", "name": "USPS COLLECTION BOX - BLUE BOX", "address": {"city": "ANNAPOLIS", "state": "MD", "street": "251 ROWE BLVD", "postcode": "21401"}}},
{"geometry": {"type": "Point", "coordinates": [-76.5293999398, 38.9833104691]}, "type": "Feature", "properties": {"collection_times": [{"days": "Mon-Fri", "time": "4:45pm"}, {"days": "Sat", "time": "12:00pm"}, {"days": "Sun", "time": "Closed"}], "id": "2140100014", "name": "USPS COLLECTION BOX - BLUE BOX", "address": {"city": "ANNAPOLIS", "state": "MD", "street": "1 CHURCH CIR", "postcode": "21401"}}},
{"geometry": {"type": "Point", "coordinates": [-76.5293999398, 38.9833104691]}, "type": "Feature", "properties": {"collection_times": [{"days": "Mon-Fri", "time": "4:45pm"}, {"days": "Sat", "time": "12:00pm"}, {"days": "Sun", "time": "Closed"}], "id": "2140100015", "name": "USPS COLLECTION BOX - BLUE BOX", "address": {"city": "ANNAPOLIS", "state": "MD", "street": "1 CHURCH CIR", "postcode": "21401"}}},
{"geometry": {"type": "Point", "coordinates": [-76.4902722036, 38.978291147]}, "type": "Feature", "properties": {"collection_times": [{"days": "Mon-Fri", "time": "3:40pm"}, {"days": "Sat", "time": "11:15am"}, {"days": "Sun", "time": "Closed"}], "id": "2140100024", "name": "USPS COLLECTION BOX - BLUE BOX", "address": {"city": "ANNAPOLIS", "state": "MD", "street": "44 STATE CIR", "postcode": "21401"}}},
{"geometry": {"type": "Point", "coordinates": [-76.4907197842, 38.9780278212]}, "type": "Feature", "properties": {"collection_times": [{"days": "Mon-Fri", "time": "3:35pm"}, {"days": "Sat", "time": "11:10am"}, {"days": "Sun", "time": "Closed"}], "id": "2140100025", "name": "USPS COLLECTION BOX - BLUE BOX", "address": {"city": "ANNAPOLIS", "state": "MD", "street": "210 MAIN ST", "postcode": "21401"}}},
{"geometry": {"type": "Point", "coordinates": [-76.515875355, 38.9844213017]}, "type": "Feature", "properties": {"collection_times": [{"days": "Mon-Fri", "time": "3:50pm"}, {"days": "Sat", "time": "12:20pm"}, {"days": "Sun", "time": "Closed"}], "id": "2140100035", "name": "USPS COLLECTION BOX - BLUE BOX", "address": {"city": "ANNAPOLIS", "state": "MD", "street": "5 SAMPSON PL", "postcode": "21401"}}},
{"geometry": {"type": "Point", "coordinates": [-76.5133366356, 38.9959987729]}, "type": "Feature", "properties": {"collection_times": [{"days": "Mon-Fri", "time": "3:25pm"}, {"days": "Sat", "time": "12:10pm"}, {"days": "Sun", "time": "Closed"}], "id": "2140100044", "name": "USPS COLLECTION BOX - BLUE BOX", "address": {"city": "ANNAPOLIS", "state": "MD", "street": "600 RIDGELY AVE", "postcode": "21401"}}},
{"geometry": {"type": "Point", "coordinates": [-76.5016181461, 38.9924006609]}, "type": "Feature", "properties": {"collection_times": [{"days": "Mon-Fri", "time": "3:30pm"}, {"days": "Sat", "time": "12:00pm"}, {"days": "Sun", "time": "Closed"}], "id": "2140100049", "name": "USPS COLLECTION BOX - BLUE BOX", "address": {"city": "ANNAPOLIS", "state": "MD", "street": "411 MELVIN AVE", "postcode": "21401"}}},
{"geometry": {"type": "Point", "coordinates": [-76.5042555015, 38.9883771455]}, "type": "Feature", "properties": {"collection_times": [{"days": "Mon-Fri", "time": "3:30pm"}, {"days": "Sat", "time": "12:00pm"}, {"days": "Sun", "time": "Closed"}], "id": "2140100050", "name": "USPS COLLECTION BOX - BLUE BOX", "address": {"city": "ANNAPOLIS", "state": "MD", "street": "108 FORBES ST", "postcode": "21401"}}},
{"geometry": {"type": "Point", "coordinates": [-76.5524583622, 38.9894856085]}, "type": "Feature", "properties": {"collection_times": [{"days": "Mon-Fri", "time": "3:55pm"}, {"days": "Sat", "time": "11:30am"}, {"days": "Sun", "time": "Closed"}], "id": "2140100054", "name": "USPS COLLECTION BOX - BLUE BOX", "address": {"city": "ANNAPOLIS", "state": "MD", "street": "2341 FOREST DR STE O", "postcode": "21401"}}},
{"geometry": {"type": "Point", "coordinates": [-76.4874670423, 38.9751274988]}, "type": "Feature", "properties": {"collection_times": [{"days": "Mon-Fri", "time": "3:30pm"}, {"days": "Sat", "time": "11:05am"}, {"days": "Sun", "time": "Closed"}], "id": "2140100060", "name": "USPS COLLECTION BOX - BLUE BOX", "address": {"city": "ANNAPOLIS", "state": "MD", "street": "104 DUKE OF GLOUCESTER ST", "postcode": "21401"}}},
{"geometry": {"type": "Point", "coordinates": [-76.5032410794, 38.9763259266]}, "type": "Feature", "properties": {"collection_times": [{"days": "Mon-Fri", "time": "3:15pm"}, {"days": "Sat", "time": "11:00am"}, {"days": "Sun", "time": "Closed"}], "id": "2140100061", "name": "USPS COLLECTION BOX - BLUE BOX", "address": {"city": "ANNAPOLIS", "state": "MD", "street": "275 WEST ST", "postcode": "21401"}}},
{"geometry": {"type": "Point", "coordinates": [-76.4989884608, 38.9739400253]}, "type": "Feature", "properties": {"collection_times": [{"days": "Mon-Fri", "time": "3:15pm"}, {"days": "Sat", "time": "11:00am"}, {"days": "Sun", "time": "Closed"}], "id": "2140100065", "name": "USPS COLLECTION BOX - BLUE BOX", "address": {"city": "ANNAPOLIS", "state": "MD", "street": "139 LAFAYETTE AVE", "postcode": "21401"}}},
{"geometry": {"type": "Point", "coordinates": [-76.5265143641, 38.9747964347]}, "type": "Feature", "properties": {"collection_times": [{"days": "Mon-Fri", "time": "4:05pm"}, {"days": "Sat", "time": "11:30am"}, {"days": "Sun", "time": "Closed"}], "id": "2140100067", "name": "USPS COLLECTION BOX - BLUE BOX", "address": {"city": "ANNAPOLIS", "state": "MD", "street": "1914 FOREST DR", "postcode": "21401"}}},
{"geometry": {"type": "Point", "coordinates": [-76.5147530833, 38.9778253943]}, "type": "Feature", "properties": {"collection_times": [{"days": "Mon-Fri", "time": "4:00pm"}, {"days": "Sat", "time": "11:30am"}, {"days": "Sun", "time": "Closed"}], "id": "2140100068", "name": "USPS COLLECTION BOX - BLUE BOX", "address": {"city": "ANNAPOLIS", "state": "MD", "street": "1 S CHERRY GROVE AVE", "postcode": "21401"}}},
{"geometry": {"type": "Point", "coordinates": [-76.5096781702, 38.9880042382]}, "type": "Feature", "properties": {"collection_times": [{"days": "Mon-Fri", "time": "3:50pm"}, {"days": "Sat", "time": "12:20pm"}, {"days": "Sun", "time": "Closed"}], "id": "2140100070", "name": "USPS COLLECTION BOX - BLUE BOX", "address": {"city": "ANNAPOLIS", "state": "MD", "street": "416 DEWEY DR", "postcode": "21401"}}},
{"geometry": {"type": "Point", "coordinates": [-76.5271607109, 38.9829692543]}, "type": "Feature", "properties": {"collection_times": [{"days": "Mon-Fri", "time": "2:15pm"}, {"days": "Sat", "time": "12:25pm"}, {"days": "Sun", "time": "Closed"}], "id": "2140100077", "name": "USPS COLLECTION BOX - BLUE BOX", "address": {"city": "ANNAPOLIS", "state": "MD", "street": "1990 MORELAND PKWY", "postcode": "21401"}}},
{"geometry": {"type": "Point", "coordinates": [-76.5595134025, 38.9747550605]}, "type": "Feature", "properties": {"collection_times": [{"days": "Mon-Fri", "time": "4:15pm"}, {"days": "Sat", "time": "11:25am"}, {"days": "Sun", "time": "Closed"}], "id": "2140100086", "name": "USPS COLLECTION BOX - BLUE BOX", "address": {"city": "ANNAPOLIS", "state": "MD", "street": "2661 RIVA RD", "postcode": "21401"}}},
{"geometry": {"type": "Point", "coordinates": [-76.5293999398, 38.9833104691]}, "type": "Feature", "properties": {"collection_times": [{"days": "Mon-Fri", "time": "4:15pm"}, {"days": "Sat", "time": "11:20am"}, {"days": "Sun", "time": "Closed"}], "id": "2140100090", "name": "USPS COLLECTION BOX - BLUE BOX", "address": {"city": "ANNAPOLIS", "state": "MD", "street": "2973 RIVA TRACE PKWY", "postcode": "21401"}}},
{"geometry": {"type": "Point", "coordinates": [-76.5896280861, 38.9763318071]}, "type": "Feature", "properties": {"collection_times": [{"days": "Mon-Fri", "time": "4:05pm"}, {"days": "Sat", "time": "11:10am"}, {"days": "Sun", "time": "Closed"}], "id": "2140100092", "name": "USPS COLLECTION BOX - BLUE BOX", "address": {"city": "ANNAPOLIS", "state": "MD", "street": "801 COMPASS WAY STE 5", "postcode": "21401"}}},
{"geometry": {"type": "Point", "coordinates": [-76.5460202371, 38.9798569902]}, "type": "Feature", "properties": {"collection_times": [{"days": "Mon-Fri", "time": "3:55pm"}, {"days": "Sat", "time": "11:30am"}, {"days": "Sun", "time": "Closed"}], "id": "2140100100", "name": "USPS COLLECTION BOX - BLUE BOX", "address": {"city": "ANNAPOLIS", "state": "MD", "street": "130 HEARNE RD", "postcode": "21401"}}},
{"geometry": {"type": "Point", "coordinates": [-76.5918371307, 38.9818707794]}, "type": "Feature", "properties": {"collection_times": [{"days": "Mon-Fri", "time": "4:05pm"}, {"days": "Sat", "time": "11:05am"}, {"days": "Sun", "time": "Closed"}], "id": "2140100102", "name": "USPS COLLECTION BOX - BLUE BOX", "address": {"city": "ANNAPOLIS", "state": "MD", "street": "901 MASTLINE DR", "postcode": "21401"}}},
{"geometry": {"type": "Point", "coordinates": [-76.5115413937, 38.9769512593]}, "type": "Feature", "properties": {"collection_times": [{"days": "Mon-Fri", "time": "2:10pm"}, {"days": "Sat", "time": "11:45am"}, {"days": "Sun", "time": "Closed"}], "id": "2140100103", "name": "USPS COLLECTION BOX - BLUE BOX", "address": {"city": "ANNAPOLIS", "state": "MD", "street": "1127 WEST ST", "postcode": "21401"}}},
{"geometry": {"type": "Point", "coordinates": [-76.5606460516, 38.9740999219]}, "type": "Feature", "properties": {"collection_times": [{"days": "Mon-Fri", "time": "4:15pm"}, {"days": "Sat", "time": "11:15am"}, {"days": "Sun", "time": "Closed"}], "id": "2140100118", "name": "USPS COLLECTION BOX - BLUE BOX", "address": {"city": "ANNAPOLIS", "state": "MD", "street": "2660 RIVA RD", "postcode": "21401"}}},
{"geometry": {"type": "Point", "coordinates": [-76.546524, 38.97284]}, "type": "Feature", "properties": {"collection_times": [{"days": "Mon-Fri", "time": "4:15pm"}, {"days": "Sat", "time": "11:45am"}, {"days": "Sun", "time": "Closed"}], "id": "2140100124", "name": "USPS COLLECTION BOX - BLUE BOX", "address": {"city": "ANNAPOLIS", "state": "MD", "street": "1 WOMACK DR", "postcode": "21401"}}},
{"geometry": {"type": "Point", "coordinates": [-76.5426631552, 38.9887580854]}, "type": "Feature", "properties": {"collection_times": [{"days": "Mon-Fri", "time": "3:00pm"}, {"days": "Sat", "time": "12:45pm"}, {"days": "Sun", "time": "Closed"}], "id": "2140100126", "name": "USPS COLLECTION BOX - BLUE BOX", "address": {"city": "ANNAPOLIS", "state": "MD", "street": "26 ANNAPOLIS MALL", "postcode": "21401"}}},
{"geometry": {"type": "Point", "coordinates": [-76.5523282376, 38.985462192]}, "type": "Feature", "properties": {"collection_times": [{"days": "Mon-Fri", "time": "2:45pm"}, {"days": "Sat", "time": "1:15pm"}, {"days": "Sun", "time": "Closed"}], "id": "2140100133", "name": "USPS COLLECTION BOX - BLUE BOX", "address": {"city": "ANNAPOLIS", "state": "MD", "street": "133 DEFENSE HWY", "postcode": "21401"}}},
{"geometry": {"type": "Point", "coordinates": [-76.5573290792, 38.9784612704]}, "type": "Feature", "properties": {"collection_times": [{"days": "Mon-Fri", "time": "4:00pm"}, {"days": "Sat", "time": "11:00am"}, {"days": "Sun", "time": "Closed"}], "id": "2140100138", "name": "USPS COLLECTION BOX - BLUE BOX", "address": {"city": "ANNAPOLIS", "state": "MD", "street": "200 HARRY S TRUMAN PKWY", "postcode": "21401"}}},
{"geometry": {"type": "Point", "coordinates": [-76.5342607057, 38.9828695596]}, "type": "Feature", "properties": {"collection_times": [{"days": "Mon-Fri", "time": "2:20pm"}, {"days": "Sat", "time": "12:25pm"}, {"days": "Sun", "time": "Closed"}], "id": "2140100149", "name": "USPS COLLECTION BOX - BLUE BOX", "address": {"city": "ANNAPOLIS", "state": "MD", "street": "2024 WEST ST", "postcode": "21401"}}},
{"geometry": {"type": "Point", "coordinates": [-76.5027922605, 38.9890809143]}, "type": "Feature", "properties": {"collection_times": [{"days": "Mon-Fri", "time": "3:35pm"}, {"days": "Sat", "time": "12:00pm"}, {"days": "Sun", "time": "Closed"}], "id": "2140100167", "name": "USPS COLLECTION BOX - BLUE BOX", "address": {"city": "ANNAPOLIS", "state": "MD", "street": "20 RIDGELY AVE", "postcode": "21401"}}},
{"geometry": {"type": "Point", "coordinates": [-76.4980678103, 38.9840662775]}, "type": "Feature", "properties": {"collection_times": [{"days": "Mon-Fri", "time": "3:40pm"}, {"days": "Sat", "time": "11:55am"}, {"days": "Sun", "time": "Closed"}], "id": "2140100168", "name": "USPS COLLECTION BOX - BLUE BOX", "address": {"city": "ANNAPOLIS", "state": "MD", "street": "361 ROWE BLVD", "postcode": "21401"}}},
{"geometry": {"type": "Point", "coordinates": [-76.4942182603, 38.9772792959]}, "type": "Feature", "properties": {"collection_times": [{"days": "Mon-Fri", "time": "3:20pm"}, {"days": "Sat", "time": "11:05am"}, {"days": "Sun", "time": "Closed"}], "id": "2140100173", "name": "USPS COLLECTION BOX - BLUE BOX", "address": {"city": "ANNAPOLIS", "state": "MD", "street": "67 FRANKLIN ST", "postcode": "21401"}}},
{"geometry": {"type": "Point", "coordinates": [-76.5200670266, 38.9770963448]}, "type": "Feature", "properties": {"collection_times": [{"days": "Mon-Fri", "time": "4:45pm"}, {"days": "Sat", "time": "12:00pm"}, {"days": "Sun", "time": "Closed"}], "id": "2140100176", "name": "USPS COLLECTION BOX - BLUE BOX", "address": {"city": "ANNAPOLIS", "state": "MD", "street": "210 LEGION AVE", "postcode": "21401"}}},
{"geometry": {"type": "Point", "coordinates": [-76.5200670266, 38.9770963448]}, "type": "Feature", "properties": {"collection_times": [{"days": "Mon-Fri", "time": "4:45pm"}, {"days": "Sat", "time": "12:00pm"}, {"days": "Sun", "time": "Closed"}], "id": "2140100178", "name": "USPS COLLECTION BOX - BLUE BOX", "address": {"city": "ANNAPOLIS", "state": "MD", "street": "210 LEGION AVE", "postcode": "21401"}}},
{"geometry": {"type": "Point", "coordinates": [-76.5304675739, 38.9925357508]}, "type": "Feature", "properties": {"collection_times": [{"days": "Mon-Fri", "time": "3:00pm"}, {"days": "Sat", "time": "12:45pm"}, {"days": "Sun", "time": "Closed"}], "id": "2140100181", "name": "USPS COLLECTION BOX - BLUE BOX", "address": {"city": "ANNAPOLIS", "state": "MD", "street": "626C ADMIRAL DR", "postcode": "21401"}}},
{"geometry": {"type": "Point", "coordinates": [-76.5523059481, 38.9771489216]}, "type": "Feature", "properties": {"collection_times": [{"days": "Mon-Fri", "time": "4:00pm"}, {"days": "Sat", "time": "11:00am"}, {"days": "Sun", "time": "Closed"}], "id": "2140100183", "name": "USPS COLLECTION BOX - BLUE BOX", "address": {"city": "ANNAPOLIS", "state": "MD", "street": "2568A RIVA RD", "postcode": "21401"}}},
{"geometry": {"type": "Point", "coordinates": [-76.5293999398, 38.9833104691]}, "type": "Feature", "properties": {"collection_times": [{"days": "Mon-Fri", "time": "4:45pm"}, {"days": "Sat", "time": "12:00pm"}, {"days": "Sun", "time": "Closed"}], "id": "2140100185", "name": "USPS COLLECTION BOX - BLUE BOX", "address": {"city": "ANNAPOLIS", "state": "MD", "street": "1 CHURCH CIR", "postcode": "21401"}}},
{"geometry": {"type": "Point", "coordinates": [-76.5155419812, 38.9976658287]}, "type": "Feature", "properties": {"collection_times": [{"days": "Mon-Fri", "time": "3:25pm"}, {"days": "Sat", "time": "12:10pm"}, {"days": "Sun", "time": "Closed"}], "id": "2140100186", "name": "USPS COLLECTION BOX - BLUE BOX", "address": {"city": "ANNAPOLIS", "state": "MD", "street": "621 RIDGELY AVE", "postcode": "21401"}}},
{"geometry": {"type": "Point", "coordinates": [-76.5375398351, 38.9845310515]}, "type": "Feature", "properties": {"collection_times": [{"days": "Mon-Fri", "time": "2:15pm"}, {"days": "Sat", "time": "12:30pm"}, {"days": "Sun", "time": "Closed"}], "id": "2140100187", "name": "USPS COLLECTION BOX - BLUE BOX", "address": {"city": "ANNAPOLIS", "state": "MD", "street": "2448 HOLLY AVE", "postcode": "21401"}}},
{"geometry": {"type": "Point", "coordinates": [-76.4954718, 38.978348208]}, "type": "Feature", "properties": {"collection_times": [{"days": "Mon-Fri", "time": "5:00pm"}, {"days": "Sat-Sun", "time": "Closed"}], "id": "2140100188", "name": "USPS COLLECTION BOX - PO LOBBY", "address": {"city": "ANNAPOLIS", "state": "MD", "street": "60 WEST ST", "postcode": "21401"}}},
{"geometry": {"type": "Point", "coordinates": [-76.5200670266, 38.9770963448]}, "type": "Feature", "properties": {"collection_times": [{"days": "Mon-Fri", "time": "5:00pm"}, {"days": "Sat", "time": "1:00pm"}, {"days": "Sun", "time": "Closed"}], "id": "2140100189", "name": "USPS COLLECTION BOX - PO LOBBY", "address": {"city": "ANNAPOLIS", "state": "MD", "street": "210 LEGION AVE", "postcode": "21401"}}},
{"geometry": {"type": "Point", "coordinates": [-76.5448203205, 38.9674329406]}, "type": "Feature", "properties": {"collection_times": [{"days": "Mon-Fri", "time": "4:10pm"}, {"days": "Sat", "time": "11:40am"}, {"days": "Sun", "time": "Closed"}], "id": "2140100190", "name": "USPS COLLECTION BOX - BLUE BOX", "address": {"city": "ANNAPOLIS", "state": "MD", "street": "2558 SOLOMONS ISLAND RD", "postcode": "21401"}}},
{"geometry": {"type": "Point", "coordinates": [-76.5200670266, 38.9770963448]}, "type": "Feature", "properties": {"collection_times": [{"days": "Mon-Fri", "time": "5:00pm"}, {"days": "Sat", "time": "1:00pm"}, {"days": "Sun", "time": "Closed"}], "id": "2140100192", "name": "USPS COLLECTION BOX - PO LOBBY", "address": {"city": "ANNAPOLIS", "state": "MD", "street": "210 LEGION AVE", "postcode": "21401"}}},
{"geometry": {"type": "Point", "coordinates": [-76.501779524, 38.9881460271]}, "type": "Feature", "properties": {"collection_times": [{"days": "Mon-Fri", "time": "3:40pm"}, {"days": "Sat", "time": "12:00pm"}, {"days": "Sun", "time": "Closed"}], "id": "2140100193", "name": "USPS COLLECTION BOX - BLUE BOX", "address": {"city": "ANNAPOLIS", "state": "MD", "street": "609 TAYLOR AVE", "postcode": "21401"}}},
{"geometry": {"type": "Point", "coordinates": [-76.5216994176, 38.9970488287]}, "type": "Feature", "properties": {"collection_times": [{"days": "Mon-Fri", "time": "3:05pm"}, {"days": "Sat", "time": "12:50pm"}, {"days": "Sun", "time": "Closed"}], "id": "2140100195", "name": "USPS COLLECTION BOX - BLUE BOX", "address": {"city": "ANNAPOLIS", "state": "MD", "street": "2001 TIDEWATER COLONY DR", "postcode": "21401"}}},
{"geometry": {"type": "Point", "coordinates": [-76.5467789443, 38.9918748175]}, "type": "Feature", "properties": {"collection_times": [{"days": "Mon-Fri", "time": "2:50pm"}, {"days": "Sat", "time": "12:40pm"}, {"days": "Sun", "time": "Closed"}], "id": "2140100196", "name": "USPS COLLECTION BOX - BLUE BOX", "address": {"city": "ANNAPOLIS", "state": "MD", "street": "2002 MEDICAL PKWY", "postcode": "21401"}}},
{"geometry": {"type": "Point", "coordinates": [-76.5451445574, 38.9924275052]}, "type": "Feature", "properties": {"collection_times": [{"days": "Mon-Fri", "time": "2:35pm"}, {"days": "Sat", "time": "1:00pm"}, {"days": "Sun", "time": "Closed"}], "id": "2140100197", "name": "USPS COLLECTION BOX - BLUE BOX", "address": {"city": "ANNAPOLIS", "state": "MD", "street": "900 BESTGATE RD", "postcode": "21401"}}},
{"geometry": {"type": "Point", "coordinates": [-76.4893744416, 38.9802476966]}, "type": "Feature", "properties": {"collection_times": [{"days": "Mon-Fri", "time": "3:40pm"}, {"days": "Sat", "time": "11:15am"}, {"days": "Sun", "time": "Closed"}], "id": "2140100201", "name": "USPS COLLECTION BOX - BLUE BOX", "address": {"city": "ANNAPOLIS", "state": "MD", "street": "45 MARYLAND AVE", "postcode": "21401"}}},
{"geometry": {"type": "Point", "coordinates": [-76.4908929209, 38.9804797055]}, "type": "Feature", "properties": {"collection_times": [{"days": "Mon-Fri", "time": "3:40pm"}, {"days": "Sat", "time": "11:20am"}, {"days": "Sun", "time": "Closed"}], "id": "2140100218", "name": "USPS COLLECTION BOX - BLUE BOX", "address": {"city": "ANNAPOLIS", "state": "MD", "street": "85 COLLEGE AVE", "postcode": "21401"}}},
{"geometry": {"type": "Point", "coordinates": [-76.49586732, 38.9783216182]}, "type": "Feature", "properties": {"collection_times": [{"days": "Mon-Fri", "time": "3:25pm"}, {"days": "Sat", "time": "11:00am"}, {"days": "Sun", "time": "Closed"}], "id": "2140100222", "name": "USPS COLLECTION BOX - BLUE BOX", "address": {"city": "ANNAPOLIS", "state": "MD", "street": "60 WEST ST", "postcode": "21401"}}},
{"geometry": {"type": "Point", "coordinates": [-76.5487610636, 38.988085334]}, "type": "Feature", "properties": {"collection_times": [{"days": "Mon-Fri", "time": "2:45pm"}, {"days": "Sat", "time": "1:10pm"}, {"days": "Sun", "time": "Closed"}], "id": "2140100228", "name": "USPS COLLECTION BOX - BLUE BOX", "address": {"city": "ANNAPOLIS", "state": "MD", "street": "2100 GENERALS HWY", "postcode": "21401"}}},
{"geometry": {"type": "Point", "coordinates": [-76.4980678103, 38.9840662775]}, "type": "Feature", "properties": {"collection_times": [{"days": "Mon-Fri", "time": "3:40pm"}, {"days": "Sat", "time": "11:55am"}, {"days": "Sun", "time": "Closed"}], "id": "2140100236", "name": "USPS COLLECTION BOX - BLUE BOX", "address": {"city": "ANNAPOLIS", "state": "MD", "street": "361 ROWE BLVD", "postcode": "21401"}}},
{"geometry": {"type": "Point", "coordinates": [-76.5110929052, 38.961903231]}, "type": "Feature", "properties": {"collection_times": [{"days": "Mon-Fri", "time": "4:10pm"}, {"days": "Sat", "time": "2:10pm"}, {"days": "Sun", "time": "Closed"}], "id": "2140300002", "name": "USPS COLLECTION BOX - BLUE BOX", "address": {"city": "ANNAPOLIS", "state": "MD", "street": "1410 FOREST DR", "postcode": "21403"}}},
{"geometry": {"type": "Point", "coordinates": [-76.5105296536, 38.9604577521]}, "type": "Feature", "properties": {"collection_times": [{"days": "Mon-Fri", "time": "4:15pm"}, {"days": "Sat", "time": "2:15pm"}, {"days": "Sun", "time": "Closed"}], "id": "2140300003", "name": "USPS COLLECTION BOX - BLUE BOX", "address": {"city": "ANNAPOLIS", "state": "MD", "street": "1419 FOREST DR", "postcode": "21403"}}},
{"geometry": {"type": "Point", "coordinates": [-76.4936155694, 38.9622498562]}, "type": "Feature", "properties": {"collection_times": [{"days": "Mon-Fri", "time": "3:55pm"}, {"days": "Sat", "time": "1:55pm"}, {"days": "Sun", "time": "Closed"}], "id": "2140300006", "name": "USPS COLLECTION BOX - BLUE BOX", "address": {"city": "ANNAPOLIS", "state": "MD", "street": "1101 VAN BUREN ST", "postcode": "21403"}}},
{"geometry": {"type": "Point", "coordinates": [-76.478455, 38.953003]}, "type": "Feature", "properties": {"collection_times": [{"days": "Mon-Fri", "time": "4:25pm"}, {"days": "Sat", "time": "2:35pm"}, {"days": "Sun", "time": "Closed"}], "id": "2140300008", "name": "USPS COLLECTION BOX - BLUE BOX", "address": {"city": "ANNAPOLIS", "state": "MD", "street": "1000 EAGLEWOOD RD", "postcode": "21403"}}},
{"geometry": {"type": "Point", "coordinates": [-76.4804771179, 38.9709175591]}, "type": "Feature", "properties": {"collection_times": [{"days": "Mon-Fri", "time": "3:35pm"}, {"days": "Sat", "time": "1:35pm"}, {"days": "Sun", "time": "Closed"}], "id": "2140300013", "name": "USPS COLLECTION BOX - BLUE BOX", "address": {"city": "ANNAPOLIS", "state": "MD", "street": "318 CHESAPEAKE AVE", "postcode": "21403"}}},
{"geometry": {"type": "Point", "coordinates": [-76.4860836398, 38.9653090904]}, "type": "Feature", "properties": {"collection_times": [{"days": "Mon-Fri", "time": "4:45pm"}, {"days": "Sat", "time": "2:45pm"}, {"days": "Sun", "time": "Closed"}], "id": "2140300019", "name": "USPS COLLECTION BOX - BLUE BOX", "address": {"city": "ANNAPOLIS", "state": "MD", "street": "660 AMERICANA DR", "postcode": "21403"}}},
{"geometry": {"type": "Point", "coordinates": [-76.5107786755, 38.9702861664]}, "type": "Feature", "properties": {"collection_times": [{"days": "Mon-Fri", "time": "4:05pm"}, {"days": "Sat", "time": "2:05pm"}, {"days": "Sun", "time": "Closed"}], "id": "2140300023", "name": "USPS COLLECTION BOX - BLUE BOX", "address": {"city": "ANNAPOLIS", "state": "MD", "street": "1029 SPA RD", "postcode": "21403"}}},
{"geometry": {"type": "Point", "coordinates": [-76.4934410567, 38.9465721569]}, "type": "Feature", "properties": {"collection_times": [{"days": "Mon-Fri", "time": "4:20pm"}, {"days": "Sat", "time": "2:30pm"}, {"days": "Sun", "time": "Closed"}], "id": "2140300025", "name": "USPS COLLECTION BOX - BLUE BOX", "address": {"city": "ANNAPOLIS", "state": "MD", "street": "100 HILLSMERE CT", "postcode": "21403"}}},
{"geometry": {"type": "Point", "coordinates": [-76.4893054988, 38.964832577]}, "type": "Feature", "properties": {"collection_times": [{"days": "Mon-Fri", "time": "4:40pm"}, {"days": "Sat", "time": "2:40pm"}, {"days": "Sun", "time": "Closed"}], "id": "2140300027", "name": "USPS COLLECTION BOX - BLUE BOX", "address": {"city": "ANNAPOLIS", "state": "MD", "street": "1017 BAY RIDGE AVE", "postcode": "21403"}}},
{"geometry": {"type": "Point", "coordinates": [-76.488985345, 38.9482908833]}, "type": "Feature", "properties": {"collection_times": [{"days": "Mon-Fri", "time": "4:30pm"}, {"days": "Sat", "time": "2:30pm"}, {"days": "Sun", "time": "Closed"}], "id": "2140300031", "name": "USPS COLLECTION BOX - BLUE BOX", "address": {"city": "ANNAPOLIS", "state": "MD", "street": "948 BAY RIDGE RD", "postcode": "21403"}}},
{"geometry": {"type": "Point", "coordinates": [-76.4826997274, 38.9715901681]}, "type": "Feature", "properties": {"collection_times": [{"days": "Mon-Fri", "time": "3:40pm"}, {"days": "Sat", "time": "1:40pm"}, {"days": "Sun", "time": "Closed"}], "id": "2140300043", "name": "USPS COLLECTION BOX - BLUE BOX", "address": {"city": "ANNAPOLIS", "state": "MD", "street": "410 SEVERN AVE", "postcode": "21403"}}},
{"geometry": {"type": "Point", "coordinates": [-76.4801490355, 38.9726844137]}, "type": "Feature", "properties": {"collection_times": [{"days": "Mon-Fri", "time": "3:35pm"}, {"days": "Sat", "time": "1:35pm"}, {"days": "Sun", "time": "Closed"}], "id": "2140300044", "name": "USPS COLLECTION BOX - BLUE BOX", "address": {"city": "ANNAPOLIS", "state": "MD", "street": "417 SECOND ST", "postcode": "21403"}}},
{"geometry": {"type": "Point", "coordinates": [-76.4763089198, 38.9588362207]}, "type": "Feature", "properties": {"collection_times": [{"days": "Mon-Fri", "time": "4:30pm"}, {"days": "Sat", "time": "2:30pm"}, {"days": "Sun", "time": "Closed"}], "id": "2140300050", "name": "USPS COLLECTION BOX - BLUE BOX", "address": {"city": "ANNAPOLIS", "state": "MD", "street": "1030 CHESAPEAKE HARBOUR DR", "postcode": "21403"}}},
{"geometry": {"type": "Point", "coordinates": [-76.4862106836, 38.9673185889]}, "type": "Feature", "properties": {"collection_times": [{"days": "Mon-Fri", "time": "4:45pm"}, {"days": "Sat", "time": "2:45pm"}, {"days": "Sun", "time": "Closed"}], "id": "2140300053", "name": "USPS COLLECTION BOX - BLUE BOX", "address": {"city": "ANNAPOLIS", "state": "MD", "street": "821 CHESAPEAKE AVE", "postcode": "21403"}}},
{"geometry": {"type": "Point", "coordinates": [-76.4862106836, 38.9673185889]}, "type": "Feature", "properties": {"collection_times": [{"days": "Mon-Fri", "time": "4:45pm"}, {"days": "Sat", "time": "2:45pm"}, {"days": "Sun", "time": "Closed"}], "id": "2140300054", "name": "USPS COLLECTION BOX - BLUE BOX", "address": {"city": "ANNAPOLIS", "state": "MD", "street": "821 CHESAPEAKE AVE", "postcode": "21403"}}},
{"geometry": {"type": "Point", "coordinates": [-76.4862106836, 38.9673185889]}, "type": "Feature", "properties": {"collection_times": [{"days": "Mon-Fri", "time": "4:45pm"}, {"days": "Sat", "time": "2:45pm"}, {"days": "Sun", "time": "Closed"}], "id": "2140300056", "name": "USPS COLLECTION BOX - BLUE BOX", "address": {"city": "ANNAPOLIS", "state": "MD", "street": "821 CHESAPEAKE AVE", "postcode": "21403"}}},
{"geometry": {"type": "Point", "coordinates": [-76.4862106836, 38.9673185889]}, "type": "Feature", "properties": {"collection_times": [{"days": "Mon-Fri", "time": "5:00pm"}, {"days": "Sat", "time": "3:00pm"}, {"days": "Sun", "time": "Closed"}], "id": "2140300057", "name": "USPS COLLECTION BOX - PO LOBBY", "address": {"city": "ANNAPOLIS", "state": "MD", "street": "821 CHESAPEAKE AVE", "postcode": "21403"}}},
{"geometry": {"type": "Point", "coordinates": [-76.4862106836, 38.9673185889]}, "type": "Feature", "properties": {"collection_times": [{"days": "Mon-Fri", "time": "5:00pm"}, {"days": "Sat", "time": "3:00pm"}, {"days": "Sun", "time": "Closed"}], "id": "2140300058", "name": "USPS COLLECTION BOX - PO LOBBY", "address": {"city": "ANNAPOLIS", "state": "MD", "street": "821 CHESAPEAKE AVE", "postcode": "21403"}}},
{"geometry": {"type": "Point", "coordinates": [-76.4862106836, 38.9673185889]}, "type": "Feature", "properties": {"collection_times": [{"days": "Mon-Fri", "time": "5:00pm"}, {"days": "Sat", "time": "3:00pm"}, {"days": "Sun", "time": "Closed"}], "id": "2140300059", "name": "USPS COLLECTION BOX - PO LOBBY", "address": {"city": "ANNAPOLIS", "state": "MD", "street": "821 CHESAPEAKE AVE", "postcode": "21403"}}},
{"geometry": {"type": "Point", "coordinates": [-76.5035417887, 38.9534365986]}, "type": "Feature", "properties": {"collection_times": [{"days": "Mon-Fri", "time": "4:15pm"}, {"days": "Sat", "time": "2:15pm"}, {"days": "Sun", "time": "Closed"}], "id": "2140300060", "name": "USPS COLLECTION BOX - BLUE BOX", "address": {"city": "ANNAPOLIS", "state": "MD", "street": "50 AMBERSTONE CT", "postcode": "21403"}}},
{"geometry": {"type": "Point", "coordinates": [-76.4862106836, 38.9673185889]}, "type": "Feature", "properties": {"collection_times": [{"days": "Mon-Fri", "time": "5:00pm"}, {"days": "Sat", "time": "3:00pm"}, {"days": "Sun", "time": "Closed"}], "id": "2140300062", "name": "USPS COLLECTION BOX - APC", "address": {"city": "ANNAPOLIS", "state": "MD", "street": "821 CHESAPEAKE AVE", "postcode": "21403"}}},
{"geometry": {"type": "Point", "coordinates": [-76.4895715821, 38.9485861248]}, "type": "Feature", "properties": {"collection_times": [{"days": "Mon-Fri", "time": "4:35pm"}, {"days": "Sat", "time": "2:35pm"}, {"days": "Sun", "time": "Closed"}], "id": "2140300064", "name": "USPS COLLECTION BOX - BLUE BOX", "address": {"city": "ANNAPOLIS", "state": "MD", "street": "914 BAY RIDGE RD", "postcode": "21403"}}},
{"geometry": {"type": "Point", "coordinates": [-76.4627266233, 39.0197739676]}, "type": "Feature", "properties": {"collection_times": [{"days": "Mon-Sat", "time": "3:30pm"}, {"days": "Sun", "time": "Closed"}], "id": "2140900001", "name": "USPS COLLECTION BOX - BLUE BOX", "address": {"city": "ANNAPOLIS", "state": "MD", "street": "1601 PLEASANT PLAINS RD", "postcode": "21409"}}},
{"geometry": {"type": "Point", "coordinates": [-76.4229017007, 39.0218036565]}, "type": "Feature", "properties": {"collection_times": [{"days": "Mon-Sat", "time": "3:35pm"}, {"days": "Sun", "time": "Closed"}], "id": "2140900002", "name": "USPS COLLECTION BOX - BLUE BOX", "address": {"city": "ANNAPOLIS", "state": "MD", "street": "1550 WHITEHALL RD", "postcode": "21409"}}},
{"geometry": {"type": "Point", "coordinates": [-76.4469082436, 39.0203351135]}, "type": "Feature", "properties": {"collection_times": [{"days": "Mon-Sat", "time": "3:45pm"}, {"days": "Sun", "time": "Closed"}], "id": "2140900003", "name": "USPS COLLECTION BOX - BLUE BOX", "address": {"city": "ANNAPOLIS", "state": "MD", "street": "1332 CAPE ST CLAIRE RD", "postcode": "21409"}}},
{"geometry": {"type": "Point", "coordinates": [-76.4469082436, 39.0203351135]}, "type": "Feature", "properties": {"collection_times": [{"days": "Mon-Sat", "time": "3:45pm"}, {"days": "Sun", "time": "Closed"}], "id": "2140900004", "name": "USPS COLLECTION BOX - BLUE BOX", "address": {"city": "ANNAPOLIS", "state": "MD", "street": "1332 CAPE ST CLAIRE RD", "postcode": "21409"}}},
{"geometry": {"type": "Point", "coordinates": [-76.47648, 39.02624]}, "type": "Feature", "properties": {"collection_times": [{"days": "Mon-Sat", "time": "3:55pm"}, {"days": "Sun", "time": "Closed"}], "id": "2140900005", "name": "USPS COLLECTION BOX - BLUE BOX", "address": {"city": "ANNAPOLIS", "state": "MD", "street": "347 ELDERWOOD CT", "postcode": "21409"}}}
]}
