{"type": "FeatureCollection", "features": [
{"geometry": {"type": "Point", "coordinates": [-78.7571951848, 39.6507445479]}, "type": "Feature", "properties": {"collection_times": [{"days": "Mon-Fri", "time": "5:00pm"}, {"days": "Sat", "time": "3:00pm"}, {"days": "Sun", "time": "Closed"}], "id": "2150200000", "name": "USPS COLLECTION BOX - BLUE BOX", "address": {"city": "CUMBERLAND", "state": "MD", "street": "215 PARK ST", "postcode": "21502"}}},
{"geometry": {"type": "Point", "coordinates": [-78.7494500264, 39.6302290499]}, "type": "Feature", "properties": {"collection_times": [{"days": "Mon-Fri", "time": "3:45pm"}, {"days": "Sat", "time": "12:32pm"}, {"days": "Sun", "time": "Closed"}], "id": "2150200039", "name": "USPS COLLECTION BOX - BLUE BOX", "address": {"city": "CUMBERLAND", "state": "MD", "street": "1050 W INDUSTRIAL BLVD", "postcode": "21502"}}},
{"geometry": {"type": "Point", "coordinates": [-78.7688771084, 39.650152912]}, "type": "Feature", "properties": {"collection_times": [{"days": "Mon-Fri", "time": "4:10pm"}, {"days": "Sat", "time": "12:51pm"}, {"days": "Sun", "time": "Closed"}], "id": "2150200042", "name": "USPS COLLECTION BOX - BLUE BOX", "address": {"city": "CUMBERLAND", "state": "MD", "street": "203 GREENE ST", "postcode": "21502"}}},
{"geometry": {"type": "Point", "coordinates": [-78.735547893, 39.6261602558]}, "type": "Feature", "properties": {"collection_times": [{"days": "Mon-Fri", "time": "3:48pm"}, {"days": "Sat", "time": "10:15am"}, {"days": "Sun", "time": "Closed"}], "id": "2150200045", "name": "USPS COLLECTION BOX - BLUE BOX", "address": {"city": "CUMBERLAND", "state": "MD", "street": "1600 OLDTOWN RD", "postcode": "21502"}}},
{"geometry": {"type": "Point", "coordinates": [-78.7444688318, 39.634736642]}, "type": "Feature", "properties": {"collection_times": [{"days": "Mon-Fri", "time": "3:49pm"}, {"days": "Sat", "time": "10:19am"}, {"days": "Sun", "time": "Closed"}], "id": "2150200048", "name": "USPS COLLECTION BOX - BLUE BOX", "address": {"city": "CUMBERLAND", "state": "MD", "street": "1500 E OLDTOWN RD", "postcode": "21502"}}},
{"geometry": {"type": "Point", "coordinates": [-78.7524149811, 39.6413396987]}, "type": "Feature", "properties": {"collection_times": [{"days": "Mon-Fri", "time": "3:53pm"}, {"days": "Sat", "time": "10:22am"}, {"days": "Sun", "time": "Closed"}], "id": "2150200065", "name": "USPS COLLECTION BOX - BLUE BOX", "address": {"city": "CUMBERLAND", "state": "MD", "street": "625 KENT AVE", "postcode": "21502"}}},
{"geometry": {"type": "Point", "coordinates": [-78.7624030809, 39.6373534502]}, "type": "Feature", "properties": {"collection_times": [{"days": "Mon-Fri", "time": "5:00pm"}, {"days": "Sat", "time": "2:21pm"}, {"days": "Sun", "time": "Closed"}], "id": "2150200076", "name": "USPS COLLECTION BOX - BLUE BOX", "address": {"city": "CUMBERLAND", "state": "MD", "street": "119 VIRGINIA AVE", "postcode": "21502"}}},
{"geometry": {"type": "Point", "coordinates": [-78.769825154, 39.626290501]}, "type": "Feature", "properties": {"collection_times": [{"days": "Mon-Fri", "time": "3:30pm"}, {"days": "Sat", "time": "10:09am"}, {"days": "Sun", "time": "Closed"}], "id": "2150200087", "name": "USPS COLLECTION BOX - BLUE BOX", "address": {"city": "CUMBERLAND", "state": "MD", "street": "1308 RIVER AVE", "postcode": "21502"}}},
{"geometry": {"type": "Point", "coordinates": [-78.8373876972, 39.6246985841]}, "type": "Feature", "properties": {"collection_times": [{"days": "Mon-Fri", "time": "4:16pm"}, {"days": "Sat", "time": "11:38am"}, {"days": "Sun", "time": "Closed"}], "id": "2150200097", "name": "USPS COLLECTION BOX - BLUE BOX", "address": {"city": "CUMBERLAND", "state": "MD", "street": "12500 COUNTRY CLUB MALL RD", "postcode": "21502"}}},
{"geometry": {"type": "Point", "coordinates": [-78.8374317929, 39.6304945355]}, "type": "Feature", "properties": {"collection_times": [{"days": "Mon-Fri", "time": "4:20pm"}, {"days": "Sat", "time": "12:18pm"}, {"days": "Sun", "time": "Closed"}], "id": "2150200098", "name": "USPS COLLECTION BOX - BLUE BOX", "address": {"city": "CUMBERLAND", "state": "MD", "street": "12109 WINCHESTER RD SW", "postcode": "21502"}}},
{"geometry": {"type": "Point", "coordinates": [-78.8333392586, 39.6378195169]}, "type": "Feature", "properties": {"collection_times": [{"days": "Mon-Fri", "time": "4:25pm"}, {"days": "Sat", "time": "12:09pm"}, {"days": "Sun", "time": "Closed"}], "id": "2150200100", "name": "USPS COLLECTION BOX - BLUE BOX", "address": {"city": "CUMBERLAND", "state": "MD", "street": "1313 NATIONAL HWY", "postcode": "21502"}}},
{"geometry": {"type": "Point", "coordinates": [-78.8311403063, 39.6387720954]}, "type": "Feature", "properties": {"collection_times": [{"days": "Mon-Fri", "time": "4:35pm"}, {"days": "Sat", "time": "12:05pm"}, {"days": "Sun", "time": "Closed"}], "id": "2150200101", "name": "USPS COLLECTION BOX - BLUE BOX", "address": {"city": "CUMBERLAND", "state": "MD", "street": "1223A NATIONAL HWY", "postcode": "21502"}}},
{"geometry": {"type": "Point", "coordinates": [-78.8251192048, 39.596373633]}, "type": "Feature", "properties": {"collection_times": [{"days": "Mon-Fri", "time": "4:00pm"}, {"days": "Sat", "time": "11:06am"}, {"days": "Sun", "time": "Closed"}], "id": "2150200108", "name": "USPS COLLECTION BOX - BLUE BOX", "address": {"city": "CUMBERLAND", "state": "MD", "street": "12836 DARROWS LN SW", "postcode": "21502"}}},
{"geometry": {"type": "Point", "coordinates": [-78.8051301281, 39.6606279323]}, "type": "Feature", "properties": {"collection_times": [{"days": "Mon-Fri", "time": "4:46pm"}, {"days": "Sat", "time": "11:48am"}, {"days": "Sun", "time": "Closed"}], "id": "2150200111", "name": "USPS COLLECTION BOX - BLUE BOX", "address": {"city": "CUMBERLAND", "state": "MD", "street": "401 NATIONAL HWY", "postcode": "21502"}}},
{"geometry": {"type": "Point", "coordinates": [-78.76255152, 39.6525362053]}, "type": "Feature", "properties": {"collection_times": [{"days": "Mon-Fri", "time": "4:18pm"}, {"days": "Sat-Sun", "time": "Closed"}], "id": "2150200115", "name": "USPS COLLECTION BOX - BLUE BOX", "address": {"city": "CUMBERLAND", "state": "MD", "street": "19 FREDERICK ST", "postcode": "21502"}}},
{"geometry": {"type": "Point", "coordinates": [-78.7601369846, 39.6519301445]}, "type": "Feature", "properties": {"collection_times": [{"days": "Mon-Fri", "time": "4:30pm"}, {"days": "Sat", "time": "1:52pm"}, {"days": "Sun", "time": "Closed"}], "id": "2150200118", "name": "USPS COLLECTION BOX - BLUE BOX", "address": {"city": "CUMBERLAND", "state": "MD", "street": "138 BALTIMORE ST", "postcode": "21502"}}},
{"geometry": {"type": "Point", "coordinates": [-78.762234256, 39.6529939513]}, "type": "Feature", "properties": {"collection_times": [{"days": "Mon-Fri", "time": "4:25pm"}, {"days": "Sat", "time": "1:47pm"}, {"days": "Sun", "time": "Closed"}], "id": "2150200122", "name": "USPS COLLECTION BOX - BLUE BOX", "address": {"city": "CUMBERLAND", "state": "MD", "street": "81 N CENTRE ST", "postcode": "21502"}}},
{"geometry": {"type": "Point", "coordinates": [-78.7634758341, 39.6527236586]}, "type": "Feature", "properties": {"collection_times": [{"days": "Mon-Fri", "time": "4:19pm"}, {"days": "Sat", "time": "1:30pm"}, {"days": "Sun", "time": "Closed"}], "id": "2150200125", "name": "USPS COLLECTION BOX - BLUE BOX", "address": {"city": "CUMBERLAND", "state": "MD", "street": "20 BEDFORD ST", "postcode": "21502"}}},
{"geometry": {"type": "Point", "coordinates": [-78.7615628877, 39.6515830768]}, "type": "Feature", "properties": {"collection_times": [{"days": "Mon-Fri", "time": "4:22pm"}, {"days": "Sat", "time": "1:40pm"}, {"days": "Sun", "time": "Closed"}], "id": "2150200126", "name": "USPS COLLECTION BOX - BLUE BOX", "address": {"city": "CUMBERLAND", "state": "MD", "street": "80 BALTIMORE ST", "postcode": "21502"}}},
{"geometry": {"type": "Point", "coordinates": [-78.7612629021, 39.6507749795]}, "type": "Feature", "properties": {"collection_times": [{"days": "Mon-Fri", "time": "4:22pm"}, {"days": "Sat", "time": "1:42pm"}, {"days": "Sun", "time": "Closed"}], "id": "2150200127", "name": "USPS COLLECTION BOX - BLUE BOX", "address": {"city": "CUMBERLAND", "state": "MD", "street": "72 PERSHING ST", "postcode": "21502"}}},
{"geometry": {"type": "Point", "coordinates": [-78.7712136951, 39.6491676332]}, "type": "Feature", "properties": {"collection_times": [{"days": "Mon-Fri", "time": "4:03pm"}, {"days": "Sat", "time": "12:47pm"}, {"days": "Sun", "time": "Closed"}], "id": "2150200129", "name": "USPS COLLECTION BOX - BLUE BOX", "address": {"city": "CUMBERLAND", "state": "MD", "street": "316 PACA ST", "postcode": "21502"}}},
{"geometry": {"type": "Point", "coordinates": [-78.7673323899, 39.6510207754]}, "type": "Feature", "properties": {"collection_times": [{"days": "Mon-Fri", "time": "4:07pm"}, {"days": "Sat", "time": "12:53pm"}, {"days": "Sun", "time": "Closed"}], "id": "2150200132", "name": "USPS COLLECTION BOX - BLUE BOX", "address": {"city": "CUMBERLAND", "state": "MD", "street": "108 WASHINGTON ST", "postcode": "21502"}}},
{"geometry": {"type": "Point", "coordinates": [-78.7672308027, 39.6510099263]}, "type": "Feature", "properties": {"collection_times": [{"days": "Mon-Fri", "time": "4:08pm"}, {"days": "Sat", "time": "12:55pm"}, {"days": "Sun", "time": "Closed"}], "id": "2150200134", "name": "USPS COLLECTION BOX - BLUE BOX", "address": {"city": "CUMBERLAND", "state": "MD", "street": "100 WASHINGTON ST", "postcode": "21502"}}},
{"geometry": {"type": "Point", "coordinates": [-78.7694223749, 39.6512311255]}, "type": "Feature", "properties": {"collection_times": [{"days": "Mon-Fri", "time": "4:05pm"}, {"days": "Sat", "time": "12:58pm"}, {"days": "Sun", "time": "Closed"}], "id": "2150200135", "name": "USPS COLLECTION BOX - BLUE BOX", "address": {"city": "CUMBERLAND", "state": "MD", "street": "224 WASHINGTON ST", "postcode": "21502"}}},
{"geometry": {"type": "Point", "coordinates": [-78.765915532, 39.6497710768]}, "type": "Feature", "properties": {"collection_times": [{"days": "Mon-Fri", "time": "4:12pm"}, {"days": "Sat", "time": "12:30pm"}, {"days": "Sun", "time": "Closed"}], "id": "2150200136", "name": "USPS COLLECTION BOX - BLUE BOX", "address": {"city": "CUMBERLAND", "state": "MD", "street": "64 GREENE ST", "postcode": "21502"}}},
{"geometry": {"type": "Point", "coordinates": [-78.7637166893, 39.650933668]}, "type": "Feature", "properties": {"collection_times": [{"days": "Mon-Fri", "time": "4:15pm"}, {"days": "Sat", "time": "1:06pm"}, {"days": "Sun", "time": "Closed"}], "id": "2150200138", "name": "USPS COLLECTION BOX - BLUE BOX", "address": {"city": "CUMBERLAND", "state": "MD", "street": "13 CANAL ST", "postcode": "21502"}}},
{"geometry": {"type": "Point", "coordinates": [-78.7364602664, 39.6785812986]}, "type": "Feature", "properties": {"collection_times": [{"days": "Mon-Fri", "time": "3:45pm"}, {"days": "Sat", "time": "1:19pm"}, {"days": "Sun", "time": "Closed"}], "id": "2150200140", "name": "USPS COLLECTION BOX - BLUE BOX", "address": {"city": "CUMBERLAND", "state": "MD", "street": "11306 BEDFORD RD NE", "postcode": "21502"}}},
{"geometry": {"type": "Point", "coordinates": [-78.7389525624, 39.6581045013]}, "type": "Feature", "properties": {"collection_times": [{"days": "Mon-Fri", "time": "3:30pm"}, {"days": "Sat", "time": "10:47am"}, {"days": "Sun", "time": "Closed"}], "id": "2150200144", "name": "USPS COLLECTION BOX - BLUE BOX", "address": {"city": "CUMBERLAND", "state": "MD", "street": "10100 COUNTRY CLUB RD SE", "postcode": "21502"}}},
{"geometry": {"type": "Point", "coordinates": [-78.7391949902, 39.6530188981]}, "type": "Feature", "properties": {"collection_times": [{"days": "Mon-Fri", "time": "3:38pm"}, {"days": "Sat", "time": "10:43am"}, {"days": "Sun", "time": "Closed"}], "id": "2150200146", "name": "USPS COLLECTION BOX - BLUE BOX", "address": {"city": "CUMBERLAND", "state": "MD", "street": "12401 WILLOWBROOK RD", "postcode": "21502"}}},
{"geometry": {"type": "Point", "coordinates": [-78.7730260848, 39.647614015]}, "type": "Feature", "properties": {"collection_times": [{"days": "Mon-Fri", "time": "4:25pm"}, {"days": "Sat", "time": "1:47pm"}, {"days": "Sun", "time": "Closed"}], "id": "2150200157", "name": "USPS COLLECTION BOX - EXPRESS", "address": {"city": "CUMBERLAND", "state": "MD", "street": "81 N CENTRE ST", "postcode": "21502"}}},
{"geometry": {"type": "Point", "coordinates": [-78.7610414178, 39.6504883776]}, "type": "Feature", "properties": {"collection_times": [{"days": "Mon-Fri", "time": "4:23pm"}, {"days": "Sat", "time": "1:44pm"}, {"days": "Sun", "time": "Closed"}], "id": "2150200159", "name": "USPS COLLECTION BOX - BLUE BOX", "address": {"city": "CUMBERLAND", "state": "MD", "street": "132 S LIBERTY ST", "postcode": "21502"}}},
{"geometry": {"type": "Point", "coordinates": [-78.7571951848, 39.6507445479]}, "type": "Feature", "properties": {"collection_times": [{"days": "Mon-Fri", "time": "5:00pm"}, {"days": "Sat", "time": "12:45pm"}, {"days": "Sun", "time": "Closed"}], "id": "2150200161", "name": "USPS COLLECTION BOX - PO LOBBY", "address": {"city": "CUMBERLAND", "state": "MD", "street": "215 PARK ST", "postcode": "21502"}}},
{"geometry": {"type": "Point", "coordinates": [-78.7624030809, 39.6373534502]}, "type": "Feature", "properties": {"collection_times": [{"days": "Mon-Fri", "time": "12:30pm"}, {"days": "Sat-Sun", "time": "Closed"}], "id": "2150200162", "name": "USPS COLLECTION BOX - PO LOBBY", "address": {"city": "CUMBERLAND", "state": "MD", "street": "119 VIRGINIA AVE", "postcode": "21502"}}},
{"geometry": {"type": "Point", "coordinates": [-78.8051301281, 39.6606279323]}, "type": "Feature", "properties": {"collection_times": [{"days": "Mon-Fri", "time": "4:15pm"}, {"days": "Sat-Sun", "time": "Closed"}], "id": "2150200163", "name": "USPS COLLECTION BOX - PO LOBBY", "address": {"city": "CUMBERLAND", "state": "MD", "street": "401 NATIONAL HWY", "postcode": "21502"}}},
{"geometry": {"type": "Point", "coordinates": [-78.8251192048, 39.596373633]}, "type": "Feature", "properties": {"collection_times": [{"days": "Mon-Fri", "time": "12:30pm"}, {"days": "Sat-Sun", "time": "Closed"}], "id": "2150200164", "name": "USPS COLLECTION BOX - PO LOBBY", "address": {"city": "CUMBERLAND", "state": "MD", "street": "12836 DARROWS LN", "postcode": "21502"}}},
{"geometry": {"type": "Point", "coordinates": [-78.763519585, 39.6522257283]}, "type": "Feature", "properties": {"collection_times": [{"days": "Mon-Fri", "time": "4:17pm"}, {"days": "Sat", "time": "1:37pm"}, {"days": "Sun", "time": "Closed"}], "id": "2150200165", "name": "USPS COLLECTION BOX - BLUE BOX", "address": {"city": "CUMBERLAND", "state": "MD", "street": "1 FREDERICK ST", "postcode": "21502"}}},
{"geometry": {"type": "Point", "coordinates": [-78.7792562543, 39.6439312947]}, "type": "Feature", "properties": {"collection_times": [{"days": "Mon-Fri", "time": "4:00pm"}, {"days": "Sat", "time": "12:42pm"}, {"days": "Sun", "time": "Closed"}], "id": "2150200166", "name": "USPS COLLECTION BOX - BLUE BOX", "address": {"city": "CUMBERLAND", "state": "MD", "street": "701 KELLY RD", "postcode": "21502"}}},
{"geometry": {"type": "Point", "coordinates": [-78.7574555524, 39.6474581906]}, "type": "Feature", "properties": {"collection_times": [{"days": "Mon-Fri", "time": "5:03pm"}, {"days": "Sat", "time": "10:00am"}, {"days": "Sun", "time": "Closed"}], "id": "2150200167", "name": "USPS COLLECTION BOX - BLUE BOX", "address": {"city": "CUMBERLAND", "state": "MD", "street": "739 PARK ST", "postcode": "21502"}}},
{"geometry": {"type": "Point", "coordinates": [-78.8320425586, 39.631774206]}, "type": "Feature", "properties": {"collection_times": [{"days": "Mon-Fri", "time": "3:50pm"}, {"days": "Sat", "time": "11:00am"}, {"days": "Sun", "time": "Closed"}], "id": "2150200168", "name": "USPS COLLECTION BOX - BLUE BOX", "address": {"city": "CUMBERLAND", "state": "MD", "street": "12101 UPPER POTOMAC INDSTRL PARK ST SW", "postcode": "21502"}}},
{"geometry": {"type": "Point", "coordinates": [-78.7571951848, 39.6507445479]}, "type": "Feature", "properties": {"collection_times": [{"days": "Mon-Fri", "time": "5:00pm"}, {"days": "Sat", "time": "12:45pm"}, {"days": "Sun", "time": "Closed"}], "id": "2150200169", "name": "USPS COLLECTION BOX - PO LOBBY", "address": {"city": "CUMBERLAND", "state": "MD", "street": "215 PARK ST", "postcode": "21502"}}},
{"geometry": {"type": "Point", "coordinates": [-78.8391728936, 39.5879211577]}, "type": "Feature", "properties": {"collection_times": [{"days": "Mon-Fri", "time": "4:07pm"}, {"days": "Sat", "time": "11:12am"}, {"days": "Sun", "time": "Closed"}], "id": "2150200172", "name": "USPS COLLECTION BOX - BLUE BOX", "address": {"city": "CUMBERLAND", "state": "MD", "street": "15300 MCMULLEN HWY SW", "postcode": "21502"}}},
{"geometry": {"type": "Point", "coordinates": [-78.8345503581, 39.6315374356]}, "type": "Feature", "properties": {"collection_times": [{"days": "Mon-Fri", "time": "4:15pm"}, {"days": "Sat", "time": "11:41am"}, {"days": "Sun", "time": "Closed"}], "id": "2150200175", "name": "USPS COLLECTION BOX - BLUE BOX", "address": {"city": "CUMBERLAND", "state": "MD", "street": "1262 VOCKE RD", "postcode": "21502"}}},
{"geometry": {"type": "Point", "coordinates": [-78.7325240988, 39.6498180955]}, "type": "Feature", "properties": {"collection_times": [{"days": "Mon-Fri", "time": "3:37pm"}, {"days": "Sat", "time": "10:39am"}, {"days": "Sun", "time": "Closed"}], "id": "2150200177", "name": "USPS COLLECTION BOX - BLUE BOX", "address": {"city": "CUMBERLAND", "state": "MD", "street": "12501 WILLOWBROOK RD", "postcode": "21502"}}},
{"geometry": {"type": "Point", "coordinates": [-78.7601369846, 39.6519301445]}, "type": "Feature", "properties": {"collection_times": [{"days": "Mon-Fri", "time": "4:30pm"}, {"days": "Sat", "time": "1:52pm"}, {"days": "Sun", "time": "Closed"}], "id": "2150200182", "name": "USPS COLLECTION BOX - BLUE BOX", "address": {"city": "CUMBERLAND", "state": "MD", "street": "138 BALTIMORE ST", "postcode": "21502"}}},
{"geometry": {"type": "Point", "coordinates": [-78.7322572031, 39.6497560487]}, "type": "Feature", "properties": {"collection_times": [{"days": "Mon-Fri", "time": "3:35pm"}, {"days": "Sat", "time": "11:45am"}, {"days": "Sun", "time": "Closed"}], "id": "2150200186", "name": "USPS COLLECTION BOX - BLUE BOX", "address": {"city": "CUMBERLAND", "state": "MD", "street": "12502 WILLOWBROOK RD", "postcode": "21502"}}},
{"geometry": {"type": "Point", "coordinates": [-79.3214588869, 39.6260893595]}, "type": "Feature", "properties": {"collection_times": [{"days": "Mon-Fri", "time": "4:15pm"}, {"days": "Sat", "time": "11:45am"}, {"days": "Sun", "time": "Closed"}], "id": "2152000000", "name": "USPS COLLECTION BOX - BLUE BOX", "address": {"city": "ACCIDENT", "state": "MD", "street": "103 SOUTH ST", "postcode": "21520"}}},
{"geometry": {"type": "Point", "coordinates": [-79.3214588869, 39.6260893595]}, "type": "Feature", "properties": {"collection_times": [{"days": "Mon-Fri", "time": "4:30pm"}, {"days": "Sat", "time": "11:45am"}, {"days": "Sun", "time": "Closed"}], "id": "2152000001", "name": "USPS COLLECTION BOX - PO LOBBY", "address": {"city": "ACCIDENT", "state": "MD", "street": "103 SOUTH ST", "postcode": "21520"}}},
{"geometry": {"type": "Point", "coordinates": [-79.3214588869, 39.6260893595]}, "type": "Feature", "properties": {"collection_times": [{"days": "Mon-Fri", "time": "4:30pm"}, {"days": "Sat", "time": "11:45am"}, {"days": "Sun", "time": "Closed"}], "id": "2152000002", "name": "USPS COLLECTION BOX - PO LOBBY", "address": {"city": "ACCIDENT", "state": "MD", "street": "103 SOUTH ST", "postcode": "21520"}}},
{"geometry": {"type": "Point", "coordinates": [-79.0185913004, 39.5301067]}, "type": "Feature", "properties": {"collection_times": [{"days": "Mon-Fri", "time": "4:00pm"}, {"days": "Sat", "time": "11:45am"}, {"days": "Sun", "time": "Closed"}], "id": "2152100000", "name": "USPS COLLECTION BOX - BLUE BOX", "address": {"city": "BARTON", "state": "MD", "street": "19112 S RAILROAD ST SW", "postcode": "21521"}}},
{"geometry": {"type": "Point", "coordinates": [-79.0185913004, 39.5301067]}, "type": "Feature", "properties": {"collection_times": [{"days": "Mon-Fri", "time": "4:00pm"}, {"days": "Sat", "time": "11:45am"}, {"days": "Sun", "time": "Closed"}], "id": "2152100001", "name": "USPS COLLECTION BOX - PO LOBBY", "address": {"city": "BARTON", "state": "MD", "street": "19112 S RAILROAD ST", "postcode": "21521"}}},
{"geometry": {"type": "Point", "coordinates": [-79.2232589744, 39.6026573942]}, "type": "Feature", "properties": {"collection_times": [{"days": "Mon-Sat", "time": "12:00pm"}, {"days": "Sun", "time": "Closed"}], "id": "2152200001", "name": "USPS COLLECTION BOX - PO LOBBY", "address": {"city": "BITTINGER", "state": "MD", "street": "11357 BITTINGER RD", "postcode": "21522"}}},
{"geometry": {"type": "Point", "coordinates": [-79.0711822965, 39.4787413304]}, "type": "Feature", "properties": {"collection_times": [{"days": "Mon-Fri", "time": "4:15pm"}, {"days": "Sat", "time": "11:45am"}, {"days": "Sun", "time": "Closed"}], "id": "2152300000", "name": "USPS COLLECTION BOX - BLUE BOX", "address": {"city": "BLOOMINGTON", "state": "MD", "street": "35 N HAMILL AVE", "postcode": "21523"}}},
{"geometry": {"type": "Point", "coordinates": [-79.0711822965, 39.4787413304]}, "type": "Feature", "properties": {"collection_times": [{"days": "Mon-Fri", "time": "4:15pm"}, {"days": "Sat", "time": "11:45am"}, {"days": "Sun", "time": "Closed"}], "id": "2152300001", "name": "USPS COLLECTION BOX - PO LOBBY", "address": {"city": "BLOOMINGTON", "state": "MD", "street": "35 N HAMILL AVE", "postcode": "21523"}}},
{"geometry": {"type": "Point", "coordinates": [-78.8046427197, 39.6611915597]}, "type": "Feature", "properties": {"collection_times": [{"days": "Mon-Fri", "time": "4:45pm"}, {"days": "Sat", "time": "11:45am"}, {"days": "Sun", "time": "Closed"}], "id": "2152400000", "name": "USPS COLLECTION BOX - BLUE BOX", "address": {"city": "CORRIGANVILLE", "state": "MD", "street": "10810 KREIGHBAUM RD", "postcode": "21524"}}},
{"geometry": {"type": "Point", "coordinates": [-78.8046427197, 39.6611915597]}, "type": "Feature", "properties": {"collection_times": [{"days": "Mon-Fri", "time": "4:45pm"}, {"days": "Sat", "time": "11:45am"}, {"days": "Sun", "time": "Closed"}], "id": "2152400001", "name": "USPS COLLECTION BOX - PO LOBBY", "address": {"city": "CORRIGANVILLE", "state": "MD", "street": "10810 KREIGHBAUM RD", "postcode": "21524"}}},
{"geometry": {"type": "Point", "coordinates": [-78.8046427197, 39.6611915597]}, "type": "Feature", "properties": {"collection_times": [{"days": "Mon-Fri", "time": "4:45pm"}, {"days": "Sat", "time": "11:45am"}, {"days": "Sun", "time": "Closed"}], "id": "2152400002", "name": "USPS COLLECTION BOX - PO LOBBY", "address": {"city": "CORRIGANVILLE", "state": "MD", "street": "10810 KREIGHBAUM RD", "postcode": "21524"}}},
{"geometry": {"type": "Point", "coordinates": [-78.9007779366, 39.6517660796]}, "type": "Feature", "properties": {"collection_times": [{"days": "Mon-Fri", "time": "4:00pm"}, {"days": "Sat", "time": "11:00am"}, {"days": "Sun", "time": "Closed"}], "id": "2152800000", "name": "USPS COLLECTION BOX - BLUE BOX", "address": {"city": "ECKHART MINES", "state": "MD", "street": "10501 ECKHART MINES ST", "postcode": "21528"}}},
{"geometry": {"type": "Point", "coordinates": [-78.7751742177, 39.7197833128]}, "type": "Feature", "properties": {"collection_times": [{"days": "Mon-Fri", "time": "4:45pm"}, {"days": "Sat", "time": "11:00am"}, {"days": "Sun", "time": "Closed"}], "id": "2152900000", "name": "USPS COLLECTION BOX - BLUE BOX", "address": {"city": "ELLERSLIE", "state": "MD", "street": "14302 ELLERSLIE RD NW", "postcode": "21529"}}},
{"geometry": {"type": "Point", "coordinates": [-78.7751742177, 39.7197833128]}, "type": "Feature", "properties": {"collection_times": [{"days": "Mon-Fri", "time": "4:45pm"}, {"days": "Sat", "time": "11:00am"}, {"days": "Sun", "time": "Closed"}], "id": "2152900001", "name": "USPS COLLECTION BOX - PO LOBBY", "address": {"city": "ELLERSLIE", "state": "MD", "street": "14302 ELLERSLIE RD NW", "postcode": "21529"}}},
{"geometry": {"type": "Point", "coordinates": [-78.7751742177, 39.7197833128]}, "type": "Feature", "properties": {"collection_times": [{"days": "Mon-Fri", "time": "4:45pm"}, {"days": "Sat", "time": "11:00am"}, {"days": "Sun", "time": "Closed"}], "id": "2152900002", "name": "USPS COLLECTION BOX - PO LOBBY", "address": {"city": "ELLERSLIE", "state": "MD", "street": "14302 ELLERSLIE RD NW", "postcode": "21529"}}},
{"geometry": {"type": "Point", "coordinates": [-78.4519121393, 39.6817942096]}, "type": "Feature", "properties": {"collection_times": [{"days": "Mon-Fri", "time": "4:15pm"}, {"days": "Sat", "time": "11:45am"}, {"days": "Sun", "time": "Closed"}], "id": "2153000000", "name": "USPS COLLECTION BOX - BLUE BOX", "address": {"city": "FLINTSTONE", "state": "MD", "street": "21600 NATIONAL PIKE NE", "postcode": "21530"}}},
{"geometry": {"type": "Point", "coordinates": [-78.4519121393, 39.6817942096]}, "type": "Feature", "properties": {"collection_times": [{"days": "Mon-Fri", "time": "4:15pm"}, {"days": "Sat", "time": "11:45am"}, {"days": "Sun", "time": "Closed"}], "id": "2153000001", "name": "USPS COLLECTION BOX - BLUE BOX", "address": {"city": "FLINTSTONE", "state": "MD", "street": "21600 NATIONAL PIKE NE", "postcode": "21530"}}},
{"geometry": {"type": "Point", "coordinates": [-78.6507404266, 39.6958895923]}, "type": "Feature", "properties": {"collection_times": [{"days": "Mon-Sat", "time": "10:00am"}, {"days": "Sun", "time": "Closed"}], "id": "2153000002", "name": "USPS COLLECTION BOX - BLUE BOX", "address": {"city": "FLINTSTONE", "state": "MD", "street": "12500 PLEASANT VALLEY RD NE", "postcode": "21530"}}},
{"geometry": {"type": "Point", "coordinates": [-78.4519121393, 39.6817942096]}, "type": "Feature", "properties": {"collection_times": [{"days": "Mon-Fri", "time": "4:15pm"}, {"days": "Sat", "time": "11:45am"}, {"days": "Sun", "time": "Closed"}], "id": "2153000003", "name": "USPS COLLECTION BOX - PO LOBBY", "address": {"city": "FLINTSTONE", "state": "MD", "street": "21600 NATIONAL PIKE NE", "postcode": "21530"}}},
{"geometry": {"type": "Point", "coordinates": [-79.4053177658, 39.6636265534]}, "type": "Feature", "properties": {"collection_times": [{"days": "Mon-Fri", "time": "4:00pm"}, {"days": "Sat", "time": "12:00pm"}, {"days": "Sun", "time": "Closed"}], "id": "2153100000", "name": "USPS COLLECTION BOX - BLUE BOX", "address": {"city": "FRIENDSVILLE", "state": "MD", "street": "836 1ST AVE", "postcode": "21531"}}},
{"geometry": {"type": "Point", "coordinates": [-79.4053177658, 39.6636265534]}, "type": "Feature", "properties": {"collection_times": [{"days": "Mon-Fri", "time": "4:00pm"}, {"days": "Sat", "time": "11:45am"}, {"days": "Sun", "time": "Closed"}], "id": "2153100001", "name": "USPS COLLECTION BOX - PO LOBBY", "address": {"city": "FRIENDSVILLE", "state": "MD", "street": "836 1ST AVE", "postcode": "21531"}}},
{"geometry": {"type": "Point", "coordinates": [-79.4053177658, 39.6636265534]}, "type": "Feature", "properties": {"collection_times": [{"days": "Mon-Fri", "time": "4:00pm"}, {"days": "Sat", "time": "11:45am"}, {"days": "Sun", "time": "Closed"}], "id": "2153100002", "name": "USPS COLLECTION BOX - PO LOBBY", "address": {"city": "FRIENDSVILLE", "state": "MD", "street": "836 1ST AVE", "postcode": "21531"}}},
{"geometry": {"type": "Point", "coordinates": [-78.928796687, 39.6580425739]}, "type": "Feature", "properties": {"collection_times": [{"days": "Mon-Fri", "time": "5:00pm"}, {"days": "Sat", "time": "4:15pm"}, {"days": "Sun", "time": "Closed"}], "id": "2153200000", "name": "USPS COLLECTION BOX - BLUE BOX", "address": {"city": "FROSTBURG", "state": "MD", "street": "37 W MAIN ST", "postcode": "21532"}}},
{"geometry": {"type": "Point", "coordinates": [-78.919794056, 39.6525714634]}, "type": "Feature", "properties": {"collection_times": [{"days": "Mon-Sat", "time": "3:45pm"}, {"days": "Sun", "time": "Closed"}], "id": "2153200008", "name": "USPS COLLECTION BOX - BLUE BOX", "address": {"city": "FROSTBURG", "state": "MD", "street": "96 WASHINGTON ST", "postcode": "21532"}}},
{"geometry": {"type": "Point", "coordinates": [-78.9123822791, 39.6509245866]}, "type": "Feature", "properties": {"collection_times": [{"days": "Mon-Sat", "time": "4:00pm"}, {"days": "Sun", "time": "Closed"}], "id": "2153200011", "name": "USPS COLLECTION BOX - BLUE BOX", "address": {"city": "FROSTBURG", "state": "MD", "street": "10601 NEW GEORGES CREEK RD SW", "postcode": "21532"}}},
{"geometry": {"type": "Point", "coordinates": [-78.9102814183, 39.6496232314]}, "type": "Feature", "properties": {"collection_times": [{"days": "Mon-Sat", "time": "4:00pm"}, {"days": "Sun", "time": "Closed"}], "id": "2153200012", "name": "USPS COLLECTION BOX - BLUE BOX", "address": {"city": "FROSTBURG", "state": "MD", "street": "10701 NEW GEORGES CREEK RD SW", "postcode": "21532"}}},
{"geometry": {"type": "Point", "coordinates": [-78.9205713726, 39.6539808119]}, "type": "Feature", "properties": {"collection_times": [{"days": "Mon-Sat", "time": "3:45pm"}, {"days": "Sun", "time": "Closed"}], "id": "2153200013", "name": "USPS COLLECTION BOX - BLUE BOX", "address": {"city": "FROSTBURG", "state": "MD", "street": "215 E MAIN ST", "postcode": "21532"}}},
{"geometry": {"type": "Point", "coordinates": [-78.9279621423, 39.6571176018]}, "type": "Feature", "properties": {"collection_times": [{"days": "Mon-Sat", "time": "3:45pm"}, {"days": "Sun", "time": "Closed"}], "id": "2153200015", "name": "USPS COLLECTION BOX - BLUE BOX", "address": {"city": "FROSTBURG", "state": "MD", "street": "27 E MAIN ST", "postcode": "21532"}}},
{"geometry": {"type": "Point", "coordinates": [-78.9281376341, 39.6574333549]}, "type": "Feature", "properties": {"collection_times": [{"days": "Mon-Sat", "time": "3:45pm"}, {"days": "Sun", "time": "Closed"}], "id": "2153200018", "name": "USPS COLLECTION BOX - BLUE BOX", "address": {"city": "FROSTBURG", "state": "MD", "street": "1 W MAIN ST", "postcode": "21532"}}},
{"geometry": {"type": "Point", "coordinates": [-78.9338569175, 39.6551047873]}, "type": "Feature", "properties": {"collection_times": [{"days": "Mon-Sat", "time": "3:30pm"}, {"days": "Sun", "time": "Closed"}], "id": "2153200019", "name": "USPS COLLECTION BOX - BLUE BOX", "address": {"city": "FROSTBURG", "state": "MD", "street": "137 S WATER ST", "postcode": "21532"}}},
{"geometry": {"type": "Point", "coordinates": [-78.9521969264, 39.6509548037]}, "type": "Feature", "properties": {"collection_times": [{"days": "Mon-Sat", "time": "3:30pm"}, {"days": "Sun", "time": "Closed"}], "id": "2153200020", "name": "USPS COLLECTION BOX - BLUE BOX", "address": {"city": "FROSTBURG", "state": "MD", "street": "1 LOOP RD", "postcode": "21532"}}},
{"geometry": {"type": "Point", "coordinates": [-78.9343892082, 39.6640023067]}, "type": "Feature", "properties": {"collection_times": [{"days": "Mon-Sat", "time": "3:45pm"}, {"days": "Sun", "time": "Closed"}], "id": "2153200028", "name": "USPS COLLECTION BOX - BLUE BOX", "address": {"city": "FROSTBURG", "state": "MD", "street": "184 W MAIN ST", "postcode": "21532"}}},
{"geometry": {"type": "Point", "coordinates": [-78.9521969264, 39.6509548037]}, "type": "Feature", "properties": {"collection_times": [{"days": "Mon-Sat", "time": "3:30pm"}, {"days": "Sun", "time": "Closed"}], "id": "2153200029", "name": "USPS COLLECTION BOX - BLUE BOX", "address": {"city": "FROSTBURG", "state": "MD", "street": "1 STADIUM DR", "postcode": "21532"}}},
{"geometry": {"type": "Point", "coordinates": [-78.928796687, 39.6580425739]}, "type": "Feature", "properties": {"collection_times": [{"days": "Mon-Fri", "time": "4:45pm"}, {"days": "Sat", "time": "12:45pm"}, {"days": "Sun", "time": "Closed"}], "id": "2153200031", "name": "USPS COLLECTION BOX - PO LOBBY", "address": {"city": "FROSTBURG", "state": "MD", "street": "37 W MAIN ST", "postcode": "21532"}}},
{"geometry": {"type": "Point", "coordinates": [-78.9077478903, 39.6449381118]}, "type": "Feature", "properties": {"collection_times": [{"days": "Mon-Sat", "time": "4:00pm"}, {"days": "Sun", "time": "Closed"}], "id": "2153200034", "name": "USPS COLLECTION BOX - BLUE BOX", "address": {"city": "FROSTBURG", "state": "MD", "street": "1 KAYLOR CIR", "postcode": "21532"}}},
{"geometry": {"type": "Point", "coordinates": [-78.9072170725, 39.6467154062]}, "type": "Feature", "properties": {"collection_times": [{"days": "Mon-Sat", "time": "4:00pm"}, {"days": "Sun", "time": "Closed"}], "id": "2153200035", "name": "USPS COLLECTION BOX - BLUE BOX", "address": {"city": "FROSTBURG", "state": "MD", "street": "100 HONEYSUCKLE LN", "postcode": "21532"}}},
{"geometry": {"type": "Point", "coordinates": [-78.9295900551, 39.6564485798]}, "type": "Feature", "properties": {"collection_times": [{"days": "Mon-Sat", "time": "3:30pm"}, {"days": "Sun", "time": "Closed"}], "id": "2153200037", "name": "USPS COLLECTION BOX - BLUE BOX", "address": {"city": "FROSTBURG", "state": "MD", "street": "37 S BROADWAY", "postcode": "21532"}}},
{"geometry": {"type": "Point", "coordinates": [-78.9093050378, 39.6454007166]}, "type": "Feature", "properties": {"collection_times": [{"days": "Mon-Sat", "time": "4:00pm"}, {"days": "Sun", "time": "Closed"}], "id": "2153200039", "name": "USPS COLLECTION BOX - BLUE BOX", "address": {"city": "FROSTBURG", "state": "MD", "street": "100 BISHOP MURPHY DR", "postcode": "21532"}}},
{"geometry": {"type": "Point", "coordinates": [-78.9521969264, 39.6509548037]}, "type": "Feature", "properties": {"collection_times": [{"days": "Mon-Sat", "time": "12:00pm"}, {"days": "Sun", "time": "Closed"}], "id": "2153200040", "name": "USPS COLLECTION BOX - BLUE BOX", "address": {"city": "FROSTBURG", "state": "MD", "street": "14811 BROADWAY AVE APT A", "postcode": "21532"}}},
{"geometry": {"type": "Point", "coordinates": [-79.1607153832, 39.6977687728]}, "type": "Feature", "properties": {"collection_times": [{"days": "Mon-Fri", "time": "4:45pm"}, {"days": "Sat", "time": "12:00pm"}, {"days": "Sun", "time": "Closed"}], "id": "2153600000", "name": "USPS COLLECTION BOX - BLUE BOX", "address": {"city": "GRANTSVILLE", "state": "MD", "street": "159 MAIN ST", "postcode": "21536"}}},
{"geometry": {"type": "Point", "coordinates": [-79.1111185024, 39.675204353]}, "type": "Feature", "properties": {"collection_times": [{"days": "Mon-Fri", "time": "1:00pm"}, {"days": "Sat", "time": "12:00pm"}, {"days": "Sun", "time": "Closed"}], "id": "2153600001", "name": "USPS COLLECTION BOX - BLUE BOX", "address": {"city": "GRANTSVILLE", "state": "MD", "street": "3227 CHESTNUT RIDGE RD", "postcode": "21536"}}},
{"geometry": {"type": "Point", "coordinates": [-79.1607153832, 39.6977687728]}, "type": "Feature", "properties": {"collection_times": [{"days": "Mon-Fri", "time": "4:15pm"}, {"days": "Sat", "time": "11:45am"}, {"days": "Sun", "time": "Closed"}], "id": "2153600004", "name": "USPS COLLECTION BOX - PO LOBBY", "address": {"city": "GRANTSVILLE", "state": "MD", "street": "159 MAIN ST", "postcode": "21536"}}},
{"geometry": {"type": "Point", "coordinates": [-79.1607153832, 39.6977687728]}, "type": "Feature", "properties": {"collection_times": [{"days": "Mon-Fri", "time": "4:15pm"}, {"days": "Sat", "time": "11:45am"}, {"days": "Sun", "time": "Closed"}], "id": "2153600005", "name": "USPS COLLECTION BOX - PO LOBBY", "address": {"city": "GRANTSVILLE", "state": "MD", "street": "159 MAIN ST", "postcode": "21536"}}},
{"geometry": {"type": "Point", "coordinates": [-79.1819649948, 39.3871548091]}, "type": "Feature", "properties": {"collection_times": [{"days": "Mon-Fri", "time": "4:00pm"}, {"days": "Sat", "time": "10:00am"}, {"days": "Sun", "time": "Closed"}], "id": "2153800000", "name": "USPS COLLECTION BOX - BLUE BOX", "address": {"city": "KITZMILLER", "state": "MD", "street": "103 W CENTER ST", "postcode": "21538"}}},
{"geometry": {"type": "Point", "coordinates": [-79.1819649948, 39.3871548091]}, "type": "Feature", "properties": {"collection_times": [{"days": "Mon-Fri", "time": "4:15pm"}, {"days": "Sat", "time": "10:00am"}, {"days": "Sun", "time": "Closed"}], "id": "2153800001", "name": "USPS COLLECTION BOX - PO LOBBY", "address": {"city": "KITZMILLER", "state": "MD", "street": "103 W CENTER ST", "postcode": "21538"}}},
{"geometry": {"type": "Point", "coordinates": [-79.1819649948, 39.3871548091]}, "type": "Feature", "properties": {"collection_times": [{"days": "Mon-Fri", "time": "4:15pm"}, {"days": "Sat", "time": "10:00am"}, {"days": "Sun", "time": "Closed"}], "id": "2153800002", "name": "USPS COLLECTION BOX - PO LOBBY", "address": {"city": "KITZMILLER", "state": "MD", "street": "103 W CENTER ST", "postcode": "21538"}}},
{"geometry": {"type": "Point", "coordinates": [-78.9749292745, 39.5724588127]}, "type": "Feature", "properties": {"collection_times": [{"days": "Mon-Fri", "time": "4:30pm"}, {"days": "Sat", "time": "3:30pm"}, {"days": "Sun", "time": "Closed"}], "id": "2153900000", "name": "USPS COLLECTION BOX - BLUE BOX", "address": {"city": "LONACONING", "state": "MD", "street": "9 E MAIN ST", "postcode": "21539"}}},
{"geometry": {"type": "Point", "coordinates": [-78.9806439914, 39.5659552815]}, "type": "Feature", "properties": {"collection_times": [{"days": "Mon-Sat", "time": "11:00am"}, {"days": "Sun", "time": "Closed"}], "id": "2153900001", "name": "USPS COLLECTION BOX - BLUE BOX", "address": {"city": "LONACONING", "state": "MD", "street": "8 UNION ST", "postcode": "21539"}}},
{"geometry": {"type": "Point", "coordinates": [-78.9754615072, 39.5712197739]}, "type": "Feature", "properties": {"collection_times": [{"days": "Mon-Sat", "time": "2:15pm"}, {"days": "Sun", "time": "Closed"}], "id": "2153900002", "name": "USPS COLLECTION BOX - BLUE BOX", "address": {"city": "LONACONING", "state": "MD", "street": "35 E MAIN ST", "postcode": "21539"}}},
{"geometry": {"type": "Point", "coordinates": [-78.980925011, 39.5642516159]}, "type": "Feature", "properties": {"collection_times": [{"days": "Mon-Sat", "time": "10:30am"}, {"days": "Sun", "time": "Closed"}], "id": "2153900006", "name": "USPS COLLECTION BOX - BLUE BOX", "address": {"city": "LONACONING", "state": "MD", "street": "25 FRONT ST", "postcode": "21539"}}},
{"geometry": {"type": "Point", "coordinates": [-78.9795367896, 39.5647149606]}, "type": "Feature", "properties": {"collection_times": [{"days": "Mon-Sat", "time": "10:00am"}, {"days": "Sun", "time": "Closed"}], "id": "2153900007", "name": "USPS COLLECTION BOX - BLUE BOX", "address": {"city": "LONACONING", "state": "MD", "street": "47 JACKSON ST", "postcode": "21539"}}},
{"geometry": {"type": "Point", "coordinates": [-78.980043021, 39.5666648187]}, "type": "Feature", "properties": {"collection_times": [{"days": "Mon-Sat", "time": "11:15am"}, {"days": "Sun", "time": "Closed"}], "id": "2153900008", "name": "USPS COLLECTION BOX - BLUE BOX", "address": {"city": "LONACONING", "state": "MD", "street": "35 MAIN ST", "postcode": "21539"}}},
{"geometry": {"type": "Point", "coordinates": [-78.9831671392, 39.5695507674]}, "type": "Feature", "properties": {"collection_times": [{"days": "Mon-Sat", "time": "9:15am"}, {"days": "Sun", "time": "Closed"}], "id": "2153900009", "name": "USPS COLLECTION BOX - BLUE BOX", "address": {"city": "LONACONING", "state": "MD", "street": "60 DOUGLAS AVE", "postcode": "21539"}}},
{"geometry": {"type": "Point", "coordinates": [-78.9749292745, 39.5724588127]}, "type": "Feature", "properties": {"collection_times": [{"days": "Mon-Fri", "time": "4:00pm"}, {"days": "Sat", "time": "3:30pm"}, {"days": "Sun", "time": "Closed"}], "id": "2153900011", "name": "USPS COLLECTION BOX - PO LOBBY", "address": {"city": "LONACONING", "state": "MD", "street": "9 E MAIN ST", "postcode": "21539"}}},
{"geometry": {"type": "Point", "coordinates": [-79.3551921385, 39.5588524639]}, "type": "Feature", "properties": {"collection_times": [{"days": "Mon-Fri", "time": "4:00pm"}, {"days": "Sat", "time": "11:30am"}, {"days": "Sun", "time": "Closed"}], "id": "2154100000", "name": "USPS COLLECTION BOX - BLUE BOX", "address": {"city": "MC HENRY", "state": "MD", "street": "1914 DEEP CREEK DR", "postcode": "21541"}}},
{"geometry": {"type": "Point", "coordinates": [-79.3553176519, 39.5562515844]}, "type": "Feature", "properties": {"collection_times": [{"days": "Mon-Fri", "time": "4:00pm"}, {"days": "Sat", "time": "11:30am"}, {"days": "Sun", "time": "Closed"}], "id": "2154100001", "name": "USPS COLLECTION BOX - EXPRESS", "address": {"city": "MC HENRY", "state": "MD", "street": "1914 DEEP CREEK DR", "postcode": "21541"}}},
{"geometry": {"type": "Point", "coordinates": [-79.3551921385, 39.5588524639]}, "type": "Feature", "properties": {"collection_times": [{"days": "Mon-Fri", "time": "4:00pm"}, {"days": "Sat", "time": "11:45am"}, {"days": "Sun", "time": "Closed"}], "id": "2154100002", "name": "USPS COLLECTION BOX - PO LOBBY", "address": {"city": "MC HENRY", "state": "MD", "street": "1914 DEEP CREEK DR", "postcode": "21541"}}},
{"geometry": {"type": "Point", "coordinates": [-79.3551921385, 39.5588524639]}, "type": "Feature", "properties": {"collection_times": [{"days": "Mon-Fri", "time": "4:00pm"}, {"days": "Sat", "time": "11:45am"}, {"days": "Sun", "time": "Closed"}], "id": "2154100003", "name": "USPS COLLECTION BOX - PO LOBBY", "address": {"city": "MC HENRY", "state": "MD", "street": "1914 DEEP CREEK DR", "postcode": "21541"}}},
{"geometry": {"type": "Point", "coordinates": [-79.3644248457, 39.5647795157]}, "type": "Feature", "properties": {"collection_times": [{"days": "Mon-Sat", "time": "10:15am"}, {"days": "Sun", "time": "Closed"}], "id": "2154100004", "name": "USPS COLLECTION BOX - BLUE BOX", "address": {"city": "MC HENRY", "state": "MD", "street": "24586 GARRETT HWY", "postcode": "21541"}}},
{"geometry": {"type": "Point", "coordinates": [-78.9292952927, 39.6583911924]}, "type": "Feature", "properties": {"collection_times": [{"days": "Mon-Fri", "time": "4:45pm"}, {"days": "Sat", "time": "12:00pm"}, {"days": "Sun", "time": "Closed"}], "id": "2154300000", "name": "USPS COLLECTION BOX - BLUE BOX", "address": {"city": "MIDLOTHIAN", "state": "MD", "street": "19911 OLD MIDLOTHIAN RD SW", "postcode": "21543"}}},
{"geometry": {"type": "Point", "coordinates": [-78.9292952927, 39.6583911924]}, "type": "Feature", "properties": {"collection_times": [{"days": "Mon-Fri", "time": "4:45pm"}, {"days": "Sat", "time": "11:45am"}, {"days": "Sun", "time": "Closed"}], "id": "2154300001", "name": "USPS COLLECTION BOX - PO LOBBY", "address": {"city": "MIDLOTHIAN", "state": "MD", "street": "19911 OLD MIDLOTHIAN RD SW", "postcode": "21543"}}},
{"geometry": {"type": "Point", "coordinates": [-78.8813020661, 39.6956134408]}, "type": "Feature", "properties": {"collection_times": [{"days": "Mon-Fri", "time": "4:15pm"}, {"days": "Sat", "time": "11:45am"}, {"days": "Sun", "time": "Closed"}], "id": "2154500000", "name": "USPS COLLECTION BOX - BLUE BOX", "address": {"city": "MOUNT SAVAGE", "state": "MD", "street": "12700 NEW SCHOOL RD NW", "postcode": "21545"}}},
{"geometry": {"type": "Point", "coordinates": [-78.8813020661, 39.6956134408]}, "type": "Feature", "properties": {"collection_times": [{"days": "Mon-Fri", "time": "4:15pm"}, {"days": "Sat", "time": "11:45am"}, {"days": "Sun", "time": "Closed"}], "id": "2154500001", "name": "USPS COLLECTION BOX - PO LOBBY", "address": {"city": "MOUNT SAVAGE", "state": "MD", "street": "12700 NEW SCHOOL RD NW", "postcode": "21545"}}},
{"geometry": {"type": "Point", "coordinates": [-79.4070963148, 39.4105143125]}, "type": "Feature", "properties": {"collection_times": [{"days": "Mon-Fri", "time": "5:00pm"}, {"days": "Sat", "time": "1:00pm"}, {"days": "Sun", "time": "Closed"}], "id": "2155000001", "name": "USPS COLLECTION BOX - BLUE BOX", "address": {"city": "OAKLAND", "state": "MD", "street": "22 S 2ND ST", "postcode": "21550"}}},
{"geometry": {"type": "Point", "coordinates": [-79.3922467228, 39.3890742894]}, "type": "Feature", "properties": {"collection_times": [{"days": "Mon-Fri", "time": "5:00pm"}, {"days": "Sat", "time": "1:00pm"}, {"days": "Sun", "time": "Closed"}], "id": "2155000003", "name": "USPS COLLECTION BOX - BLUE BOX", "address": {"city": "OAKLAND", "state": "MD", "street": "22 S 2ND ST", "postcode": "21550"}}},
{"geometry": {"type": "Point", "coordinates": [-79.4073664814, 39.4109687145]}, "type": "Feature", "properties": {"collection_times": [{"days": "Mon-Fri", "time": "4:15pm"}, {"days": "Sat", "time": "12:15pm"}, {"days": "Sun", "time": "Closed"}], "id": "2155000005", "name": "USPS COLLECTION BOX - BLUE BOX", "address": {"city": "OAKLAND", "state": "MD", "street": "104 E CENTER ST", "postcode": "21550"}}},
{"geometry": {"type": "Point", "coordinates": [-79.3665771502, 39.4000677884]}, "type": "Feature", "properties": {"collection_times": [{"days": "Mon-Fri", "time": "4:30pm"}, {"days": "Sat", "time": "12:30pm"}, {"days": "Sun", "time": "Closed"}], "id": "2155000008", "name": "USPS COLLECTION BOX - BLUE BOX", "address": {"city": "OAKLAND", "state": "MD", "street": "1325 MARYLAND HWY", "postcode": "21550"}}},
{"geometry": {"type": "Point", "coordinates": [-79.4068413648, 39.4077357912]}, "type": "Feature", "properties": {"collection_times": [{"days": "Mon-Fri", "time": "4:45pm"}, {"days": "Sat", "time": "12:45pm"}, {"days": "Sun", "time": "Closed"}], "id": "2155000010", "name": "USPS COLLECTION BOX - BLUE BOX", "address": {"city": "OAKLAND", "state": "MD", "street": "313 E ALDER ST", "postcode": "21550"}}},
{"geometry": {"type": "Point", "coordinates": [-79.3257669693, 39.5058939324]}, "type": "Feature", "properties": {"collection_times": [{"days": "Mon-Sat", "time": "10:00am"}, {"days": "Sun", "time": "Closed"}], "id": "2155000017", "name": "USPS COLLECTION BOX - BLUE BOX", "address": {"city": "OAKLAND", "state": "MD", "street": "19746 GARRETT HWY", "postcode": "21550"}}},
{"geometry": {"type": "Point", "coordinates": [-79.4081203443, 39.4086967556]}, "type": "Feature", "properties": {"collection_times": [{"days": "Mon-Fri", "time": "4:15pm"}, {"days": "Sat", "time": "12:15pm"}, {"days": "Sun", "time": "Closed"}], "id": "2155000019", "name": "USPS COLLECTION BOX - BLUE BOX", "address": {"city": "OAKLAND", "state": "MD", "street": "200 S 2ND ST", "postcode": "21550"}}},
{"geometry": {"type": "Point", "coordinates": [-79.4087736484, 39.4074837263]}, "type": "Feature", "properties": {"collection_times": [{"days": "Mon-Fri", "time": "4:15pm"}, {"days": "Sat", "time": "12:15pm"}, {"days": "Sun", "time": "Closed"}], "id": "2155000021", "name": "USPS COLLECTION BOX - BLUE BOX", "address": {"city": "OAKLAND", "state": "MD", "street": "308 S 2ND ST", "postcode": "21550"}}},
{"geometry": {"type": "Point", "coordinates": [-79.4070963148, 39.4105143125]}, "type": "Feature", "properties": {"collection_times": [{"days": "Mon-Fri", "time": "5:00pm"}, {"days": "Sat", "time": "1:00pm"}, {"days": "Sun", "time": "Closed"}], "id": "2155000022", "name": "USPS COLLECTION BOX - PO LOBBY", "address": {"city": "OAKLAND", "state": "MD", "street": "22 S 2ND ST", "postcode": "21550"}}},
{"geometry": {"type": "Point", "coordinates": [-79.3922467228, 39.3890742894]}, "type": "Feature", "properties": {"collection_times": [{"days": "Mon-Fri", "time": "5:00pm"}, {"days": "Sat", "time": "1:00pm"}, {"days": "Sun", "time": "Closed"}], "id": "2155000023", "name": "USPS COLLECTION BOX - PO LOBBY", "address": {"city": "OAKLAND", "state": "MD", "street": "22 S 22ND ST", "postcode": "21550"}}},
{"geometry": {"type": "Point", "coordinates": [-79.3665771502, 39.4000677884]}, "type": "Feature", "properties": {"collection_times": [{"days": "Mon-Fri", "time": "4:30pm"}, {"days": "Sat", "time": "12:30pm"}, {"days": "Sun", "time": "Closed"}], "id": "2155000024", "name": "USPS COLLECTION BOX - PO LOBBY", "address": {"city": "OAKLAND", "state": "MD", "street": "1325 MD HWY", "postcode": "21550"}}},
{"geometry": {"type": "Point", "coordinates": [-79.3665771502, 39.4000677884]}, "type": "Feature", "properties": {"collection_times": [{"days": "Mon-Fri", "time": "4:30pm"}, {"days": "Sat", "time": "12:30pm"}, {"days": "Sun", "time": "Closed"}], "id": "2155000025", "name": "USPS COLLECTION BOX - PO LOBBY", "address": {"city": "OAKLAND", "state": "MD", "street": "1325 MD HWY", "postcode": "21550"}}},
{"geometry": {"type": "Point", "coordinates": [-79.402131736, 39.4138811654]}, "type": "Feature", "properties": {"collection_times": [{"days": "Mon-Fri", "time": "4:00pm"}, {"days": "Sat", "time": "12:00pm"}, {"days": "Sun", "time": "Closed"}], "id": "2155000029", "name": "USPS COLLECTION BOX - BLUE BOX", "address": {"city": "OAKLAND", "state": "MD", "street": "251 N 4TH ST", "postcode": "21550"}}},
{"geometry": {"type": "Point", "coordinates": [-79.3626164637, 39.4026663896]}, "type": "Feature", "properties": {"collection_times": [{"days": "Mon-Fri", "time": "4:15pm"}, {"days": "Sat", "time": "12:15pm"}, {"days": "Sun", "time": "Closed"}], "id": "2155000030", "name": "USPS COLLECTION BOX - BLUE BOX", "address": {"city": "OAKLAND", "state": "MD", "street": "1916 MARYLAND HWY", "postcode": "21550"}}},
{"geometry": {"type": "Point", "coordinates": [-79.3968314019, 39.3984144857]}, "type": "Feature", "properties": {"collection_times": [{"days": "Mon-Fri", "time": "4:15pm"}, {"days": "Sat", "time": "12:15pm"}, {"days": "Sun", "time": "Closed"}], "id": "2155000031", "name": "USPS COLLECTION BOX - BLUE BOX", "address": {"city": "OAKLAND", "state": "MD", "street": "406 WEBER RD", "postcode": "21550"}}},
{"geometry": {"type": "Point", "coordinates": [-78.6089878352, 39.5414867866]}, "type": "Feature", "properties": {"collection_times": [{"days": "Mon-Fri", "time": "4:00pm"}, {"days": "Sat", "time": "11:30am"}, {"days": "Sun", "time": "Closed"}], "id": "2155500000", "name": "USPS COLLECTION BOX - BLUE BOX", "address": {"city": "OLD TOWN", "state": "MD", "street": "19104 OPESSA ST SE", "postcode": "21555"}}},
{"geometry": {"type": "Point", "coordinates": [-78.6089878352, 39.5414867866]}, "type": "Feature", "properties": {"collection_times": [{"days": "Mon-Sat", "time": "11:30am"}, {"days": "Sun", "time": "Closed"}], "id": "2155500001", "name": "USPS COLLECTION BOX - PO LOBBY", "address": {"city": "OLD TOWN", "state": "MD", "street": "19104 OPESSA ST SE", "postcode": "21555"}}},
{"geometry": {"type": "Point", "coordinates": [-78.8658572419, 39.5526492679]}, "type": "Feature", "properties": {"collection_times": [{"days": "Mon-Fri", "time": "4:30pm"}, {"days": "Sat", "time": "11:30am"}, {"days": "Sun", "time": "Closed"}], "id": "2155600000", "name": "USPS COLLECTION BOX - BLUE BOX", "address": {"city": "PINTO", "state": "MD", "street": "16111 MCMULLEN HWY", "postcode": "21556"}}},
{"geometry": {"type": "Point", "coordinates": [-78.8658572419, 39.5526492679]}, "type": "Feature", "properties": {"collection_times": [{"days": "Mon-Fri", "time": "4:30pm"}, {"days": "Sat", "time": "11:30am"}, {"days": "Sun", "time": "Closed"}], "id": "2155600001", "name": "USPS COLLECTION BOX - PO LOBBY", "address": {"city": "PINTO", "state": "MD", "street": "16111 MCMULLEN HWY", "postcode": "21556"}}},
{"geometry": {"type": "Point", "coordinates": [-78.8658572419, 39.5526492679]}, "type": "Feature", "properties": {"collection_times": [{"days": "Mon-Fri", "time": "4:30pm"}, {"days": "Sat", "time": "11:30am"}, {"days": "Sun", "time": "Closed"}], "id": "2155600002", "name": "USPS COLLECTION BOX - PO LOBBY", "address": {"city": "PINTO", "state": "MD", "street": "16111 MCMULLEN HWY", "postcode": "21556"}}},
{"geometry": {"type": "Point", "coordinates": [-78.8785286543, 39.5395275723]}, "type": "Feature", "properties": {"collection_times": [{"days": "Mon-Fri", "time": "4:15pm"}, {"days": "Sat", "time": "11:15am"}, {"days": "Sun", "time": "Closed"}], "id": "2155700000", "name": "USPS COLLECTION BOX - BLUE BOX", "address": {"city": "RAWLINGS", "state": "MD", "street": "19000 MCMULLEN HWY SW", "postcode": "21557"}}},
{"geometry": {"type": "Point", "coordinates": [-78.8785286543, 39.5395275723]}, "type": "Feature", "properties": {"collection_times": [{"days": "Mon-Fri", "time": "4:15pm"}, {"days": "Sat", "time": "11:15am"}, {"days": "Sun", "time": "Closed"}], "id": "2155700001", "name": "USPS COLLECTION BOX - PO LOBBY", "address": {"city": "RAWLINGS", "state": "MD", "street": "19000 MCMULLEN HWY SW", "postcode": "21557"}}},
{"geometry": {"type": "Point", "coordinates": [-78.7130390268, 39.5644758823]}, "type": "Feature", "properties": {"collection_times": [{"days": "Mon-Fri", "time": "4:00pm"}, {"days": "Sat", "time": "11:30am"}, {"days": "Sun", "time": "Closed"}], "id": "2156000000", "name": "USPS COLLECTION BOX - BLUE BOX", "address": {"city": "SPRING GAP", "state": "MD", "street": "13400 OLDTOWN RD", "postcode": "21560"}}},
{"geometry": {"type": "Point", "coordinates": [-78.7130390268, 39.5644758823]}, "type": "Feature", "properties": {"collection_times": [{"days": "Mon-Fri", "time": "4:00pm"}, {"days": "Sat", "time": "11:30am"}, {"days": "Sun", "time": "Closed"}], "id": "2156000001", "name": "USPS COLLECTION BOX - PO LOBBY", "address": {"city": "SPRING GAP", "state": "MD", "street": "13400 OLDTOWN RD", "postcode": "21560"}}},
{"geometry": {"type": "Point", "coordinates": [-79.2097954023, 39.4566484135]}, "type": "Feature", "properties": {"collection_times": [{"days": "Mon-Fri", "time": "4:15pm"}, {"days": "Sat", "time": "11:45am"}, {"days": "Sun", "time": "Closed"}], "id": "2156100000", "name": "USPS COLLECTION BOX - BLUE BOX", "address": {"city": "SWANTON", "state": "MD", "street": "3320 SWANTON RD", "postcode": "21561"}}},
{"geometry": {"type": "Point", "coordinates": [-79.2097954023, 39.4566484135]}, "type": "Feature", "properties": {"collection_times": [{"days": "Mon-Fri", "time": "4:15pm"}, {"days": "Sat", "time": "11:45am"}, {"days": "Sun", "time": "Closed"}], "id": "2156100001", "name": "USPS COLLECTION BOX - PO LOBBY", "address": {"city": "SWANTON", "state": "MD", "street": "3320 SWANTON RD", "postcode": "21561"}}},
{"geometry": {"type": "Point", "coordinates": [-79.0444788817, 39.4860033617]}, "type": "Feature", "properties": {"collection_times": [{"days": "Mon-Fri", "time": "5:00pm"}, {"days": "Sat", "time": "12:00pm"}, {"days": "Sun", "time": "Closed"}], "id": "2156200000", "name": "USPS COLLECTION BOX - BLUE BOX", "address": {"city": "WESTERNPORT", "state": "MD", "street": "72 MAIN ST", "postcode": "21562"}}},
{"geometry": {"type": "Point", "coordinates": [-79.0448333306, 39.4852153526]}, "type": "Feature", "properties": {"collection_times": [{"days": "Mon-Sat", "time": "11:30am"}, {"days": "Sun", "time": "Closed"}], "id": "2156200015", "name": "USPS COLLECTION BOX - BLUE BOX", "address": {"city": "WESTERNPORT", "state": "MD", "street": "22 MAIN ST", "postcode": "21562"}}},
{"geometry": {"type": "Point", "coordinates": [-79.0444788817, 39.4860033617]}, "type": "Feature", "properties": {"collection_times": [{"days": "Mon-Fri", "time": "5:00pm"}, {"days": "Sat", "time": "12:00pm"}, {"days": "Sun", "time": "Closed"}], "id": "2156200019", "name": "USPS COLLECTION BOX - PO LOBBY", "address": {"city": "WESTERNPORT", "state": "MD", "street": "72 MAIN ST", "postcode": "21562"}}},
{"geometry": {"type": "Point", "coordinates": [-79.0444788817, 39.4860033617]}, "type": "Feature", "properties": {"collection_times": [{"days": "Mon-Fri", "time": "5:00pm"}, {"days": "Sat", "time": "12:00pm"}, {"days": "Sun", "time": "Closed"}], "id": "2156200020", "name": "USPS COLLECTION BOX - PO LOBBY", "address": {"city": "WESTERNPORT", "state": "MD", "street": "72 MAIN ST", "postcode": "21562"}}},
{"geometry": {"type": "Point", "coordinates": [-79.0444788817, 39.4860033617]}, "type": "Feature", "properties": {"collection_times": [{"days": "Mon-Fri", "time": "5:00pm"}, {"days": "Sat", "time": "12:00pm"}, {"days": "Sun", "time": "Closed"}], "id": "2156200021", "name": "USPS COLLECTION BOX - PO LOBBY", "address": {"city": "WESTERNPORT", "state": "MD", "street": "72 MAIN ST", "postcode": "21562"}}}
]}
