{"type": "FeatureCollection", "features": [
{"geometry": {"type": "Point", "coordinates": [-76.0680470389, 38.7741647402]}, "type": "Feature", "properties": {"collection_times": [{"days": "Mon-Fri", "time": "5:00pm"}, {"days": "Sat", "time": "4:00pm"}, {"days": "Sun", "time": "Closed"}], "id": "2160100000", "name": "USPS COLLECTION BOX - BLUE BOX", "address": {"city": "EASTON", "state": "MD", "street": "116 E DOVER ST", "postcode": "21601"}}},
{"geometry": {"type": "Point", "coordinates": [-76.07531645, 38.777031333]}, "type": "Feature", "properties": {"collection_times": [{"days": "Mon-Fri", "time": "5:00pm"}, {"days": "Sat", "time": "4:00pm"}, {"days": "Sun", "time": "Closed"}], "id": "2160100001", "name": "USPS COLLECTION BOX - EXPRESS", "address": {"city": "EASTON", "state": "MD", "street": "116 E DOVER ST", "postcode": "21601"}}},
{"geometry": {"type": "Point", "coordinates": [-76.0737938138, 38.7739895669]}, "type": "Feature", "properties": {"collection_times": [{"days": "Mon-Fri", "time": "5:00pm"}, {"days": "Sat", "time": "4:00pm"}, {"days": "Sun", "time": "Closed"}], "id": "2160100003", "name": "USPS COLLECTION BOX - BLUE BOX", "address": {"city": "EASTON", "state": "MD", "street": "10 TALBOT LN", "postcode": "21601"}}},
{"geometry": {"type": "Point", "coordinates": [-76.0757855799, 38.7680104363]}, "type": "Feature", "properties": {"collection_times": [{"days": "Mon-Fri", "time": "3:00pm"}, {"days": "Sat", "time": "2:00pm"}, {"days": "Sun", "time": "Closed"}], "id": "2160100005", "name": "USPS COLLECTION BOX - BLUE BOX", "address": {"city": "EASTON", "state": "MD", "street": "219 S WASHINGTON ST", "postcode": "21601"}}},
{"geometry": {"type": "Point", "coordinates": [-76.0758877491, 38.7807678833]}, "type": "Feature", "properties": {"collection_times": [{"days": "Mon-Fri", "time": "3:45pm"}, {"days": "Sat", "time": "2:45pm"}, {"days": "Sun", "time": "Closed"}], "id": "2160100013", "name": "USPS COLLECTION BOX - BLUE BOX", "address": {"city": "EASTON", "state": "MD", "street": "101 MARLBORO AVE", "postcode": "21601"}}},
{"geometry": {"type": "Point", "coordinates": [-76.081700075, 38.7808643891]}, "type": "Feature", "properties": {"collection_times": [{"days": "Mon-Fri", "time": "3:45pm"}, {"days": "Sat", "time": "2:45pm"}, {"days": "Sun", "time": "Closed"}], "id": "2160100014", "name": "USPS COLLECTION BOX - BLUE BOX", "address": {"city": "EASTON", "state": "MD", "street": "210 MARLBORO AVE", "postcode": "21601"}}},
{"geometry": {"type": "Point", "coordinates": [-76.0801571373, 38.7803767547]}, "type": "Feature", "properties": {"collection_times": [{"days": "Mon-Fri", "time": "3:45pm"}, {"days": "Sat", "time": "2:45pm"}, {"days": "Sun", "time": "Closed"}], "id": "2160100015", "name": "USPS COLLECTION BOX - BLUE BOX", "address": {"city": "EASTON", "state": "MD", "street": "219 MARLBORO AVE", "postcode": "21601"}}},
{"geometry": {"type": "Point", "coordinates": [-76.0758078403, 38.7757254192]}, "type": "Feature", "properties": {"collection_times": [{"days": "Mon-Fri", "time": "3:25pm"}, {"days": "Sat", "time": "2:25pm"}, {"days": "Sun", "time": "Closed"}], "id": "2160100016", "name": "USPS COLLECTION BOX - BLUE BOX", "address": {"city": "EASTON", "state": "MD", "street": "31 GOLDSBOROUGH ST", "postcode": "21601"}}},
{"geometry": {"type": "Point", "coordinates": [-76.0766326671, 38.7751717055]}, "type": "Feature", "properties": {"collection_times": [{"days": "Mon-Fri", "time": "3:35pm"}, {"days": "Sat", "time": "2:35pm"}, {"days": "Sun", "time": "Closed"}], "id": "2160100017", "name": "USPS COLLECTION BOX - BLUE BOX", "address": {"city": "EASTON", "state": "MD", "street": "19 FEDERAL ST", "postcode": "21601"}}},
{"geometry": {"type": "Point", "coordinates": [-76.0760784932, 38.7732025162]}, "type": "Feature", "properties": {"collection_times": [{"days": "Mon-Fri", "time": "3:30pm"}, {"days": "Sat", "time": "2:30pm"}, {"days": "Sun", "time": "Closed"}], "id": "2160100018", "name": "USPS COLLECTION BOX - BLUE BOX", "address": {"city": "EASTON", "state": "MD", "street": "36 N WASHINGTON ST", "postcode": "21601"}}},
{"geometry": {"type": "Point", "coordinates": [-76.0695162024, 38.7740922148]}, "type": "Feature", "properties": {"collection_times": [{"days": "Mon-Fri", "time": "3:30pm"}, {"days": "Sat", "time": "2:30pm"}, {"days": "Sun", "time": "Closed"}], "id": "2160100020", "name": "USPS COLLECTION BOX - BLUE BOX", "address": {"city": "EASTON", "state": "MD", "street": "18 E DOVER ST", "postcode": "21601"}}},
{"geometry": {"type": "Point", "coordinates": [-76.0761082618, 38.7774480197]}, "type": "Feature", "properties": {"collection_times": [{"days": "Mon-Fri", "time": "3:25pm"}, {"days": "Sat", "time": "2:25pm"}, {"days": "Sun", "time": "Closed"}], "id": "2160100021", "name": "USPS COLLECTION BOX - BLUE BOX", "address": {"city": "EASTON", "state": "MD", "street": "218 N WASHINGTON ST", "postcode": "21601"}}},
{"geometry": {"type": "Point", "coordinates": [-76.071272018, 38.7492085974]}, "type": "Feature", "properties": {"collection_times": [{"days": "Mon-Fri", "time": "3:05pm"}, {"days": "Sat", "time": "2:05pm"}, {"days": "Sun", "time": "Closed"}], "id": "2160100023", "name": "USPS COLLECTION BOX - BLUE BOX", "address": {"city": "EASTON", "state": "MD", "street": "1200 S WASHINGTON ST", "postcode": "21601"}}},
{"geometry": {"type": "Point", "coordinates": [-76.0787128787, 38.7768435788]}, "type": "Feature", "properties": {"collection_times": [{"days": "Mon-Fri", "time": "3:35pm"}, {"days": "Sat", "time": "2:35pm"}, {"days": "Sun", "time": "Closed"}], "id": "2160100025", "name": "USPS COLLECTION BOX - BLUE BOX", "address": {"city": "EASTON", "state": "MD", "street": "101 BAY ST", "postcode": "21601"}}},
{"geometry": {"type": "Point", "coordinates": [-76.0566327658, 38.8126309808]}, "type": "Feature", "properties": {"collection_times": [{"days": "Mon-Sat", "time": "10:30am"}, {"days": "Sun", "time": "Closed"}], "id": "2160100026", "name": "USPS COLLECTION BOX - BLUE BOX", "address": {"city": "EASTON", "state": "MD", "street": "9618 CORDOVA RD", "postcode": "21601"}}},
{"geometry": {"type": "Point", "coordinates": [-76.0391153692, 38.7408786646]}, "type": "Feature", "properties": {"collection_times": [{"days": "Mon-Sat", "time": "10:00am"}, {"days": "Sun", "time": "Closed"}], "id": "2160100027", "name": "USPS COLLECTION BOX - BLUE BOX", "address": {"city": "EASTON", "state": "MD", "street": "29595 DUTCHMANS LN", "postcode": "21601"}}},
{"geometry": {"type": "Point", "coordinates": [-76.0544174035, 38.8000344867]}, "type": "Feature", "properties": {"collection_times": [{"days": "Mon-Sat", "time": "9:00am"}, {"days": "Sun", "time": "Closed"}], "id": "2160100029", "name": "USPS COLLECTION BOX - BLUE BOX", "address": {"city": "EASTON", "state": "MD", "street": "9100 HONEYSUCKLE DR", "postcode": "21601"}}},
{"geometry": {"type": "Point", "coordinates": [-76.0479930149, 38.7798928243]}, "type": "Feature", "properties": {"collection_times": [{"days": "Mon-Sat", "time": "9:00am"}, {"days": "Sun", "time": "Closed"}], "id": "2160100030", "name": "USPS COLLECTION BOX - BLUE BOX", "address": {"city": "EASTON", "state": "MD", "street": "29137 NEWNAM RD", "postcode": "21601"}}},
{"geometry": {"type": "Point", "coordinates": [-76.0570403823, 38.7746682977]}, "type": "Feature", "properties": {"collection_times": [{"days": "Mon-Fri", "time": "3:15pm"}, {"days": "Sat", "time": "2:15pm"}, {"days": "Sun", "time": "Closed"}], "id": "2160100032", "name": "USPS COLLECTION BOX - BLUE BOX", "address": {"city": "EASTON", "state": "MD", "street": "8223 ELLIOTT RD", "postcode": "21601"}}},
{"geometry": {"type": "Point", "coordinates": [-76.0721704839, 38.746139871]}, "type": "Feature", "properties": {"collection_times": [{"days": "Mon-Sat", "time": "9:45am"}, {"days": "Sun", "time": "Closed"}], "id": "2160100033", "name": "USPS COLLECTION BOX - BLUE BOX", "address": {"city": "EASTON", "state": "MD", "street": "7166 LAUREN LN", "postcode": "21601"}}},
{"geometry": {"type": "Point", "coordinates": [-76.0672380004, 38.7960554533]}, "type": "Feature", "properties": {"collection_times": [{"days": "Mon-Fri", "time": "5:00pm"}, {"days": "Sat", "time": "4:00pm"}, {"days": "Sun", "time": "Closed"}], "id": "2160100034", "name": "USPS COLLECTION BOX - BLUE BOX", "address": {"city": "EASTON", "state": "MD", "street": "29060 AIRPARK DR", "postcode": "21601"}}},
{"geometry": {"type": "Point", "coordinates": [-76.0573274634, 38.7736176925]}, "type": "Feature", "properties": {"collection_times": [{"days": "Mon-Fri", "time": "3:15pm"}, {"days": "Sat", "time": "2:15pm"}, {"days": "Sun", "time": "Closed"}], "id": "2160100038", "name": "USPS COLLECTION BOX - BLUE BOX", "address": {"city": "EASTON", "state": "MD", "street": "8133 ELLIOTT RD", "postcode": "21601"}}},
{"geometry": {"type": "Point", "coordinates": [-76.0824687961, 38.7768187518]}, "type": "Feature", "properties": {"collection_times": [{"days": "Mon-Fri", "time": "3:40pm"}, {"days": "Sat", "time": "2:40pm"}, {"days": "Sun", "time": "Closed"}], "id": "2160100039", "name": "USPS COLLECTION BOX - BLUE BOX", "address": {"city": "EASTON", "state": "MD", "street": "301 BAY ST", "postcode": "21601"}}},
{"geometry": {"type": "Point", "coordinates": [-76.0804632151, 38.7872544275]}, "type": "Feature", "properties": {"collection_times": [{"days": "Mon-Fri", "time": "3:55pm"}, {"days": "Sat", "time": "2:55pm"}, {"days": "Sun", "time": "Closed"}], "id": "2160100043", "name": "USPS COLLECTION BOX - BLUE BOX", "address": {"city": "EASTON", "state": "MD", "street": "8695 COMMERCE DR", "postcode": "21601"}}},
{"geometry": {"type": "Point", "coordinates": [-76.0680470389, 38.7741647402]}, "type": "Feature", "properties": {"collection_times": [{"days": "Mon-Fri", "time": "4:45pm"}, {"days": "Sat", "time": "3:45pm"}, {"days": "Sun", "time": "Closed"}], "id": "2160100044", "name": "USPS COLLECTION BOX - PO LOBBY", "address": {"city": "EASTON", "state": "MD", "street": "116 E DOVER ST", "postcode": "21601"}}},
{"geometry": {"type": "Point", "coordinates": [-76.087682545, 38.7549759869]}, "type": "Feature", "properties": {"collection_times": [{"days": "Mon-Sat", "time": "10:00am"}, {"days": "Sun", "time": "Closed"}], "id": "2160100045", "name": "USPS COLLECTION BOX - BLUE BOX", "address": {"city": "EASTON", "state": "MD", "street": "28501 AUGUSTA CT", "postcode": "21601"}}},
{"geometry": {"type": "Point", "coordinates": [-76.07867, 38.740555]}, "type": "Feature", "properties": {"collection_times": [{"days": "Mon-Sat", "time": "9:30am"}, {"days": "Sun", "time": "Closed"}], "id": "2160100047", "name": "USPS COLLECTION BOX - BLUE BOX", "address": {"city": "EASTON", "state": "MD", "street": "6967 COOKES HOPE RD", "postcode": "21601"}}},
{"geometry": {"type": "Point", "coordinates": [-76.0922397968, 38.7687085062]}, "type": "Feature", "properties": {"collection_times": [{"days": "Mon-Sat", "time": "9:15am"}, {"days": "Sun", "time": "Closed"}], "id": "2160100049", "name": "USPS COLLECTION BOX - BLUE BOX", "address": {"city": "EASTON", "state": "MD", "street": "700 PORT ST", "postcode": "21601"}}},
{"geometry": {"type": "Point", "coordinates": [-76.0680470389, 38.7741647402]}, "type": "Feature", "properties": {"collection_times": [{"days": "Mon-Fri", "time": "4:45pm"}, {"days": "Sat", "time": "3:45pm"}, {"days": "Sun", "time": "Closed"}], "id": "2160100053", "name": "USPS COLLECTION BOX - PO LOBBY", "address": {"city": "EASTON", "state": "MD", "street": "116 E DOVER ST", "postcode": "21601"}}},
{"geometry": {"type": "Point", "coordinates": [-76.0603726711, 38.7785324558]}, "type": "Feature", "properties": {"collection_times": [{"days": "Mon-Sat", "time": "9:00am"}, {"days": "Sun", "time": "Closed"}], "id": "2160100055", "name": "USPS COLLECTION BOX - BLUE BOX", "address": {"city": "EASTON", "state": "MD", "street": "8356 OCEAN GTWY", "postcode": "21601"}}},
{"geometry": {"type": "Point", "coordinates": [-75.8639548774, 39.142672795]}, "type": "Feature", "properties": {"collection_times": [{"days": "Mon-Fri", "time": "3:30pm"}, {"days": "Sat", "time": "12:00pm"}, {"days": "Sun", "time": "Closed"}], "id": "2160700000", "name": "USPS COLLECTION BOX - BLUE BOX", "address": {"city": "BARCLAY", "state": "MD", "street": "1325 GOLDSBORO RD", "postcode": "21607"}}},
{"geometry": {"type": "Point", "coordinates": [-75.8639548774, 39.142672795]}, "type": "Feature", "properties": {"collection_times": [{"days": "Mon-Fri", "time": "3:30pm"}, {"days": "Sat", "time": "12:00pm"}, {"days": "Sun", "time": "Closed"}], "id": "2160700001", "name": "USPS COLLECTION BOX - PO LOBBY", "address": {"city": "BARCLAY", "state": "MD", "street": "1325 GOLDSBORO RD", "postcode": "21607"}}},
{"geometry": {"type": "Point", "coordinates": [-75.8639548774, 39.142672795]}, "type": "Feature", "properties": {"collection_times": [{"days": "Mon-Fri", "time": "3:30pm"}, {"days": "Sat", "time": "12:00pm"}, {"days": "Sun", "time": "Closed"}], "id": "2160700002", "name": "USPS COLLECTION BOX - PO LOBBY", "address": {"city": "BARCLAY", "state": "MD", "street": "1325 GOLDSBORO RD", "postcode": "21607"}}},
{"geometry": {"type": "Point", "coordinates": [-75.9443140702, 38.7461690712]}, "type": "Feature", "properties": {"collection_times": [{"days": "Mon-Fri", "time": "4:30pm"}, {"days": "Sat", "time": "10:30am"}, {"days": "Sun", "time": "Closed"}], "id": "2160900000", "name": "USPS COLLECTION BOX - BLUE BOX", "address": {"city": "BETHLEHEM", "state": "MD", "street": "22015 DOVER BRIDGE RD", "postcode": "21609"}}},
{"geometry": {"type": "Point", "coordinates": [-75.9443140702, 38.7461690712]}, "type": "Feature", "properties": {"collection_times": [{"days": "Mon-Fri", "time": "4:30pm"}, {"days": "Sat", "time": "10:30am"}, {"days": "Sun", "time": "Closed"}], "id": "2160900001", "name": "USPS COLLECTION BOX - PO LOBBY", "address": {"city": "BETHLEHEM", "state": "MD", "street": "22015 DOVER BRIDGE RD", "postcode": "21609"}}},
{"geometry": {"type": "Point", "coordinates": [-75.9443140702, 38.7461690712]}, "type": "Feature", "properties": {"collection_times": [{"days": "Mon-Fri", "time": "4:30pm"}, {"days": "Sat", "time": "10:30am"}, {"days": "Sun", "time": "Closed"}], "id": "2160900002", "name": "USPS COLLECTION BOX - PO LOBBY", "address": {"city": "BETHLEHEM", "state": "MD", "street": "22015 DOVER BRIDGE RD", "postcode": "21609"}}},
{"geometry": {"type": "Point", "coordinates": [-76.059795219, 39.3670479998]}, "type": "Feature", "properties": {"collection_times": [{"days": "Mon-Fri", "time": "4:00pm"}, {"days": "Sat", "time": "11:00am"}, {"days": "Sun", "time": "Closed"}], "id": "2161000000", "name": "USPS COLLECTION BOX - BLUE BOX", "address": {"city": "BETTERTON", "state": "MD", "street": "3 3RD AVE", "postcode": "21610"}}},
{"geometry": {"type": "Point", "coordinates": [-76.059795219, 39.3670479998]}, "type": "Feature", "properties": {"collection_times": [{"days": "Mon-Fri", "time": "4:00pm"}, {"days": "Sat", "time": "11:00am"}, {"days": "Sun", "time": "Closed"}], "id": "2161000001", "name": "USPS COLLECTION BOX - PO LOBBY", "address": {"city": "BETTERTON", "state": "MD", "street": "3 3RD AVE", "postcode": "21610"}}},
{"geometry": {"type": "Point", "coordinates": [-76.059795219, 39.3670479998]}, "type": "Feature", "properties": {"collection_times": [{"days": "Mon-Fri", "time": "4:00pm"}, {"days": "Sat", "time": "11:00am"}, {"days": "Sun", "time": "Closed"}], "id": "2161000002", "name": "USPS COLLECTION BOX - PO LOBBY", "address": {"city": "BETTERTON", "state": "MD", "street": "3 3RD AVE", "postcode": "21610"}}},
{"geometry": {"type": "Point", "coordinates": [-76.2657646231, 38.766845498]}, "type": "Feature", "properties": {"collection_times": [{"days": "Mon-Fri", "time": "4:30pm"}, {"days": "Sat", "time": "11:30am"}, {"days": "Sun", "time": "Closed"}], "id": "2161200000", "name": "USPS COLLECTION BOX - BLUE BOX", "address": {"city": "BOZMAN", "state": "MD", "street": "7983 QUAKER NECK RD", "postcode": "21612"}}},
{"geometry": {"type": "Point", "coordinates": [-76.2657646231, 38.766845498]}, "type": "Feature", "properties": {"collection_times": [{"days": "Mon-Fri", "time": "4:30pm"}, {"days": "Sat", "time": "11:30am"}, {"days": "Sun", "time": "Closed"}], "id": "2161200001", "name": "USPS COLLECTION BOX - PO LOBBY", "address": {"city": "BOZMAN", "state": "MD", "street": "7983 QUAKER NECK RD", "postcode": "21612"}}},
{"geometry": {"type": "Point", "coordinates": [-76.2657646231, 38.766845498]}, "type": "Feature", "properties": {"collection_times": [{"days": "Mon-Fri", "time": "4:30pm"}, {"days": "Sat", "time": "11:30am"}, {"days": "Sun", "time": "Closed"}], "id": "2161200002", "name": "USPS COLLECTION BOX - PO LOBBY", "address": {"city": "BOZMAN", "state": "MD", "street": "7983 QUAKER NECK RD", "postcode": "21612"}}},
{"geometry": {"type": "Point", "coordinates": [-76.0765446254, 38.571969115]}, "type": "Feature", "properties": {"collection_times": [{"days": "Mon-Sat", "time": "5:00pm"}, {"days": "Sun", "time": "Closed"}], "id": "2161300000", "name": "USPS COLLECTION BOX - BLUE BOX", "address": {"city": "CAMBRIDGE", "state": "MD", "street": "301 HIGH ST", "postcode": "21613"}}},
{"geometry": {"type": "Point", "coordinates": [-76.068698794, 38.5709612277]}, "type": "Feature", "properties": {"collection_times": [{"days": "Mon-Sat", "time": "1:42pm"}, {"days": "Sun", "time": "Closed"}], "id": "2161300002", "name": "USPS COLLECTION BOX - BLUE BOX", "address": {"city": "CAMBRIDGE", "state": "MD", "street": "300 BYRN ST", "postcode": "21613"}}},
{"geometry": {"type": "Point", "coordinates": [-76.0661207764, 38.5688400476]}, "type": "Feature", "properties": {"collection_times": [{"days": "Mon-Sat", "time": "1:40pm"}, {"days": "Sun", "time": "Closed"}], "id": "2161300004", "name": "USPS COLLECTION BOX - BLUE BOX", "address": {"city": "CAMBRIDGE", "state": "MD", "street": "501 MARYLAND AVE", "postcode": "21613"}}},
{"geometry": {"type": "Point", "coordinates": [-76.0777006478, 38.5710929886]}, "type": "Feature", "properties": {"collection_times": [{"days": "Mon-Sat", "time": "1:50pm"}, {"days": "Sun", "time": "Closed"}], "id": "2161300007", "name": "USPS COLLECTION BOX - BLUE BOX", "address": {"city": "CAMBRIDGE", "state": "MD", "street": "600 LOCUST ST", "postcode": "21613"}}},
{"geometry": {"type": "Point", "coordinates": [-76.0894596058, 38.5790900844]}, "type": "Feature", "properties": {"collection_times": [{"days": "Mon-Sat", "time": "1:30pm"}, {"days": "Sun", "time": "Closed"}], "id": "2161300014", "name": "USPS COLLECTION BOX - BLUE BOX", "address": {"city": "CAMBRIDGE", "state": "MD", "street": "1502 GLASGOW ST", "postcode": "21613"}}},
{"geometry": {"type": "Point", "coordinates": [-76.0745376202, 38.5699628918]}, "type": "Feature", "properties": {"collection_times": [{"days": "Mon-Sat", "time": "1:43pm"}, {"days": "Sun", "time": "Closed"}], "id": "2161300017", "name": "USPS COLLECTION BOX - BLUE BOX", "address": {"city": "CAMBRIDGE", "state": "MD", "street": "102 MARKET SQ", "postcode": "21613"}}},
{"geometry": {"type": "Point", "coordinates": [-76.0757437568, 38.5722284433]}, "type": "Feature", "properties": {"collection_times": [{"days": "Mon-Sat", "time": "1:44pm"}, {"days": "Sun", "time": "Closed"}], "id": "2161300018", "name": "USPS COLLECTION BOX - BLUE BOX", "address": {"city": "CAMBRIDGE", "state": "MD", "street": "511 COURT LN", "postcode": "21613"}}},
{"geometry": {"type": "Point", "coordinates": [-76.065568319, 38.5621716215]}, "type": "Feature", "properties": {"collection_times": [{"days": "Mon-Sat", "time": "1:39pm"}, {"days": "Sun", "time": "Closed"}], "id": "2161300020", "name": "USPS COLLECTION BOX - BLUE BOX", "address": {"city": "CAMBRIDGE", "state": "MD", "street": "618 SHOAL CREEK MALL", "postcode": "21613"}}},
{"geometry": {"type": "Point", "coordinates": [-76.0633798991, 38.5614080432]}, "type": "Feature", "properties": {"collection_times": [{"days": "Mon-Sat", "time": "1:37pm"}, {"days": "Sun", "time": "Closed"}], "id": "2161300021", "name": "USPS COLLECTION BOX - BLUE BOX", "address": {"city": "CAMBRIDGE", "state": "MD", "street": "716 CAMBRIDGE PLZ", "postcode": "21613"}}},
{"geometry": {"type": "Point", "coordinates": [-76.0777442113, 38.5670103847]}, "type": "Feature", "properties": {"collection_times": [{"days": "Mon-Sat", "time": "1:32pm"}, {"days": "Sun", "time": "Closed"}], "id": "2161300027", "name": "USPS COLLECTION BOX - BLUE BOX", "address": {"city": "CAMBRIDGE", "state": "MD", "street": "600 RACE ST", "postcode": "21613"}}},
{"geometry": {"type": "Point", "coordinates": [-76.0749724065, 38.5638872861]}, "type": "Feature", "properties": {"collection_times": [{"days": "Mon-Sat", "time": "1:34pm"}, {"days": "Sun", "time": "Closed"}], "id": "2161300029", "name": "USPS COLLECTION BOX - BLUE BOX", "address": {"city": "CAMBRIDGE", "state": "MD", "street": "724 PEACHBLOSSOM AVE", "postcode": "21613"}}},
{"geometry": {"type": "Point", "coordinates": [-76.0570975436, 38.5559257455]}, "type": "Feature", "properties": {"collection_times": [{"days": "Mon-Sat", "time": "1:36pm"}, {"days": "Sun", "time": "Closed"}], "id": "2161300030", "name": "USPS COLLECTION BOX - BLUE BOX", "address": {"city": "CAMBRIDGE", "state": "MD", "street": "2759 DORCHESTER SQ", "postcode": "21613"}}},
{"geometry": {"type": "Point", "coordinates": [-76.0671271063, 38.5463394893]}, "type": "Feature", "properties": {"collection_times": [{"days": "Mon-Sat", "time": "1:35pm"}, {"days": "Sun", "time": "Closed"}], "id": "2161300032", "name": "USPS COLLECTION BOX - BLUE BOX", "address": {"city": "CAMBRIDGE", "state": "MD", "street": "2600 CAMBRIDGE BELTWAY", "postcode": "21613"}}},
{"geometry": {"type": "Point", "coordinates": [-76.0780086717, 38.5663883341]}, "type": "Feature", "properties": {"collection_times": [{"days": "Mon-Sat", "time": "1:33pm"}, {"days": "Sun", "time": "Closed"}], "id": "2161300035", "name": "USPS COLLECTION BOX - BLUE BOX", "address": {"city": "CAMBRIDGE", "state": "MD", "street": "627 RACE ST", "postcode": "21613"}}},
{"geometry": {"type": "Point", "coordinates": [-76.0765446254, 38.571969115]}, "type": "Feature", "properties": {"collection_times": [{"days": "Mon-Fri", "time": "5:00pm"}, {"days": "Sat", "time": "4:30pm"}, {"days": "Sun", "time": "Closed"}], "id": "2161300037", "name": "USPS COLLECTION BOX - PO LOBBY", "address": {"city": "CAMBRIDGE", "state": "MD", "street": "301 HIGH ST", "postcode": "21613"}}},
{"geometry": {"type": "Point", "coordinates": [-76.0618333034, 39.0425456028]}, "type": "Feature", "properties": {"collection_times": [{"days": "Mon-Fri", "time": "5:00pm"}, {"days": "Sat", "time": "3:00pm"}, {"days": "Sun", "time": "Closed"}], "id": "2161700001", "name": "USPS COLLECTION BOX - BLUE BOX", "address": {"city": "CENTREVILLE", "state": "MD", "street": "202 E WATER ST", "postcode": "21617"}}},
{"geometry": {"type": "Point", "coordinates": [-76.0662864511, 39.044885397]}, "type": "Feature", "properties": {"collection_times": [{"days": "Mon-Sat", "time": "3:00pm"}, {"days": "Sun", "time": "Closed"}], "id": "2161700004", "name": "USPS COLLECTION BOX - BLUE BOX", "address": {"city": "CENTREVILLE", "state": "MD", "street": "107 N LIBERTY ST", "postcode": "21617"}}},
{"geometry": {"type": "Point", "coordinates": [-76.0664035781, 39.0447418251]}, "type": "Feature", "properties": {"collection_times": [{"days": "Mon-Sat", "time": "3:00pm"}, {"days": "Sun", "time": "Closed"}], "id": "2161700005", "name": "USPS COLLECTION BOX - BLUE BOX", "address": {"city": "CENTREVILLE", "state": "MD", "street": "101 S LIBERTY ST", "postcode": "21617"}}},
{"geometry": {"type": "Point", "coordinates": [-76.0654110678, 39.0442054382]}, "type": "Feature", "properties": {"collection_times": [{"days": "Mon-Sat", "time": "3:00pm"}, {"days": "Sun", "time": "Closed"}], "id": "2161700006", "name": "USPS COLLECTION BOX - BLUE BOX", "address": {"city": "CENTREVILLE", "state": "MD", "street": "102 S COMMERCE ST", "postcode": "21617"}}},
{"geometry": {"type": "Point", "coordinates": [-76.0645688884, 39.0450890415]}, "type": "Feature", "properties": {"collection_times": [{"days": "Mon-Sat", "time": "3:00pm"}, {"days": "Sun", "time": "Closed"}], "id": "2161700007", "name": "USPS COLLECTION BOX - BLUE BOX", "address": {"city": "CENTREVILLE", "state": "MD", "street": "202 N COMMERCE ST", "postcode": "21617"}}},
{"geometry": {"type": "Point", "coordinates": [-76.0618333034, 39.0425456028]}, "type": "Feature", "properties": {"collection_times": [{"days": "Mon-Fri", "time": "5:00pm"}, {"days": "Sat", "time": "3:00pm"}, {"days": "Sun", "time": "Closed"}], "id": "2161700009", "name": "USPS COLLECTION BOX - PO LOBBY", "address": {"city": "CENTREVILLE", "state": "MD", "street": "202 E WATER ST", "postcode": "21617"}}},
{"geometry": {"type": "Point", "coordinates": [-76.0772410478, 39.026994176]}, "type": "Feature", "properties": {"collection_times": [{"days": "Mon-Sat", "time": "10:00am"}, {"days": "Sun", "time": "Closed"}], "id": "2161700010", "name": "USPS COLLECTION BOX - BLUE BOX", "address": {"city": "CENTREVILLE", "state": "MD", "street": "2400 CENTREVILLE RD", "postcode": "21617"}}},
{"geometry": {"type": "Point", "coordinates": [-76.0618333034, 39.0425456028]}, "type": "Feature", "properties": {"collection_times": [{"days": "Mon-Fri", "time": "5:00pm"}, {"days": "Sat", "time": "3:00pm"}, {"days": "Sun", "time": "Closed"}], "id": "2161700012", "name": "USPS COLLECTION BOX - PO LOBBY", "address": {"city": "CENTREVILLE", "state": "MD", "street": "202 E WATER ST", "postcode": "21617"}}},
{"geometry": {"type": "Point", "coordinates": [-76.2854574534, 38.9746710328]}, "type": "Feature", "properties": {"collection_times": [{"days": "Mon-Fri", "time": "4:30pm"}, {"days": "Sat", "time": "12:00pm"}, {"days": "Sun", "time": "Closed"}], "id": "2161900000", "name": "USPS COLLECTION BOX - BLUE BOX", "address": {"city": "CHESTER", "state": "MD", "street": "1575 POSTAL RD", "postcode": "21619"}}},
{"geometry": {"type": "Point", "coordinates": [-76.2793016191, 38.9747659182]}, "type": "Feature", "properties": {"collection_times": [{"days": "Mon-Sat", "time": "10:00am"}, {"days": "Sun", "time": "Closed"}], "id": "2161900001", "name": "USPS COLLECTION BOX - BLUE BOX", "address": {"city": "CHESTER", "state": "MD", "street": "18 KENT TOWN MARKET", "postcode": "21619"}}},
{"geometry": {"type": "Point", "coordinates": [-76.2854574534, 38.9746710328]}, "type": "Feature", "properties": {"collection_times": [{"days": "Mon-Fri", "time": "4:30pm"}, {"days": "Sat", "time": "12:00pm"}, {"days": "Sun", "time": "Closed"}], "id": "2161900008", "name": "USPS COLLECTION BOX - PO LOBBY", "address": {"city": "CHESTER", "state": "MD", "street": "1575 POSTAL RD", "postcode": "21619"}}},
{"geometry": {"type": "Point", "coordinates": [-76.2854574534, 38.9746710328]}, "type": "Feature", "properties": {"collection_times": [{"days": "Mon-Fri", "time": "4:30pm"}, {"days": "Sat", "time": "12:00pm"}, {"days": "Sun", "time": "Closed"}], "id": "2161900009", "name": "USPS COLLECTION BOX - PO LOBBY", "address": {"city": "CHESTER", "state": "MD", "street": "1575 POSTAL RD", "postcode": "21619"}}},
{"geometry": {"type": "Point", "coordinates": [-76.0658869632, 39.2111610278]}, "type": "Feature", "properties": {"collection_times": [{"days": "Mon-Fri", "time": "5:00pm"}, {"days": "Sat", "time": "4:00pm"}, {"days": "Sun", "time": "Closed"}], "id": "2162000000", "name": "USPS COLLECTION BOX - BLUE BOX", "address": {"city": "CHESTERTOWN", "state": "MD", "street": "104 SPRING AVE", "postcode": "21620"}}},
{"geometry": {"type": "Point", "coordinates": [-76.0658869632, 39.2111610278]}, "type": "Feature", "properties": {"collection_times": [{"days": "Mon-Fri", "time": "5:00pm"}, {"days": "Sat", "time": "4:00pm"}, {"days": "Sun", "time": "Closed"}], "id": "2162000001", "name": "USPS COLLECTION BOX - BLUE BOX", "address": {"city": "CHESTERTOWN", "state": "MD", "street": "104 SPRING AVE", "postcode": "21620"}}},
{"geometry": {"type": "Point", "coordinates": [-76.0658869632, 39.2111610278]}, "type": "Feature", "properties": {"collection_times": [{"days": "Mon-Fri", "time": "5:00pm"}, {"days": "Sat", "time": "4:00pm"}, {"days": "Sun", "time": "Closed"}], "id": "2162000002", "name": "USPS COLLECTION BOX - BLUE BOX", "address": {"city": "CHESTERTOWN", "state": "MD", "street": "104 SPRING AVE", "postcode": "21620"}}},
{"geometry": {"type": "Point", "coordinates": [-76.0658869632, 39.2111610278]}, "type": "Feature", "properties": {"collection_times": [{"days": "Mon-Fri", "time": "5:00pm"}, {"days": "Sat", "time": "4:00pm"}, {"days": "Sun", "time": "Closed"}], "id": "2162000003", "name": "USPS COLLECTION BOX - BLUE BOX", "address": {"city": "CHESTERTOWN", "state": "MD", "street": "104 SPRING AVE", "postcode": "21620"}}},
{"geometry": {"type": "Point", "coordinates": [-76.0667091321, 39.2164520303]}, "type": "Feature", "properties": {"collection_times": [{"days": "Mon-Fri", "time": "3:46pm"}, {"days": "Sat", "time": "2:44pm"}, {"days": "Sun", "time": "Closed"}], "id": "2162000007", "name": "USPS COLLECTION BOX - BLUE BOX", "address": {"city": "CHESTERTOWN", "state": "MD", "street": "100 BROWN ST", "postcode": "21620"}}},
{"geometry": {"type": "Point", "coordinates": [-76.079142298, 39.2186833462]}, "type": "Feature", "properties": {"collection_times": [{"days": "Mon-Fri", "time": "3:56pm"}, {"days": "Sat", "time": "2:40pm"}, {"days": "Sun", "time": "Closed"}], "id": "2162000011", "name": "USPS COLLECTION BOX - BLUE BOX", "address": {"city": "CHESTERTOWN", "state": "MD", "street": "101 MORGNEC RD", "postcode": "21620"}}},
{"geometry": {"type": "Point", "coordinates": [-76.0664171675, 39.2091357093]}, "type": "Feature", "properties": {"collection_times": [{"days": "Mon-Fri", "time": "3:50pm"}, {"days": "Sat", "time": "2:49pm"}, {"days": "Sun", "time": "Closed"}], "id": "2162000015", "name": "USPS COLLECTION BOX - BLUE BOX", "address": {"city": "CHESTERTOWN", "state": "MD", "street": "118 N CROSS ST", "postcode": "21620"}}},
{"geometry": {"type": "Point", "coordinates": [-76.0652321274, 39.2082800066]}, "type": "Feature", "properties": {"collection_times": [{"days": "Mon-Fri", "time": "3:52pm"}, {"days": "Sat", "time": "2:51pm"}, {"days": "Sun", "time": "Closed"}], "id": "2162000018", "name": "USPS COLLECTION BOX - BLUE BOX", "address": {"city": "CHESTERTOWN", "state": "MD", "street": "200 HIGH ST", "postcode": "21620"}}},
{"geometry": {"type": "Point", "coordinates": [-76.0691761689, 39.2223131834]}, "type": "Feature", "properties": {"collection_times": [{"days": "Mon-Fri", "time": "3:35pm"}, {"days": "Sat", "time": "2:35pm"}, {"days": "Sun", "time": "Closed"}], "id": "2162000020", "name": "USPS COLLECTION BOX - BLUE BOX", "address": {"city": "CHESTERTOWN", "state": "MD", "street": "711 WASHINGTON AVE #12", "postcode": "21620"}}},
{"geometry": {"type": "Point", "coordinates": [-76.0907415943, 39.2080904321]}, "type": "Feature", "properties": {"collection_times": [{"days": "Mon-Fri", "time": "3:40pm"}, {"days": "Sat", "time": "2:37pm"}, {"days": "Sun", "time": "Closed"}], "id": "2162000024", "name": "USPS COLLECTION BOX - BLUE BOX", "address": {"city": "CHESTERTOWN", "state": "MD", "street": "17 WASHINGTON SQ", "postcode": "21620"}}},
{"geometry": {"type": "Point", "coordinates": [-76.0373135022, 39.1976136024]}, "type": "Feature", "properties": {"collection_times": [{"days": "Mon-Sat", "time": "9:30am"}, {"days": "Sun", "time": "Closed"}], "id": "2162000025", "name": "USPS COLLECTION BOX - BLUE BOX", "address": {"city": "CHESTERTOWN", "state": "MD", "street": "6602 CHURCH HILL RD", "postcode": "21620"}}},
{"geometry": {"type": "Point", "coordinates": [-76.0658869632, 39.2111610278]}, "type": "Feature", "properties": {"collection_times": [{"days": "Mon-Fri", "time": "5:00pm"}, {"days": "Sat", "time": "4:00pm"}, {"days": "Sun", "time": "Closed"}], "id": "2162000026", "name": "USPS COLLECTION BOX - PO LOBBY", "address": {"city": "CHESTERTOWN", "state": "MD", "street": "104 SPRING AVE", "postcode": "21620"}}},
{"geometry": {"type": "Point", "coordinates": [-76.0658869632, 39.2111610278]}, "type": "Feature", "properties": {"collection_times": [{"days": "Mon-Fri", "time": "5:00pm"}, {"days": "Sat", "time": "4:00pm"}, {"days": "Sun", "time": "Closed"}], "id": "2162000028", "name": "USPS COLLECTION BOX - PO LOBBY", "address": {"city": "CHESTERTOWN", "state": "MD", "street": "104 SPRING AVE", "postcode": "21620"}}},
{"geometry": {"type": "Point", "coordinates": [-76.071799157, 39.2143533388]}, "type": "Feature", "properties": {"collection_times": [{"days": "Mon-Fri", "time": "3:54pm"}, {"days": "Sat", "time": "2:53pm"}, {"days": "Sun", "time": "Closed"}], "id": "2162000029", "name": "USPS COLLECTION BOX - BLUE BOX", "address": {"city": "CHESTERTOWN", "state": "MD", "street": "118 S LYNCHBURG ST", "postcode": "21620"}}},
{"geometry": {"type": "Point", "coordinates": [-76.1885754296, 38.4092696871]}, "type": "Feature", "properties": {"collection_times": [{"days": "Mon-Fri", "time": "3:45pm"}, {"days": "Sat", "time": "11:30am"}, {"days": "Sun", "time": "Closed"}], "id": "2162200000", "name": "USPS COLLECTION BOX - BLUE BOX", "address": {"city": "CHURCH CREEK", "state": "MD", "street": "4681 CHURCH CREEK RD", "postcode": "21622"}}},
{"geometry": {"type": "Point", "coordinates": [-76.1885754296, 38.4092696871]}, "type": "Feature", "properties": {"collection_times": [{"days": "Mon-Fri", "time": "3:45pm"}, {"days": "Sat", "time": "11:30am"}, {"days": "Sun", "time": "Closed"}], "id": "2162200001", "name": "USPS COLLECTION BOX - PO LOBBY", "address": {"city": "CHURCH CREEK", "state": "MD", "street": "4681 CHURCH CREEK RD", "postcode": "21622"}}},
{"geometry": {"type": "Point", "coordinates": [-76.227697034, 38.348493144]}, "type": "Feature", "properties": {"collection_times": [{"days": "Mon-Fri", "time": "2:30pm"}, {"days": "Sat", "time": "12:00pm"}, {"days": "Sun", "time": "Closed"}], "id": "2162200003", "name": "USPS COLLECTION BOX - BLUE BOX", "address": {"city": "CHURCH CREEK", "state": "MD", "street": "2806 HOOPERS ISLAND RD", "postcode": "21622"}}},
{"geometry": {"type": "Point", "coordinates": [-75.9789181403, 39.1487186177]}, "type": "Feature", "properties": {"collection_times": [{"days": "Mon-Fri", "time": "4:30pm"}, {"days": "Sat", "time": "10:30am"}, {"days": "Sun", "time": "Closed"}], "id": "2162300000", "name": "USPS COLLECTION BOX - BLUE BOX", "address": {"city": "CHURCH HILL", "state": "MD", "street": "558 MAIN ST", "postcode": "21623"}}},
{"geometry": {"type": "Point", "coordinates": [-75.9789181403, 39.1487186177]}, "type": "Feature", "properties": {"collection_times": [{"days": "Mon-Fri", "time": "4:30pm"}, {"days": "Sat", "time": "10:30am"}, {"days": "Sun", "time": "Closed"}], "id": "2162300001", "name": "USPS COLLECTION BOX - PO LOBBY", "address": {"city": "CHURCH HILL", "state": "MD", "street": "558 MAIN ST", "postcode": "21623"}}},
{"geometry": {"type": "Point", "coordinates": [-75.9789181403, 39.1487186177]}, "type": "Feature", "properties": {"collection_times": [{"days": "Mon-Fri", "time": "4:30pm"}, {"days": "Sat", "time": "10:30am"}, {"days": "Sun", "time": "Closed"}], "id": "2162300002", "name": "USPS COLLECTION BOX - PO LOBBY", "address": {"city": "CHURCH HILL", "state": "MD", "street": "558 MAIN ST", "postcode": "21623"}}},
{"geometry": {"type": "Point", "coordinates": [-75.9948485801, 38.873765429]}, "type": "Feature", "properties": {"collection_times": [{"days": "Mon-Fri", "time": "4:30pm"}, {"days": "Sat", "time": "11:00am"}, {"days": "Sun", "time": "Closed"}], "id": "2162500000", "name": "USPS COLLECTION BOX - BLUE BOX", "address": {"city": "CORDOVA", "state": "MD", "street": "11836 KITTYS CORNER RD", "postcode": "21625"}}},
{"geometry": {"type": "Point", "coordinates": [-75.9948485801, 38.873765429]}, "type": "Feature", "properties": {"collection_times": [{"days": "Mon-Fri", "time": "4:15pm"}, {"days": "Sat", "time": "11:00am"}, {"days": "Sun", "time": "Closed"}], "id": "2162500001", "name": "USPS COLLECTION BOX - PO LOBBY", "address": {"city": "CORDOVA", "state": "MD", "street": "11836 KITTYS CORNER RD", "postcode": "21625"}}},
{"geometry": {"type": "Point", "coordinates": [-75.9948485801, 38.873765429]}, "type": "Feature", "properties": {"collection_times": [{"days": "Mon-Fri", "time": "4:15pm"}, {"days": "Sat", "time": "11:00am"}, {"days": "Sun", "time": "Closed"}], "id": "2162500002", "name": "USPS COLLECTION BOX - PO LOBBY", "address": {"city": "CORDOVA", "state": "MD", "street": "11836 KITTYS CORNER RD", "postcode": "21625"}}},
{"geometry": {"type": "Point", "coordinates": [-76.1240815196, 38.3185380887]}, "type": "Feature", "properties": {"collection_times": [{"days": "Mon-Fri", "time": "3:00pm"}, {"days": "Sat", "time": "12:45pm"}, {"days": "Sun", "time": "Closed"}], "id": "2162600000", "name": "USPS COLLECTION BOX - BLUE BOX", "address": {"city": "CRAPO", "state": "MD", "street": "2568 LAKESVILLE CRAPO RD", "postcode": "21626"}}},
{"geometry": {"type": "Point", "coordinates": [-75.9216430714, 39.24061951]}, "type": "Feature", "properties": {"collection_times": [{"days": "Mon-Fri", "time": "4:00pm"}, {"days": "Sat", "time": "11:00am"}, {"days": "Sun", "time": "Closed"}], "id": "2162800000", "name": "USPS COLLECTION BOX - BLUE BOX", "address": {"city": "CRUMPTON", "state": "MD", "street": "213 BROAD ST", "postcode": "21628"}}},
{"geometry": {"type": "Point", "coordinates": [-75.9216430714, 39.24061951]}, "type": "Feature", "properties": {"collection_times": [{"days": "Mon-Fri", "time": "4:00pm"}, {"days": "Sat", "time": "11:00am"}, {"days": "Sun", "time": "Closed"}], "id": "2162800001", "name": "USPS COLLECTION BOX - PO LOBBY", "address": {"city": "CRUMPTON", "state": "MD", "street": "213 BROAD ST", "postcode": "21628"}}},
{"geometry": {"type": "Point", "coordinates": [-75.9216430714, 39.24061951]}, "type": "Feature", "properties": {"collection_times": [{"days": "Mon-Fri", "time": "4:00pm"}, {"days": "Sat", "time": "11:00am"}, {"days": "Sun", "time": "Closed"}], "id": "2162800002", "name": "USPS COLLECTION BOX - PO LOBBY", "address": {"city": "CRUMPTON", "state": "MD", "street": "213 BROAD ST", "postcode": "21628"}}},
{"geometry": {"type": "Point", "coordinates": [-75.8328349316, 38.8825687405]}, "type": "Feature", "properties": {"collection_times": [{"days": "Mon-Fri", "time": "5:00pm"}, {"days": "Sat", "time": "12:00pm"}, {"days": "Sun", "time": "Closed"}], "id": "2162900003", "name": "USPS COLLECTION BOX - BLUE BOX", "address": {"city": "DENTON", "state": "MD", "street": "207 S 3RD ST", "postcode": "21629"}}},
{"geometry": {"type": "Point", "coordinates": [-75.8330590824, 38.8853879546]}, "type": "Feature", "properties": {"collection_times": [{"days": "Mon-Fri", "time": "5:00pm"}, {"days": "Sat", "time": "12:00pm"}, {"days": "Sun", "time": "Closed"}], "id": "2162900004", "name": "USPS COLLECTION BOX - BLUE BOX", "address": {"city": "DENTON", "state": "MD", "street": "100 S 2ND ST", "postcode": "21629"}}},
{"geometry": {"type": "Point", "coordinates": [-75.8354066802, 38.8871753303]}, "type": "Feature", "properties": {"collection_times": [{"days": "Mon-Fri", "time": "5:00pm"}, {"days": "Sat", "time": "12:00pm"}, {"days": "Sun", "time": "Closed"}], "id": "2162900005", "name": "USPS COLLECTION BOX - BLUE BOX", "address": {"city": "DENTON", "state": "MD", "street": "224 MARKET ST", "postcode": "21629"}}},
{"geometry": {"type": "Point", "coordinates": [-75.8359663173, 38.8873127262]}, "type": "Feature", "properties": {"collection_times": [{"days": "Mon-Fri", "time": "5:00pm"}, {"days": "Sat", "time": "12:00pm"}, {"days": "Sun", "time": "Closed"}], "id": "2162900007", "name": "USPS COLLECTION BOX - BLUE BOX", "address": {"city": "DENTON", "state": "MD", "street": "112 MARKET ST", "postcode": "21629"}}},
{"geometry": {"type": "Point", "coordinates": [-75.8308146594, 38.8620085149]}, "type": "Feature", "properties": {"collection_times": [{"days": "Mon-Fri", "time": "3:30pm"}, {"days": "Sat", "time": "12:00pm"}, {"days": "Sun", "time": "Closed"}], "id": "2162900009", "name": "USPS COLLECTION BOX - BLUE BOX", "address": {"city": "DENTON", "state": "MD", "street": "34 DENTON PLZ", "postcode": "21629"}}},
{"geometry": {"type": "Point", "coordinates": [-75.8359663173, 38.8873127262]}, "type": "Feature", "properties": {"collection_times": [{"days": "Mon-Fri", "time": "5:00pm"}, {"days": "Sat", "time": "12:00pm"}, {"days": "Sun", "time": "Closed"}], "id": "2162900010", "name": "USPS COLLECTION BOX - BLUE BOX", "address": {"city": "DENTON", "state": "MD", "street": "112 MARKET ST", "postcode": "21629"}}},
{"geometry": {"type": "Point", "coordinates": [-75.8277212576, 38.8801226702]}, "type": "Feature", "properties": {"collection_times": [{"days": "Mon-Fri", "time": "5:00pm"}, {"days": "Sat", "time": "12:00pm"}, {"days": "Sun", "time": "Closed"}], "id": "2162900015", "name": "USPS COLLECTION BOX - BLUE BOX", "address": {"city": "DENTON", "state": "MD", "street": "403 S 7TH ST", "postcode": "21629"}}},
{"geometry": {"type": "Point", "coordinates": [-75.8321131267, 38.886282451]}, "type": "Feature", "properties": {"collection_times": [{"days": "Mon-Fri", "time": "5:00pm"}, {"days": "Sat", "time": "12:00pm"}, {"days": "Sun", "time": "Closed"}], "id": "2162900016", "name": "USPS COLLECTION BOX - PO LOBBY", "address": {"city": "DENTON", "state": "MD", "street": "503 MARKET ST", "postcode": "21629"}}},
{"geometry": {"type": "Point", "coordinates": [-75.8294397647, 38.8854480768]}, "type": "Feature", "properties": {"collection_times": [{"days": "Mon-Fri", "time": "5:00pm"}, {"days": "Sat", "time": "12:00pm"}, {"days": "Sun", "time": "Closed"}], "id": "2162900017", "name": "USPS COLLECTION BOX - BLUE BOX", "address": {"city": "DENTON", "state": "MD", "street": "3 N 5TH ST", "postcode": "21629"}}},
{"geometry": {"type": "Point", "coordinates": [-75.8271818613, 38.8715904124]}, "type": "Feature", "properties": {"collection_times": [{"days": "Mon-Fri", "time": "3:15pm"}, {"days": "Sat", "time": "12:00pm"}, {"days": "Sun", "time": "Closed"}], "id": "2162900018", "name": "USPS COLLECTION BOX - BLUE BOX", "address": {"city": "DENTON", "state": "MD", "street": "840 S 5 TH AVE.", "postcode": "21629"}}},
{"geometry": {"type": "Point", "coordinates": [-75.8321131267, 38.886282451]}, "type": "Feature", "properties": {"collection_times": [{"days": "Mon-Fri", "time": "5:00pm"}, {"days": "Sat", "time": "12:00pm"}, {"days": "Sun", "time": "Closed"}], "id": "2162900019", "name": "USPS COLLECTION BOX - PO LOBBY", "address": {"city": "DENTON", "state": "MD", "street": "503 MARKET ST", "postcode": "21629"}}},
{"geometry": {"type": "Point", "coordinates": [-75.9233840776, 38.5984104695]}, "type": "Feature", "properties": {"collection_times": [{"days": "Mon-Fri", "time": "4:00pm"}, {"days": "Sat", "time": "11:00am"}, {"days": "Sun", "time": "Closed"}], "id": "2163100000", "name": "USPS COLLECTION BOX - BLUE BOX", "address": {"city": "EAST NEW MARKET", "state": "MD", "street": "101 RAILROAD AVE", "postcode": "21631"}}},
{"geometry": {"type": "Point", "coordinates": [-75.9233840776, 38.5984104695]}, "type": "Feature", "properties": {"collection_times": [{"days": "Mon-Fri", "time": "4:15pm"}, {"days": "Sat", "time": "11:30am"}, {"days": "Sun", "time": "Closed"}], "id": "2163100003", "name": "USPS COLLECTION BOX - PO LOBBY", "address": {"city": "EAST NEW MARKET", "state": "MD", "street": "101 RAILROAD AVE", "postcode": "21631"}}},
{"geometry": {"type": "Point", "coordinates": [-75.9233840776, 38.5984104695]}, "type": "Feature", "properties": {"collection_times": [{"days": "Mon-Fri", "time": "4:15pm"}, {"days": "Sat", "time": "11:30am"}, {"days": "Sun", "time": "Closed"}], "id": "2163100004", "name": "USPS COLLECTION BOX - PO LOBBY", "address": {"city": "EAST NEW MARKET", "state": "MD", "street": "101 RAILROAD AVE", "postcode": "21631"}}},
{"geometry": {"type": "Point", "coordinates": [-75.9451487752, 38.592151349]}, "type": "Feature", "properties": {"collection_times": [{"days": "Mon-Fri", "time": "1:00pm"}, {"days": "Sat", "time": "12:00pm"}, {"days": "Sun", "time": "Closed"}], "id": "2163100006", "name": "USPS COLLECTION BOX - BLUE BOX", "address": {"city": "EAST NEW MARKET", "state": "MD", "street": "104 MAIN ST", "postcode": "21631"}}},
{"geometry": {"type": "Point", "coordinates": [-75.7748266684, 38.6949373097]}, "type": "Feature", "properties": {"collection_times": [{"days": "Mon-Fri", "time": "5:00pm"}, {"days": "Sat", "time": "12:15pm"}, {"days": "Sun", "time": "Closed"}], "id": "2163200000", "name": "USPS COLLECTION BOX - BLUE BOX", "address": {"city": "FEDERALSBURG", "state": "MD", "street": "122 MORRIS AVE", "postcode": "21632"}}},
{"geometry": {"type": "Point", "coordinates": [-75.7880097607, 38.6991569629]}, "type": "Feature", "properties": {"collection_times": [{"days": "Mon-Fri", "time": "4:00pm"}, {"days": "Sat", "time": "12:15pm"}, {"days": "Sun", "time": "Closed"}], "id": "2163200014", "name": "USPS COLLECTION BOX - BLUE BOX", "address": {"city": "FEDERALSBURG", "state": "MD", "street": "3350 HAYMAN DR", "postcode": "21632"}}},
{"geometry": {"type": "Point", "coordinates": [-75.7748266684, 38.6949373097]}, "type": "Feature", "properties": {"collection_times": [{"days": "Mon-Fri", "time": "4:45pm"}, {"days": "Sat", "time": "11:45am"}, {"days": "Sun", "time": "Closed"}], "id": "2163200015", "name": "USPS COLLECTION BOX - PO LOBBY", "address": {"city": "FEDERALSBURG", "state": "MD", "street": "122 MORRIS AVE", "postcode": "21632"}}},
{"geometry": {"type": "Point", "coordinates": [-75.7748266684, 38.6949373097]}, "type": "Feature", "properties": {"collection_times": [{"days": "Mon-Fri", "time": "4:45pm"}, {"days": "Sat", "time": "11:45am"}, {"days": "Sun", "time": "Closed"}], "id": "2163200016", "name": "USPS COLLECTION BOX - PO LOBBY", "address": {"city": "FEDERALSBURG", "state": "MD", "street": "122 MORRIS AVE", "postcode": "21632"}}},
{"geometry": {"type": "Point", "coordinates": [-76.2293527269, 38.3267556229]}, "type": "Feature", "properties": {"collection_times": [{"days": "Mon-Fri", "time": "3:15pm"}, {"days": "Sat", "time": "12:45pm"}, {"days": "Sun", "time": "Closed"}], "id": "2163400000", "name": "USPS COLLECTION BOX - BLUE BOX", "address": {"city": "FISHING CREEK", "state": "MD", "street": "2654 HOOPERS ISLAND RD", "postcode": "21634"}}},
{"geometry": {"type": "Point", "coordinates": [-76.2293527269, 38.3267556229]}, "type": "Feature", "properties": {"collection_times": [{"days": "Mon-Fri", "time": "3:15pm"}, {"days": "Sat", "time": "12:45pm"}, {"days": "Sun", "time": "Closed"}], "id": "2163400001", "name": "USPS COLLECTION BOX - PO LOBBY", "address": {"city": "FISHING CREEK", "state": "MD", "street": "2654 HOOPERS ISLAND RD", "postcode": "21634"}}},
{"geometry": {"type": "Point", "coordinates": [-75.8820397851, 39.340567811]}, "type": "Feature", "properties": {"collection_times": [{"days": "Mon-Fri", "time": "4:00pm"}, {"days": "Sat", "time": "11:00am"}, {"days": "Sun", "time": "Closed"}], "id": "2163500000", "name": "USPS COLLECTION BOX - BLUE BOX", "address": {"city": "GALENA", "state": "MD", "street": "124 W CROSS ST", "postcode": "21635"}}},
{"geometry": {"type": "Point", "coordinates": [-75.8820397851, 39.340567811]}, "type": "Feature", "properties": {"collection_times": [{"days": "Mon-Fri", "time": "4:00pm"}, {"days": "Sat", "time": "11:00am"}, {"days": "Sun", "time": "Closed"}], "id": "2163500001", "name": "USPS COLLECTION BOX - PO LOBBY", "address": {"city": "GALENA", "state": "MD", "street": "124 W CROSS ST", "postcode": "21635"}}},
{"geometry": {"type": "Point", "coordinates": [-75.8820397851, 39.340567811]}, "type": "Feature", "properties": {"collection_times": [{"days": "Mon-Fri", "time": "4:00pm"}, {"days": "Sat", "time": "11:00am"}, {"days": "Sun", "time": "Closed"}], "id": "2163500002", "name": "USPS COLLECTION BOX - PO LOBBY", "address": {"city": "GALENA", "state": "MD", "street": "124 W CROSS ST", "postcode": "21635"}}},
{"geometry": {"type": "Point", "coordinates": [-75.7888406422, 39.0371506223]}, "type": "Feature", "properties": {"collection_times": [{"days": "Mon-Fri", "time": "4:00pm"}, {"days": "Sat", "time": "11:00am"}, {"days": "Sun", "time": "Closed"}], "id": "2163600000", "name": "USPS COLLECTION BOX - BLUE BOX", "address": {"city": "GOLDSBORO", "state": "MD", "street": "507 OLDTOWN RD", "postcode": "21636"}}},
{"geometry": {"type": "Point", "coordinates": [-75.7888406422, 39.0371506223]}, "type": "Feature", "properties": {"collection_times": [{"days": "Mon-Fri", "time": "12:00pm"}, {"days": "Sat", "time": "11:00am"}, {"days": "Sun", "time": "Closed"}], "id": "2163600001", "name": "USPS COLLECTION BOX - PO LOBBY", "address": {"city": "GOLDSBORO", "state": "MD", "street": "507 OLDTOWN RD", "postcode": "21636"}}},
{"geometry": {"type": "Point", "coordinates": [-76.2218109307, 38.9644651537]}, "type": "Feature", "properties": {"collection_times": [{"days": "Mon-Fri", "time": "4:45pm"}, {"days": "Sat", "time": "11:00am"}, {"days": "Sun", "time": "Closed"}], "id": "2163800000", "name": "USPS COLLECTION BOX - BLUE BOX", "address": {"city": "GRASONVILLE", "state": "MD", "street": "4307 MAIN ST", "postcode": "21638"}}},
{"geometry": {"type": "Point", "coordinates": [-76.2218109307, 38.9644651537]}, "type": "Feature", "properties": {"collection_times": [{"days": "Mon-Fri", "time": "4:45pm"}, {"days": "Sat", "time": "11:15am"}, {"days": "Sun", "time": "Closed"}], "id": "2163800002", "name": "USPS COLLECTION BOX - PO LOBBY", "address": {"city": "GRASONVILLE", "state": "MD", "street": "4307 MAIN ST", "postcode": "21638"}}},
{"geometry": {"type": "Point", "coordinates": [-75.8071929484, 38.9744682239]}, "type": "Feature", "properties": {"collection_times": [{"days": "Mon-Fri", "time": "4:00pm"}, {"days": "Sat", "time": "11:30am"}, {"days": "Sun", "time": "Closed"}], "id": "2163900000", "name": "USPS COLLECTION BOX - BLUE BOX", "address": {"city": "GREENSBORO", "state": "MD", "street": "202 W SUNSET AVE", "postcode": "21639"}}},
{"geometry": {"type": "Point", "coordinates": [-75.8071929484, 38.9744682239]}, "type": "Feature", "properties": {"collection_times": [{"days": "Mon-Fri", "time": "4:00pm"}, {"days": "Sat", "time": "11:30am"}, {"days": "Sun", "time": "Closed"}], "id": "2163900001", "name": "USPS COLLECTION BOX - PO LOBBY", "address": {"city": "GREENSBORO", "state": "MD", "street": "202 W SUNSET AVE", "postcode": "21639"}}},
{"geometry": {"type": "Point", "coordinates": [-75.8071929484, 38.9744682239]}, "type": "Feature", "properties": {"collection_times": [{"days": "Mon-Fri", "time": "4:00pm"}, {"days": "Sat", "time": "11:30am"}, {"days": "Sun", "time": "Closed"}], "id": "2163900002", "name": "USPS COLLECTION BOX - PO LOBBY", "address": {"city": "GREENSBORO", "state": "MD", "street": "202 W SUNSET AVE", "postcode": "21639"}}},
{"geometry": {"type": "Point", "coordinates": [-75.7655411113, 39.0743388601]}, "type": "Feature", "properties": {"collection_times": [{"days": "Mon-Fri", "time": "1:00pm"}, {"days": "Sat-Sun", "time": "Closed"}], "id": "2164000000", "name": "USPS COLLECTION BOX - BLUE BOX", "address": {"city": "HENDERSON", "state": "MD", "street": "321 BEE TREE RD", "postcode": "21640"}}},
{"geometry": {"type": "Point", "coordinates": [-75.7655411113, 39.0743388601]}, "type": "Feature", "properties": {"collection_times": [{"days": "Mon-Fri", "time": "1:00pm"}, {"days": "Sat-Sun", "time": "Closed"}], "id": "2164000001", "name": "USPS COLLECTION BOX - PO LOBBY", "address": {"city": "HENDERSON", "state": "MD", "street": "321 BEE TREE RD", "postcode": "21640"}}},
{"geometry": {"type": "Point", "coordinates": [-75.7655411113, 39.0743388601]}, "type": "Feature", "properties": {"collection_times": [{"days": "Mon-Fri", "time": "1:00pm"}, {"days": "Sat-Sun", "time": "Closed"}], "id": "2164000002", "name": "USPS COLLECTION BOX - PO LOBBY", "address": {"city": "HENDERSON", "state": "MD", "street": "321 BEE TREE RD", "postcode": "21640"}}},
{"geometry": {"type": "Point", "coordinates": [-75.9417112396, 38.9169423072]}, "type": "Feature", "properties": {"collection_times": [{"days": "Mon-Fri", "time": "4:15pm"}, {"days": "Sat", "time": "10:45am"}, {"days": "Sun", "time": "Closed"}], "id": "2164100000", "name": "USPS COLLECTION BOX - BLUE BOX", "address": {"city": "HILLSBORO", "state": "MD", "street": "22043 MAIN ST", "postcode": "21641"}}},
{"geometry": {"type": "Point", "coordinates": [-75.9417112396, 38.9169423072]}, "type": "Feature", "properties": {"collection_times": [{"days": "Mon-Fri", "time": "12:00pm"}, {"days": "Sat", "time": "10:45am"}, {"days": "Sun", "time": "Closed"}], "id": "2164100001", "name": "USPS COLLECTION BOX - PO LOBBY", "address": {"city": "HILLSBORO", "state": "MD", "street": "22043 MAIN ST", "postcode": "21641"}}},
{"geometry": {"type": "Point", "coordinates": [-75.8686826355, 38.6305682724]}, "type": "Feature", "properties": {"collection_times": [{"days": "Mon-Fri", "time": "4:45pm"}, {"days": "Sat", "time": "11:45am"}, {"days": "Sun", "time": "Closed"}], "id": "2164300001", "name": "USPS COLLECTION BOX - PO LOBBY", "address": {"city": "HURLOCK", "state": "MD", "street": "111 POPLAR ST", "postcode": "21643"}}},
{"geometry": {"type": "Point", "coordinates": [-75.8686826355, 38.6305682724]}, "type": "Feature", "properties": {"collection_times": [{"days": "Mon-Fri", "time": "4:45pm"}, {"days": "Sat", "time": "11:45am"}, {"days": "Sun", "time": "Closed"}], "id": "2164300002", "name": "USPS COLLECTION BOX - PO LOBBY", "address": {"city": "HURLOCK", "state": "MD", "street": "111 POPLAR ST", "postcode": "21643"}}},
{"geometry": {"type": "Point", "coordinates": [-75.8686826355, 38.6305682724]}, "type": "Feature", "properties": {"collection_times": [{"days": "Mon-Fri", "time": "4:45pm"}, {"days": "Sat", "time": "11:45am"}, {"days": "Sun", "time": "Closed"}], "id": "2164300003", "name": "USPS COLLECTION BOX - BLUE BOX", "address": {"city": "HURLOCK", "state": "MD", "street": "111 POPLAR ST", "postcode": "21643"}}},
{"geometry": {"type": "Point", "coordinates": [-75.8853188141, 39.125852554]}, "type": "Feature", "properties": {"collection_times": [{"days": "Mon-Fri", "time": "2:00pm"}, {"days": "Sat", "time": "11:00am"}, {"days": "Sun", "time": "Closed"}], "id": "2164400002", "name": "USPS COLLECTION BOX - BLUE BOX", "address": {"city": "INGLESIDE", "state": "MD", "street": "2626 ROBERTS STATION RD", "postcode": "21644"}}},
{"geometry": {"type": "Point", "coordinates": [-75.9827015425, 39.3174487162]}, "type": "Feature", "properties": {"collection_times": [{"days": "Mon-Fri", "time": "4:00pm"}, {"days": "Sat", "time": "11:00am"}, {"days": "Sun", "time": "Closed"}], "id": "2164500000", "name": "USPS COLLECTION BOX - BLUE BOX", "address": {"city": "KENNEDYVILLE", "state": "MD", "street": "11959 AUGUSTINE HERMAN HWY", "postcode": "21645"}}},
{"geometry": {"type": "Point", "coordinates": [-75.9827015425, 39.3174487162]}, "type": "Feature", "properties": {"collection_times": [{"days": "Mon-Fri", "time": "1:00pm"}, {"days": "Sat", "time": "11:00am"}, {"days": "Sun", "time": "Closed"}], "id": "2164500001", "name": "USPS COLLECTION BOX - PO LOBBY", "address": {"city": "KENNEDYVILLE", "state": "MD", "street": "11959 AUGUSTINE HERMAN HWY", "postcode": "21645"}}},
{"geometry": {"type": "Point", "coordinates": [-75.9827015425, 39.3174487162]}, "type": "Feature", "properties": {"collection_times": [{"days": "Mon-Fri", "time": "1:00pm"}, {"days": "Sat", "time": "11:00am"}, {"days": "Sun", "time": "Closed"}], "id": "2164500002", "name": "USPS COLLECTION BOX - PO LOBBY", "address": {"city": "KENNEDYVILLE", "state": "MD", "street": "11959 AUGUSTINE HERMAN HWY", "postcode": "21645"}}},
{"geometry": {"type": "Point", "coordinates": [-75.7495849196, 39.1119253674]}, "type": "Feature", "properties": {"collection_times": [{"days": "Mon-Fri", "time": "3:30pm"}, {"days": "Sat", "time": "12:00pm"}, {"days": "Sun", "time": "Closed"}], "id": "2164900000", "name": "USPS COLLECTION BOX - BLUE BOX", "address": {"city": "MARYDEL", "state": "MD", "street": "114 HALL TOWN RD", "postcode": "21649"}}},
{"geometry": {"type": "Point", "coordinates": [-75.7495849196, 39.1119253674]}, "type": "Feature", "properties": {"collection_times": [{"days": "Mon-Fri", "time": "3:30pm"}, {"days": "Sat", "time": "12:00pm"}, {"days": "Sun", "time": "Closed"}], "id": "2164900001", "name": "USPS COLLECTION BOX - PO LOBBY", "address": {"city": "MARYDEL", "state": "MD", "street": "114 HALLTOWN RD", "postcode": "21649"}}},
{"geometry": {"type": "Point", "coordinates": [-75.7495849196, 39.1119253674]}, "type": "Feature", "properties": {"collection_times": [{"days": "Mon-Fri", "time": "3:30pm"}, {"days": "Sat", "time": "12:00pm"}, {"days": "Sun", "time": "Closed"}], "id": "2164900002", "name": "USPS COLLECTION BOX - PO LOBBY", "address": {"city": "MARYDEL", "state": "MD", "street": "114 HALLTOWN RD", "postcode": "21649"}}},
{"geometry": {"type": "Point", "coordinates": [-75.8270178506, 39.3069714746]}, "type": "Feature", "properties": {"collection_times": [{"days": "Mon-Fri", "time": "4:15pm"}, {"days": "Sat", "time": "11:00am"}, {"days": "Sun", "time": "Closed"}], "id": "2165000000", "name": "USPS COLLECTION BOX - BLUE BOX", "address": {"city": "MASSEY", "state": "MD", "street": "12139 GALENA RD", "postcode": "21650"}}},
{"geometry": {"type": "Point", "coordinates": [-75.8270178506, 39.3069714746]}, "type": "Feature", "properties": {"collection_times": [{"days": "Mon-Fri", "time": "4:15pm"}, {"days": "Sat", "time": "11:00am"}, {"days": "Sun", "time": "Closed"}], "id": "2165000001", "name": "USPS COLLECTION BOX - PO LOBBY", "address": {"city": "MASSEY", "state": "MD", "street": "12139 GALENA RD", "postcode": "21650"}}},
{"geometry": {"type": "Point", "coordinates": [-75.8384429097, 39.2586241179]}, "type": "Feature", "properties": {"collection_times": [{"days": "Mon-Fri", "time": "4:15pm"}, {"days": "Sat", "time": "10:45am"}, {"days": "Sun", "time": "Closed"}], "id": "2165100000", "name": "USPS COLLECTION BOX - BLUE BOX", "address": {"city": "MILLINGTON", "state": "MD", "street": "412 CYPRESS ST", "postcode": "21651"}}},
{"geometry": {"type": "Point", "coordinates": [-75.8384429097, 39.2586241179]}, "type": "Feature", "properties": {"collection_times": [{"days": "Mon-Fri", "time": "4:15pm"}, {"days": "Sat", "time": "10:45am"}, {"days": "Sun", "time": "Closed"}], "id": "2165100003", "name": "USPS COLLECTION BOX - PO LOBBY", "address": {"city": "MILLINGTON", "state": "MD", "street": "412 CYPRESS ST", "postcode": "21651"}}},
{"geometry": {"type": "Point", "coordinates": [-75.8384429097, 39.2586241179]}, "type": "Feature", "properties": {"collection_times": [{"days": "Mon-Fri", "time": "4:15pm"}, {"days": "Sat", "time": "10:45am"}, {"days": "Sun", "time": "Closed"}], "id": "2165100004", "name": "USPS COLLECTION BOX - PO LOBBY", "address": {"city": "MILLINGTON", "state": "MD", "street": "412 CYPRESS ST", "postcode": "21651"}}},
{"geometry": {"type": "Point", "coordinates": [-75.8384429097, 39.2586241179]}, "type": "Feature", "properties": {"collection_times": [{"days": "Mon-Fri", "time": "4:15pm"}, {"days": "Sat", "time": "10:45am"}, {"days": "Sun", "time": "Closed"}], "id": "2165100006", "name": "USPS COLLECTION BOX - PO LOBBY", "address": {"city": "MILLINGTON", "state": "MD", "street": "412 CYPRESS ST", "postcode": "21651"}}},
{"geometry": {"type": "Point", "coordinates": [-76.291403324, 38.7364111198]}, "type": "Feature", "properties": {"collection_times": [{"days": "Mon-Sat", "time": "10:00am"}, {"days": "Sun", "time": "Closed"}], "id": "2165200002", "name": "USPS COLLECTION BOX - BLUE BOX", "address": {"city": "NEAVITT", "state": "MD", "street": "1 BOZMAN NEAVITT RD", "postcode": "21652"}}},
{"geometry": {"type": "Point", "coordinates": [-76.1776058453, 38.752543621]}, "type": "Feature", "properties": {"collection_times": [{"days": "Mon-Fri", "time": "12:00pm"}, {"days": "Sat", "time": "10:00am"}, {"days": "Sun", "time": "Closed"}], "id": "2165300000", "name": "USPS COLLECTION BOX - BLUE BOX", "address": {"city": "NEWCOMB", "state": "MD", "street": "7414 BACK ST", "postcode": "21653"}}},
{"geometry": {"type": "Point", "coordinates": [-76.1776058453, 38.752543621]}, "type": "Feature", "properties": {"collection_times": [{"days": "Mon-Fri", "time": "12:00pm"}, {"days": "Sat", "time": "10:00am"}, {"days": "Sun", "time": "Closed"}], "id": "2165300001", "name": "USPS COLLECTION BOX - PO LOBBY", "address": {"city": "NEWCOMB", "state": "MD", "street": "7414 BACK ST", "postcode": "21653"}}},
{"geometry": {"type": "Point", "coordinates": [-76.1732572206, 38.6899631022]}, "type": "Feature", "properties": {"collection_times": [{"days": "Mon-Fri", "time": "4:15pm"}, {"days": "Sat", "time": "10:15am"}, {"days": "Sun", "time": "Closed"}], "id": "2165400000", "name": "USPS COLLECTION BOX - BLUE BOX", "address": {"city": "OXFORD", "state": "MD", "street": "101 WILSON ST", "postcode": "21654"}}},
{"geometry": {"type": "Point", "coordinates": [-76.1732572206, 38.6899631022]}, "type": "Feature", "properties": {"collection_times": [{"days": "Mon-Fri", "time": "4:15pm"}, {"days": "Sat", "time": "10:15am"}, {"days": "Sun", "time": "Closed"}], "id": "2165400001", "name": "USPS COLLECTION BOX - PO LOBBY", "address": {"city": "OXFORD", "state": "MD", "street": "101 WILSON ST", "postcode": "21654"}}},
{"geometry": {"type": "Point", "coordinates": [-76.1732572206, 38.6899631022]}, "type": "Feature", "properties": {"collection_times": [{"days": "Mon-Fri", "time": "4:15pm"}, {"days": "Sat", "time": "10:15am"}, {"days": "Sun", "time": "Closed"}], "id": "2165400002", "name": "USPS COLLECTION BOX - PO LOBBY", "address": {"city": "OXFORD", "state": "MD", "street": "101 WILSON ST", "postcode": "21654"}}},
{"geometry": {"type": "Point", "coordinates": [-75.9034764498, 38.7077468038]}, "type": "Feature", "properties": {"collection_times": [{"days": "Mon-Fri", "time": "5:00pm"}, {"days": "Sat", "time": "12:00pm"}, {"days": "Sun", "time": "Closed"}], "id": "2165500000", "name": "USPS COLLECTION BOX - BLUE BOX", "address": {"city": "PRESTON", "state": "MD", "street": "301 MAIN ST", "postcode": "21655"}}},
{"geometry": {"type": "Point", "coordinates": [-75.9034764498, 38.7077468038]}, "type": "Feature", "properties": {"collection_times": [{"days": "Mon-Fri", "time": "5:00pm"}, {"days": "Sat", "time": "12:00pm"}, {"days": "Sun", "time": "Closed"}], "id": "2165500001", "name": "USPS COLLECTION BOX - PO LOBBY", "address": {"city": "PRESTON", "state": "MD", "street": "301 MAIN ST", "postcode": "21655"}}},
{"geometry": {"type": "Point", "coordinates": [-75.9034764498, 38.7077468038]}, "type": "Feature", "properties": {"collection_times": [{"days": "Mon-Fri", "time": "5:00pm"}, {"days": "Sat", "time": "12:00pm"}, {"days": "Sun", "time": "Closed"}], "id": "2165500002", "name": "USPS COLLECTION BOX - PO LOBBY", "address": {"city": "PRESTON", "state": "MD", "street": "301 MAIN ST", "postcode": "21655"}}},
{"geometry": {"type": "Point", "coordinates": [-75.9561532307, 38.9194369441]}, "type": "Feature", "properties": {"collection_times": [{"days": "Mon-Fri", "time": "4:00pm"}, {"days": "Sat", "time": "11:00am"}, {"days": "Sun", "time": "Closed"}], "id": "2165700000", "name": "USPS COLLECTION BOX - BLUE BOX", "address": {"city": "QUEEN ANNE", "state": "MD", "street": "32209 PARK AVE", "postcode": "21657"}}},
{"geometry": {"type": "Point", "coordinates": [-75.9561532307, 38.9194369441]}, "type": "Feature", "properties": {"collection_times": [{"days": "Mon-Fri", "time": "11:30am"}, {"days": "Sat", "time": "11:00am"}, {"days": "Sun", "time": "Closed"}], "id": "2165700001", "name": "USPS COLLECTION BOX - PO LOBBY", "address": {"city": "QUEEN ANNE", "state": "MD", "street": "32209 PARK AVE", "postcode": "21657"}}},
{"geometry": {"type": "Point", "coordinates": [-75.9561532307, 38.9194369441]}, "type": "Feature", "properties": {"collection_times": [{"days": "Mon-Fri", "time": "11:30am"}, {"days": "Sat", "time": "11:00am"}, {"days": "Sun", "time": "Closed"}], "id": "2165700002", "name": "USPS COLLECTION BOX - PO LOBBY", "address": {"city": "QUEEN ANNE", "state": "MD", "street": "32209 PARK AVE", "postcode": "21657"}}},
{"geometry": {"type": "Point", "coordinates": [-76.1589556271, 38.989114138]}, "type": "Feature", "properties": {"collection_times": [{"days": "Mon-Fri", "time": "5:00pm"}, {"days": "Sat", "time": "1:00pm"}, {"days": "Sun", "time": "Closed"}], "id": "2165800000", "name": "USPS COLLECTION BOX - BLUE BOX", "address": {"city": "QUEENSTOWN", "state": "MD", "street": "7100 MAIN ST", "postcode": "21658"}}},
{"geometry": {"type": "Point", "coordinates": [-76.1571633501, 38.9788716321]}, "type": "Feature", "properties": {"collection_times": [{"days": "Mon-Sat", "time": "12:00pm"}, {"days": "Sun", "time": "Closed"}], "id": "2165800002", "name": "USPS COLLECTION BOX - BLUE BOX", "address": {"city": "QUEENSTOWN", "state": "MD", "street": "400 OUTLET CENTER DR", "postcode": "21658"}}},
{"geometry": {"type": "Point", "coordinates": [-76.1589556271, 38.989114138]}, "type": "Feature", "properties": {"collection_times": [{"days": "Mon-Fri", "time": "5:00pm"}, {"days": "Sat", "time": "1:00pm"}, {"days": "Sun", "time": "Closed"}], "id": "2165800004", "name": "USPS COLLECTION BOX - PO LOBBY", "address": {"city": "QUEENSTOWN", "state": "MD", "street": "7100 MAIN ST", "postcode": "21658"}}},
{"geometry": {"type": "Point", "coordinates": [-76.1589556271, 38.989114138]}, "type": "Feature", "properties": {"collection_times": [{"days": "Mon-Fri", "time": "5:00pm"}, {"days": "Sat", "time": "1:00pm"}, {"days": "Sun", "time": "Closed"}], "id": "2165800005", "name": "USPS COLLECTION BOX - PO LOBBY", "address": {"city": "QUEENSTOWN", "state": "MD", "street": "7100 MAIN ST", "postcode": "21658"}}},
{"geometry": {"type": "Point", "coordinates": [-75.8365714688, 38.5758996803]}, "type": "Feature", "properties": {"collection_times": [{"days": "Mon-Fri", "time": "4:30pm"}, {"days": "Sat", "time": "11:00am"}, {"days": "Sun", "time": "Closed"}], "id": "2165900000", "name": "USPS COLLECTION BOX - BLUE BOX", "address": {"city": "RHODESDALE", "state": "MD", "street": "5664 RHODESDALE VIENNA RD", "postcode": "21659"}}},
{"geometry": {"type": "Point", "coordinates": [-75.8365714688, 38.5758996803]}, "type": "Feature", "properties": {"collection_times": [{"days": "Mon-Fri", "time": "4:30pm"}, {"days": "Sat", "time": "11:00am"}, {"days": "Sun", "time": "Closed"}], "id": "2165900001", "name": "USPS COLLECTION BOX - PO LOBBY", "address": {"city": "RHODESDALE", "state": "MD", "street": "5664 RHODESDALE VIENNA RD", "postcode": "21659"}}},
{"geometry": {"type": "Point", "coordinates": [-75.8365714688, 38.5758996803]}, "type": "Feature", "properties": {"collection_times": [{"days": "Mon-Fri", "time": "4:30pm"}, {"days": "Sat", "time": "11:00am"}, {"days": "Sun", "time": "Closed"}], "id": "2165900002", "name": "USPS COLLECTION BOX - PO LOBBY", "address": {"city": "RHODESDALE", "state": "MD", "street": "5664 RHODESDALE VIENNA RD", "postcode": "21659"}}},
{"geometry": {"type": "Point", "coordinates": [-75.833770001, 38.567222702]}, "type": "Feature", "properties": {"collection_times": [{"days": "Mon-Sat", "time": "10:00am"}, {"days": "Sun", "time": "Closed"}], "id": "2165900004", "name": "USPS COLLECTION BOX - BLUE BOX", "address": {"city": "RHODESDALE", "state": "MD", "street": "5106 RHODESDALE VIENNA RD", "postcode": "21659"}}},
{"geometry": {"type": "Point", "coordinates": [-75.8829516115, 38.9425457578]}, "type": "Feature", "properties": {"collection_times": [{"days": "Mon-Fri", "time": "4:30pm"}, {"days": "Sat", "time": "11:00am"}, {"days": "Sun", "time": "Closed"}], "id": "2166000000", "name": "USPS COLLECTION BOX - BLUE BOX", "address": {"city": "RIDGELY", "state": "MD", "street": "502 MARYLAND AVE", "postcode": "21660"}}},
{"geometry": {"type": "Point", "coordinates": [-75.8829516115, 38.9425457578]}, "type": "Feature", "properties": {"collection_times": [{"days": "Mon-Fri", "time": "4:30pm"}, {"days": "Sat", "time": "10:45am"}, {"days": "Sun", "time": "Closed"}], "id": "2166000001", "name": "USPS COLLECTION BOX - PO LOBBY", "address": {"city": "RIDGELY", "state": "MD", "street": "502 MARYLAND AVE", "postcode": "21660"}}},
{"geometry": {"type": "Point", "coordinates": [-75.8829516115, 38.9425457578]}, "type": "Feature", "properties": {"collection_times": [{"days": "Mon-Fri", "time": "4:30pm"}, {"days": "Sat", "time": "10:45am"}, {"days": "Sun", "time": "Closed"}], "id": "2166000002", "name": "USPS COLLECTION BOX - PO LOBBY", "address": {"city": "RIDGELY", "state": "MD", "street": "502 MARYLAND AVE", "postcode": "21660"}}},
{"geometry": {"type": "Point", "coordinates": [-76.2359305695, 39.136095945]}, "type": "Feature", "properties": {"collection_times": [{"days": "Mon-Fri", "time": "4:15pm"}, {"days": "Sat", "time": "11:30am"}, {"days": "Sun", "time": "Closed"}], "id": "2166100000", "name": "USPS COLLECTION BOX - BLUE BOX", "address": {"city": "ROCK HALL", "state": "MD", "street": "5691 LIBERTY ST", "postcode": "21661"}}},
{"geometry": {"type": "Point", "coordinates": [-76.2359305695, 39.136095945]}, "type": "Feature", "properties": {"collection_times": [{"days": "Mon-Fri", "time": "4:15pm"}, {"days": "Sat", "time": "12:00pm"}, {"days": "Sun", "time": "Closed"}], "id": "2166100001", "name": "USPS COLLECTION BOX - PO LOBBY", "address": {"city": "ROCK HALL", "state": "MD", "street": "5691 LIBERTY ST", "postcode": "21661"}}},
{"geometry": {"type": "Point", "coordinates": [-76.2359305695, 39.136095945]}, "type": "Feature", "properties": {"collection_times": [{"days": "Mon-Fri", "time": "4:15pm"}, {"days": "Sat", "time": "12:00pm"}, {"days": "Sun", "time": "Closed"}], "id": "2166100002", "name": "USPS COLLECTION BOX - PO LOBBY", "address": {"city": "ROCK HALL", "state": "MD", "street": "5691 LIBERTY ST", "postcode": "21661"}}},
{"geometry": {"type": "Point", "coordinates": [-76.2336534196, 39.138430124]}, "type": "Feature", "properties": {"collection_times": [{"days": "Mon-Sat", "time": "12:00pm"}, {"days": "Sun", "time": "Closed"}], "id": "2166100004", "name": "USPS COLLECTION BOX - BLUE BOX", "address": {"city": "ROCK HALL", "state": "MD", "street": "21309 ROCK HALL AVE", "postcode": "21661"}}},
{"geometry": {"type": "Point", "coordinates": [-76.1820768909, 38.7344153334]}, "type": "Feature", "properties": {"collection_times": [{"days": "Mon-Fri", "time": "4:15pm"}, {"days": "Sat", "time": "11:00am"}, {"days": "Sun", "time": "Closed"}], "id": "2166200000", "name": "USPS COLLECTION BOX - BLUE BOX", "address": {"city": "ROYAL OAK", "state": "MD", "street": "25897 ROYAL OAK RD", "postcode": "21662"}}},
{"geometry": {"type": "Point", "coordinates": [-76.1820768909, 38.7344153334]}, "type": "Feature", "properties": {"collection_times": [{"days": "Mon-Fri", "time": "4:15pm"}, {"days": "Sat", "time": "11:00am"}, {"days": "Sun", "time": "Closed"}], "id": "2166200003", "name": "USPS COLLECTION BOX - PO LOBBY", "address": {"city": "ROYAL OAK", "state": "MD", "street": "25897 ROYAL OAK RD", "postcode": "21662"}}},
{"geometry": {"type": "Point", "coordinates": [-76.2240552435, 38.7849018267]}, "type": "Feature", "properties": {"collection_times": [{"days": "Mon-Fri", "time": "4:30pm"}, {"days": "Sat", "time": "12:00pm"}, {"days": "Sun", "time": "Closed"}], "id": "2166300000", "name": "USPS COLLECTION BOX - BLUE BOX", "address": {"city": "SAINT MICHAELS", "state": "MD", "street": "303 S TALBOT ST", "postcode": "21663"}}},
{"geometry": {"type": "Point", "coordinates": [-76.2240552435, 38.7849018267]}, "type": "Feature", "properties": {"collection_times": [{"days": "Mon-Fri", "time": "4:30pm"}, {"days": "Sat", "time": "12:00pm"}, {"days": "Sun", "time": "Closed"}], "id": "2166300001", "name": "USPS COLLECTION BOX - BLUE BOX", "address": {"city": "SAINT MICHAELS", "state": "MD", "street": "303 S TALBOT ST", "postcode": "21663"}}},
{"geometry": {"type": "Point", "coordinates": [-76.2198914776, 38.7791511224]}, "type": "Feature", "properties": {"collection_times": [{"days": "Mon-Sat", "time": "10:00am"}, {"days": "Sun", "time": "Closed"}], "id": "2166300002", "name": "USPS COLLECTION BOX - BLUE BOX", "address": {"city": "SAINT MICHAELS", "state": "MD", "street": "1013 S TALBOT ST", "postcode": "21663"}}},
{"geometry": {"type": "Point", "coordinates": [-76.2184297986, 38.777908824]}, "type": "Feature", "properties": {"collection_times": [{"days": "Mon-Sat", "time": "9:00am"}, {"days": "Sun", "time": "Closed"}], "id": "2166300005", "name": "USPS COLLECTION BOX - BLUE BOX", "address": {"city": "SAINT MICHAELS", "state": "MD", "street": "1212 S TALBOT ST", "postcode": "21663"}}},
{"geometry": {"type": "Point", "coordinates": [-76.2240552435, 38.7849018267]}, "type": "Feature", "properties": {"collection_times": [{"days": "Mon-Fri", "time": "4:30pm"}, {"days": "Sat", "time": "12:00pm"}, {"days": "Sun", "time": "Closed"}], "id": "2166300006", "name": "USPS COLLECTION BOX - PO LOBBY", "address": {"city": "SAINT MICHAELS", "state": "MD", "street": "303 S TALBOT ST", "postcode": "21663"}}},
{"geometry": {"type": "Point", "coordinates": [-76.2240552435, 38.7849018267]}, "type": "Feature", "properties": {"collection_times": [{"days": "Mon-Fri", "time": "4:30pm"}, {"days": "Sat", "time": "12:00pm"}, {"days": "Sun", "time": "Closed"}], "id": "2166300007", "name": "USPS COLLECTION BOX - PO LOBBY", "address": {"city": "SAINT MICHAELS", "state": "MD", "street": "303 S TALBOT ST", "postcode": "21663"}}},
{"geometry": {"type": "Point", "coordinates": [-75.9479453293, 38.6095031334]}, "type": "Feature", "properties": {"collection_times": [{"days": "Mon-Fri", "time": "4:00pm"}, {"days": "Sat", "time": "10:15am"}, {"days": "Sun", "time": "Closed"}], "id": "2166400000", "name": "USPS COLLECTION BOX - BLUE BOX", "address": {"city": "SECRETARY", "state": "MD", "street": "145 MAIN ST", "postcode": "21664"}}},
{"geometry": {"type": "Point", "coordinates": [-75.9479453293, 38.6095031334]}, "type": "Feature", "properties": {"collection_times": [{"days": "Mon-Fri", "time": "4:00pm"}, {"days": "Sat", "time": "10:15am"}, {"days": "Sun", "time": "Closed"}], "id": "2166400001", "name": "USPS COLLECTION BOX - PO LOBBY", "address": {"city": "SECRETARY", "state": "MD", "street": "145 MAIN ST", "postcode": "21664"}}},
{"geometry": {"type": "Point", "coordinates": [-75.9479453293, 38.6095031334]}, "type": "Feature", "properties": {"collection_times": [{"days": "Mon-Fri", "time": "4:00pm"}, {"days": "Sat", "time": "10:15am"}, {"days": "Sun", "time": "Closed"}], "id": "2166400002", "name": "USPS COLLECTION BOX - PO LOBBY", "address": {"city": "SECRETARY", "state": "MD", "street": "145 MAIN ST", "postcode": "21664"}}},
{"geometry": {"type": "Point", "coordinates": [-76.3127712685, 38.9758360106]}, "type": "Feature", "properties": {"collection_times": [{"days": "Mon-Fri", "time": "4:45pm"}, {"days": "Sat", "time": "12:00pm"}, {"days": "Sun", "time": "Closed"}], "id": "2166600000", "name": "USPS COLLECTION BOX - BLUE BOX", "address": {"city": "STEVENSVILLE", "state": "MD", "street": "366 THOMPSON CREEK MALL", "postcode": "21666"}}},
{"geometry": {"type": "Point", "coordinates": [-76.3003260476, 38.9764719723]}, "type": "Feature", "properties": {"collection_times": [{"days": "Mon-Sat", "time": "11:00am"}, {"days": "Sun", "time": "Closed"}], "id": "2166600003", "name": "USPS COLLECTION BOX - BLUE BOX", "address": {"city": "STEVENSVILLE", "state": "MD", "street": "1213 SHOPPING CENTER RD", "postcode": "21666"}}},
{"geometry": {"type": "Point", "coordinates": [-76.3127712685, 38.9758360106]}, "type": "Feature", "properties": {"collection_times": [{"days": "Mon-Fri", "time": "4:45pm"}, {"days": "Sat", "time": "12:00pm"}, {"days": "Sun", "time": "Closed"}], "id": "2166600004", "name": "USPS COLLECTION BOX - BLUE BOX", "address": {"city": "STEVENSVILLE", "state": "MD", "street": "366 THOMPSON CREEK MALL", "postcode": "21666"}}},
{"geometry": {"type": "Point", "coordinates": [-76.3127712685, 38.9758360106]}, "type": "Feature", "properties": {"collection_times": [{"days": "Mon-Fri", "time": "4:45pm"}, {"days": "Sat", "time": "12:00pm"}, {"days": "Sun", "time": "Closed"}], "id": "2166600006", "name": "USPS COLLECTION BOX - PO LOBBY", "address": {"city": "STEVENSVILLE", "state": "MD", "street": "366 THOMPSON CREEK MALL", "postcode": "21666"}}},
{"geometry": {"type": "Point", "coordinates": [-76.3260324304, 38.9733583157]}, "type": "Feature", "properties": {"collection_times": [{"days": "Mon-Sat", "time": "9:30am"}, {"days": "Sun", "time": "Closed"}], "id": "2166600007", "name": "USPS COLLECTION BOX - BLUE BOX", "address": {"city": "STEVENSVILLE", "state": "MD", "street": "320 ROMANCOKE RD", "postcode": "21666"}}},
{"geometry": {"type": "Point", "coordinates": [-76.3127712685, 38.9758360106]}, "type": "Feature", "properties": {"collection_times": [{"days": "Mon-Fri", "time": "4:45pm"}, {"days": "Sat", "time": "12:00pm"}, {"days": "Sun", "time": "Closed"}], "id": "2166600010", "name": "USPS COLLECTION BOX - PO LOBBY", "address": {"city": "STEVENSVILLE", "state": "MD", "street": "366 THOMPSON CREEK MALL", "postcode": "21666"}}},
{"geometry": {"type": "Point", "coordinates": [-75.8588639681, 39.1866748033]}, "type": "Feature", "properties": {"collection_times": [{"days": "Mon-Fri", "time": "4:00pm"}, {"days": "Sat", "time": "11:00am"}, {"days": "Sun", "time": "Closed"}], "id": "2166800000", "name": "USPS COLLECTION BOX - BLUE BOX", "address": {"city": "SUDLERSVILLE", "state": "MD", "street": "117 S CHURCH ST", "postcode": "21668"}}},
{"geometry": {"type": "Point", "coordinates": [-75.8588639681, 39.1866748033]}, "type": "Feature", "properties": {"collection_times": [{"days": "Mon-Fri", "time": "4:00pm"}, {"days": "Sat", "time": "11:00am"}, {"days": "Sun", "time": "Closed"}], "id": "2166800001", "name": "USPS COLLECTION BOX - PO LOBBY", "address": {"city": "SUDLERSVILLE", "state": "MD", "street": "117 S CHURCH ST", "postcode": "21668"}}},
{"geometry": {"type": "Point", "coordinates": [-75.8588639681, 39.1866748033]}, "type": "Feature", "properties": {"collection_times": [{"days": "Mon-Fri", "time": "4:00pm"}, {"days": "Sat", "time": "11:00am"}, {"days": "Sun", "time": "Closed"}], "id": "2166800002", "name": "USPS COLLECTION BOX - PO LOBBY", "address": {"city": "SUDLERSVILLE", "state": "MD", "street": "117 S CHURCH ST", "postcode": "21668"}}},
{"geometry": {"type": "Point", "coordinates": [-76.2887515385, 38.469777382]}, "type": "Feature", "properties": {"collection_times": [{"days": "Mon-Fri", "time": "11:30am"}, {"days": "Sat", "time": "10:30am"}, {"days": "Sun", "time": "Closed"}], "id": "2166900000", "name": "USPS COLLECTION BOX - BLUE BOX", "address": {"city": "TAYLORS ISLAND", "state": "MD", "street": "517 TAYLORS ISLAND RD", "postcode": "21669"}}},
{"geometry": {"type": "Point", "coordinates": [-76.2887515385, 38.469777382]}, "type": "Feature", "properties": {"collection_times": [{"days": "Mon-Fri", "time": "11:30am"}, {"days": "Sat", "time": "10:30am"}, {"days": "Sun", "time": "Closed"}], "id": "2166900001", "name": "USPS COLLECTION BOX - PO LOBBY", "address": {"city": "TAYLORS ISLAND", "state": "MD", "street": "517 TAYLORS ISLAND RD", "postcode": "21669"}}},
{"geometry": {"type": "Point", "coordinates": [-76.2887515385, 38.469777382]}, "type": "Feature", "properties": {"collection_times": [{"days": "Mon-Fri", "time": "11:30am"}, {"days": "Sat", "time": "10:30am"}, {"days": "Sun", "time": "Closed"}], "id": "2166900002", "name": "USPS COLLECTION BOX - PO LOBBY", "address": {"city": "TAYLORS ISLAND", "state": "MD", "street": "517 TAYLORS ISLAND RD", "postcode": "21669"}}},
{"geometry": {"type": "Point", "coordinates": [-75.7657464723, 39.1367774628]}, "type": "Feature", "properties": {"collection_times": [{"days": "Mon-Fri", "time": "3:30pm"}, {"days": "Sat", "time": "11:15am"}, {"days": "Sun", "time": "Closed"}], "id": "2167000000", "name": "USPS COLLECTION BOX - BLUE BOX", "address": {"city": "TEMPLEVILLE", "state": "MD", "street": "3711 BARCLAY RD", "postcode": "21670"}}},
{"geometry": {"type": "Point", "coordinates": [-76.3379545178, 38.7105385487]}, "type": "Feature", "properties": {"collection_times": [{"days": "Mon-Fri", "time": "3:40pm"}, {"days": "Sat", "time": "11:00am"}, {"days": "Sun", "time": "Closed"}], "id": "2167100000", "name": "USPS COLLECTION BOX - BLUE BOX", "address": {"city": "TILGHMAN", "state": "MD", "street": "5806 TILGHMAN ISLAND RD", "postcode": "21671"}}},
{"geometry": {"type": "Point", "coordinates": [-76.3379545178, 38.7105385487]}, "type": "Feature", "properties": {"collection_times": [{"days": "Mon-Fri", "time": "3:40pm"}, {"days": "Sat", "time": "11:00am"}, {"days": "Sun", "time": "Closed"}], "id": "2167100001", "name": "USPS COLLECTION BOX - PO LOBBY", "address": {"city": "TILGHMAN", "state": "MD", "street": "5806 TILGHMAN ISLAND RD", "postcode": "21671"}}},
{"geometry": {"type": "Point", "coordinates": [-76.3379545178, 38.7105385487]}, "type": "Feature", "properties": {"collection_times": [{"days": "Mon-Fri", "time": "3:40pm"}, {"days": "Sat", "time": "11:00am"}, {"days": "Sun", "time": "Closed"}], "id": "2167100002", "name": "USPS COLLECTION BOX - PO LOBBY", "address": {"city": "TILGHMAN", "state": "MD", "street": "5806 TILGHMAN ISLAND RD", "postcode": "21671"}}},
{"geometry": {"type": "Point", "coordinates": [-76.3361384401, 38.7058036579]}, "type": "Feature", "properties": {"collection_times": [{"days": "Mon-Sat", "time": "11:00am"}, {"days": "Sun", "time": "Closed"}], "id": "2167100004", "name": "USPS COLLECTION BOX - BLUE BOX", "address": {"city": "TILGHMAN", "state": "MD", "street": "5949 TILGHMAN ISLAND RD", "postcode": "21671"}}},
{"geometry": {"type": "Point", "coordinates": [-76.0585331603, 38.6582687838]}, "type": "Feature", "properties": {"collection_times": [{"days": "Mon-Fri", "time": "4:15pm"}, {"days": "Sat", "time": "10:45am"}, {"days": "Sun", "time": "Closed"}], "id": "2167300000", "name": "USPS COLLECTION BOX - BLUE BOX", "address": {"city": "TRAPPE", "state": "MD", "street": "29381 GREENFIELD AVE", "postcode": "21673"}}},
{"geometry": {"type": "Point", "coordinates": [-76.0585331603, 38.6582687838]}, "type": "Feature", "properties": {"collection_times": [{"days": "Mon-Fri", "time": "4:15pm"}, {"days": "Sat", "time": "10:45am"}, {"days": "Sun", "time": "Closed"}], "id": "2167300001", "name": "USPS COLLECTION BOX - PO LOBBY", "address": {"city": "TRAPPE", "state": "MD", "street": "29381 GREENFIELD AVE", "postcode": "21673"}}},
{"geometry": {"type": "Point", "coordinates": [-76.0585331603, 38.6582687838]}, "type": "Feature", "properties": {"collection_times": [{"days": "Mon-Fri", "time": "4:15pm"}, {"days": "Sat", "time": "10:45am"}, {"days": "Sun", "time": "Closed"}], "id": "2167300002", "name": "USPS COLLECTION BOX - PO LOBBY", "address": {"city": "TRAPPE", "state": "MD", "street": "29381 GREENFIELD AVE", "postcode": "21673"}}},
{"geometry": {"type": "Point", "coordinates": [-76.2805503159, 38.7889003901]}, "type": "Feature", "properties": {"collection_times": [{"days": "Mon-Fri", "time": "2:00pm"}, {"days": "Sat", "time": "11:15am"}, {"days": "Sun", "time": "Closed"}], "id": "2167600000", "name": "USPS COLLECTION BOX - BLUE BOX", "address": {"city": "WITTMAN", "state": "MD", "street": "22611 POT PIE RD", "postcode": "21676"}}},
{"geometry": {"type": "Point", "coordinates": [-76.2805503159, 38.7889003901]}, "type": "Feature", "properties": {"collection_times": [{"days": "Mon-Fri", "time": "2:00pm"}, {"days": "Sat", "time": "11:15am"}, {"days": "Sun", "time": "Closed"}], "id": "2167600001", "name": "USPS COLLECTION BOX - PO LOBBY", "address": {"city": "WITTMAN", "state": "MD", "street": "22611 POT PIE RD", "postcode": "21676"}}},
{"geometry": {"type": "Point", "coordinates": [-76.2805503159, 38.7889003901]}, "type": "Feature", "properties": {"collection_times": [{"days": "Mon-Fri", "time": "2:00pm"}, {"days": "Sat", "time": "11:15am"}, {"days": "Sun", "time": "Closed"}], "id": "2167600002", "name": "USPS COLLECTION BOX - PO LOBBY", "address": {"city": "WITTMAN", "state": "MD", "street": "22611 POT PIE RD", "postcode": "21676"}}},
{"geometry": {"type": "Point", "coordinates": [-76.1841743335, 38.5049861911]}, "type": "Feature", "properties": {"collection_times": [{"days": "Mon-Fri", "time": "1:30pm"}, {"days": "Sat", "time": "12:00pm"}, {"days": "Sun", "time": "Closed"}], "id": "2167700000", "name": "USPS COLLECTION BOX - BLUE BOX", "address": {"city": "WOOLFORD", "state": "MD", "street": "1614 TAYLORS ISLAND RD # 1", "postcode": "21677"}}},
{"geometry": {"type": "Point", "coordinates": [-76.1841743335, 38.5049861911]}, "type": "Feature", "properties": {"collection_times": [{"days": "Mon-Fri", "time": "1:30pm"}, {"days": "Sat", "time": "12:00pm"}, {"days": "Sun", "time": "Closed"}], "id": "2167700001", "name": "USPS COLLECTION BOX - PO LOBBY", "address": {"city": "WOOLFORD", "state": "MD", "street": "1614 TAYLORS ISLAND RD # 1", "postcode": "21677"}}},
{"geometry": {"type": "Point", "coordinates": [-76.0924170148, 39.2754831535]}, "type": "Feature", "properties": {"collection_times": [{"days": "Mon-Fri", "time": "4:00pm"}, {"days": "Sat", "time": "11:00am"}, {"days": "Sun", "time": "Closed"}], "id": "2167800000", "name": "USPS COLLECTION BOX - BLUE BOX", "address": {"city": "WORTON", "state": "MD", "street": "10802 WORTON RD", "postcode": "21678"}}},
{"geometry": {"type": "Point", "coordinates": [-76.0924170148, 39.2754831535]}, "type": "Feature", "properties": {"collection_times": [{"days": "Mon-Fri", "time": "4:15pm"}, {"days": "Sat", "time": "11:00am"}, {"days": "Sun", "time": "Closed"}], "id": "2167800001", "name": "USPS COLLECTION BOX - PO LOBBY", "address": {"city": "WORTON", "state": "MD", "street": "10802 WORTON RD", "postcode": "21678"}}},
{"geometry": {"type": "Point", "coordinates": [-76.0924170148, 39.2754831535]}, "type": "Feature", "properties": {"collection_times": [{"days": "Mon-Fri", "time": "4:15pm"}, {"days": "Sat", "time": "11:00am"}, {"days": "Sun", "time": "Closed"}], "id": "2167800002", "name": "USPS COLLECTION BOX - PO LOBBY", "address": {"city": "WORTON", "state": "MD", "street": "10802 WORTON RD", "postcode": "21678"}}},
{"geometry": {"type": "Point", "coordinates": [-76.0807276094, 38.9404742124]}, "type": "Feature", "properties": {"collection_times": [{"days": "Mon-Fri", "time": "4:00pm"}, {"days": "Sat", "time": "10:45am"}, {"days": "Sun", "time": "Closed"}], "id": "2167900000", "name": "USPS COLLECTION BOX - BLUE BOX", "address": {"city": "WYE MILLS", "state": "MD", "street": "14278 OLD WYE MILLS RD", "postcode": "21679"}}},
{"geometry": {"type": "Point", "coordinates": [-76.0807276094, 38.9404742124]}, "type": "Feature", "properties": {"collection_times": [{"days": "Mon-Fri", "time": "4:00pm"}, {"days": "Sat", "time": "10:45am"}, {"days": "Sun", "time": "Closed"}], "id": "2167900001", "name": "USPS COLLECTION BOX - PO LOBBY", "address": {"city": "WYE MILLS", "state": "MD", "street": "14278 OLD WYE MILLS RD", "postcode": "21679"}}},
{"geometry": {"type": "Point", "coordinates": [-76.0807276094, 38.9404742124]}, "type": "Feature", "properties": {"collection_times": [{"days": "Mon-Fri", "time": "4:00pm"}, {"days": "Sat", "time": "10:45am"}, {"days": "Sun", "time": "Closed"}], "id": "2167900002", "name": "USPS COLLECTION BOX - PO LOBBY", "address": {"city": "WYE MILLS", "state": "MD", "street": "14278 OLD WYE MILLS RD", "postcode": "21679"}}}
]}
