{"type": "FeatureCollection", "features": [
{"geometry": {"type": "Point", "coordinates": [-77.4211907337, 39.4042143379]}, "type": "Feature", "properties": {"collection_times": [{"days": "Mon-Fri", "time": "3:15pm"}, {"days": "Sat", "time": "1:00pm"}, {"days": "Sun", "time": "Closed"}], "id": "2170100002", "name": "USPS COLLECTION BOX - BLUE BOX", "address": {"city": "FREDERICK", "state": "MD", "street": "431 CENTER ST", "postcode": "21701"}}},
{"geometry": {"type": "Point", "coordinates": [-77.4294169007, 39.4075470939]}, "type": "Feature", "properties": {"collection_times": [{"days": "Mon-Fri", "time": "3:15pm"}, {"days": "Sat", "time": "12:30pm"}, {"days": "Sun", "time": "Closed"}], "id": "2170100006", "name": "USPS COLLECTION BOX - BLUE BOX", "address": {"city": "FREDERICK", "state": "MD", "street": "403 S JEFFERSON ST", "postcode": "21701"}}},
{"geometry": {"type": "Point", "coordinates": [-77.4096139149, 39.4228612596]}, "type": "Feature", "properties": {"collection_times": [{"days": "Mon-Fri", "time": "1:45pm"}, {"days": "Sat", "time": "12:30pm"}, {"days": "Sun", "time": "Closed"}], "id": "2170100019", "name": "USPS COLLECTION BOX - BLUE BOX", "address": {"city": "FREDERICK", "state": "MD", "street": "701 N MARKET ST", "postcode": "21701"}}},
{"geometry": {"type": "Point", "coordinates": [-77.4084857544, 39.4164555973]}, "type": "Feature", "properties": {"collection_times": [{"days": "Mon-Fri", "time": "3:30pm"}, {"days": "Sat", "time": "1:00pm"}, {"days": "Sun", "time": "Closed"}], "id": "2170100021", "name": "USPS COLLECTION BOX - BLUE BOX", "address": {"city": "FREDERICK", "state": "MD", "street": "100 E 2ND ST", "postcode": "21701"}}},
{"geometry": {"type": "Point", "coordinates": [-77.4073783379, 39.4163416733]}, "type": "Feature", "properties": {"collection_times": [{"days": "Mon-Fri", "time": "3:30pm"}, {"days": "Sat", "time": "1:00pm"}, {"days": "Sun", "time": "Closed"}], "id": "2170100022", "name": "USPS COLLECTION BOX - BLUE BOX", "address": {"city": "FREDERICK", "state": "MD", "street": "200 E 2ND ST", "postcode": "21701"}}},
{"geometry": {"type": "Point", "coordinates": [-77.4080406646, 39.4177279147]}, "type": "Feature", "properties": {"collection_times": [{"days": "Mon-Fri", "time": "3:45pm"}, {"days": "Sat", "time": "1:00pm"}, {"days": "Sun", "time": "Closed"}], "id": "2170100023", "name": "USPS COLLECTION BOX - BLUE BOX", "address": {"city": "FREDERICK", "state": "MD", "street": "137 E 3RD ST", "postcode": "21701"}}},
{"geometry": {"type": "Point", "coordinates": [-77.4048234134, 39.417538994]}, "type": "Feature", "properties": {"collection_times": [{"days": "Mon-Fri", "time": "3:45pm"}, {"days": "Sat", "time": "1:00pm"}, {"days": "Sun", "time": "Closed"}], "id": "2170100026", "name": "USPS COLLECTION BOX - BLUE BOX", "address": {"city": "FREDERICK", "state": "MD", "street": "303 E 3RD ST", "postcode": "21701"}}},
{"geometry": {"type": "Point", "coordinates": [-77.3891918927, 39.4079421173]}, "type": "Feature", "properties": {"collection_times": [{"days": "Mon-Fri", "time": "1:30pm"}, {"days": "Sat", "time": "12:00pm"}, {"days": "Sun", "time": "Closed"}], "id": "2170100028", "name": "USPS COLLECTION BOX - BLUE BOX", "address": {"city": "FREDERICK", "state": "MD", "street": "1202 E PATRICK ST", "postcode": "21701"}}},
{"geometry": {"type": "Point", "coordinates": [-77.4098768937, 39.4141813004]}, "type": "Feature", "properties": {"collection_times": [{"days": "Mon-Fri", "time": "2:45pm"}, {"days": "Sat", "time": "12:00pm"}, {"days": "Sun", "time": "Closed"}], "id": "2170100031", "name": "USPS COLLECTION BOX - BLUE BOX", "address": {"city": "FREDERICK", "state": "MD", "street": "57 E PATRICK ST", "postcode": "21701"}}},
{"geometry": {"type": "Point", "coordinates": [-77.410343, 39.4141488273]}, "type": "Feature", "properties": {"collection_times": [{"days": "Mon-Fri", "time": "3:00pm"}, {"days": "Sat", "time": "12:00pm"}, {"days": "Sun", "time": "Closed"}], "id": "2170100032", "name": "USPS COLLECTION BOX - BLUE BOX", "address": {"city": "FREDERICK", "state": "MD", "street": "7 W PATRICK ST", "postcode": "21701"}}},
{"geometry": {"type": "Point", "coordinates": [-77.4125504014, 39.4142943313]}, "type": "Feature", "properties": {"collection_times": [{"days": "Mon-Fri", "time": "3:00pm"}, {"days": "Sat", "time": "12:00pm"}, {"days": "Sun", "time": "Closed"}], "id": "2170100033", "name": "USPS COLLECTION BOX - BLUE BOX", "address": {"city": "FREDERICK", "state": "MD", "street": "101 W PATRICK ST", "postcode": "21701"}}},
{"geometry": {"type": "Point", "coordinates": [-77.4157857942, 39.4137347917]}, "type": "Feature", "properties": {"collection_times": [{"days": "Mon-Fri", "time": "3:15pm"}, {"days": "Sat", "time": "12:00pm"}, {"days": "Sun", "time": "Closed"}], "id": "2170100034", "name": "USPS COLLECTION BOX - BLUE BOX", "address": {"city": "FREDERICK", "state": "MD", "street": "200 W PATRICK ST", "postcode": "21701"}}},
{"geometry": {"type": "Point", "coordinates": [-77.4245881918, 39.4133195731]}, "type": "Feature", "properties": {"collection_times": [{"days": "Mon-Fri", "time": "2:00pm"}, {"days": "Sat", "time": "12:00pm"}, {"days": "Sun", "time": "Closed"}], "id": "2170100035", "name": "USPS COLLECTION BOX - BLUE BOX", "address": {"city": "FREDERICK", "state": "MD", "street": "371 W PATRICK ST", "postcode": "21701"}}},
{"geometry": {"type": "Point", "coordinates": [-77.4087176144, 39.4152276859]}, "type": "Feature", "properties": {"collection_times": [{"days": "Mon-Fri", "time": "2:45pm"}, {"days": "Sat", "time": "1:00pm"}, {"days": "Sun", "time": "Closed"}], "id": "2170100037", "name": "USPS COLLECTION BOX - BLUE BOX", "address": {"city": "FREDERICK", "state": "MD", "street": "100 W CHURCH ST", "postcode": "21701"}}},
{"geometry": {"type": "Point", "coordinates": [-77.410660033, 39.4164118278]}, "type": "Feature", "properties": {"collection_times": [{"days": "Mon-Fri", "time": "1:45pm"}, {"days": "Sat", "time": "12:00pm"}, {"days": "Sun", "time": "Closed"}], "id": "2170100038", "name": "USPS COLLECTION BOX - BLUE BOX", "address": {"city": "FREDERICK", "state": "MD", "street": "154 N MARKET ST", "postcode": "21701"}}},
{"geometry": {"type": "Point", "coordinates": [-77.4129163076, 39.4161607018]}, "type": "Feature", "properties": {"collection_times": [{"days": "Mon-Fri", "time": "3:45pm"}, {"days": "Sat", "time": "1:00pm"}, {"days": "Sun", "time": "Closed"}], "id": "2170100039", "name": "USPS COLLECTION BOX - BLUE BOX", "address": {"city": "FREDERICK", "state": "MD", "street": "116 RECORD ST", "postcode": "21701"}}},
{"geometry": {"type": "Point", "coordinates": [-77.3918357365, 39.4226035602]}, "type": "Feature", "properties": {"collection_times": [{"days": "Mon-Fri", "time": "2:00pm"}, {"days": "Sat", "time": "12:00pm"}, {"days": "Sun", "time": "Closed"}], "id": "2170100040", "name": "USPS COLLECTION BOX - BLUE BOX", "address": {"city": "FREDERICK", "state": "MD", "street": "108 W COLLEGE TER", "postcode": "21701"}}},
{"geometry": {"type": "Point", "coordinates": [-77.410493074, 39.4171191414]}, "type": "Feature", "properties": {"collection_times": [{"days": "Mon-Fri", "time": "1:45pm"}, {"days": "Sat", "time": "1:00pm"}, {"days": "Sun", "time": "Closed"}], "id": "2170100042", "name": "USPS COLLECTION BOX - BLUE BOX", "address": {"city": "FREDERICK", "state": "MD", "street": "242 N MARKET ST", "postcode": "21701"}}},
{"geometry": {"type": "Point", "coordinates": [-77.4135539256, 39.4179934471]}, "type": "Feature", "properties": {"collection_times": [{"days": "Mon-Fri", "time": "2:45pm"}, {"days": "Sat", "time": "1:00pm"}, {"days": "Sun", "time": "Closed"}], "id": "2170100043", "name": "USPS COLLECTION BOX - BLUE BOX", "address": {"city": "FREDERICK", "state": "MD", "street": "200 ROCKWELL TER", "postcode": "21701"}}},
{"geometry": {"type": "Point", "coordinates": [-77.4111232236, 39.4123371471]}, "type": "Feature", "properties": {"collection_times": [{"days": "Mon-Fri", "time": "1:45pm"}, {"days": "Sat", "time": "12:00pm"}, {"days": "Sun", "time": "Closed"}], "id": "2170100044", "name": "USPS COLLECTION BOX - BLUE BOX", "address": {"city": "FREDERICK", "state": "MD", "street": "74 S MARKET ST", "postcode": "21701"}}},
{"geometry": {"type": "Point", "coordinates": [-77.4107676822, 39.4155518166]}, "type": "Feature", "properties": {"collection_times": [{"days": "Mon-Fri", "time": "1:45pm"}, {"days": "Sat", "time": "1:00pm"}, {"days": "Sun", "time": "Closed"}], "id": "2170100045", "name": "USPS COLLECTION BOX - BLUE BOX", "address": {"city": "FREDERICK", "state": "MD", "street": "100 N MARKET ST", "postcode": "21701"}}},
{"geometry": {"type": "Point", "coordinates": [-77.414563539, 39.4250665514]}, "type": "Feature", "properties": {"collection_times": [{"days": "Mon-Fri", "time": "2:00pm"}, {"days": "Sat", "time": "12:30pm"}, {"days": "Sun", "time": "Closed"}], "id": "2170100049", "name": "USPS COLLECTION BOX - BLUE BOX", "address": {"city": "FREDERICK", "state": "MD", "street": "801 TOLLHOUSE AVE", "postcode": "21701"}}},
{"geometry": {"type": "Point", "coordinates": [-77.4035579669, 39.4258985707]}, "type": "Feature", "properties": {"collection_times": [{"days": "Mon-Fri", "time": "1:45pm"}, {"days": "Sat", "time": "12:00pm"}, {"days": "Sun", "time": "Closed"}], "id": "2170100052", "name": "USPS COLLECTION BOX - BLUE BOX", "address": {"city": "FREDERICK", "state": "MD", "street": "934 N EAST ST", "postcode": "21701"}}},
{"geometry": {"type": "Point", "coordinates": [-77.4008142655, 39.4253384362]}, "type": "Feature", "properties": {"collection_times": [{"days": "Mon-Fri", "time": "1:45pm"}, {"days": "Sat", "time": "12:00pm"}, {"days": "Sun", "time": "Closed"}], "id": "2170100053", "name": "USPS COLLECTION BOX - BLUE BOX", "address": {"city": "FREDERICK", "state": "MD", "street": "324 E 9TH ST", "postcode": "21701"}}},
{"geometry": {"type": "Point", "coordinates": [-77.4052574594, 39.431914505]}, "type": "Feature", "properties": {"collection_times": [{"days": "Mon-Fri", "time": "1:45pm"}, {"days": "Sat", "time": "12:00pm"}, {"days": "Sun", "time": "Closed"}], "id": "2170100057", "name": "USPS COLLECTION BOX - BLUE BOX", "address": {"city": "FREDERICK", "state": "MD", "street": "1400 N MARKET ST", "postcode": "21701"}}},
{"geometry": {"type": "Point", "coordinates": [-77.4169641014, 39.4261139612]}, "type": "Feature", "properties": {"collection_times": [{"days": "Mon-Fri", "time": "2:00pm"}, {"days": "Sat", "time": "12:30pm"}, {"days": "Sun", "time": "Closed"}], "id": "2170100065", "name": "USPS COLLECTION BOX - BLUE BOX", "address": {"city": "FREDERICK", "state": "MD", "street": "905 W 7TH ST", "postcode": "21701"}}},
{"geometry": {"type": "Point", "coordinates": [-77.4131607888, 39.4272787011]}, "type": "Feature", "properties": {"collection_times": [{"days": "Mon-Fri", "time": "2:00pm"}, {"days": "Sat", "time": "12:30pm"}, {"days": "Sun", "time": "Closed"}], "id": "2170100066", "name": "USPS COLLECTION BOX - BLUE BOX", "address": {"city": "FREDERICK", "state": "MD", "street": "915 TOLLHOUSE AVE", "postcode": "21701"}}},
{"geometry": {"type": "Point", "coordinates": [-77.4176401831, 39.4267131896]}, "type": "Feature", "properties": {"collection_times": [{"days": "Mon-Fri", "time": "2:00pm"}, {"days": "Sat", "time": "12:30pm"}, {"days": "Sun", "time": "Closed"}], "id": "2170100067", "name": "USPS COLLECTION BOX - BLUE BOX", "address": {"city": "FREDERICK", "state": "MD", "street": "1001 W 7TH ST", "postcode": "21701"}}},
{"geometry": {"type": "Point", "coordinates": [-77.4282319549, 39.4045892058]}, "type": "Feature", "properties": {"collection_times": [{"days": "Mon-Fri", "time": "3:15pm"}, {"days": "Sat", "time": "12:30pm"}, {"days": "Sun", "time": "Closed"}], "id": "2170100069", "name": "USPS COLLECTION BOX - BLUE BOX", "address": {"city": "FREDERICK", "state": "MD", "street": "440 PROSPECT BLVD", "postcode": "21701"}}},
{"geometry": {"type": "Point", "coordinates": [-77.4138459587, 39.423610923]}, "type": "Feature", "properties": {"collection_times": [{"days": "Mon-Fri", "time": "2:00pm"}, {"days": "Sat", "time": "12:30pm"}, {"days": "Sun", "time": "Closed"}], "id": "2170100073", "name": "USPS COLLECTION BOX - BLUE BOX", "address": {"city": "FREDERICK", "state": "MD", "street": "400 W 7TH ST", "postcode": "21701"}}},
{"geometry": {"type": "Point", "coordinates": [-77.419756627, 39.4200509166]}, "type": "Feature", "properties": {"collection_times": [{"days": "Mon-Fri", "time": "2:15pm"}, {"days": "Sat", "time": "1:00pm"}, {"days": "Sun", "time": "Closed"}], "id": "2170100074", "name": "USPS COLLECTION BOX - BLUE BOX", "address": {"city": "FREDERICK", "state": "MD", "street": "401 ROSEMONT AVE", "postcode": "21701"}}},
{"geometry": {"type": "Point", "coordinates": [-77.3988858738, 39.4421532232]}, "type": "Feature", "properties": {"collection_times": [{"days": "Mon-Fri", "time": "1:45pm"}, {"days": "Sat", "time": "12:00pm"}, {"days": "Sun", "time": "Closed"}], "id": "2170100075", "name": "USPS COLLECTION BOX - BLUE BOX", "address": {"city": "FREDERICK", "state": "MD", "street": "101 WORMANS MILL CT", "postcode": "21701"}}},
{"geometry": {"type": "Point", "coordinates": [-77.4234525512, 39.4221385322]}, "type": "Feature", "properties": {"collection_times": [{"days": "Mon-Fri", "time": "2:15pm"}, {"days": "Sat", "time": "1:00pm"}, {"days": "Sun", "time": "Closed"}], "id": "2170100088", "name": "USPS COLLECTION BOX - BLUE BOX", "address": {"city": "FREDERICK", "state": "MD", "street": "707 ROSEMONT AVE", "postcode": "21701"}}},
{"geometry": {"type": "Point", "coordinates": [-77.4097559372, 39.4118431879]}, "type": "Feature", "properties": {"collection_times": [{"days": "Mon-Fri", "time": "3:30pm"}, {"days": "Sat", "time": "1:00pm"}, {"days": "Sun", "time": "Closed"}], "id": "2170100089", "name": "USPS COLLECTION BOX - BLUE BOX", "address": {"city": "FREDERICK", "state": "MD", "street": "100 E ALL SAINTS ST", "postcode": "21701"}}},
{"geometry": {"type": "Point", "coordinates": [-77.3486391627, 39.4025238579]}, "type": "Feature", "properties": {"collection_times": [{"days": "Mon-Fri", "time": "1:30pm"}, {"days": "Sat", "time": "12:00pm"}, {"days": "Sun", "time": "Closed"}], "id": "2170100090", "name": "USPS COLLECTION BOX - BLUE BOX", "address": {"city": "FREDERICK", "state": "MD", "street": "6093 SPRINGRIDGE PKWY", "postcode": "21701"}}},
{"geometry": {"type": "Point", "coordinates": [-77.410343, 39.4141488273]}, "type": "Feature", "properties": {"collection_times": [{"days": "Mon-Fri", "time": "3:00pm"}, {"days": "Sat", "time": "12:00pm"}, {"days": "Sun", "time": "Closed"}], "id": "2170100091", "name": "USPS COLLECTION BOX - BLUE BOX", "address": {"city": "FREDERICK", "state": "MD", "street": "7 W PATRICK ST", "postcode": "21701"}}},
{"geometry": {"type": "Point", "coordinates": [-77.4125504014, 39.4142943313]}, "type": "Feature", "properties": {"collection_times": [{"days": "Mon-Fri", "time": "3:00pm"}, {"days": "Sat", "time": "12:00pm"}, {"days": "Sun", "time": "Closed"}], "id": "2170100092", "name": "USPS COLLECTION BOX - BLUE BOX", "address": {"city": "FREDERICK", "state": "MD", "street": "101 W PATRICK ST", "postcode": "21701"}}},
{"geometry": {"type": "Point", "coordinates": [-77.4271054962, 39.4137631091]}, "type": "Feature", "properties": {"collection_times": [{"days": "Mon-Fri", "time": "3:15pm"}, {"days": "Sat", "time": "12:00pm"}, {"days": "Sun", "time": "Closed"}], "id": "2170100094", "name": "USPS COLLECTION BOX - BLUE BOX", "address": {"city": "FREDERICK", "state": "MD", "street": "504 W PATRICK ST", "postcode": "21701"}}},
{"geometry": {"type": "Point", "coordinates": [-77.4183894869, 39.4131421292]}, "type": "Feature", "properties": {"collection_times": [{"days": "Mon-Fri", "time": "3:15pm"}, {"days": "Sat", "time": "12:00pm"}, {"days": "Sun", "time": "Closed"}], "id": "2170100095", "name": "USPS COLLECTION BOX - BLUE BOX", "address": {"city": "FREDERICK", "state": "MD", "street": "301 W PATRICK ST", "postcode": "21701"}}},
{"geometry": {"type": "Point", "coordinates": [-77.4060595056, 39.4138767467]}, "type": "Feature", "properties": {"collection_times": [{"days": "Mon-Fri", "time": "5:45pm"}, {"days": "Sat", "time": "5:15pm"}, {"days": "Sun", "time": "Closed"}], "id": "2170100097", "name": "USPS COLLECTION BOX - BLUE BOX", "address": {"city": "FREDERICK", "state": "MD", "street": "201 E PATRICK ST", "postcode": "21701"}}},
{"geometry": {"type": "Point", "coordinates": [-77.4075311296, 39.413993715]}, "type": "Feature", "properties": {"collection_times": [{"days": "Mon-Fri", "time": "5:45pm"}, {"days": "Sat", "time": "5:15pm"}, {"days": "Sun", "time": "Closed"}], "id": "2170100098", "name": "USPS COLLECTION BOX - BLUE BOX", "address": {"city": "FREDERICK", "state": "MD", "street": "201 E PATRICK ST", "postcode": "21701"}}},
{"geometry": {"type": "Point", "coordinates": [-77.4134440218, 39.4143174899]}, "type": "Feature", "properties": {"collection_times": [{"days": "Mon-Fri", "time": "3:15pm"}, {"days": "Sat", "time": "12:00pm"}, {"days": "Sun", "time": "Closed"}], "id": "2170100107", "name": "USPS COLLECTION BOX - BLUE BOX", "address": {"city": "FREDERICK", "state": "MD", "street": "131 W PATRICK ST", "postcode": "21701"}}},
{"geometry": {"type": "Point", "coordinates": [-77.4121789523, 39.4142659402]}, "type": "Feature", "properties": {"collection_times": [{"days": "Mon-Fri", "time": "3:00pm"}, {"days": "Sat", "time": "12:00pm"}, {"days": "Sun", "time": "Closed"}], "id": "2170100108", "name": "USPS COLLECTION BOX - BLUE BOX", "address": {"city": "FREDERICK", "state": "MD", "street": "30 W PATRICK ST", "postcode": "21701"}}},
{"geometry": {"type": "Point", "coordinates": [-77.3803292458, 39.4159663081]}, "type": "Feature", "properties": {"collection_times": [{"days": "Mon-Fri", "time": "1:30pm"}, {"days": "Sat", "time": "12:00pm"}, {"days": "Sun", "time": "Closed"}], "id": "2170100111", "name": "USPS COLLECTION BOX - BLUE BOX", "address": {"city": "FREDERICK", "state": "MD", "street": "310 AVIATION WAY", "postcode": "21701"}}},
{"geometry": {"type": "Point", "coordinates": [-77.4060595056, 39.4138767467]}, "type": "Feature", "properties": {"collection_times": [{"days": "Mon-Fri", "time": "6:00pm"}, {"days": "Sat", "time": "5:15pm"}, {"days": "Sun", "time": "Closed"}], "id": "2170100116", "name": "USPS COLLECTION BOX - APC", "address": {"city": "FREDERICK", "state": "MD", "street": "201 E PATRICK ST", "postcode": "21701"}}},
{"geometry": {"type": "Point", "coordinates": [-77.3752071306, 39.4387820354]}, "type": "Feature", "properties": {"collection_times": [{"days": "Mon-Fri", "time": "1:45pm"}, {"days": "Sat", "time": "12:00pm"}, {"days": "Sun", "time": "Closed"}], "id": "2170100135", "name": "USPS COLLECTION BOX - BLUE BOX", "address": {"city": "FREDERICK", "state": "MD", "street": "8480 STAGECOACH CIR", "postcode": "21701"}}},
{"geometry": {"type": "Point", "coordinates": [-77.454023175, 39.4690374907]}, "type": "Feature", "properties": {"collection_times": [{"days": "Mon-Fri", "time": "2:30pm"}, {"days": "Sat", "time": "12:00pm"}, {"days": "Sun", "time": "Closed"}], "id": "2170200004", "name": "USPS COLLECTION BOX - BLUE BOX", "address": {"city": "FREDERICK", "state": "MD", "street": "100 WATERFORD DR", "postcode": "21702"}}},
{"geometry": {"type": "Point", "coordinates": [-77.4442097167, 39.4203036842]}, "type": "Feature", "properties": {"collection_times": [{"days": "Mon-Fri", "time": "2:45pm"}, {"days": "Sat", "time": "12:30pm"}, {"days": "Sun", "time": "Closed"}], "id": "2170200011", "name": "USPS COLLECTION BOX - BLUE BOX", "address": {"city": "FREDERICK", "state": "MD", "street": "1445 KEY PKWY", "postcode": "21702"}}},
{"geometry": {"type": "Point", "coordinates": [-77.407143096, 39.443445989]}, "type": "Feature", "properties": {"collection_times": [{"days": "Mon-Fri", "time": "2:30pm"}, {"days": "Sat", "time": "1:00pm"}, {"days": "Sun", "time": "Closed"}], "id": "2170200013", "name": "USPS COLLECTION BOX - BLUE BOX", "address": {"city": "FREDERICK", "state": "MD", "street": "187 THOMAS JOHNSON DR", "postcode": "21702"}}},
{"geometry": {"type": "Point", "coordinates": [-77.4064722773, 39.4406189092]}, "type": "Feature", "properties": {"collection_times": [{"days": "Mon-Fri", "time": "2:15pm"}, {"days": "Sat", "time": "1:00pm"}, {"days": "Sun", "time": "Closed"}], "id": "2170200014", "name": "USPS COLLECTION BOX - BLUE BOX", "address": {"city": "FREDERICK", "state": "MD", "street": "196 THOMAS JOHNSON DR", "postcode": "21702"}}},
{"geometry": {"type": "Point", "coordinates": [-77.4101938697, 39.4397865949]}, "type": "Feature", "properties": {"collection_times": [{"days": "Mon-Fri", "time": "2:15pm"}, {"days": "Sat", "time": "1:00pm"}, {"days": "Sun", "time": "Closed"}], "id": "2170200015", "name": "USPS COLLECTION BOX - BLUE BOX", "address": {"city": "FREDERICK", "state": "MD", "street": "198 THOMAS JOHNSON DR", "postcode": "21702"}}},
{"geometry": {"type": "Point", "coordinates": [-77.4266098687, 39.4299590739]}, "type": "Feature", "properties": {"collection_times": [{"days": "Mon-Fri", "time": "2:15pm"}, {"days": "Sat", "time": "2:00pm"}, {"days": "Sun", "time": "Closed"}], "id": "2170200018", "name": "USPS COLLECTION BOX - BLUE BOX", "address": {"city": "FREDERICK", "state": "MD", "street": "540 WILSON PL", "postcode": "21702"}}},
{"geometry": {"type": "Point", "coordinates": [-77.4416109713, 39.4168518885]}, "type": "Feature", "properties": {"collection_times": [{"days": "Mon-Fri", "time": "2:30pm"}, {"days": "Sat", "time": "12:30pm"}, {"days": "Sun", "time": "Closed"}], "id": "2170200028", "name": "USPS COLLECTION BOX - BLUE BOX", "address": {"city": "FREDERICK", "state": "MD", "street": "1003 W PATRICK ST", "postcode": "21702"}}},
{"geometry": {"type": "Point", "coordinates": [-77.4458036876, 39.4177777592]}, "type": "Feature", "properties": {"collection_times": [{"days": "Mon-Fri", "time": "2:30pm"}, {"days": "Sat", "time": "12:30pm"}, {"days": "Sun", "time": "Closed"}], "id": "2170200029", "name": "USPS COLLECTION BOX - BLUE BOX", "address": {"city": "FREDERICK", "state": "MD", "street": "1061 W PATRICK ST", "postcode": "21702"}}},
{"geometry": {"type": "Point", "coordinates": [-77.4527743485, 39.418781392]}, "type": "Feature", "properties": {"collection_times": [{"days": "Mon-Fri", "time": "2:30pm"}, {"days": "Sat", "time": "12:30pm"}, {"days": "Sun", "time": "Closed"}], "id": "2170200030", "name": "USPS COLLECTION BOX - BLUE BOX", "address": {"city": "FREDERICK", "state": "MD", "street": "1275 W PATRICK ST", "postcode": "21702"}}},
{"geometry": {"type": "Point", "coordinates": [-77.4477922015, 39.4246766923]}, "type": "Feature", "properties": {"collection_times": [{"days": "Mon-Fri", "time": "2:45pm"}, {"days": "Sat", "time": "12:30pm"}, {"days": "Sun", "time": "Closed"}], "id": "2170200031", "name": "USPS COLLECTION BOX - BLUE BOX", "address": {"city": "FREDERICK", "state": "MD", "street": "160 WILLOWDALE DR", "postcode": "21702"}}},
{"geometry": {"type": "Point", "coordinates": [-77.4207924103, 39.430194494]}, "type": "Feature", "properties": {"collection_times": [{"days": "Mon-Fri", "time": "5:00pm"}, {"days": "Sat", "time": "12:00pm"}, {"days": "Sun", "time": "Closed"}], "id": "2170200035", "name": "USPS COLLECTION BOX - BLUE BOX", "address": {"city": "FREDERICK", "state": "MD", "street": "1301 W 7TH ST", "postcode": "21702"}}},
{"geometry": {"type": "Point", "coordinates": [-77.4365159671, 39.441284723]}, "type": "Feature", "properties": {"collection_times": [{"days": "Mon-Fri", "time": "2:15pm"}, {"days": "Sat", "time": "2:00pm"}, {"days": "Sun", "time": "Closed"}], "id": "2170200041", "name": "USPS COLLECTION BOX - BLUE BOX", "address": {"city": "FREDERICK", "state": "MD", "street": "2060 YELLOW SPRINGS RD", "postcode": "21702"}}},
{"geometry": {"type": "Point", "coordinates": [-77.435257829, 39.4440219375]}, "type": "Feature", "properties": {"collection_times": [{"days": "Mon-Fri", "time": "2:15pm"}, {"days": "Sat", "time": "2:00pm"}, {"days": "Sun", "time": "Closed"}], "id": "2170200042", "name": "USPS COLLECTION BOX - BLUE BOX", "address": {"city": "FREDERICK", "state": "MD", "street": "2104 WHITEHALL RD", "postcode": "21702"}}},
{"geometry": {"type": "Point", "coordinates": [-77.4534925102, 39.4188535086]}, "type": "Feature", "properties": {"collection_times": [{"days": "Mon-Fri", "time": "2:45pm"}, {"days": "Sat", "time": "12:30pm"}, {"days": "Sun", "time": "Closed"}], "id": "2170200043", "name": "USPS COLLECTION BOX - BLUE BOX", "address": {"city": "FREDERICK", "state": "MD", "street": "1301 W PATRICK ST", "postcode": "21702"}}},
{"geometry": {"type": "Point", "coordinates": [-77.405055371, 39.4476613254]}, "type": "Feature", "properties": {"collection_times": [{"days": "Mon-Fri", "time": "2:15pm"}, {"days": "Sat", "time": "1:00pm"}, {"days": "Sun", "time": "Closed"}], "id": "2170200046", "name": "USPS COLLECTION BOX - BLUE BOX", "address": {"city": "FREDERICK", "state": "MD", "street": "92 THOMAS JOHNSON DR", "postcode": "21702"}}},
{"geometry": {"type": "Point", "coordinates": [-77.4115555329, 39.4396593374]}, "type": "Feature", "properties": {"collection_times": [{"days": "Mon-Fri", "time": "2:30pm"}, {"days": "Sat", "time": "1:00pm"}, {"days": "Sun", "time": "Closed"}], "id": "2170200047", "name": "USPS COLLECTION BOX - BLUE BOX", "address": {"city": "FREDERICK", "state": "MD", "street": "201 THOMAS JOHNSON DR", "postcode": "21702"}}},
{"geometry": {"type": "Point", "coordinates": [-77.4037184789, 39.4501370906]}, "type": "Feature", "properties": {"collection_times": [{"days": "Mon-Fri", "time": "2:15pm"}, {"days": "Sat", "time": "1:00pm"}, {"days": "Sun", "time": "Closed"}], "id": "2170200049", "name": "USPS COLLECTION BOX - BLUE BOX", "address": {"city": "FREDERICK", "state": "MD", "street": "61 THOMAS JOHNSON DR", "postcode": "21702"}}},
{"geometry": {"type": "Point", "coordinates": [-77.4037184789, 39.4501370906]}, "type": "Feature", "properties": {"collection_times": [{"days": "Mon-Fri", "time": "2:15pm"}, {"days": "Sat", "time": "1:00pm"}, {"days": "Sun", "time": "Closed"}], "id": "2170200050", "name": "USPS COLLECTION BOX - BLUE BOX", "address": {"city": "FREDERICK", "state": "MD", "street": "61 THOMAS JOHNSON DR", "postcode": "21702"}}},
{"geometry": {"type": "Point", "coordinates": [-77.4052557405, 39.4593507342]}, "type": "Feature", "properties": {"collection_times": [{"days": "Mon-Fri", "time": "2:15pm"}, {"days": "Sat", "time": "1:00pm"}, {"days": "Sun", "time": "Closed"}], "id": "2170200051", "name": "USPS COLLECTION BOX - BLUE BOX", "address": {"city": "FREDERICK", "state": "MD", "street": "28 THOMAS JOHNSON DR", "postcode": "21702"}}},
{"geometry": {"type": "Point", "coordinates": [-77.4207924103, 39.430194494]}, "type": "Feature", "properties": {"collection_times": [{"days": "Mon-Fri", "time": "4:45pm"}, {"days": "Sat", "time": "12:00pm"}, {"days": "Sun", "time": "Closed"}], "id": "2170200054", "name": "USPS COLLECTION BOX - APC", "address": {"city": "FREDERICK", "state": "MD", "street": "1301 W 7TH ST", "postcode": "21702"}}},
{"geometry": {"type": "Point", "coordinates": [-77.405055371, 39.4476613254]}, "type": "Feature", "properties": {"collection_times": [{"days": "Mon-Fri", "time": "2:15pm"}, {"days": "Sat", "time": "1:00pm"}, {"days": "Sun", "time": "Closed"}], "id": "2170200055", "name": "USPS COLLECTION BOX - BLUE BOX", "address": {"city": "FREDERICK", "state": "MD", "street": "92 THOMAS JOHNSON DR", "postcode": "21702"}}},
{"geometry": {"type": "Point", "coordinates": [-77.4170899982, 39.4424389216]}, "type": "Feature", "properties": {"collection_times": [{"days": "Mon-Fri", "time": "2:00pm"}, {"days": "Sat", "time": "1:00pm"}, {"days": "Sun", "time": "Closed"}], "id": "2170200056", "name": "USPS COLLECTION BOX - BLUE BOX", "address": {"city": "FREDERICK", "state": "MD", "street": "1405 PORTER ST", "postcode": "21702"}}},
{"geometry": {"type": "Point", "coordinates": [-77.4096156689, 39.3865143201]}, "type": "Feature", "properties": {"collection_times": [{"days": "Mon-Fri", "time": "3:45pm"}, {"days": "Sat", "time": "12:00pm"}, {"days": "Sun", "time": "Closed"}], "id": "2170300000", "name": "USPS COLLECTION BOX - BLUE BOX", "address": {"city": "FREDERICK", "state": "MD", "street": "5500 BUCKEYSTOWN PIKE", "postcode": "21703"}}},
{"geometry": {"type": "Point", "coordinates": [-77.4048812108, 39.3752277644]}, "type": "Feature", "properties": {"collection_times": [{"days": "Mon-Fri", "time": "3:45pm"}, {"days": "Sat", "time": "12:00pm"}, {"days": "Sun", "time": "Closed"}], "id": "2170300003", "name": "USPS COLLECTION BOX - BLUE BOX", "address": {"city": "FREDERICK", "state": "MD", "street": "5300 SPECTRUM DR", "postcode": "21703"}}},
{"geometry": {"type": "Point", "coordinates": [-77.4048812108, 39.3752277644]}, "type": "Feature", "properties": {"collection_times": [{"days": "Mon-Fri", "time": "3:45pm"}, {"days": "Sat", "time": "12:00pm"}, {"days": "Sun", "time": "Closed"}], "id": "2170300004", "name": "USPS COLLECTION BOX - BLUE BOX", "address": {"city": "FREDERICK", "state": "MD", "street": "5300 SPECTRUM DR", "postcode": "21703"}}},
{"geometry": {"type": "Point", "coordinates": [-77.450083997, 39.4156158658]}, "type": "Feature", "properties": {"collection_times": [{"days": "Mon-Fri", "time": "2:45pm"}, {"days": "Sat", "time": "12:30pm"}, {"days": "Sun", "time": "Closed"}], "id": "2170300006", "name": "USPS COLLECTION BOX - BLUE BOX", "address": {"city": "FREDERICK", "state": "MD", "street": "1208 ALBAN CT", "postcode": "21703"}}},
{"geometry": {"type": "Point", "coordinates": [-77.4586236769, 39.3689957556]}, "type": "Feature", "properties": {"collection_times": [{"days": "Mon-Fri", "time": "2:45pm"}, {"days": "Sat", "time": "12:30pm"}, {"days": "Sun", "time": "Closed"}], "id": "2170300011", "name": "USPS COLLECTION BOX - BLUE BOX", "address": {"city": "FREDERICK", "state": "MD", "street": "554 STAGHORN AVE", "postcode": "21703"}}},
{"geometry": {"type": "Point", "coordinates": [-77.4383302869, 39.3938186423]}, "type": "Feature", "properties": {"collection_times": [{"days": "Mon-Fri", "time": "3:00pm"}, {"days": "Sat", "time": "12:00pm"}, {"days": "Sun", "time": "Closed"}], "id": "2170300018", "name": "USPS COLLECTION BOX - BLUE BOX", "address": {"city": "FREDERICK", "state": "MD", "street": "5840 BALLENGER CREEK PIKE", "postcode": "21703"}}},
{"geometry": {"type": "Point", "coordinates": [-77.4353651972, 39.3960513725]}, "type": "Feature", "properties": {"collection_times": [{"days": "Mon-Fri", "time": "3:00pm"}, {"days": "Sat", "time": "12:00pm"}, {"days": "Sun", "time": "Closed"}], "id": "2170300019", "name": "USPS COLLECTION BOX - BLUE BOX", "address": {"city": "FREDERICK", "state": "MD", "street": "321 BALLENGER CENTER DR", "postcode": "21703"}}},
{"geometry": {"type": "Point", "coordinates": [-77.4111223692, 39.3693362797]}, "type": "Feature", "properties": {"collection_times": [{"days": "Mon-Fri", "time": "3:45pm"}, {"days": "Sat", "time": "12:00pm"}, {"days": "Sun", "time": "Closed"}], "id": "2170400001", "name": "USPS COLLECTION BOX - BLUE BOX", "address": {"city": "FREDERICK", "state": "MD", "street": "7330 EXECUTIVE WAY", "postcode": "21704"}}},
{"geometry": {"type": "Point", "coordinates": [-77.4124356544, 39.3944549265]}, "type": "Feature", "properties": {"collection_times": [{"days": "Mon-Fri", "time": "3:30pm"}, {"days": "Sat", "time": "12:00pm"}, {"days": "Sun", "time": "Closed"}], "id": "2170400003", "name": "USPS COLLECTION BOX - BLUE BOX", "address": {"city": "FREDERICK", "state": "MD", "street": "7400 GUILFORD DR", "postcode": "21704"}}},
{"geometry": {"type": "Point", "coordinates": [-77.4092801687, 39.3771450993]}, "type": "Feature", "properties": {"collection_times": [{"days": "Mon-Fri", "time": "3:45pm"}, {"days": "Sat", "time": "12:00pm"}, {"days": "Sun", "time": "Closed"}], "id": "2170400004", "name": "USPS COLLECTION BOX - BLUE BOX", "address": {"city": "FREDERICK", "state": "MD", "street": "5301 BUCKEYSTOWN PIKE", "postcode": "21704"}}},
{"geometry": {"type": "Point", "coordinates": [-77.4127790687, 39.3898962057]}, "type": "Feature", "properties": {"collection_times": [{"days": "Mon-Fri", "time": "3:30pm"}, {"days": "Sat", "time": "12:00pm"}, {"days": "Sun", "time": "Closed"}], "id": "2170400005", "name": "USPS COLLECTION BOX - BLUE BOX", "address": {"city": "FREDERICK", "state": "MD", "street": "7309 GROVE RD", "postcode": "21704"}}},
{"geometry": {"type": "Point", "coordinates": [-77.4127790687, 39.3898962057]}, "type": "Feature", "properties": {"collection_times": [{"days": "Mon-Fri", "time": "3:30pm"}, {"days": "Sat", "time": "12:00pm"}, {"days": "Sun", "time": "Closed"}], "id": "2170400011", "name": "USPS COLLECTION BOX - BLUE BOX", "address": {"city": "FREDERICK", "state": "MD", "street": "7309 GROVE RD", "postcode": "21704"}}},
{"geometry": {"type": "Point", "coordinates": [-77.4754463927, 39.3115548335]}, "type": "Feature", "properties": {"collection_times": [{"days": "Mon-Fri", "time": "5:00pm"}, {"days": "Sat", "time": "12:00pm"}, {"days": "Sun", "time": "Closed"}], "id": "2171000000", "name": "USPS COLLECTION BOX - BLUE BOX", "address": {"city": "ADAMSTOWN", "state": "MD", "street": "5537 MOUNTVILLE RD", "postcode": "21710"}}},
{"geometry": {"type": "Point", "coordinates": [-77.4754463927, 39.3115548335]}, "type": "Feature", "properties": {"collection_times": [{"days": "Mon-Fri", "time": "4:45pm"}, {"days": "Sat", "time": "11:45am"}, {"days": "Sun", "time": "Closed"}], "id": "2171000001", "name": "USPS COLLECTION BOX - PO LOBBY", "address": {"city": "ADAMSTOWN", "state": "MD", "street": "5537 MOUNTVILLE RD", "postcode": "21710"}}},
{"geometry": {"type": "Point", "coordinates": [-77.4754463927, 39.3115548335]}, "type": "Feature", "properties": {"collection_times": [{"days": "Mon-Fri", "time": "4:45pm"}, {"days": "Sat", "time": "11:45am"}, {"days": "Sun", "time": "Closed"}], "id": "2171000002", "name": "USPS COLLECTION BOX - PO LOBBY", "address": {"city": "ADAMSTOWN", "state": "MD", "street": "5537 MOUNTVILLE RD", "postcode": "21710"}}},
{"geometry": {"type": "Point", "coordinates": [-78.0151834263, 39.6255454984]}, "type": "Feature", "properties": {"collection_times": [{"days": "Mon-Sat", "time": "12:00pm"}, {"days": "Sun", "time": "Closed"}], "id": "2171100000", "name": "USPS COLLECTION BOX - BLUE BOX", "address": {"city": "BIG POOL", "state": "MD", "street": "11304 HOMESTEAD DR", "postcode": "21711"}}},
{"geometry": {"type": "Point", "coordinates": [-77.6525166361, 39.5062725342]}, "type": "Feature", "properties": {"collection_times": [{"days": "Mon-Fri", "time": "5:00pm"}, {"days": "Sat", "time": "11:30am"}, {"days": "Sun", "time": "Closed"}], "id": "2171300000", "name": "USPS COLLECTION BOX - BLUE BOX", "address": {"city": "BOONSBORO", "state": "MD", "street": "5 POTOMAC ST", "postcode": "21713"}}},
{"geometry": {"type": "Point", "coordinates": [-77.6528413941, 39.5076951475]}, "type": "Feature", "properties": {"collection_times": [{"days": "Mon-Sat", "time": "2:30pm"}, {"days": "Sun", "time": "Closed"}], "id": "2171300002", "name": "USPS COLLECTION BOX - BLUE BOX", "address": {"city": "BOONSBORO", "state": "MD", "street": "101 N MAIN ST", "postcode": "21713"}}},
{"geometry": {"type": "Point", "coordinates": [-77.6525166361, 39.5062725342]}, "type": "Feature", "properties": {"collection_times": [{"days": "Mon-Fri", "time": "5:00pm"}, {"days": "Sat", "time": "11:30am"}, {"days": "Sun", "time": "Closed"}], "id": "2171300005", "name": "USPS COLLECTION BOX - BLUE BOX", "address": {"city": "BOONSBORO", "state": "MD", "street": "5 POTOMAC ST", "postcode": "21713"}}},
{"geometry": {"type": "Point", "coordinates": [-77.6513602101, 39.5748364472]}, "type": "Feature", "properties": {"collection_times": [{"days": "Mon-Fri", "time": "10:15am"}, {"days": "Sat", "time": "10:00am"}, {"days": "Sun", "time": "Closed"}], "id": "2171300006", "name": "USPS COLLECTION BOX - BLUE BOX", "address": {"city": "BOONSBORO", "state": "MD", "street": "20723 NATIONAL PIKE", "postcode": "21713"}}},
{"geometry": {"type": "Point", "coordinates": [-77.6525166361, 39.5062725342]}, "type": "Feature", "properties": {"collection_times": [{"days": "Mon-Fri", "time": "4:45pm"}, {"days": "Sat", "time": "11:45am"}, {"days": "Sun", "time": "Closed"}], "id": "2171300007", "name": "USPS COLLECTION BOX - PO LOBBY", "address": {"city": "BOONSBORO", "state": "MD", "street": "5 POTOMAC ST", "postcode": "21713"}}},
{"geometry": {"type": "Point", "coordinates": [-77.6525166361, 39.5062725342]}, "type": "Feature", "properties": {"collection_times": [{"days": "Mon-Fri", "time": "4:45pm"}, {"days": "Sat", "time": "11:45am"}, {"days": "Sun", "time": "Closed"}], "id": "2171300008", "name": "USPS COLLECTION BOX - PO LOBBY", "address": {"city": "BOONSBORO", "state": "MD", "street": "5 POTOMAC ST", "postcode": "21713"}}},
{"geometry": {"type": "Point", "coordinates": [-77.654318615, 39.5105388812]}, "type": "Feature", "properties": {"collection_times": [{"days": "Mon-Sat", "time": "2:30pm"}, {"days": "Sun", "time": "Closed"}], "id": "2171300009", "name": "USPS COLLECTION BOX - BLUE BOX", "address": {"city": "BOONSBORO", "state": "MD", "street": "300 N MAIN ST", "postcode": "21713"}}},
{"geometry": {"type": "Point", "coordinates": [-77.5035432158, 39.4238778391]}, "type": "Feature", "properties": {"collection_times": [{"days": "Mon-Fri", "time": "4:30pm"}, {"days": "Sat", "time": "11:45am"}, {"days": "Sun", "time": "Closed"}], "id": "2171400001", "name": "USPS COLLECTION BOX - BLUE BOX", "address": {"city": "BRADDOCK HTS", "state": "MD", "street": "4707 SCHLEY AVE", "postcode": "21714"}}},
{"geometry": {"type": "Point", "coordinates": [-77.5035432158, 39.4238778391]}, "type": "Feature", "properties": {"collection_times": [{"days": "Mon-Fri", "time": "4:45pm"}, {"days": "Sat", "time": "11:45am"}, {"days": "Sun", "time": "Closed"}], "id": "2171400002", "name": "USPS COLLECTION BOX - PO LOBBY", "address": {"city": "BRADDOCK HTS", "state": "MD", "street": "4707 SCHLEY AVE", "postcode": "21714"}}},
{"geometry": {"type": "Point", "coordinates": [-77.6307063362, 39.3144877583]}, "type": "Feature", "properties": {"collection_times": [{"days": "Mon-Fri", "time": "4:30pm"}, {"days": "Sat", "time": "3:15pm"}, {"days": "Sun", "time": "Closed"}], "id": "2171600000", "name": "USPS COLLECTION BOX - BLUE BOX", "address": {"city": "BRUNSWICK", "state": "MD", "street": "315 BRUNSWICK ST", "postcode": "21716"}}},
{"geometry": {"type": "Point", "coordinates": [-77.611992585, 39.3165048287]}, "type": "Feature", "properties": {"collection_times": [{"days": "Mon-Sat", "time": "3:15pm"}, {"days": "Sun", "time": "Closed"}], "id": "2171600006", "name": "USPS COLLECTION BOX - BLUE BOX", "address": {"city": "BRUNSWICK", "state": "MD", "street": "610 9TH AVE", "postcode": "21716"}}},
{"geometry": {"type": "Point", "coordinates": [-77.6307874031, 39.3135961323]}, "type": "Feature", "properties": {"collection_times": [{"days": "Mon-Sat", "time": "3:15pm"}, {"days": "Sun", "time": "Closed"}], "id": "2171600013", "name": "USPS COLLECTION BOX - BLUE BOX", "address": {"city": "BRUNSWICK", "state": "MD", "street": "302 W POTOMAC ST", "postcode": "21716"}}},
{"geometry": {"type": "Point", "coordinates": [-77.622113948, 39.3247999367]}, "type": "Feature", "properties": {"collection_times": [{"days": "Mon-Sat", "time": "3:15pm"}, {"days": "Sun", "time": "Closed"}], "id": "2171600021", "name": "USPS COLLECTION BOX - BLUE BOX", "address": {"city": "BRUNSWICK", "state": "MD", "street": "1300 N MAPLE AVE", "postcode": "21716"}}},
{"geometry": {"type": "Point", "coordinates": [-77.6178422862, 39.3239144356]}, "type": "Feature", "properties": {"collection_times": [{"days": "Mon-Sat", "time": "3:15pm"}, {"days": "Sun", "time": "Closed"}], "id": "2171600022", "name": "USPS COLLECTION BOX - BLUE BOX", "address": {"city": "BRUNSWICK", "state": "MD", "street": "92 SOUDER RD", "postcode": "21716"}}},
{"geometry": {"type": "Point", "coordinates": [-77.6307063362, 39.3144877583]}, "type": "Feature", "properties": {"collection_times": [{"days": "Mon-Fri", "time": "4:30pm"}, {"days": "Sat", "time": "11:45am"}, {"days": "Sun", "time": "Closed"}], "id": "2171600028", "name": "USPS COLLECTION BOX - PO LOBBY", "address": {"city": "BRUNSWICK", "state": "MD", "street": "315 BRUNSWICK ST", "postcode": "21716"}}},
{"geometry": {"type": "Point", "coordinates": [-77.6307063362, 39.3144877583]}, "type": "Feature", "properties": {"collection_times": [{"days": "Mon-Fri", "time": "4:30pm"}, {"days": "Sat", "time": "11:45am"}, {"days": "Sun", "time": "Closed"}], "id": "2171600029", "name": "USPS COLLECTION BOX - PO LOBBY", "address": {"city": "BRUNSWICK", "state": "MD", "street": "315 BRUNSWICK ST", "postcode": "21716"}}},
{"geometry": {"type": "Point", "coordinates": [-77.6269356887, 39.3128875399]}, "type": "Feature", "properties": {"collection_times": [{"days": "Mon-Sat", "time": "3:15pm"}, {"days": "Sun", "time": "Closed"}], "id": "2171600031", "name": "USPS COLLECTION BOX - BLUE BOX", "address": {"city": "BRUNSWICK", "state": "MD", "street": "1 W POTOMAC ST", "postcode": "21716"}}},
{"geometry": {"type": "Point", "coordinates": [-77.4322127043, 39.3324432196]}, "type": "Feature", "properties": {"collection_times": [{"days": "Mon-Fri", "time": "4:45pm"}, {"days": "Sat", "time": "11:45am"}, {"days": "Sun", "time": "Closed"}], "id": "2171700000", "name": "USPS COLLECTION BOX - BLUE BOX", "address": {"city": "BUCKEYSTOWN", "state": "MD", "street": "4001 BUCKEYSTOWN PIKE", "postcode": "21717"}}},
{"geometry": {"type": "Point", "coordinates": [-77.4322127043, 39.3324432196]}, "type": "Feature", "properties": {"collection_times": [{"days": "Mon-Fri", "time": "4:45pm"}, {"days": "Sat", "time": "11:45am"}, {"days": "Sun", "time": "Closed"}], "id": "2171700001", "name": "USPS COLLECTION BOX - PO LOBBY", "address": {"city": "BUCKEYSTOWN", "state": "MD", "street": "4001 BUCKEYSTOWN PIKE", "postcode": "21717"}}},
{"geometry": {"type": "Point", "coordinates": [-77.6299877228, 39.3946193578]}, "type": "Feature", "properties": {"collection_times": [{"days": "Mon-Fri", "time": "4:15pm"}, {"days": "Sat", "time": "11:45am"}, {"days": "Sun", "time": "Closed"}], "id": "2171800000", "name": "USPS COLLECTION BOX - BLUE BOX", "address": {"city": "BURKITTSVILLE", "state": "MD", "street": "8 E MAIN ST", "postcode": "21718"}}},
{"geometry": {"type": "Point", "coordinates": [-77.6299877228, 39.3946193578]}, "type": "Feature", "properties": {"collection_times": [{"days": "Mon-Fri", "time": "4:15pm"}, {"days": "Sat", "time": "11:45am"}, {"days": "Sun", "time": "Closed"}], "id": "2171800001", "name": "USPS COLLECTION BOX - PO LOBBY", "address": {"city": "BURKITTSVILLE", "state": "MD", "street": "8 E MAIN ST", "postcode": "21718"}}},
{"geometry": {"type": "Point", "coordinates": [-77.4887288084, 39.7087631844]}, "type": "Feature", "properties": {"collection_times": [{"days": "Mon-Fri", "time": "4:30pm"}, {"days": "Sat", "time": "11:30am"}, {"days": "Sun", "time": "Closed"}], "id": "2171900000", "name": "USPS COLLECTION BOX - BLUE BOX", "address": {"city": "CASCADE", "state": "MD", "street": "25208 MILITARY RD", "postcode": "21719"}}},
{"geometry": {"type": "Point", "coordinates": [-77.4887288084, 39.7087631844]}, "type": "Feature", "properties": {"collection_times": [{"days": "Mon-Fri", "time": "4:30pm"}, {"days": "Sat", "time": "11:30am"}, {"days": "Sun", "time": "Closed"}], "id": "2171900001", "name": "USPS COLLECTION BOX - PO LOBBY", "address": {"city": "CASCADE", "state": "MD", "street": "25208 MILITARY RD", "postcode": "21719"}}},
{"geometry": {"type": "Point", "coordinates": [-77.5855659501, 39.6442089346]}, "type": "Feature", "properties": {"collection_times": [{"days": "Mon-Fri", "time": "4:15pm"}, {"days": "Sat", "time": "11:15am"}, {"days": "Sun", "time": "Closed"}], "id": "2172000000", "name": "USPS COLLECTION BOX - BLUE BOX", "address": {"city": "CAVETOWN", "state": "MD", "street": "22509 CAVETOWN CHURCH RD", "postcode": "21720"}}},
{"geometry": {"type": "Point", "coordinates": [-77.5855659501, 39.6442089346]}, "type": "Feature", "properties": {"collection_times": [{"days": "Mon-Fri", "time": "4:15pm"}, {"days": "Sat", "time": "11:15am"}, {"days": "Sun", "time": "Closed"}], "id": "2172000001", "name": "USPS COLLECTION BOX - PO LOBBY", "address": {"city": "CAVETOWN", "state": "MD", "street": "22509 CAVETOWN CHURCH RD", "postcode": "21720"}}},
{"geometry": {"type": "Point", "coordinates": [-77.6349188657, 39.643084629]}, "type": "Feature", "properties": {"collection_times": [{"days": "Mon-Fri", "time": "4:00pm"}, {"days": "Sat", "time": "11:15am"}, {"days": "Sun", "time": "Closed"}], "id": "2172100000", "name": "USPS COLLECTION BOX - BLUE BOX", "address": {"city": "CHEWSVILLE", "state": "MD", "street": "21106 TWIN SPRINGS DR", "postcode": "21721"}}},
{"geometry": {"type": "Point", "coordinates": [-77.6349188657, 39.643084629]}, "type": "Feature", "properties": {"collection_times": [{"days": "Mon-Fri", "time": "4:00pm"}, {"days": "Sat", "time": "11:15am"}, {"days": "Sun", "time": "Closed"}], "id": "2172100001", "name": "USPS COLLECTION BOX - PO LOBBY", "address": {"city": "CHEWSVILLE", "state": "MD", "street": "21106 TWIN SPRINGS DR", "postcode": "21721"}}},
{"geometry": {"type": "Point", "coordinates": [-77.9287299272, 39.6553448625]}, "type": "Feature", "properties": {"collection_times": [{"days": "Mon-Fri", "time": "4:15pm"}, {"days": "Sat", "time": "12:00pm"}, {"days": "Sun", "time": "Closed"}], "id": "2172200000", "name": "USPS COLLECTION BOX - BLUE BOX", "address": {"city": "CLEAR SPRING", "state": "MD", "street": "21 MULBERRY ST", "postcode": "21722"}}},
{"geometry": {"type": "Point", "coordinates": [-77.9287299272, 39.6553448625]}, "type": "Feature", "properties": {"collection_times": [{"days": "Mon-Fri", "time": "4:15pm"}, {"days": "Sat", "time": "11:45am"}, {"days": "Sun", "time": "Closed"}], "id": "2172200002", "name": "USPS COLLECTION BOX - PO LOBBY", "address": {"city": "CLEAR SPRING", "state": "MD", "street": "21 MULBERRY ST", "postcode": "21722"}}},
{"geometry": {"type": "Point", "coordinates": [-77.9287299272, 39.6553448625]}, "type": "Feature", "properties": {"collection_times": [{"days": "Mon-Fri", "time": "4:15pm"}, {"days": "Sat", "time": "11:45am"}, {"days": "Sun", "time": "Closed"}], "id": "2172200003", "name": "USPS COLLECTION BOX - PO LOBBY", "address": {"city": "CLEAR SPRING", "state": "MD", "street": "21 MULBERRY ST", "postcode": "21722"}}},
{"geometry": {"type": "Point", "coordinates": [-77.3317248635, 39.6930875843]}, "type": "Feature", "properties": {"collection_times": [{"days": "Mon-Sat", "time": "9:00am"}, {"days": "Sun", "time": "Closed"}], "id": "2172700000", "name": "USPS COLLECTION BOX - BLUE BOX", "address": {"city": "EMMITSBURG", "state": "MD", "street": "16825 S SETON AVE", "postcode": "21727"}}},
{"geometry": {"type": "Point", "coordinates": [-77.3244317881, 39.7068755721]}, "type": "Feature", "properties": {"collection_times": [{"days": "Mon-Fri", "time": "4:30pm"}, {"days": "Sat", "time": "12:00pm"}, {"days": "Sun", "time": "Closed"}], "id": "2172700002", "name": "USPS COLLECTION BOX - BLUE BOX", "address": {"city": "EMMITSBURG", "state": "MD", "street": "305 S SETON AVE", "postcode": "21727"}}},
{"geometry": {"type": "Point", "coordinates": [-77.3268051374, 39.7046360038]}, "type": "Feature", "properties": {"collection_times": [{"days": "Mon-Sat", "time": "9:30am"}, {"days": "Sun", "time": "Closed"}], "id": "2172700003", "name": "USPS COLLECTION BOX - BLUE BOX", "address": {"city": "EMMITSBURG", "state": "MD", "street": "2 E MAIN ST", "postcode": "21727"}}},
{"geometry": {"type": "Point", "coordinates": [-77.3244317881, 39.7068755721]}, "type": "Feature", "properties": {"collection_times": [{"days": "Mon-Fri", "time": "4:30pm"}, {"days": "Sat", "time": "12:00pm"}, {"days": "Sun", "time": "Closed"}], "id": "2172700007", "name": "USPS COLLECTION BOX - PO LOBBY", "address": {"city": "EMMITSBURG", "state": "MD", "street": "305 S SETON AVE", "postcode": "21727"}}},
{"geometry": {"type": "Point", "coordinates": [-77.3244317881, 39.7068755721]}, "type": "Feature", "properties": {"collection_times": [{"days": "Mon-Fri", "time": "4:30pm"}, {"days": "Sat", "time": "12:00pm"}, {"days": "Sun", "time": "Closed"}], "id": "2172700008", "name": "USPS COLLECTION BOX - PO LOBBY", "address": {"city": "EMMITSBURG", "state": "MD", "street": "305 S SETON AVE", "postcode": "21727"}}},
{"geometry": {"type": "Point", "coordinates": [-77.350043551, 39.680871725]}, "type": "Feature", "properties": {"collection_times": [{"days": "Mon-Sat", "time": "9:30am"}, {"days": "Sun", "time": "Closed"}], "id": "2172700009", "name": "USPS COLLECTION BOX - BLUE BOX", "address": {"city": "EMMITSBURG", "state": "MD", "street": "16300 OLD EMMITSBURG RD", "postcode": "21727"}}},
{"geometry": {"type": "Point", "coordinates": [-77.7391638228, 39.5391850832]}, "type": "Feature", "properties": {"collection_times": [{"days": "Mon-Fri", "time": "4:15pm"}, {"days": "Sat", "time": "11:45am"}, {"days": "Sun", "time": "Closed"}], "id": "2173300000", "name": "USPS COLLECTION BOX - BLUE BOX", "address": {"city": "FAIR PLAY", "state": "MD", "street": "8215 SHARPSBURG PIKE", "postcode": "21733"}}},
{"geometry": {"type": "Point", "coordinates": [-77.7391638228, 39.5391850832]}, "type": "Feature", "properties": {"collection_times": [{"days": "Mon-Fri", "time": "4:15pm"}, {"days": "Sat", "time": "11:45am"}, {"days": "Sun", "time": "Closed"}], "id": "2173300002", "name": "USPS COLLECTION BOX - PO LOBBY", "address": {"city": "FAIR PLAY", "state": "MD", "street": "8215 SHARPSBURG PIKE", "postcode": "21733"}}},
{"geometry": {"type": "Point", "coordinates": [-77.7391638228, 39.5391850832]}, "type": "Feature", "properties": {"collection_times": [{"days": "Mon-Fri", "time": "4:15pm"}, {"days": "Sat", "time": "11:45am"}, {"days": "Sun", "time": "Closed"}], "id": "2173300003", "name": "USPS COLLECTION BOX - PO LOBBY", "address": {"city": "FAIR PLAY", "state": "MD", "street": "8215 SHARPSBURG PIKE", "postcode": "21733"}}},
{"geometry": {"type": "Point", "coordinates": [-77.7573680142, 39.5483436744]}, "type": "Feature", "properties": {"collection_times": [{"days": "Mon-Sat", "time": "11:00am"}, {"days": "Sun", "time": "Closed"}], "id": "2173300005", "name": "USPS COLLECTION BOX - BLUE BOX", "address": {"city": "FAIR PLAY", "state": "MD", "street": "8708 SHARPSBURG PIKE", "postcode": "21733"}}},
{"geometry": {"type": "Point", "coordinates": [-77.705280032, 39.6071210235]}, "type": "Feature", "properties": {"collection_times": [{"days": "Mon-Fri", "time": "4:15pm"}, {"days": "Sat", "time": "12:00pm"}, {"days": "Sun", "time": "Closed"}], "id": "2173400000", "name": "USPS COLLECTION BOX - BLUE BOX", "address": {"city": "FUNKSTOWN", "state": "MD", "street": "29 FREDERICK RD", "postcode": "21734"}}},
{"geometry": {"type": "Point", "coordinates": [-77.705280032, 39.6071210235]}, "type": "Feature", "properties": {"collection_times": [{"days": "Mon-Fri", "time": "4:15pm"}, {"days": "Sat", "time": "12:00pm"}, {"days": "Sun", "time": "Closed"}], "id": "2173400001", "name": "USPS COLLECTION BOX - BLUE BOX", "address": {"city": "FUNKSTOWN", "state": "MD", "street": "29 FREDERICK RD", "postcode": "21734"}}},
{"geometry": {"type": "Point", "coordinates": [-77.705280032, 39.6071210235]}, "type": "Feature", "properties": {"collection_times": [{"days": "Mon-Fri", "time": "4:30pm"}, {"days": "Sat", "time": "12:00pm"}, {"days": "Sun", "time": "Closed"}], "id": "2173400003", "name": "USPS COLLECTION BOX - PO LOBBY", "address": {"city": "FUNKSTOWN", "state": "MD", "street": "29 FREDERICK RD", "postcode": "21734"}}},
{"geometry": {"type": "Point", "coordinates": [-76.9866189211, 39.2655206543]}, "type": "Feature", "properties": {"collection_times": [{"days": "Mon-Fri", "time": "4:45pm"}, {"days": "Sat", "time": "11:45am"}, {"days": "Sun", "time": "Closed"}], "id": "2173700000", "name": "USPS COLLECTION BOX - BLUE BOX", "address": {"city": "GLENELG", "state": "MD", "street": "3900 10 OAKS RD UNIT 7", "postcode": "21737"}}},
{"geometry": {"type": "Point", "coordinates": [-76.9866189211, 39.2655206543]}, "type": "Feature", "properties": {"collection_times": [{"days": "Mon-Fri", "time": "4:45pm"}, {"days": "Sat", "time": "11:45am"}, {"days": "Sun", "time": "Closed"}], "id": "2173700001", "name": "USPS COLLECTION BOX - PO LOBBY", "address": {"city": "GLENELG", "state": "MD", "street": "3900 10 OAKS RD UNIT 7", "postcode": "21737"}}},
{"geometry": {"type": "Point", "coordinates": [-76.9866189211, 39.2655206543]}, "type": "Feature", "properties": {"collection_times": [{"days": "Mon-Fri", "time": "4:45pm"}, {"days": "Sat", "time": "11:45am"}, {"days": "Sun", "time": "Closed"}], "id": "2173700002", "name": "USPS COLLECTION BOX - PO LOBBY", "address": {"city": "GLENELG", "state": "MD", "street": "3900 10 OAKS RD UNIT 7", "postcode": "21737"}}},
{"geometry": {"type": "Point", "coordinates": [-77.0260017445, 39.2784448644]}, "type": "Feature", "properties": {"collection_times": [{"days": "Mon-Fri", "time": "4:30pm"}, {"days": "Sat", "time": "12:00pm"}, {"days": "Sun", "time": "Closed"}], "id": "2173800000", "name": "USPS COLLECTION BOX - BLUE BOX", "address": {"city": "GLENWOOD", "state": "MD", "street": "3000 WASHINGTON RD RT 97", "postcode": "21738"}}},
{"geometry": {"type": "Point", "coordinates": [-77.0260017445, 39.2784448644]}, "type": "Feature", "properties": {"collection_times": [{"days": "Mon-Fri", "time": "4:30pm"}, {"days": "Sat", "time": "12:00pm"}, {"days": "Sun", "time": "Closed"}], "id": "2173800001", "name": "USPS COLLECTION BOX - PO LOBBY", "address": {"city": "GLENWOOD", "state": "MD", "street": "3000 WASHINGTON RD RT 97", "postcode": "21738"}}},
{"geometry": {"type": "Point", "coordinates": [-77.0260017445, 39.2784448644]}, "type": "Feature", "properties": {"collection_times": [{"days": "Mon-Fri", "time": "4:30pm"}, {"days": "Sat", "time": "12:00pm"}, {"days": "Sun", "time": "Closed"}], "id": "2173800002", "name": "USPS COLLECTION BOX - PO LOBBY", "address": {"city": "GLENWOOD", "state": "MD", "street": "3000 WASHINGTON RD RT 97", "postcode": "21738"}}},
{"geometry": {"type": "Point", "coordinates": [-77.0204345052, 39.3010567585]}, "type": "Feature", "properties": {"collection_times": [{"days": "Mon-Sat", "time": "10:00am"}, {"days": "Sun", "time": "Closed"}], "id": "2173800003", "name": "USPS COLLECTION BOX - BLUE BOX", "address": {"city": "GLENWOOD", "state": "MD", "street": "2465 ROUTE 97", "postcode": "21738"}}},
{"geometry": {"type": "Point", "coordinates": [-77.722422217, 39.6431093638]}, "type": "Feature", "properties": {"collection_times": [{"days": "Mon-Fri", "time": "4:00pm"}, {"days": "Sat", "time": "12:00pm"}, {"days": "Sun", "time": "Closed"}], "id": "2174000001", "name": "USPS COLLECTION BOX - BLUE BOX", "address": {"city": "HAGERSTOWN", "state": "MD", "street": "90 W WASHINGTON ST", "postcode": "21740"}}},
{"geometry": {"type": "Point", "coordinates": [-77.6918531899, 39.6150643449]}, "type": "Feature", "properties": {"collection_times": [{"days": "Mon-Sat", "time": "12:45pm"}, {"days": "Sun", "time": "Closed"}], "id": "2174000002", "name": "USPS COLLECTION BOX - BLUE BOX", "address": {"city": "HAGERSTOWN", "state": "MD", "street": "1723 DUAL HWY", "postcode": "21740"}}},
{"geometry": {"type": "Point", "coordinates": [-77.7112674267, 39.6340019849]}, "type": "Feature", "properties": {"collection_times": [{"days": "Mon-Fri", "time": "12:15pm"}, {"days": "Sat", "time": "12:30pm"}, {"days": "Sun", "time": "Closed"}], "id": "2174000025", "name": "USPS COLLECTION BOX - BLUE BOX", "address": {"city": "HAGERSTOWN", "state": "MD", "street": "363 S CLEVELAND AVE", "postcode": "21740"}}},
{"geometry": {"type": "Point", "coordinates": [-77.7028456993, 39.636113265]}, "type": "Feature", "properties": {"collection_times": [{"days": "Mon-Fri", "time": "1:00pm"}, {"days": "Sat", "time": "1:30pm"}, {"days": "Sun", "time": "Closed"}], "id": "2174000026", "name": "USPS COLLECTION BOX - BLUE BOX", "address": {"city": "HAGERSTOWN", "state": "MD", "street": "62 MANOR DR", "postcode": "21740"}}},
{"geometry": {"type": "Point", "coordinates": [-77.7096494088, 39.6388932776]}, "type": "Feature", "properties": {"collection_times": [{"days": "Mon-Fri", "time": "12:00pm"}, {"days": "Sat", "time": "12:15pm"}, {"days": "Sun", "time": "Closed"}], "id": "2174000027", "name": "USPS COLLECTION BOX - BLUE BOX", "address": {"city": "HAGERSTOWN", "state": "MD", "street": "500 E WASHINGTON ST", "postcode": "21740"}}},
{"geometry": {"type": "Point", "coordinates": [-77.696533557, 39.636251326]}, "type": "Feature", "properties": {"collection_times": [{"days": "Mon-Sat", "time": "12:45pm"}, {"days": "Sun", "time": "Closed"}], "id": "2174000028", "name": "USPS COLLECTION BOX - BLUE BOX", "address": {"city": "HAGERSTOWN", "state": "MD", "street": "1101 OPAL CT", "postcode": "21740"}}},
{"geometry": {"type": "Point", "coordinates": [-77.7326791256, 39.6321842843]}, "type": "Feature", "properties": {"collection_times": [{"days": "Mon-Fri", "time": "12:30pm"}, {"days": "Sat", "time": "12:45pm"}, {"days": "Sun", "time": "Closed"}], "id": "2174000029", "name": "USPS COLLECTION BOX - BLUE BOX", "address": {"city": "HAGERSTOWN", "state": "MD", "street": "703 VIRGINIA AVE", "postcode": "21740"}}},
{"geometry": {"type": "Point", "coordinates": [-77.731585385, 39.6308260295]}, "type": "Feature", "properties": {"collection_times": [{"days": "Mon-Fri", "time": "12:30pm"}, {"days": "Sat", "time": "1:00pm"}, {"days": "Sun", "time": "Closed"}], "id": "2174000031", "name": "USPS COLLECTION BOX - BLUE BOX", "address": {"city": "HAGERSTOWN", "state": "MD", "street": "755 SUMMIT AVE", "postcode": "21740"}}},
{"geometry": {"type": "Point", "coordinates": [-77.7378539869, 39.6183809667]}, "type": "Feature", "properties": {"collection_times": [{"days": "Mon-Fri", "time": "12:45pm"}, {"days": "Sat", "time": "1:15pm"}, {"days": "Sun", "time": "Closed"}], "id": "2174000032", "name": "USPS COLLECTION BOX - BLUE BOX", "address": {"city": "HAGERSTOWN", "state": "MD", "street": "1260 MARYLAND AVE", "postcode": "21740"}}},
{"geometry": {"type": "Point", "coordinates": [-77.7185021482, 39.6198018708]}, "type": "Feature", "properties": {"collection_times": [{"days": "Mon-Fri", "time": "12:30pm"}, {"days": "Sat", "time": "12:45pm"}, {"days": "Sun", "time": "Closed"}], "id": "2174000036", "name": "USPS COLLECTION BOX - BLUE BOX", "address": {"city": "HAGERSTOWN", "state": "MD", "street": "1000 BRINKER DR", "postcode": "21740"}}},
{"geometry": {"type": "Point", "coordinates": [-77.7122406533, 39.6453477482]}, "type": "Feature", "properties": {"collection_times": [{"days": "Mon-Fri", "time": "1:00pm"}, {"days": "Sat", "time": "1:15pm"}, {"days": "Sun", "time": "Closed"}], "id": "2174000037", "name": "USPS COLLECTION BOX - BLUE BOX", "address": {"city": "HAGERSTOWN", "state": "MD", "street": "409 N MULBERRY ST", "postcode": "21740"}}},
{"geometry": {"type": "Point", "coordinates": [-77.7605636563, 39.6318947469]}, "type": "Feature", "properties": {"collection_times": [{"days": "Mon-Fri", "time": "1:15pm"}, {"days": "Sat", "time": "1:45pm"}, {"days": "Sun", "time": "Closed"}], "id": "2174000042", "name": "USPS COLLECTION BOX - BLUE BOX", "address": {"city": "HAGERSTOWN", "state": "MD", "street": "1580 WESEL BLVD", "postcode": "21740"}}},
{"geometry": {"type": "Point", "coordinates": [-77.7145854862, 39.6376501376]}, "type": "Feature", "properties": {"collection_times": [{"days": "Mon-Sat", "time": "12:15pm"}, {"days": "Sun", "time": "Closed"}], "id": "2174000043", "name": "USPS COLLECTION BOX - BLUE BOX", "address": {"city": "HAGERSTOWN", "state": "MD", "street": "319 E ANTIETAM ST", "postcode": "21740"}}},
{"geometry": {"type": "Point", "coordinates": [-77.7318765259, 39.6244296667]}, "type": "Feature", "properties": {"collection_times": [{"days": "Mon-Fri", "time": "4:15pm"}, {"days": "Sat", "time": "1:00pm"}, {"days": "Sun", "time": "Closed"}], "id": "2174000045", "name": "USPS COLLECTION BOX - BLUE BOX", "address": {"city": "HAGERSTOWN", "state": "MD", "street": "1045 MARYLAND AVE", "postcode": "21740"}}},
{"geometry": {"type": "Point", "coordinates": [-77.7154298458, 39.6480541127]}, "type": "Feature", "properties": {"collection_times": [{"days": "Mon-Fri", "time": "1:15pm"}, {"days": "Sat", "time": "1:45pm"}, {"days": "Sun", "time": "Closed"}], "id": "2174000046", "name": "USPS COLLECTION BOX - BLUE BOX", "address": {"city": "HAGERSTOWN", "state": "MD", "street": "480 N POTOMAC ST", "postcode": "21740"}}},
{"geometry": {"type": "Point", "coordinates": [-77.7204348585, 39.6418391415]}, "type": "Feature", "properties": {"collection_times": [{"days": "Mon-Fri", "time": "4:00pm"}, {"days": "Sat", "time": "12:30pm"}, {"days": "Sun", "time": "Closed"}], "id": "2174000047", "name": "USPS COLLECTION BOX - BLUE BOX", "address": {"city": "HAGERSTOWN", "state": "MD", "street": "5 PUBLIC SQ", "postcode": "21740"}}},
{"geometry": {"type": "Point", "coordinates": [-77.7215331768, 39.6425582013]}, "type": "Feature", "properties": {"collection_times": [{"days": "Mon-Fri", "time": "4:00pm"}, {"days": "Sat", "time": "12:15pm"}, {"days": "Sun", "time": "Closed"}], "id": "2174000056", "name": "USPS COLLECTION BOX - BLUE BOX", "address": {"city": "HAGERSTOWN", "state": "MD", "street": "47 W WASHINGTON ST", "postcode": "21740"}}},
{"geometry": {"type": "Point", "coordinates": [-77.722888084, 39.643275779]}, "type": "Feature", "properties": {"collection_times": [{"days": "Mon-Fri", "time": "4:00pm"}, {"days": "Sat", "time": "12:00pm"}, {"days": "Sun", "time": "Closed"}], "id": "2174000057", "name": "USPS COLLECTION BOX - BLUE BOX", "address": {"city": "HAGERSTOWN", "state": "MD", "street": "100 W WASHINGTON ST", "postcode": "21740"}}},
{"geometry": {"type": "Point", "coordinates": [-77.7291995573, 39.6521571644]}, "type": "Feature", "properties": {"collection_times": [{"days": "Mon-Sat", "time": "12:00pm"}, {"days": "Sun", "time": "Closed"}], "id": "2174000059", "name": "USPS COLLECTION BOX - BLUE BOX", "address": {"city": "HAGERSTOWN", "state": "MD", "street": "802 SALEM AVE", "postcode": "21740"}}},
{"geometry": {"type": "Point", "coordinates": [-77.7253410393, 39.6471375982]}, "type": "Feature", "properties": {"collection_times": [{"days": "Mon-Sat", "time": "12:00pm"}, {"days": "Sun", "time": "Closed"}], "id": "2174000060", "name": "USPS COLLECTION BOX - BLUE BOX", "address": {"city": "HAGERSTOWN", "state": "MD", "street": "152 N BURHANS BLVD", "postcode": "21740"}}},
{"geometry": {"type": "Point", "coordinates": [-77.7224162128, 39.6434021727]}, "type": "Feature", "properties": {"collection_times": [{"days": "Mon-Fri", "time": "1:30pm"}, {"days": "Sat", "time": "2:00pm"}, {"days": "Sun", "time": "Closed"}], "id": "2174000062", "name": "USPS COLLECTION BOX - BLUE BOX", "address": {"city": "HAGERSTOWN", "state": "MD", "street": "20 JONATHAN ST", "postcode": "21740"}}},
{"geometry": {"type": "Point", "coordinates": [-77.7819106879, 39.6321615974]}, "type": "Feature", "properties": {"collection_times": [{"days": "Mon-Fri", "time": "1:15pm"}, {"days": "Sat", "time": "1:45pm"}, {"days": "Sun", "time": "Closed"}], "id": "2174000066", "name": "USPS COLLECTION BOX - BLUE BOX", "address": {"city": "HAGERSTOWN", "state": "MD", "street": "11564 HOPEWELL RD", "postcode": "21740"}}},
{"geometry": {"type": "Point", "coordinates": [-77.7141772142, 39.6214178749]}, "type": "Feature", "properties": {"collection_times": [{"days": "Mon-Fri", "time": "12:30pm"}, {"days": "Sat", "time": "12:45pm"}, {"days": "Sun", "time": "Closed"}], "id": "2174000068", "name": "USPS COLLECTION BOX - BLUE BOX", "address": {"city": "HAGERSTOWN", "state": "MD", "street": "761 E WILSON BLVD", "postcode": "21740"}}},
{"geometry": {"type": "Point", "coordinates": [-77.7289698934, 39.6288400273]}, "type": "Feature", "properties": {"collection_times": [{"days": "Mon-Fri", "time": "12:30pm"}, {"days": "Sat", "time": "1:00pm"}, {"days": "Sun", "time": "Closed"}], "id": "2174000075", "name": "USPS COLLECTION BOX - BLUE BOX", "address": {"city": "HAGERSTOWN", "state": "MD", "street": "230 W HOWARD ST", "postcode": "21740"}}},
{"geometry": {"type": "Point", "coordinates": [-77.7685838632, 39.6171727409]}, "type": "Feature", "properties": {"collection_times": [{"days": "Mon-Fri", "time": "1:15pm"}, {"days": "Sat", "time": "1:30pm"}, {"days": "Sun", "time": "Closed"}], "id": "2174000080", "name": "USPS COLLECTION BOX - BLUE BOX", "address": {"city": "HAGERSTOWN", "state": "MD", "street": "17345 VIRGINIA AVE", "postcode": "21740"}}},
{"geometry": {"type": "Point", "coordinates": [-77.7305634053, 39.6532244549]}, "type": "Feature", "properties": {"collection_times": [{"days": "Mon-Sat", "time": "12:00pm"}, {"days": "Sun", "time": "Closed"}], "id": "2174000083", "name": "USPS COLLECTION BOX - BLUE BOX", "address": {"city": "HAGERSTOWN", "state": "MD", "street": "933 SALEM AVE", "postcode": "21740"}}},
{"geometry": {"type": "Point", "coordinates": [-77.7227015959, 39.6351696849]}, "type": "Feature", "properties": {"collection_times": [{"days": "Mon-Fri", "time": "12:00pm"}, {"days": "Sat", "time": "12:45pm"}, {"days": "Sun", "time": "Closed"}], "id": "2174000085", "name": "USPS COLLECTION BOX - BLUE BOX", "address": {"city": "HAGERSTOWN", "state": "MD", "street": "360 S POTOMAC ST", "postcode": "21740"}}},
{"geometry": {"type": "Point", "coordinates": [-77.7729721157, 39.6216823134]}, "type": "Feature", "properties": {"collection_times": [{"days": "Mon-Fri", "time": "1:30pm"}, {"days": "Sat", "time": "1:45pm"}, {"days": "Sun", "time": "Closed"}], "id": "2174000087", "name": "USPS COLLECTION BOX - BLUE BOX", "address": {"city": "HAGERSTOWN", "state": "MD", "street": "17301 VALLEY MALL RD", "postcode": "21740"}}},
{"geometry": {"type": "Point", "coordinates": [-77.7277847302, 39.6366400557]}, "type": "Feature", "properties": {"collection_times": [{"days": "Mon-Fri", "time": "12:30pm"}, {"days": "Sat", "time": "12:45pm"}, {"days": "Sun", "time": "Closed"}], "id": "2174000092", "name": "USPS COLLECTION BOX - BLUE BOX", "address": {"city": "HAGERSTOWN", "state": "MD", "street": "401 SUMMIT AVE", "postcode": "21740"}}},
{"geometry": {"type": "Point", "coordinates": [-77.722203677, 39.6396684969]}, "type": "Feature", "properties": {"collection_times": [{"days": "Mon-Fri", "time": "12:00pm"}, {"days": "Sat", "time": "12:30pm"}, {"days": "Sun", "time": "Closed"}], "id": "2174000095", "name": "USPS COLLECTION BOX - BLUE BOX", "address": {"city": "HAGERSTOWN", "state": "MD", "street": "167 S POTOMAC ST", "postcode": "21740"}}},
{"geometry": {"type": "Point", "coordinates": [-77.7608068102, 39.6197405231]}, "type": "Feature", "properties": {"collection_times": [{"days": "Mon-Fri", "time": "3:30pm"}, {"days": "Sat", "time": "12:30pm"}, {"days": "Sun", "time": "Closed"}], "id": "2174000097", "name": "USPS COLLECTION BOX - BLUE BOX", "address": {"city": "HAGERSTOWN", "state": "MD", "street": "17621 VIRGINIA AVE", "postcode": "21740"}}},
{"geometry": {"type": "Point", "coordinates": [-77.722888084, 39.643275779]}, "type": "Feature", "properties": {"collection_times": [{"days": "Mon-Fri", "time": "4:00pm"}, {"days": "Sat", "time": "12:00pm"}, {"days": "Sun", "time": "Closed"}], "id": "2174000112", "name": "USPS COLLECTION BOX - BLUE BOX", "address": {"city": "HAGERSTOWN", "state": "MD", "street": "100 W WASHINGTON ST", "postcode": "21740"}}},
{"geometry": {"type": "Point", "coordinates": [-77.7205978376, 39.6440163473]}, "type": "Feature", "properties": {"collection_times": [{"days": "Mon-Fri", "time": "5:00pm"}, {"days": "Sat", "time": "2:00pm"}, {"days": "Sun", "time": "Closed"}], "id": "2174000117", "name": "USPS COLLECTION BOX - EXPRESS", "address": {"city": "HAGERSTOWN", "state": "MD", "street": "44 W FRANKLIN ST", "postcode": "21740"}}},
{"geometry": {"type": "Point", "coordinates": [-77.6957957622, 39.6374948133]}, "type": "Feature", "properties": {"collection_times": [{"days": "Mon-Fri", "time": "12:45pm"}, {"days": "Sat", "time": "1:15pm"}, {"days": "Sun", "time": "Closed"}], "id": "2174000120", "name": "USPS COLLECTION BOX - BLUE BOX", "address": {"city": "HAGERSTOWN", "state": "MD", "street": "1102 PROFESSIONAL CT", "postcode": "21740"}}},
{"geometry": {"type": "Point", "coordinates": [-77.7188418918, 39.6439785131]}, "type": "Feature", "properties": {"collection_times": [{"days": "Mon-Fri", "time": "1:15pm"}, {"days": "Sat", "time": "2:00pm"}, {"days": "Sun", "time": "Closed"}], "id": "2174000123", "name": "USPS COLLECTION BOX - BLUE BOX", "address": {"city": "HAGERSTOWN", "state": "MD", "street": "149 N POTOMAC ST", "postcode": "21740"}}},
{"geometry": {"type": "Point", "coordinates": [-77.7380935096, 39.6326962955]}, "type": "Feature", "properties": {"collection_times": [{"days": "Mon-Fri", "time": "12:45pm"}, {"days": "Sat", "time": "1:15pm"}, {"days": "Sun", "time": "Closed"}], "id": "2174000127", "name": "USPS COLLECTION BOX - BLUE BOX", "address": {"city": "HAGERSTOWN", "state": "MD", "street": "495 PREMIUM OUTLETS BLVD", "postcode": "21740"}}},
{"geometry": {"type": "Point", "coordinates": [-77.7204348585, 39.6418391415]}, "type": "Feature", "properties": {"collection_times": [{"days": "Mon-Fri", "time": "4:00pm"}, {"days": "Sat", "time": "12:30pm"}, {"days": "Sun", "time": "Closed"}], "id": "2174000130", "name": "USPS COLLECTION BOX - BLUE BOX", "address": {"city": "HAGERSTOWN", "state": "MD", "street": "5 PUBLIC SQ", "postcode": "21740"}}},
{"geometry": {"type": "Point", "coordinates": [-77.7207749797, 39.6441135422]}, "type": "Feature", "properties": {"collection_times": [{"days": "Mon-Fri", "time": "5:00pm"}, {"days": "Sat", "time": "1:00pm"}, {"days": "Sun", "time": "Closed"}], "id": "2174000132", "name": "USPS COLLECTION BOX - PO LOBBY", "address": {"city": "HAGERSTOWN", "state": "MD", "street": "44 W FRANKLIN ST", "postcode": "21740"}}},
{"geometry": {"type": "Point", "coordinates": [-77.7207749797, 39.6441135422]}, "type": "Feature", "properties": {"collection_times": [{"days": "Mon-Fri", "time": "5:00pm"}, {"days": "Sat", "time": "1:00pm"}, {"days": "Sun", "time": "Closed"}], "id": "2174000133", "name": "USPS COLLECTION BOX - PO LOBBY", "address": {"city": "HAGERSTOWN", "state": "MD", "street": "44 W FRANKLIN ST", "postcode": "21740"}}},
{"geometry": {"type": "Point", "coordinates": [-77.7186517674, 39.6429800906]}, "type": "Feature", "properties": {"collection_times": [{"days": "Mon-Fri", "time": "4:45pm"}, {"days": "Sat", "time": "2:00pm"}, {"days": "Sun", "time": "Closed"}], "id": "2174000138", "name": "USPS COLLECTION BOX - BLUE BOX", "address": {"city": "HAGERSTOWN", "state": "MD", "street": "17 E FRANKLIN ST", "postcode": "21740"}}},
{"geometry": {"type": "Point", "coordinates": [-77.7251527241, 39.6447943756]}, "type": "Feature", "properties": {"collection_times": [{"days": "Mon-Sat", "time": "12:00pm"}, {"days": "Sun", "time": "Closed"}], "id": "2174000139", "name": "USPS COLLECTION BOX - BLUE BOX", "address": {"city": "HAGERSTOWN", "state": "MD", "street": "25 N WALNUT ST", "postcode": "21740"}}},
{"geometry": {"type": "Point", "coordinates": [-77.7226432531, 39.639061227]}, "type": "Feature", "properties": {"collection_times": [{"days": "Mon-Sat", "time": "12:00pm"}, {"days": "Sun", "time": "Closed"}], "id": "2174000154", "name": "USPS COLLECTION BOX - BLUE BOX", "address": {"city": "HAGERSTOWN", "state": "MD", "street": "11 W BALTIMORE ST", "postcode": "21740"}}},
{"geometry": {"type": "Point", "coordinates": [-77.7332151214, 39.6637716595]}, "type": "Feature", "properties": {"collection_times": [{"days": "Mon-Sat", "time": "12:00pm"}, {"days": "Sun", "time": "Closed"}], "id": "2174000155", "name": "USPS COLLECTION BOX - BLUE BOX", "address": {"city": "HAGERSTOWN", "state": "MD", "street": "1380 MARSHALL ST", "postcode": "21740"}}},
{"geometry": {"type": "Point", "coordinates": [-77.7141988198, 39.6428526008]}, "type": "Feature", "properties": {"collection_times": [{"days": "Mon-Fri", "time": "1:00pm"}, {"days": "Sat", "time": "1:15pm"}, {"days": "Sun", "time": "Closed"}], "id": "2174000163", "name": "USPS COLLECTION BOX - BLUE BOX", "address": {"city": "HAGERSTOWN", "state": "MD", "street": "205 N MULBERRY ST", "postcode": "21740"}}},
{"geometry": {"type": "Point", "coordinates": [-77.7018152841, 39.6610009659]}, "type": "Feature", "properties": {"collection_times": [{"days": "Mon-Sat", "time": "12:30pm"}, {"days": "Sun", "time": "Closed"}], "id": "2174200002", "name": "USPS COLLECTION BOX - BLUE BOX", "address": {"city": "HAGERSTOWN", "state": "MD", "street": "1519 POTOMAC AVE", "postcode": "21742"}}},
{"geometry": {"type": "Point", "coordinates": [-77.7182182861, 39.6568012608]}, "type": "Feature", "properties": {"collection_times": [{"days": "Mon-Sat", "time": "1:00pm"}, {"days": "Sun", "time": "Closed"}], "id": "2174200004", "name": "USPS COLLECTION BOX - BLUE BOX", "address": {"city": "HAGERSTOWN", "state": "MD", "street": "925 PENNSYLVANIA AVE", "postcode": "21742"}}},
{"geometry": {"type": "Point", "coordinates": [-77.7243825224, 39.6643643567]}, "type": "Feature", "properties": {"collection_times": [{"days": "Mon-Sat", "time": "9:00am"}, {"days": "Sun", "time": "Closed"}], "id": "2174200005", "name": "USPS COLLECTION BOX - BLUE BOX", "address": {"city": "HAGERSTOWN", "state": "MD", "street": "1240 GLENWOOD AVE", "postcode": "21742"}}},
{"geometry": {"type": "Point", "coordinates": [-77.7291599907, 39.668307293]}, "type": "Feature", "properties": {"collection_times": [{"days": "Mon-Sat", "time": "9:00am"}, {"days": "Sun", "time": "Closed"}], "id": "2174200010", "name": "USPS COLLECTION BOX - BLUE BOX", "address": {"city": "HAGERSTOWN", "state": "MD", "street": "1410 KENSINGTON DR", "postcode": "21742"}}},
{"geometry": {"type": "Point", "coordinates": [-77.7206427794, 39.6748247629]}, "type": "Feature", "properties": {"collection_times": [{"days": "Mon-Sat", "time": "9:00am"}, {"days": "Sun", "time": "Closed"}], "id": "2174200011", "name": "USPS COLLECTION BOX - BLUE BOX", "address": {"city": "HAGERSTOWN", "state": "MD", "street": "13206 FOUNTAIN HEAD PLZ", "postcode": "21742"}}},
{"geometry": {"type": "Point", "coordinates": [-77.7088848671, 39.6563259185]}, "type": "Feature", "properties": {"collection_times": [{"days": "Mon-Sat", "time": "12:45pm"}, {"days": "Sun", "time": "Closed"}], "id": "2174200012", "name": "USPS COLLECTION BOX - BLUE BOX", "address": {"city": "HAGERSTOWN", "state": "MD", "street": "1101 OAK HILL AVE", "postcode": "21742"}}},
{"geometry": {"type": "Point", "coordinates": [-77.7190810749, 39.6674812871]}, "type": "Feature", "properties": {"collection_times": [{"days": "Mon-Sat", "time": "12:00pm"}, {"days": "Sun", "time": "Closed"}], "id": "2174200015", "name": "USPS COLLECTION BOX - BLUE BOX", "address": {"city": "HAGERSTOWN", "state": "MD", "street": "1500 PENNSYLVANIA AVE", "postcode": "21742"}}},
{"geometry": {"type": "Point", "coordinates": [-77.6690805378, 39.6258859337]}, "type": "Feature", "properties": {"collection_times": [{"days": "Mon-Sat", "time": "1:00pm"}, {"days": "Sun", "time": "Closed"}], "id": "2174200016", "name": "USPS COLLECTION BOX - BLUE BOX", "address": {"city": "HAGERSTOWN", "state": "MD", "street": "11365 ROBINWOOD DR", "postcode": "21742"}}},
{"geometry": {"type": "Point", "coordinates": [-77.680441625, 39.6220207484]}, "type": "Feature", "properties": {"collection_times": [{"days": "Mon-Sat", "time": "1:00pm"}, {"days": "Sun", "time": "Closed"}], "id": "2174200017", "name": "USPS COLLECTION BOX - BLUE BOX", "address": {"city": "HAGERSTOWN", "state": "MD", "street": "11110 MEDICAL CAMPUS RD", "postcode": "21742"}}},
{"geometry": {"type": "Point", "coordinates": [-77.680441625, 39.6220207484]}, "type": "Feature", "properties": {"collection_times": [{"days": "Mon-Sat", "time": "1:00pm"}, {"days": "Sun", "time": "Closed"}], "id": "2174200018", "name": "USPS COLLECTION BOX - BLUE BOX", "address": {"city": "HAGERSTOWN", "state": "MD", "street": "11110 MEDICAL CAMPUS RD", "postcode": "21742"}}},
{"geometry": {"type": "Point", "coordinates": [-77.6986784974, 39.6667284167]}, "type": "Feature", "properties": {"collection_times": [{"days": "Mon-Fri", "time": "5:00pm"}, {"days": "Sat", "time": "12:15pm"}, {"days": "Sun", "time": "Closed"}], "id": "2174200019", "name": "USPS COLLECTION BOX - BLUE BOX", "address": {"city": "HAGERSTOWN", "state": "MD", "street": "12912 CONAMAR DR", "postcode": "21742"}}},
{"geometry": {"type": "Point", "coordinates": [-77.6986784974, 39.6667284167]}, "type": "Feature", "properties": {"collection_times": [{"days": "Mon-Fri", "time": "5:00pm"}, {"days": "Sat", "time": "12:15pm"}, {"days": "Sun", "time": "Closed"}], "id": "2174200020", "name": "USPS COLLECTION BOX - BLUE BOX", "address": {"city": "HAGERSTOWN", "state": "MD", "street": "12912 CONAMAR DR", "postcode": "21742"}}},
{"geometry": {"type": "Point", "coordinates": [-77.6986784974, 39.6667284167]}, "type": "Feature", "properties": {"collection_times": [{"days": "Mon-Fri", "time": "5:00pm"}, {"days": "Sat", "time": "12:15pm"}, {"days": "Sun", "time": "Closed"}], "id": "2174200021", "name": "USPS COLLECTION BOX - PO LOBBY", "address": {"city": "HAGERSTOWN", "state": "MD", "street": "12912 CONAMAR DR", "postcode": "21742"}}},
{"geometry": {"type": "Point", "coordinates": [-77.6986784974, 39.6667284167]}, "type": "Feature", "properties": {"collection_times": [{"days": "Mon-Fri", "time": "5:00pm"}, {"days": "Sat", "time": "12:15pm"}, {"days": "Sun", "time": "Closed"}], "id": "2174200022", "name": "USPS COLLECTION BOX - PO LOBBY", "address": {"city": "HAGERSTOWN", "state": "MD", "street": "12912 CONAMAR DR", "postcode": "21742"}}},
{"geometry": {"type": "Point", "coordinates": [-78.1814334028, 39.7012924658]}, "type": "Feature", "properties": {"collection_times": [{"days": "Mon-Sat", "time": "10:30am"}, {"days": "Sun", "time": "Closed"}], "id": "2175000001", "name": "USPS COLLECTION BOX - BLUE BOX", "address": {"city": "HANCOCK", "state": "MD", "street": "102 N PENNSYLVANIA AVE", "postcode": "21750"}}},
{"geometry": {"type": "Point", "coordinates": [-78.1558543774, 39.695558834]}, "type": "Feature", "properties": {"collection_times": [{"days": "Mon-Sat", "time": "10:30am"}, {"days": "Sun", "time": "Closed"}], "id": "2175000005", "name": "USPS COLLECTION BOX - BLUE BOX", "address": {"city": "HANCOCK", "state": "MD", "street": "434 E MAIN ST", "postcode": "21750"}}},
{"geometry": {"type": "Point", "coordinates": [-78.1795410639, 39.7070419794]}, "type": "Feature", "properties": {"collection_times": [{"days": "Mon-Fri", "time": "4:15pm"}, {"days": "Sat", "time": "1:30pm"}, {"days": "Sun", "time": "Closed"}], "id": "2175000008", "name": "USPS COLLECTION BOX - BLUE BOX", "address": {"city": "HANCOCK", "state": "MD", "street": "210 N PENNSYLVANIA AVE", "postcode": "21750"}}},
{"geometry": {"type": "Point", "coordinates": [-78.1753590715, 39.713623985]}, "type": "Feature", "properties": {"collection_times": [{"days": "Mon-Sat", "time": "1:15pm"}, {"days": "Sun", "time": "Closed"}], "id": "2175000011", "name": "USPS COLLECTION BOX - BLUE BOX", "address": {"city": "HANCOCK", "state": "MD", "street": "345 N PENNSYLVANIA AVE", "postcode": "21750"}}},
{"geometry": {"type": "Point", "coordinates": [-78.1795410639, 39.7070419794]}, "type": "Feature", "properties": {"collection_times": [{"days": "Mon-Fri", "time": "4:15pm"}, {"days": "Sat", "time": "1:30pm"}, {"days": "Sun", "time": "Closed"}], "id": "2175000012", "name": "USPS COLLECTION BOX - PO LOBBY", "address": {"city": "HANCOCK", "state": "MD", "street": "210 N PENNSYLVANIA AVE", "postcode": "21750"}}},
{"geometry": {"type": "Point", "coordinates": [-78.1795410639, 39.7070419794]}, "type": "Feature", "properties": {"collection_times": [{"days": "Mon-Fri", "time": "4:15pm"}, {"days": "Sat", "time": "1:30pm"}, {"days": "Sun", "time": "Closed"}], "id": "2175000013", "name": "USPS COLLECTION BOX - PO LOBBY", "address": {"city": "HANCOCK", "state": "MD", "street": "210 N PENNSYLVANIA AVE", "postcode": "21750"}}},
{"geometry": {"type": "Point", "coordinates": [-77.5400647377, 39.3610619635]}, "type": "Feature", "properties": {"collection_times": [{"days": "Mon-Fri", "time": "4:45pm"}, {"days": "Sat", "time": "11:45am"}, {"days": "Sun", "time": "Closed"}], "id": "2175500000", "name": "USPS COLLECTION BOX - BLUE BOX", "address": {"city": "JEFFERSON", "state": "MD", "street": "3702 JEFFERSON PIKE", "postcode": "21755"}}},
{"geometry": {"type": "Point", "coordinates": [-77.5400647377, 39.3610619635]}, "type": "Feature", "properties": {"collection_times": [{"days": "Mon-Fri", "time": "4:45pm"}, {"days": "Sat", "time": "11:45am"}, {"days": "Sun", "time": "Closed"}], "id": "2175500002", "name": "USPS COLLECTION BOX - PO LOBBY", "address": {"city": "JEFFERSON", "state": "MD", "street": "3702 JEFFERSON PIKE", "postcode": "21755"}}},
{"geometry": {"type": "Point", "coordinates": [-77.5400647377, 39.3610619635]}, "type": "Feature", "properties": {"collection_times": [{"days": "Mon-Fri", "time": "4:45pm"}, {"days": "Sat", "time": "11:45am"}, {"days": "Sun", "time": "Closed"}], "id": "2175500003", "name": "USPS COLLECTION BOX - PO LOBBY", "address": {"city": "JEFFERSON", "state": "MD", "street": "3702 JEFFERSON PIKE", "postcode": "21755"}}},
{"geometry": {"type": "Point", "coordinates": [-77.7005505475, 39.486214375]}, "type": "Feature", "properties": {"collection_times": [{"days": "Mon-Fri", "time": "4:30pm"}, {"days": "Sat", "time": "12:00pm"}, {"days": "Sun", "time": "Closed"}], "id": "2175600000", "name": "USPS COLLECTION BOX - BLUE BOX", "address": {"city": "KEEDYSVILLE", "state": "MD", "street": "21 S MAIN ST", "postcode": "21756"}}},
{"geometry": {"type": "Point", "coordinates": [-77.7005505475, 39.486214375]}, "type": "Feature", "properties": {"collection_times": [{"days": "Mon-Fri", "time": "4:30pm"}, {"days": "Sat", "time": "12:00pm"}, {"days": "Sun", "time": "Closed"}], "id": "2175600001", "name": "USPS COLLECTION BOX - PO LOBBY", "address": {"city": "KEEDYSVILLE", "state": "MD", "street": "21 S MAIN ST", "postcode": "21756"}}},
{"geometry": {"type": "Point", "coordinates": [-77.2400655895, 39.6034544464]}, "type": "Feature", "properties": {"collection_times": [{"days": "Mon-Fri", "time": "4:15pm"}, {"days": "Sat", "time": "11:30am"}, {"days": "Sun", "time": "Closed"}], "id": "2175700000", "name": "USPS COLLECTION BOX - BLUE BOX", "address": {"city": "KEYMAR", "state": "MD", "street": "6747 MIDDLEBURG RD", "postcode": "21757"}}},
{"geometry": {"type": "Point", "coordinates": [-77.2400655895, 39.6034544464]}, "type": "Feature", "properties": {"collection_times": [{"days": "Mon-Fri", "time": "4:15pm"}, {"days": "Sat", "time": "11:30am"}, {"days": "Sun", "time": "Closed"}], "id": "2175700001", "name": "USPS COLLECTION BOX - PO LOBBY", "address": {"city": "KEYMAR", "state": "MD", "street": "6747 MIDDLEBURG RD", "postcode": "21757"}}},
{"geometry": {"type": "Point", "coordinates": [-77.2400655895, 39.6034544464]}, "type": "Feature", "properties": {"collection_times": [{"days": "Mon-Fri", "time": "4:15pm"}, {"days": "Sat", "time": "11:30am"}, {"days": "Sun", "time": "Closed"}], "id": "2175700002", "name": "USPS COLLECTION BOX - PO LOBBY", "address": {"city": "KEYMAR", "state": "MD", "street": "6747 MIDDLEBURG RD", "postcode": "21757"}}},
{"geometry": {"type": "Point", "coordinates": [-77.2684431825, 39.6039277667]}, "type": "Feature", "properties": {"collection_times": [{"days": "Mon-Sat", "time": "10:00am"}, {"days": "Sun", "time": "Closed"}], "id": "2175700004", "name": "USPS COLLECTION BOX - BLUE BOX", "address": {"city": "KEYMAR", "state": "MD", "street": "7566 MIDDLEBURG RD", "postcode": "21757"}}},
{"geometry": {"type": "Point", "coordinates": [-77.658519139, 39.3413606474]}, "type": "Feature", "properties": {"collection_times": [{"days": "Mon-Sat", "time": "12:00pm"}, {"days": "Sun", "time": "Closed"}], "id": "2175800001", "name": "USPS COLLECTION BOX - BLUE BOX", "address": {"city": "KNOXVILLE", "state": "MD", "street": "1324 WEVERTON RD", "postcode": "21758"}}},
{"geometry": {"type": "Point", "coordinates": [-77.2438322403, 39.4848536694]}, "type": "Feature", "properties": {"collection_times": [{"days": "Mon-Fri", "time": "4:30pm"}, {"days": "Sat", "time": "11:30am"}, {"days": "Sun", "time": "Closed"}], "id": "2176200000", "name": "USPS COLLECTION BOX - BLUE BOX", "address": {"city": "LIBERTYTOWN", "state": "MD", "street": "11941 MAIN ST", "postcode": "21762"}}},
{"geometry": {"type": "Point", "coordinates": [-77.2438322403, 39.4848536694]}, "type": "Feature", "properties": {"collection_times": [{"days": "Mon-Fri", "time": "4:30pm"}, {"days": "Sat", "time": "11:30am"}, {"days": "Sun", "time": "Closed"}], "id": "2176200001", "name": "USPS COLLECTION BOX - PO LOBBY", "address": {"city": "LIBERTYTOWN", "state": "MD", "street": "11941 MAIN ST", "postcode": "21762"}}},
{"geometry": {"type": "Point", "coordinates": [-77.2438322403, 39.4848536694]}, "type": "Feature", "properties": {"collection_times": [{"days": "Mon-Fri", "time": "4:30pm"}, {"days": "Sat", "time": "11:30am"}, {"days": "Sun", "time": "Closed"}], "id": "2176200002", "name": "USPS COLLECTION BOX - PO LOBBY", "address": {"city": "LIBERTYTOWN", "state": "MD", "street": "11941 MAIN ST", "postcode": "21762"}}},
{"geometry": {"type": "Point", "coordinates": [-77.0688511378, 39.3363408843]}, "type": "Feature", "properties": {"collection_times": [{"days": "Mon-Fri", "time": "4:45pm"}, {"days": "Sat", "time": "12:00pm"}, {"days": "Sun", "time": "Closed"}], "id": "2176500000", "name": "USPS COLLECTION BOX - BLUE BOX", "address": {"city": "LISBON", "state": "MD", "street": "1280 HOPKINS ALY", "postcode": "21765"}}},
{"geometry": {"type": "Point", "coordinates": [-77.0688511378, 39.3363408843]}, "type": "Feature", "properties": {"collection_times": [{"days": "Mon-Fri", "time": "4:45pm"}, {"days": "Sat", "time": "12:00pm"}, {"days": "Sun", "time": "Closed"}], "id": "2176500002", "name": "USPS COLLECTION BOX - PO LOBBY", "address": {"city": "LISBON", "state": "MD", "street": "1280 HOPKINS ALY", "postcode": "21765"}}},
{"geometry": {"type": "Point", "coordinates": [-78.3706989498, 39.6496053667]}, "type": "Feature", "properties": {"collection_times": [{"days": "Mon-Fri", "time": "3:30pm"}, {"days": "Sat-Sun", "time": "Closed"}], "id": "2176600002", "name": "USPS COLLECTION BOX - BLUE BOX", "address": {"city": "LITTLE ORLEANS", "state": "MD", "street": "32319 ROBY SCHOOL RD SE", "postcode": "21766"}}},
{"geometry": {"type": "Point", "coordinates": [-78.328578476, 39.704966835]}, "type": "Feature", "properties": {"collection_times": [{"days": "Mon-Sat", "time": "11:45am"}, {"days": "Sun", "time": "Closed"}], "id": "2176600004", "name": "USPS COLLECTION BOX - BLUE BOX", "address": {"city": "LITTLE ORLEANS", "state": "MD", "street": "35206 NATIONAL PIKE NE", "postcode": "21766"}}},
{"geometry": {"type": "Point", "coordinates": [-77.7447630178, 39.6932982426]}, "type": "Feature", "properties": {"collection_times": [{"days": "Mon-Fri", "time": "4:15pm"}, {"days": "Sat", "time": "11:45am"}, {"days": "Sun", "time": "Closed"}], "id": "2176700000", "name": "USPS COLLECTION BOX - BLUE BOX", "address": {"city": "MAUGANSVILLE", "state": "MD", "street": "13809 MAUGANSVILLE RD", "postcode": "21767"}}},
{"geometry": {"type": "Point", "coordinates": [-77.7447630178, 39.6932982426]}, "type": "Feature", "properties": {"collection_times": [{"days": "Mon-Fri", "time": "4:15pm"}, {"days": "Sat", "time": "11:45am"}, {"days": "Sun", "time": "Closed"}], "id": "2176700001", "name": "USPS COLLECTION BOX - PO LOBBY", "address": {"city": "MAUGANSVILLE", "state": "MD", "street": "13809 MAUGANSVILLE RD", "postcode": "21767"}}},
{"geometry": {"type": "Point", "coordinates": [-77.7447630178, 39.6932982426]}, "type": "Feature", "properties": {"collection_times": [{"days": "Mon-Fri", "time": "4:15pm"}, {"days": "Sat", "time": "11:45am"}, {"days": "Sun", "time": "Closed"}], "id": "2176700002", "name": "USPS COLLECTION BOX - PO LOBBY", "address": {"city": "MAUGANSVILLE", "state": "MD", "street": "13809 MAUGANSVILLE RD", "postcode": "21767"}}},
{"geometry": {"type": "Point", "coordinates": [-77.5666317535, 39.4487941458]}, "type": "Feature", "properties": {"collection_times": [{"days": "Mon-Fri", "time": "5:00pm"}, {"days": "Sat", "time": "12:00pm"}, {"days": "Sun", "time": "Closed"}], "id": "2176900000", "name": "USPS COLLECTION BOX - BLUE BOX", "address": {"city": "MIDDLETOWN", "state": "MD", "street": "7227 HOLLOW RD", "postcode": "21769"}}},
{"geometry": {"type": "Point", "coordinates": [-77.5463702684, 39.4438754031]}, "type": "Feature", "properties": {"collection_times": [{"days": "Mon-Sat", "time": "12:00pm"}, {"days": "Sun", "time": "Closed"}], "id": "2176900002", "name": "USPS COLLECTION BOX - BLUE BOX", "address": {"city": "MIDDLETOWN", "state": "MD", "street": "24 W MAIN ST", "postcode": "21769"}}},
{"geometry": {"type": "Point", "coordinates": [-77.5666317535, 39.4487941458]}, "type": "Feature", "properties": {"collection_times": [{"days": "Mon-Fri", "time": "5:00pm"}, {"days": "Sat", "time": "12:00pm"}, {"days": "Sun", "time": "Closed"}], "id": "2176900003", "name": "USPS COLLECTION BOX - BLUE BOX", "address": {"city": "MIDDLETOWN", "state": "MD", "street": "7227 HOLLOW RD", "postcode": "21769"}}},
{"geometry": {"type": "Point", "coordinates": [-77.5666317535, 39.4487941458]}, "type": "Feature", "properties": {"collection_times": [{"days": "Mon-Fri", "time": "5:00pm"}, {"days": "Sat", "time": "12:00pm"}, {"days": "Sun", "time": "Closed"}], "id": "2176900004", "name": "USPS COLLECTION BOX - PO LOBBY", "address": {"city": "MIDDLETOWN", "state": "MD", "street": "7227 HOLLOW RD", "postcode": "21769"}}},
{"geometry": {"type": "Point", "coordinates": [-77.5666317535, 39.4487941458]}, "type": "Feature", "properties": {"collection_times": [{"days": "Mon-Fri", "time": "5:00pm"}, {"days": "Sat", "time": "12:00pm"}, {"days": "Sun", "time": "Closed"}], "id": "2176900005", "name": "USPS COLLECTION BOX - PO LOBBY", "address": {"city": "MIDDLETOWN", "state": "MD", "street": "7227 HOLLOW RD", "postcode": "21769"}}},
{"geometry": {"type": "Point", "coordinates": [-77.2697279823, 39.3549077173]}, "type": "Feature", "properties": {"collection_times": [{"days": "Mon-Fri", "time": "4:30pm"}, {"days": "Sat", "time": "12:00pm"}, {"days": "Sun", "time": "Closed"}], "id": "2177000000", "name": "USPS COLLECTION BOX - BLUE BOX", "address": {"city": "MONROVIA", "state": "MD", "street": "4411 GREEN VALLEY RD", "postcode": "21770"}}},
{"geometry": {"type": "Point", "coordinates": [-77.2547990852, 39.3437239007]}, "type": "Feature", "properties": {"collection_times": [{"days": "Mon-Sat", "time": "11:00am"}, {"days": "Sun", "time": "Closed"}], "id": "2177000002", "name": "USPS COLLECTION BOX - BLUE BOX", "address": {"city": "MONROVIA", "state": "MD", "street": "11801 FINGERBOARD RD", "postcode": "21770"}}},
{"geometry": {"type": "Point", "coordinates": [-77.2697279823, 39.3549077173]}, "type": "Feature", "properties": {"collection_times": [{"days": "Mon-Fri", "time": "4:30pm"}, {"days": "Sat", "time": "12:00pm"}, {"days": "Sun", "time": "Closed"}], "id": "2177000003", "name": "USPS COLLECTION BOX - PO LOBBY", "address": {"city": "MONROVIA", "state": "MD", "street": "4411 GREEN VALLEY RD", "postcode": "21770"}}},
{"geometry": {"type": "Point", "coordinates": [-77.2697279823, 39.3549077173]}, "type": "Feature", "properties": {"collection_times": [{"days": "Mon-Fri", "time": "4:30pm"}, {"days": "Sat", "time": "12:00pm"}, {"days": "Sun", "time": "Closed"}], "id": "2177000004", "name": "USPS COLLECTION BOX - PO LOBBY", "address": {"city": "MONROVIA", "state": "MD", "street": "4411 GREEN VALLEY RD", "postcode": "21770"}}},
{"geometry": {"type": "Point", "coordinates": [-77.1548216103, 39.3764928257]}, "type": "Feature", "properties": {"collection_times": [{"days": "Mon-Fri", "time": "4:15pm"}, {"days": "Sat", "time": "2:15pm"}, {"days": "Sun", "time": "Closed"}], "id": "2177100000", "name": "USPS COLLECTION BOX - BLUE BOX", "address": {"city": "MOUNT AIRY", "state": "MD", "street": "110 S MAIN ST", "postcode": "21771"}}},
{"geometry": {"type": "Point", "coordinates": [-77.1487659307, 39.370136839]}, "type": "Feature", "properties": {"collection_times": [{"days": "Mon-Fri", "time": "5:00pm"}, {"days": "Sat", "time": "2:30pm"}, {"days": "Sun", "time": "Closed"}], "id": "2177100001", "name": "USPS COLLECTION BOX - BLUE BOX", "address": {"city": "MOUNT AIRY", "state": "MD", "street": "505 WINDY KNOLL DR", "postcode": "21771"}}},
{"geometry": {"type": "Point", "coordinates": [-77.1649077677, 39.3674601959]}, "type": "Feature", "properties": {"collection_times": [{"days": "Mon-Fri", "time": "4:15pm"}, {"days": "Sat", "time": "2:15pm"}, {"days": "Sun", "time": "Closed"}], "id": "2177100002", "name": "USPS COLLECTION BOX - BLUE BOX", "address": {"city": "MOUNT AIRY", "state": "MD", "street": "1312 S MAIN ST", "postcode": "21771"}}},
{"geometry": {"type": "Point", "coordinates": [-77.1478406464, 39.3683519471]}, "type": "Feature", "properties": {"collection_times": [{"days": "Mon-Fri", "time": "4:00pm"}, {"days": "Sat", "time": "2:00pm"}, {"days": "Sun", "time": "Closed"}], "id": "2177100003", "name": "USPS COLLECTION BOX - BLUE BOX", "address": {"city": "MOUNT AIRY", "state": "MD", "street": "1001 TWIN ARCH RD", "postcode": "21771"}}},
{"geometry": {"type": "Point", "coordinates": [-77.1587930236, 39.3628266382]}, "type": "Feature", "properties": {"collection_times": [{"days": "Mon-Fri", "time": "4:15pm"}, {"days": "Sat", "time": "2:15pm"}, {"days": "Sun", "time": "Closed"}], "id": "2177100004", "name": "USPS COLLECTION BOX - BLUE BOX", "address": {"city": "MOUNT AIRY", "state": "MD", "street": "421 E RIDGEVILLE BLVD", "postcode": "21771"}}},
{"geometry": {"type": "Point", "coordinates": [-77.1487659307, 39.370136839]}, "type": "Feature", "properties": {"collection_times": [{"days": "Mon-Fri", "time": "5:00pm"}, {"days": "Sat", "time": "2:30pm"}, {"days": "Sun", "time": "Closed"}], "id": "2177100005", "name": "USPS COLLECTION BOX - BLUE BOX", "address": {"city": "MOUNT AIRY", "state": "MD", "street": "505 WINDY KNOLL DR", "postcode": "21771"}}},
{"geometry": {"type": "Point", "coordinates": [-77.1487659307, 39.370136839]}, "type": "Feature", "properties": {"collection_times": [{"days": "Mon-Fri", "time": "5:00pm"}, {"days": "Sat", "time": "2:30pm"}, {"days": "Sun", "time": "Closed"}], "id": "2177100006", "name": "USPS COLLECTION BOX - BLUE BOX", "address": {"city": "MOUNT AIRY", "state": "MD", "street": "505 WINDY KNOLL DR", "postcode": "21771"}}},
{"geometry": {"type": "Point", "coordinates": [-77.1635304415, 39.3649046115]}, "type": "Feature", "properties": {"collection_times": [{"days": "Mon-Fri", "time": "4:15pm"}, {"days": "Sat", "time": "2:15pm"}, {"days": "Sun", "time": "Closed"}], "id": "2177100007", "name": "USPS COLLECTION BOX - BLUE BOX", "address": {"city": "MOUNT AIRY", "state": "MD", "street": "108 RIDGEVILLE BLVD", "postcode": "21771"}}},
{"geometry": {"type": "Point", "coordinates": [-77.1487659307, 39.370136839]}, "type": "Feature", "properties": {"collection_times": [{"days": "Mon-Fri", "time": "5:00pm"}, {"days": "Sat", "time": "1:30pm"}, {"days": "Sun", "time": "Closed"}], "id": "2177100008", "name": "USPS COLLECTION BOX - PO LOBBY", "address": {"city": "MOUNT AIRY", "state": "MD", "street": "505 WINDY KNOLL DR", "postcode": "21771"}}},
{"geometry": {"type": "Point", "coordinates": [-77.1487659307, 39.370136839]}, "type": "Feature", "properties": {"collection_times": [{"days": "Mon-Fri", "time": "5:00pm"}, {"days": "Sat", "time": "1:30pm"}, {"days": "Sun", "time": "Closed"}], "id": "2177100009", "name": "USPS COLLECTION BOX - PO LOBBY", "address": {"city": "MOUNT AIRY", "state": "MD", "street": "505 WINDY KNOLL DR", "postcode": "21771"}}},
{"geometry": {"type": "Point", "coordinates": [-77.1486678771, 39.374362951]}, "type": "Feature", "properties": {"collection_times": [{"days": "Mon-Fri", "time": "4:00pm"}, {"days": "Sat", "time": "2:15pm"}, {"days": "Sun", "time": "Closed"}], "id": "2177100010", "name": "USPS COLLECTION BOX - BLUE BOX", "address": {"city": "MOUNT AIRY", "state": "MD", "street": "602 CENTER ST", "postcode": "21771"}}},
{"geometry": {"type": "Point", "coordinates": [-77.5666606557, 39.5070284963]}, "type": "Feature", "properties": {"collection_times": [{"days": "Mon-Fri", "time": "5:00pm"}, {"days": "Sat", "time": "12:00pm"}, {"days": "Sun", "time": "Closed"}], "id": "2177300000", "name": "USPS COLLECTION BOX - BLUE BOX", "address": {"city": "MYERSVILLE", "state": "MD", "street": "1 WOLFSVILLE RD", "postcode": "21773"}}},
{"geometry": {"type": "Point", "coordinates": [-77.5666606557, 39.5070284963]}, "type": "Feature", "properties": {"collection_times": [{"days": "Mon-Fri", "time": "5:00pm"}, {"days": "Sat", "time": "12:00pm"}, {"days": "Sun", "time": "Closed"}], "id": "2177300001", "name": "USPS COLLECTION BOX - PO LOBBY", "address": {"city": "MYERSVILLE", "state": "MD", "street": "1 WOLFSVILLE RD", "postcode": "21773"}}},
{"geometry": {"type": "Point", "coordinates": [-77.2915790796, 39.407474251]}, "type": "Feature", "properties": {"collection_times": [{"days": "Mon-Fri", "time": "5:00pm"}, {"days": "Sat", "time": "12:00pm"}, {"days": "Sun", "time": "Closed"}], "id": "2177400000", "name": "USPS COLLECTION BOX - BLUE BOX", "address": {"city": "NEW MARKET", "state": "MD", "street": "168 W MAIN ST", "postcode": "21774"}}},
{"geometry": {"type": "Point", "coordinates": [-77.2915790796, 39.407474251]}, "type": "Feature", "properties": {"collection_times": [{"days": "Mon-Sat", "time": "11:00am"}, {"days": "Sun", "time": "Closed"}], "id": "2177400001", "name": "USPS COLLECTION BOX - BLUE BOX", "address": {"city": "NEW MARKET", "state": "MD", "street": "10087 TYLER CT", "postcode": "21774"}}},
{"geometry": {"type": "Point", "coordinates": [-77.2915790796, 39.407474251]}, "type": "Feature", "properties": {"collection_times": [{"days": "Mon-Sat", "time": "11:00am"}, {"days": "Sun", "time": "Closed"}], "id": "2177400002", "name": "USPS COLLECTION BOX - BLUE BOX", "address": {"city": "NEW MARKET", "state": "MD", "street": "9639 DOCTOR PERRY RD", "postcode": "21774"}}},
{"geometry": {"type": "Point", "coordinates": [-77.2915790796, 39.407474251]}, "type": "Feature", "properties": {"collection_times": [{"days": "Mon-Sat", "time": "11:00am"}, {"days": "Sun", "time": "Closed"}], "id": "2177400003", "name": "USPS COLLECTION BOX - BLUE BOX", "address": {"city": "NEW MARKET", "state": "MD", "street": "N/A EAGLEHEAD DR", "postcode": "21774"}}},
{"geometry": {"type": "Point", "coordinates": [-77.2915790796, 39.407474251]}, "type": "Feature", "properties": {"collection_times": [{"days": "Mon-Fri", "time": "5:00pm"}, {"days": "Sat", "time": "12:00pm"}, {"days": "Sun", "time": "Closed"}], "id": "2177400004", "name": "USPS COLLECTION BOX - PO LOBBY", "address": {"city": "NEW MARKET", "state": "MD", "street": "168 W MAIN ST", "postcode": "21774"}}},
{"geometry": {"type": "Point", "coordinates": [-77.2915790796, 39.407474251]}, "type": "Feature", "properties": {"collection_times": [{"days": "Mon-Fri", "time": "5:00pm"}, {"days": "Sat", "time": "12:00pm"}, {"days": "Sun", "time": "Closed"}], "id": "2177400005", "name": "USPS COLLECTION BOX - PO LOBBY", "address": {"city": "NEW MARKET", "state": "MD", "street": "168 W MAIN ST", "postcode": "21774"}}},
{"geometry": {"type": "Point", "coordinates": [-77.3046233686, 39.5548699548]}, "type": "Feature", "properties": {"collection_times": [{"days": "Mon-Sat", "time": "11:45am"}, {"days": "Sun", "time": "Closed"}], "id": "2177500000", "name": "USPS COLLECTION BOX - BLUE BOX", "address": {"city": "NEW MIDWAY", "state": "MD", "street": "12048A WOODSBORO PIKE", "postcode": "21775"}}},
{"geometry": {"type": "Point", "coordinates": [-77.3046233686, 39.5548699548]}, "type": "Feature", "properties": {"collection_times": [{"days": "Mon-Sat", "time": "11:45am"}, {"days": "Sun", "time": "Closed"}], "id": "2177500001", "name": "USPS COLLECTION BOX - PO LOBBY", "address": {"city": "NEW MIDWAY", "state": "MD", "street": "12048A WOODSBORO PIKE", "postcode": "21775"}}},
{"geometry": {"type": "Point", "coordinates": [-77.1064999898, 39.541318099]}, "type": "Feature", "properties": {"collection_times": [{"days": "Mon-Fri", "time": "4:15pm"}, {"days": "Sat", "time": "11:30am"}, {"days": "Sun", "time": "Closed"}], "id": "2177600001", "name": "USPS COLLECTION BOX - BLUE BOX", "address": {"city": "NEW WINDSOR", "state": "MD", "street": "204 MAPLE AVE", "postcode": "21776"}}},
{"geometry": {"type": "Point", "coordinates": [-77.1064999898, 39.541318099]}, "type": "Feature", "properties": {"collection_times": [{"days": "Mon-Fri", "time": "4:15pm"}, {"days": "Sat", "time": "11:30am"}, {"days": "Sun", "time": "Closed"}], "id": "2177600004", "name": "USPS COLLECTION BOX - PO LOBBY", "address": {"city": "NEW WINDSOR", "state": "MD", "street": "204 MAPLE AVE", "postcode": "21776"}}},
{"geometry": {"type": "Point", "coordinates": [-77.1064999898, 39.541318099]}, "type": "Feature", "properties": {"collection_times": [{"days": "Mon-Fri", "time": "4:15pm"}, {"days": "Sat", "time": "11:30am"}, {"days": "Sun", "time": "Closed"}], "id": "2177600005", "name": "USPS COLLECTION BOX - PO LOBBY", "address": {"city": "NEW WINDSOR", "state": "MD", "street": "204 MAPLE AVE", "postcode": "21776"}}},
{"geometry": {"type": "Point", "coordinates": [-77.5299678063, 39.2793226588]}, "type": "Feature", "properties": {"collection_times": [{"days": "Mon-Fri", "time": "4:15pm"}, {"days": "Sat", "time": "11:45am"}, {"days": "Sun", "time": "Closed"}], "id": "2177700000", "name": "USPS COLLECTION BOX - BLUE BOX", "address": {"city": "POINT OF ROCKS", "state": "MD", "street": "1597 BOWIS DR", "postcode": "21777"}}},
{"geometry": {"type": "Point", "coordinates": [-77.5299678063, 39.2793226588]}, "type": "Feature", "properties": {"collection_times": [{"days": "Mon-Fri", "time": "4:15pm"}, {"days": "Sat", "time": "11:45am"}, {"days": "Sun", "time": "Closed"}], "id": "2177700001", "name": "USPS COLLECTION BOX - PO LOBBY", "address": {"city": "POINT OF ROCKS", "state": "MD", "street": "1597 BOWIS DR", "postcode": "21777"}}},
{"geometry": {"type": "Point", "coordinates": [-77.5299678063, 39.2793226588]}, "type": "Feature", "properties": {"collection_times": [{"days": "Mon-Fri", "time": "4:15pm"}, {"days": "Sat", "time": "11:45am"}, {"days": "Sun", "time": "Closed"}], "id": "2177700002", "name": "USPS COLLECTION BOX - PO LOBBY", "address": {"city": "POINT OF ROCKS", "state": "MD", "street": "1597 BOWIS DR", "postcode": "21777"}}},
{"geometry": {"type": "Point", "coordinates": [-77.5299678063, 39.2793226588]}, "type": "Feature", "properties": {"collection_times": [{"days": "Mon-Sat", "time": "12:30pm"}, {"days": "Sun", "time": "Closed"}], "id": "2177700004", "name": "USPS COLLECTION BOX - BLUE BOX", "address": {"city": "POINT OF ROCKS", "state": "MD", "street": "1597 BOWIS DR", "postcode": "21777"}}},
{"geometry": {"type": "Point", "coordinates": [-77.31888322, 39.6054761852]}, "type": "Feature", "properties": {"collection_times": [{"days": "Mon-Fri", "time": "3:45pm"}, {"days": "Sat", "time": "11:45am"}, {"days": "Sun", "time": "Closed"}], "id": "2177800000", "name": "USPS COLLECTION BOX - BLUE BOX", "address": {"city": "ROCKY RIDGE", "state": "MD", "street": "13516 MOTTERS STATION RD", "postcode": "21778"}}},
{"geometry": {"type": "Point", "coordinates": [-77.31888322, 39.6054761852]}, "type": "Feature", "properties": {"collection_times": [{"days": "Mon-Fri", "time": "4:00pm"}, {"days": "Sat", "time": "11:45am"}, {"days": "Sun", "time": "Closed"}], "id": "2177800001", "name": "USPS COLLECTION BOX - PO LOBBY", "address": {"city": "ROCKY RIDGE", "state": "MD", "street": "13516 MOTTERS STATION RD", "postcode": "21778"}}},
{"geometry": {"type": "Point", "coordinates": [-77.31888322, 39.6054761852]}, "type": "Feature", "properties": {"collection_times": [{"days": "Mon-Fri", "time": "4:00pm"}, {"days": "Sat", "time": "11:45am"}, {"days": "Sun", "time": "Closed"}], "id": "2177800002", "name": "USPS COLLECTION BOX - PO LOBBY", "address": {"city": "ROCKY RIDGE", "state": "MD", "street": "13516 MOTTERS STATION RD", "postcode": "21778"}}},
{"geometry": {"type": "Point", "coordinates": [-77.6632326617, 39.4314366913]}, "type": "Feature", "properties": {"collection_times": [{"days": "Mon-Fri", "time": "4:15pm"}, {"days": "Sat", "time": "11:15am"}, {"days": "Sun", "time": "Closed"}], "id": "2177900000", "name": "USPS COLLECTION BOX - BLUE BOX", "address": {"city": "ROHRERSVILLE", "state": "MD", "street": "4314 MAIN ST", "postcode": "21779"}}},
{"geometry": {"type": "Point", "coordinates": [-77.6632326617, 39.4314366913]}, "type": "Feature", "properties": {"collection_times": [{"days": "Mon-Fri", "time": "4:15pm"}, {"days": "Sat", "time": "11:15am"}, {"days": "Sun", "time": "Closed"}], "id": "2177900001", "name": "USPS COLLECTION BOX - PO LOBBY", "address": {"city": "ROHRERSVILLE", "state": "MD", "street": "4314 MAIN ST", "postcode": "21779"}}},
{"geometry": {"type": "Point", "coordinates": [-77.4611300434, 39.7032496733]}, "type": "Feature", "properties": {"collection_times": [{"days": "Mon-Fri", "time": "4:15pm"}, {"days": "Sat", "time": "11:45am"}, {"days": "Sun", "time": "Closed"}], "id": "2178000000", "name": "USPS COLLECTION BOX - BLUE BOX", "address": {"city": "SABILLASVILLE", "state": "MD", "street": "17235 SABILLASVILLE RD", "postcode": "21780"}}},
{"geometry": {"type": "Point", "coordinates": [-77.4611300434, 39.7032496733]}, "type": "Feature", "properties": {"collection_times": [{"days": "Mon-Fri", "time": "4:15pm"}, {"days": "Sat", "time": "11:45am"}, {"days": "Sun", "time": "Closed"}], "id": "2178000001", "name": "USPS COLLECTION BOX - PO LOBBY", "address": {"city": "SABILLASVILLE", "state": "MD", "street": "17235 SABILLASVILLE RD", "postcode": "21780"}}},
{"geometry": {"type": "Point", "coordinates": [-77.4611300434, 39.7032496733]}, "type": "Feature", "properties": {"collection_times": [{"days": "Mon-Fri", "time": "4:15pm"}, {"days": "Sat", "time": "11:45am"}, {"days": "Sun", "time": "Closed"}], "id": "2178000002", "name": "USPS COLLECTION BOX - PO LOBBY", "address": {"city": "SABILLASVILLE", "state": "MD", "street": "17235 SABILLASVILLE RD", "postcode": "21780"}}},
{"geometry": {"type": "Point", "coordinates": [-77.7489521958, 39.4596792841]}, "type": "Feature", "properties": {"collection_times": [{"days": "Mon-Fri", "time": "4:30pm"}, {"days": "Sat", "time": "12:00pm"}, {"days": "Sun", "time": "Closed"}], "id": "2178200000", "name": "USPS COLLECTION BOX - BLUE BOX", "address": {"city": "SHARPSBURG", "state": "MD", "street": "118 E CHAPLINE ST", "postcode": "21782"}}},
{"geometry": {"type": "Point", "coordinates": [-77.7489521958, 39.4596792841]}, "type": "Feature", "properties": {"collection_times": [{"days": "Mon-Fri", "time": "4:30pm"}, {"days": "Sat", "time": "12:00pm"}, {"days": "Sun", "time": "Closed"}], "id": "2178200001", "name": "USPS COLLECTION BOX - PO LOBBY", "address": {"city": "SHARPSBURG", "state": "MD", "street": "118 E CHAPLINE ST", "postcode": "21782"}}},
{"geometry": {"type": "Point", "coordinates": [-77.7489521958, 39.4596792841]}, "type": "Feature", "properties": {"collection_times": [{"days": "Mon-Fri", "time": "4:30pm"}, {"days": "Sat", "time": "12:00pm"}, {"days": "Sun", "time": "Closed"}], "id": "2178200002", "name": "USPS COLLECTION BOX - PO LOBBY", "address": {"city": "SHARPSBURG", "state": "MD", "street": "118 E CHAPLINE ST", "postcode": "21782"}}},
{"geometry": {"type": "Point", "coordinates": [-77.560958559, 39.6502728269]}, "type": "Feature", "properties": {"collection_times": [{"days": "Mon-Fri", "time": "4:15pm"}, {"days": "Sat", "time": "12:00pm"}, {"days": "Sun", "time": "Closed"}], "id": "2178300002", "name": "USPS COLLECTION BOX - BLUE BOX", "address": {"city": "SMITHSBURG", "state": "MD", "street": "43 GROVE LN", "postcode": "21783"}}},
{"geometry": {"type": "Point", "coordinates": [-77.560958559, 39.6502728269]}, "type": "Feature", "properties": {"collection_times": [{"days": "Mon-Fri", "time": "4:15pm"}, {"days": "Sat", "time": "12:00pm"}, {"days": "Sun", "time": "Closed"}], "id": "2178300004", "name": "USPS COLLECTION BOX - PO LOBBY", "address": {"city": "SMITHSBURG", "state": "MD", "street": "43 GROVE LN", "postcode": "21783"}}},
{"geometry": {"type": "Point", "coordinates": [-76.9655752713, 39.3690591634]}, "type": "Feature", "properties": {"collection_times": [{"days": "Mon-Fri", "time": "2:15pm"}, {"days": "Sat", "time": "12:15pm"}, {"days": "Sun", "time": "Closed"}], "id": "2178400001", "name": "USPS COLLECTION BOX - BLUE BOX", "address": {"city": "SYKESVILLE", "state": "MD", "street": "7501 VILLAGE RD", "postcode": "21784"}}},
{"geometry": {"type": "Point", "coordinates": [-76.9237635867, 39.39691903]}, "type": "Feature", "properties": {"collection_times": [{"days": "Mon-Fri", "time": "2:30pm"}, {"days": "Sat", "time": "12:30pm"}, {"days": "Sun", "time": "Closed"}], "id": "2178400004", "name": "USPS COLLECTION BOX - BLUE BOX", "address": {"city": "SYKESVILLE", "state": "MD", "street": "2030 LIBERTY RD", "postcode": "21784"}}},
{"geometry": {"type": "Point", "coordinates": [-76.9725134511, 39.4004121538]}, "type": "Feature", "properties": {"collection_times": [{"days": "Mon-Fri", "time": "2:15pm"}, {"days": "Sat", "time": "12:15pm"}, {"days": "Sun", "time": "Closed"}], "id": "2178400005", "name": "USPS COLLECTION BOX - BLUE BOX", "address": {"city": "SYKESVILLE", "state": "MD", "street": "6424 BARNETT RD", "postcode": "21784"}}},
{"geometry": {"type": "Point", "coordinates": [-76.9448249881, 39.4019714477]}, "type": "Feature", "properties": {"collection_times": [{"days": "Mon-Fri", "time": "2:30pm"}, {"days": "Sat", "time": "12:30pm"}, {"days": "Sun", "time": "Closed"}], "id": "2178400006", "name": "USPS COLLECTION BOX - BLUE BOX", "address": {"city": "SYKESVILLE", "state": "MD", "street": "6300 GEORGETOWN BLVD", "postcode": "21784"}}},
{"geometry": {"type": "Point", "coordinates": [-76.9443048655, 39.4022696708]}, "type": "Feature", "properties": {"collection_times": [{"days": "Mon-Fri", "time": "2:45pm"}, {"days": "Sat", "time": "12:45pm"}, {"days": "Sun", "time": "Closed"}], "id": "2178400007", "name": "USPS COLLECTION BOX - BLUE BOX", "address": {"city": "SYKESVILLE", "state": "MD", "street": "1438 LIBERTY RD", "postcode": "21784"}}},
{"geometry": {"type": "Point", "coordinates": [-76.9490706278, 39.4082979123]}, "type": "Feature", "properties": {"collection_times": [{"days": "Mon-Fri", "time": "2:45pm"}, {"days": "Sat", "time": "12:45pm"}, {"days": "Sun", "time": "Closed"}], "id": "2178400009", "name": "USPS COLLECTION BOX - BLUE BOX", "address": {"city": "SYKESVILLE", "state": "MD", "street": "1311 LONDONTOWN BLVD", "postcode": "21784"}}},
{"geometry": {"type": "Point", "coordinates": [-76.9481380119, 39.4136381718]}, "type": "Feature", "properties": {"collection_times": [{"days": "Mon-Fri", "time": "5:00pm"}, {"days": "Sat", "time": "12:45pm"}, {"days": "Sun", "time": "Closed"}], "id": "2178400012", "name": "USPS COLLECTION BOX - BLUE BOX", "address": {"city": "SYKESVILLE", "state": "MD", "street": "1363 PROGRESS WAY", "postcode": "21784"}}},
{"geometry": {"type": "Point", "coordinates": [-76.9481380119, 39.4136381718]}, "type": "Feature", "properties": {"collection_times": [{"days": "Mon-Fri", "time": "5:00pm"}, {"days": "Sat", "time": "12:45pm"}, {"days": "Sun", "time": "Closed"}], "id": "2178400013", "name": "USPS COLLECTION BOX - BLUE BOX", "address": {"city": "SYKESVILLE", "state": "MD", "street": "1363 PROGRESS WAY", "postcode": "21784"}}},
{"geometry": {"type": "Point", "coordinates": [-76.962457948, 39.3999617365]}, "type": "Feature", "properties": {"collection_times": [{"days": "Mon-Fri", "time": "4:30pm"}, {"days": "Sat", "time": "12:45pm"}, {"days": "Sun", "time": "Closed"}], "id": "2178400014", "name": "USPS COLLECTION BOX - EXPRESS", "address": {"city": "SYKESVILLE", "state": "MD", "street": "1363 PROGRESS WAY", "postcode": "21784"}}},
{"geometry": {"type": "Point", "coordinates": [-76.9481380119, 39.4136381718]}, "type": "Feature", "properties": {"collection_times": [{"days": "Mon-Fri", "time": "5:30pm"}, {"days": "Sat", "time": "12:45pm"}, {"days": "Sun", "time": "Closed"}], "id": "2178400015", "name": "USPS COLLECTION BOX - PO LOBBY", "address": {"city": "SYKESVILLE", "state": "MD", "street": "1363 PROGRESS WAY", "postcode": "21784"}}},
{"geometry": {"type": "Point", "coordinates": [-76.9701952849, 39.3648917817]}, "type": "Feature", "properties": {"collection_times": [{"days": "Mon-Fri", "time": "2:15pm"}, {"days": "Sat", "time": "12:15pm"}, {"days": "Sun", "time": "Closed"}], "id": "2178400017", "name": "USPS COLLECTION BOX - BLUE BOX", "address": {"city": "SYKESVILLE", "state": "MD", "street": "731 OKLAHOMA AVE", "postcode": "21784"}}},
{"geometry": {"type": "Point", "coordinates": [-77.1741889018, 39.6588628166]}, "type": "Feature", "properties": {"collection_times": [{"days": "Mon-Fri", "time": "5:00pm"}, {"days": "Sat", "time": "12:00pm"}, {"days": "Sun", "time": "Closed"}], "id": "2178700000", "name": "USPS COLLECTION BOX - BLUE BOX", "address": {"city": "TANEYTOWN", "state": "MD", "street": "13 MIDDLE ST", "postcode": "21787"}}},
{"geometry": {"type": "Point", "coordinates": [-77.1585183455, 39.6498049771]}, "type": "Feature", "properties": {"collection_times": [{"days": "Mon-Sat", "time": "12:00pm"}, {"days": "Sun", "time": "Closed"}], "id": "2178700004", "name": "USPS COLLECTION BOX - BLUE BOX", "address": {"city": "TANEYTOWN", "state": "MD", "street": "520 E BALTIMORE ST", "postcode": "21787"}}},
{"geometry": {"type": "Point", "coordinates": [-77.1741889018, 39.6588628166]}, "type": "Feature", "properties": {"collection_times": [{"days": "Mon-Fri", "time": "4:45pm"}, {"days": "Sat", "time": "12:00pm"}, {"days": "Sun", "time": "Closed"}], "id": "2178700005", "name": "USPS COLLECTION BOX - PO LOBBY", "address": {"city": "TANEYTOWN", "state": "MD", "street": "13 MIDDLE ST", "postcode": "21787"}}},
{"geometry": {"type": "Point", "coordinates": [-77.1580628052, 39.6496582129]}, "type": "Feature", "properties": {"collection_times": [{"days": "Mon-Sat", "time": "12:00pm"}, {"days": "Sun", "time": "Closed"}], "id": "2178700007", "name": "USPS COLLECTION BOX - BLUE BOX", "address": {"city": "TANEYTOWN", "state": "MD", "street": "459 E BALTIMORE ST", "postcode": "21787"}}},
{"geometry": {"type": "Point", "coordinates": [-77.4106651365, 39.6269750269]}, "type": "Feature", "properties": {"collection_times": [{"days": "Mon-Fri", "time": "2:15pm"}, {"days": "Sat", "time": "12:00pm"}, {"days": "Sun", "time": "Closed"}], "id": "2178800001", "name": "USPS COLLECTION BOX - BLUE BOX", "address": {"city": "THURMONT", "state": "MD", "street": "220 N CHURCH ST", "postcode": "21788"}}},
{"geometry": {"type": "Point", "coordinates": [-77.4117078716, 39.6236920342]}, "type": "Feature", "properties": {"collection_times": [{"days": "Mon-Fri", "time": "2:15pm"}, {"days": "Sat", "time": "12:00pm"}, {"days": "Sun", "time": "Closed"}], "id": "2178800004", "name": "USPS COLLECTION BOX - BLUE BOX", "address": {"city": "THURMONT", "state": "MD", "street": "2 W MAIN ST", "postcode": "21788"}}},
{"geometry": {"type": "Point", "coordinates": [-77.411276028, 39.6211049896]}, "type": "Feature", "properties": {"collection_times": [{"days": "Mon-Fri", "time": "5:00pm"}, {"days": "Sat", "time": "12:00pm"}, {"days": "Sun", "time": "Closed"}], "id": "2178800005", "name": "USPS COLLECTION BOX - BLUE BOX", "address": {"city": "THURMONT", "state": "MD", "street": "110 WATER ST", "postcode": "21788"}}},
{"geometry": {"type": "Point", "coordinates": [-77.4210896831, 39.6171061142]}, "type": "Feature", "properties": {"collection_times": [{"days": "Mon-Fri", "time": "2:15pm"}, {"days": "Sat", "time": "12:00pm"}, {"days": "Sun", "time": "Closed"}], "id": "2178800007", "name": "USPS COLLECTION BOX - BLUE BOX", "address": {"city": "THURMONT", "state": "MD", "street": "215 TIPPIN DR", "postcode": "21788"}}},
{"geometry": {"type": "Point", "coordinates": [-77.411276028, 39.6211049896]}, "type": "Feature", "properties": {"collection_times": [{"days": "Mon-Fri", "time": "5:00pm"}, {"days": "Sat", "time": "12:00pm"}, {"days": "Sun", "time": "Closed"}], "id": "2178800008", "name": "USPS COLLECTION BOX - PO LOBBY", "address": {"city": "THURMONT", "state": "MD", "street": "110 WATER ST", "postcode": "21788"}}},
{"geometry": {"type": "Point", "coordinates": [-77.411276028, 39.6211049896]}, "type": "Feature", "properties": {"collection_times": [{"days": "Mon-Fri", "time": "5:00pm"}, {"days": "Sat", "time": "12:00pm"}, {"days": "Sun", "time": "Closed"}], "id": "2178800009", "name": "USPS COLLECTION BOX - PO LOBBY", "address": {"city": "THURMONT", "state": "MD", "street": "110 WATER ST", "postcode": "21788"}}},
{"geometry": {"type": "Point", "coordinates": [-77.4682964986, 39.2574160638]}, "type": "Feature", "properties": {"collection_times": [{"days": "Mon-Fri", "time": "3:30pm"}, {"days": "Sat", "time": "10:30am"}, {"days": "Sun", "time": "Closed"}], "id": "2179000000", "name": "USPS COLLECTION BOX - BLUE BOX", "address": {"city": "TUSCARORA", "state": "MD", "street": "5709A TUSCARORA RD", "postcode": "21790"}}},
{"geometry": {"type": "Point", "coordinates": [-77.4682964986, 39.2574160638]}, "type": "Feature", "properties": {"collection_times": [{"days": "Mon-Fri", "time": "1:45pm"}, {"days": "Sat", "time": "10:45am"}, {"days": "Sun", "time": "Closed"}], "id": "2179000001", "name": "USPS COLLECTION BOX - PO LOBBY", "address": {"city": "TUSCARORA", "state": "MD", "street": "5709A TUSCARORA RD", "postcode": "21790"}}},
{"geometry": {"type": "Point", "coordinates": [-77.1800693908, 39.5672450106]}, "type": "Feature", "properties": {"collection_times": [{"days": "Mon-Fri", "time": "4:30pm"}, {"days": "Sat", "time": "12:00pm"}, {"days": "Sun", "time": "Closed"}], "id": "2179100001", "name": "USPS COLLECTION BOX - BLUE BOX", "address": {"city": "UNION BRIDGE", "state": "MD", "street": "111 PENROSE ST", "postcode": "21791"}}},
{"geometry": {"type": "Point", "coordinates": [-77.1800693908, 39.5672450106]}, "type": "Feature", "properties": {"collection_times": [{"days": "Mon-Fri", "time": "4:30pm"}, {"days": "Sat", "time": "12:00pm"}, {"days": "Sun", "time": "Closed"}], "id": "2179100003", "name": "USPS COLLECTION BOX - PO LOBBY", "address": {"city": "UNION BRIDGE", "state": "MD", "street": "111 PENROSE ST", "postcode": "21791"}}},
{"geometry": {"type": "Point", "coordinates": [-77.1800693908, 39.5672450106]}, "type": "Feature", "properties": {"collection_times": [{"days": "Mon-Fri", "time": "4:30pm"}, {"days": "Sat", "time": "12:00pm"}, {"days": "Sun", "time": "Closed"}], "id": "2179100004", "name": "USPS COLLECTION BOX - PO LOBBY", "address": {"city": "UNION BRIDGE", "state": "MD", "street": "111 PENROSE ST", "postcode": "21791"}}},
{"geometry": {"type": "Point", "coordinates": [-77.3492881219, 39.4823677049]}, "type": "Feature", "properties": {"collection_times": [{"days": "Mon-Fri", "time": "5:00pm"}, {"days": "Sat", "time": "12:00pm"}, {"days": "Sun", "time": "Closed"}], "id": "2179300000", "name": "USPS COLLECTION BOX - BLUE BOX", "address": {"city": "WALKERSVILLE", "state": "MD", "street": "7 E FREDERICK ST", "postcode": "21793"}}},
{"geometry": {"type": "Point", "coordinates": [-77.3416773858, 39.4845242189]}, "type": "Feature", "properties": {"collection_times": [{"days": "Mon-Sat", "time": "11:00am"}, {"days": "Sun", "time": "Closed"}], "id": "2179300001", "name": "USPS COLLECTION BOX - BLUE BOX", "address": {"city": "WALKERSVILLE", "state": "MD", "street": "300 CHAPEL CT", "postcode": "21793"}}},
{"geometry": {"type": "Point", "coordinates": [-77.3492881219, 39.4823677049]}, "type": "Feature", "properties": {"collection_times": [{"days": "Mon-Fri", "time": "5:00pm"}, {"days": "Sat", "time": "12:00pm"}, {"days": "Sun", "time": "Closed"}], "id": "2179300005", "name": "USPS COLLECTION BOX - PO LOBBY", "address": {"city": "WALKERSVILLE", "state": "MD", "street": "7 E FREDERICK ST", "postcode": "21793"}}},
{"geometry": {"type": "Point", "coordinates": [-77.3492881219, 39.4823677049]}, "type": "Feature", "properties": {"collection_times": [{"days": "Mon-Fri", "time": "5:00pm"}, {"days": "Sat", "time": "12:00pm"}, {"days": "Sun", "time": "Closed"}], "id": "2179300006", "name": "USPS COLLECTION BOX - PO LOBBY", "address": {"city": "WALKERSVILLE", "state": "MD", "street": "7 E FREDERICK ST", "postcode": "21793"}}},
{"geometry": {"type": "Point", "coordinates": [-76.9554526914, 39.303313853]}, "type": "Feature", "properties": {"collection_times": [{"days": "Mon-Fri", "time": "4:15pm"}, {"days": "Sat", "time": "12:00pm"}, {"days": "Sun", "time": "Closed"}], "id": "2179400000", "name": "USPS COLLECTION BOX - BLUE BOX", "address": {"city": "WEST FRIENDSHIP", "state": "MD", "street": "12800 ROUTE 144", "postcode": "21794"}}},
{"geometry": {"type": "Point", "coordinates": [-76.9554526914, 39.303313853]}, "type": "Feature", "properties": {"collection_times": [{"days": "Mon-Fri", "time": "4:15pm"}, {"days": "Sat", "time": "12:00pm"}, {"days": "Sun", "time": "Closed"}], "id": "2179400001", "name": "USPS COLLECTION BOX - PO LOBBY", "address": {"city": "WEST FRIENDSHIP", "state": "MD", "street": "12800 ROUTE 144", "postcode": "21794"}}},
{"geometry": {"type": "Point", "coordinates": [-77.8225182389, 39.5990865164]}, "type": "Feature", "properties": {"collection_times": [{"days": "Mon-Fri", "time": "5:00pm"}, {"days": "Sat", "time": "1:45pm"}, {"days": "Sun", "time": "Closed"}], "id": "2179500000", "name": "USPS COLLECTION BOX - BLUE BOX", "address": {"city": "WILLIAMSPORT", "state": "MD", "street": "28 W SALISBURY ST", "postcode": "21795"}}},
{"geometry": {"type": "Point", "coordinates": [-77.8214940867, 39.6004098347]}, "type": "Feature", "properties": {"collection_times": [{"days": "Mon-Sat", "time": "1:30pm"}, {"days": "Sun", "time": "Closed"}], "id": "2179500004", "name": "USPS COLLECTION BOX - BLUE BOX", "address": {"city": "WILLIAMSPORT", "state": "MD", "street": "10 W POTOMAC ST", "postcode": "21795"}}},
{"geometry": {"type": "Point", "coordinates": [-77.8131361598, 39.5929234308]}, "type": "Feature", "properties": {"collection_times": [{"days": "Mon-Sat", "time": "1:15pm"}, {"days": "Sun", "time": "Closed"}], "id": "2179500006", "name": "USPS COLLECTION BOX - BLUE BOX", "address": {"city": "WILLIAMSPORT", "state": "MD", "street": "1 OAKTREE LN", "postcode": "21795"}}},
{"geometry": {"type": "Point", "coordinates": [-77.8219977475, 39.5964870423]}, "type": "Feature", "properties": {"collection_times": [{"days": "Mon-Sat", "time": "1:30pm"}, {"days": "Sun", "time": "Closed"}], "id": "2179500007", "name": "USPS COLLECTION BOX - BLUE BOX", "address": {"city": "WILLIAMSPORT", "state": "MD", "street": "38 W FREDERICK ST", "postcode": "21795"}}},
{"geometry": {"type": "Point", "coordinates": [-77.8225182389, 39.5990865164]}, "type": "Feature", "properties": {"collection_times": [{"days": "Mon-Fri", "time": "4:45pm"}, {"days": "Sat", "time": "1:45pm"}, {"days": "Sun", "time": "Closed"}], "id": "2179500009", "name": "USPS COLLECTION BOX - PO LOBBY", "address": {"city": "WILLIAMSPORT", "state": "MD", "street": "28 W SALISBURY ST", "postcode": "21795"}}},
{"geometry": {"type": "Point", "coordinates": [-77.8225182389, 39.5990865164]}, "type": "Feature", "properties": {"collection_times": [{"days": "Mon-Fri", "time": "4:45pm"}, {"days": "Sat", "time": "1:45pm"}, {"days": "Sun", "time": "Closed"}], "id": "2179500010", "name": "USPS COLLECTION BOX - PO LOBBY", "address": {"city": "WILLIAMSPORT", "state": "MD", "street": "28 W SALISBURY ST", "postcode": "21795"}}},
{"geometry": {"type": "Point", "coordinates": [-77.0588918063, 39.3648774035]}, "type": "Feature", "properties": {"collection_times": [{"days": "Mon-Fri", "time": "4:30pm"}, {"days": "Sat", "time": "12:00pm"}, {"days": "Sun", "time": "Closed"}], "id": "2179700000", "name": "USPS COLLECTION BOX - BLUE BOX", "address": {"city": "WOODBINE", "state": "MD", "street": "7623 WOODBINE RD", "postcode": "21797"}}},
{"geometry": {"type": "Point", "coordinates": [-77.0680573723, 39.3476180322]}, "type": "Feature", "properties": {"collection_times": [{"days": "Mon-Sat", "time": "10:15am"}, {"days": "Sun", "time": "Closed"}], "id": "2179700001", "name": "USPS COLLECTION BOX - BLUE BOX", "address": {"city": "WOODBINE", "state": "MD", "street": "15920 OLD FREDERICK RD", "postcode": "21797"}}},
{"geometry": {"type": "Point", "coordinates": [-77.0588918063, 39.3648774035]}, "type": "Feature", "properties": {"collection_times": [{"days": "Mon-Fri", "time": "4:45pm"}, {"days": "Sat", "time": "12:00pm"}, {"days": "Sun", "time": "Closed"}], "id": "2179700003", "name": "USPS COLLECTION BOX - PO LOBBY", "address": {"city": "WOODBINE", "state": "MD", "street": "7623 WOODBINE RD", "postcode": "21797"}}},
{"geometry": {"type": "Point", "coordinates": [-77.0588918063, 39.3648774035]}, "type": "Feature", "properties": {"collection_times": [{"days": "Mon-Fri", "time": "4:45pm"}, {"days": "Sat", "time": "12:00pm"}, {"days": "Sun", "time": "Closed"}], "id": "2179700004", "name": "USPS COLLECTION BOX - PO LOBBY", "address": {"city": "WOODBINE", "state": "MD", "street": "7623 WOODBINE RD", "postcode": "21797"}}},
{"geometry": {"type": "Point", "coordinates": [-77.3148277735, 39.5287644098]}, "type": "Feature", "properties": {"collection_times": [{"days": "Mon-Fri", "time": "4:45pm"}, {"days": "Sat", "time": "11:45am"}, {"days": "Sun", "time": "Closed"}], "id": "2179800000", "name": "USPS COLLECTION BOX - BLUE BOX", "address": {"city": "WOODSBORO", "state": "MD", "street": "602 S MAIN ST", "postcode": "21798"}}},
{"geometry": {"type": "Point", "coordinates": [-77.3148277735, 39.5287644098]}, "type": "Feature", "properties": {"collection_times": [{"days": "Mon-Fri", "time": "4:45pm"}, {"days": "Sat", "time": "11:45am"}, {"days": "Sun", "time": "Closed"}], "id": "2179800001", "name": "USPS COLLECTION BOX - PO LOBBY", "address": {"city": "WOODSBORO", "state": "MD", "street": "602 S MAIN ST", "postcode": "21798"}}},
{"geometry": {"type": "Point", "coordinates": [-77.3148277735, 39.5287644098]}, "type": "Feature", "properties": {"collection_times": [{"days": "Mon-Fri", "time": "4:45pm"}, {"days": "Sat", "time": "11:45am"}, {"days": "Sun", "time": "Closed"}], "id": "2179800002", "name": "USPS COLLECTION BOX - PO LOBBY", "address": {"city": "WOODSBORO", "state": "MD", "street": "602 S MAIN ST", "postcode": "21798"}}}
]}
