{"type": "FeatureCollection", "features": [
{"geometry": {"type": "Point", "coordinates": [-75.6174362422, 38.3688313929]}, "type": "Feature", "properties": {"collection_times": [{"days": "Mon-Sat", "time": "12:15pm"}, {"days": "Sun", "time": "Closed"}], "id": "2180100009", "name": "USPS COLLECTION BOX - BLUE BOX", "address": {"city": "SALISBURY", "state": "MD", "street": "1214 NANTICOKE RD", "postcode": "21801"}}},
{"geometry": {"type": "Point", "coordinates": [-75.5968243105, 38.3657604047]}, "type": "Feature", "properties": {"collection_times": [{"days": "Mon-Fri", "time": "4:30pm"}, {"days": "Sat", "time": "1:45pm"}, {"days": "Sun", "time": "Closed"}], "id": "2180100010", "name": "USPS COLLECTION BOX - BLUE BOX", "address": {"city": "SALISBURY", "state": "MD", "street": "300 E MAIN ST", "postcode": "21801"}}},
{"geometry": {"type": "Point", "coordinates": [-75.6147980015, 38.3283860616]}, "type": "Feature", "properties": {"collection_times": [{"days": "Mon-Sat", "time": "9:30am"}, {"days": "Sun", "time": "Closed"}], "id": "2180100014", "name": "USPS COLLECTION BOX - BLUE BOX", "address": {"city": "SALISBURY", "state": "MD", "street": "404 N FRUITLAND BLVD", "postcode": "21801"}}},
{"geometry": {"type": "Point", "coordinates": [-75.6004820926, 38.3554383662]}, "type": "Feature", "properties": {"collection_times": [{"days": "Mon-Fri", "time": "4:15pm"}, {"days": "Sat", "time": "1:15pm"}, {"days": "Sun", "time": "Closed"}], "id": "2180100022", "name": "USPS COLLECTION BOX - BLUE BOX", "address": {"city": "SALISBURY", "state": "MD", "street": "805 S SALISBURY BLVD", "postcode": "21801"}}},
{"geometry": {"type": "Point", "coordinates": [-75.5698865642, 38.4019387775]}, "type": "Feature", "properties": {"collection_times": [{"days": "Mon-Sat", "time": "11:00am"}, {"days": "Sun", "time": "Closed"}], "id": "2180100046", "name": "USPS COLLECTION BOX - BLUE BOX", "address": {"city": "SALISBURY", "state": "MD", "street": "2300 N SALISBURY BLVD", "postcode": "21801"}}},
{"geometry": {"type": "Point", "coordinates": [-75.5949228529, 38.374346233]}, "type": "Feature", "properties": {"collection_times": [{"days": "Mon-Sat", "time": "12:00pm"}, {"days": "Sun", "time": "Closed"}], "id": "2180100047", "name": "USPS COLLECTION BOX - BLUE BOX", "address": {"city": "SALISBURY", "state": "MD", "street": "922 N DIVISION ST", "postcode": "21801"}}},
{"geometry": {"type": "Point", "coordinates": [-75.6117500028, 38.3703149189]}, "type": "Feature", "properties": {"collection_times": [{"days": "Mon-Sat", "time": "12:15pm"}, {"days": "Sun", "time": "Closed"}], "id": "2180100049", "name": "USPS COLLECTION BOX - BLUE BOX", "address": {"city": "SALISBURY", "state": "MD", "street": "932 W ISABELLA ST", "postcode": "21801"}}},
{"geometry": {"type": "Point", "coordinates": [-75.601951768, 38.3872688316]}, "type": "Feature", "properties": {"collection_times": [{"days": "Mon-Fri", "time": "4:30pm"}, {"days": "Sat", "time": "1:30pm"}, {"days": "Sun", "time": "Closed"}], "id": "2180100051", "name": "USPS COLLECTION BOX - BLUE BOX", "address": {"city": "SALISBURY", "state": "MD", "street": "1 PLAZA E", "postcode": "21801"}}},
{"geometry": {"type": "Point", "coordinates": [-75.6029473802, 38.3632370134]}, "type": "Feature", "properties": {"collection_times": [{"days": "Mon-Sat", "time": "12:30pm"}, {"days": "Sun", "time": "Closed"}], "id": "2180100053", "name": "USPS COLLECTION BOX - BLUE BOX", "address": {"city": "SALISBURY", "state": "MD", "street": "300 W CARROLL ST", "postcode": "21801"}}},
{"geometry": {"type": "Point", "coordinates": [-75.6072286804, 38.3612305162]}, "type": "Feature", "properties": {"collection_times": [{"days": "Mon-Sat", "time": "12:30pm"}, {"days": "Sun", "time": "Closed"}], "id": "2180100054", "name": "USPS COLLECTION BOX - BLUE BOX", "address": {"city": "SALISBURY", "state": "MD", "street": "714 RIVERSIDE DR", "postcode": "21801"}}},
{"geometry": {"type": "Point", "coordinates": [-75.6085138724, 38.3465620204]}, "type": "Feature", "properties": {"collection_times": [{"days": "Mon-Sat", "time": "9:30am"}, {"days": "Sun", "time": "Closed"}], "id": "2180100062", "name": "USPS COLLECTION BOX - BLUE BOX", "address": {"city": "SALISBURY", "state": "MD", "street": "1101 CAMDEN AVE", "postcode": "21801"}}},
{"geometry": {"type": "Point", "coordinates": [-75.5998366679, 38.3645609263]}, "type": "Feature", "properties": {"collection_times": [{"days": "Mon-Fri", "time": "1:00pm"}, {"days": "Sat", "time": "1:15pm"}, {"days": "Sun", "time": "Closed"}], "id": "2180100067", "name": "USPS COLLECTION BOX - BLUE BOX", "address": {"city": "SALISBURY", "state": "MD", "street": "106 CIRCLE AVE", "postcode": "21801"}}},
{"geometry": {"type": "Point", "coordinates": [-75.5995412835, 38.3656108691]}, "type": "Feature", "properties": {"collection_times": [{"days": "Mon-Fri", "time": "4:30pm"}, {"days": "Sat", "time": "1:45pm"}, {"days": "Sun", "time": "Closed"}], "id": "2180100079", "name": "USPS COLLECTION BOX - BLUE BOX", "address": {"city": "SALISBURY", "state": "MD", "street": "144 E MAIN ST", "postcode": "21801"}}},
{"geometry": {"type": "Point", "coordinates": [-75.6048138015, 38.3634160454]}, "type": "Feature", "properties": {"collection_times": [{"days": "Mon-Sat", "time": "12:30pm"}, {"days": "Sun", "time": "Closed"}], "id": "2180100081", "name": "USPS COLLECTION BOX - BLUE BOX", "address": {"city": "SALISBURY", "state": "MD", "street": "540 RIVERSIDE DR", "postcode": "21801"}}},
{"geometry": {"type": "Point", "coordinates": [-75.6005943108, 38.3555539072]}, "type": "Feature", "properties": {"collection_times": [{"days": "Mon-Sat", "time": "12:45pm"}, {"days": "Sun", "time": "Closed"}], "id": "2180100082", "name": "USPS COLLECTION BOX - BLUE BOX", "address": {"city": "SALISBURY", "state": "MD", "street": "800 S SALISBURY BLVD", "postcode": "21801"}}},
{"geometry": {"type": "Point", "coordinates": [-75.5665838848, 38.4155252119]}, "type": "Feature", "properties": {"collection_times": [{"days": "Mon-Sat", "time": "11:45am"}, {"days": "Sun", "time": "Closed"}], "id": "2180100083", "name": "USPS COLLECTION BOX - BLUE BOX", "address": {"city": "SALISBURY", "state": "MD", "street": "2702 N SALISBURY BLVD", "postcode": "21801"}}},
{"geometry": {"type": "Point", "coordinates": [-75.5713215339, 38.4035694525]}, "type": "Feature", "properties": {"collection_times": [{"days": "Mon-Sat", "time": "12:00pm"}, {"days": "Sun", "time": "Closed"}], "id": "2180100086", "name": "USPS COLLECTION BOX - BLUE BOX", "address": {"city": "SALISBURY", "state": "MD", "street": "2410 W ZION RD", "postcode": "21801"}}},
{"geometry": {"type": "Point", "coordinates": [-75.5827276033, 38.3942797284]}, "type": "Feature", "properties": {"collection_times": [{"days": "Mon-Sat", "time": "12:00pm"}, {"days": "Sun", "time": "Closed"}], "id": "2180100089", "name": "USPS COLLECTION BOX - BLUE BOX", "address": {"city": "SALISBURY", "state": "MD", "street": "2020 NORTHWOOD DR", "postcode": "21801"}}},
{"geometry": {"type": "Point", "coordinates": [-75.6073815798, 38.3416249674]}, "type": "Feature", "properties": {"collection_times": [{"days": "Mon-Fri", "time": "2:30pm"}, {"days": "Sat", "time": "12:45pm"}, {"days": "Sun", "time": "Closed"}], "id": "2180100091", "name": "USPS COLLECTION BOX - BLUE BOX", "address": {"city": "SALISBURY", "state": "MD", "street": "1405 WESLEY DR", "postcode": "21801"}}},
{"geometry": {"type": "Point", "coordinates": [-75.6181566963, 38.3691222167]}, "type": "Feature", "properties": {"collection_times": [{"days": "Mon-Sat", "time": "11:45am"}, {"days": "Sun", "time": "Closed"}], "id": "2180100092", "name": "USPS COLLECTION BOX - BLUE BOX", "address": {"city": "SALISBURY", "state": "MD", "street": "119 NAYLOR MILL RD", "postcode": "21801"}}},
{"geometry": {"type": "Point", "coordinates": [-75.567574723, 38.4068899435]}, "type": "Feature", "properties": {"collection_times": [{"days": "Mon-Fri", "time": "4:30pm"}, {"days": "Sat", "time": "11:45am"}, {"days": "Sun", "time": "Closed"}], "id": "2180100093", "name": "USPS COLLECTION BOX - BLUE BOX", "address": {"city": "SALISBURY", "state": "MD", "street": "2505 N SALISBURY BLVD", "postcode": "21801"}}},
{"geometry": {"type": "Point", "coordinates": [-75.6140544227, 38.3286673529]}, "type": "Feature", "properties": {"collection_times": [{"days": "Mon-Sat", "time": "9:45am"}, {"days": "Sun", "time": "Closed"}], "id": "2180100095", "name": "USPS COLLECTION BOX - BLUE BOX", "address": {"city": "SALISBURY", "state": "MD", "street": "411 N FRUITLAND BLVD", "postcode": "21801"}}},
{"geometry": {"type": "Point", "coordinates": [-75.5932759212, 38.3729359942]}, "type": "Feature", "properties": {"collection_times": [{"days": "Mon-Sat", "time": "12:00pm"}, {"days": "Sun", "time": "Closed"}], "id": "2180100096", "name": "USPS COLLECTION BOX - BLUE BOX", "address": {"city": "SALISBURY", "state": "MD", "street": "801 N SALISBURY BLVD", "postcode": "21801"}}},
{"geometry": {"type": "Point", "coordinates": [-75.5914717669, 38.377598239]}, "type": "Feature", "properties": {"collection_times": [{"days": "Mon-Fri", "time": "4:00pm"}, {"days": "Sat", "time": "1:00pm"}, {"days": "Sun", "time": "Closed"}], "id": "2180100099", "name": "USPS COLLECTION BOX - BLUE BOX", "address": {"city": "SALISBURY", "state": "MD", "street": "1346 S DIVISION ST", "postcode": "21801"}}},
{"geometry": {"type": "Point", "coordinates": [-75.5998993063, 38.3654886125]}, "type": "Feature", "properties": {"collection_times": [{"days": "Mon-Fri", "time": "5:00pm"}, {"days": "Sat", "time": "1:45pm"}, {"days": "Sun", "time": "Closed"}], "id": "2180100100", "name": "USPS COLLECTION BOX - PO LOBBY", "address": {"city": "SALISBURY", "state": "MD", "street": "129 E MAIN ST", "postcode": "21801"}}},
{"geometry": {"type": "Point", "coordinates": [-75.6179333553, 38.3674839263]}, "type": "Feature", "properties": {"collection_times": [{"days": "Mon-Sat", "time": "12:15pm"}, {"days": "Sun", "time": "Closed"}], "id": "2180100101", "name": "USPS COLLECTION BOX - BLUE BOX", "address": {"city": "SALISBURY", "state": "MD", "street": "1205 PEMBERTON DR", "postcode": "21801"}}},
{"geometry": {"type": "Point", "coordinates": [-75.5985397858, 38.3660031805]}, "type": "Feature", "properties": {"collection_times": [{"days": "Mon-Fri", "time": "4:27pm"}, {"days": "Sat", "time": "10:00am"}, {"days": "Sun", "time": "Closed"}], "id": "2180100102", "name": "USPS COLLECTION BOX - BLUE BOX", "address": {"city": "SALISBURY", "state": "MD", "street": "201 BAPTIST ST", "postcode": "21801"}}},
{"geometry": {"type": "Point", "coordinates": [-75.5996592584, 38.3382778089]}, "type": "Feature", "properties": {"collection_times": [{"days": "Mon-Fri", "time": "4:00pm"}, {"days": "Sat", "time": "1:00pm"}, {"days": "Sun", "time": "Closed"}], "id": "2180400014", "name": "USPS COLLECTION BOX - BLUE BOX", "address": {"city": "SALISBURY", "state": "MD", "street": "106 MILFORD ST", "postcode": "21804"}}},
{"geometry": {"type": "Point", "coordinates": [-75.581634906, 38.3677688457]}, "type": "Feature", "properties": {"collection_times": [{"days": "Mon-Fri", "time": "4:00pm"}, {"days": "Sat", "time": "10:15am"}, {"days": "Sun", "time": "Closed"}], "id": "2180400017", "name": "USPS COLLECTION BOX - BLUE BOX", "address": {"city": "SALISBURY", "state": "MD", "street": "933 MOUNT HERMON RD", "postcode": "21804"}}},
{"geometry": {"type": "Point", "coordinates": [-75.5826483787, 38.3820260212]}, "type": "Feature", "properties": {"collection_times": [{"days": "Mon-Sat", "time": "10:45am"}, {"days": "Sun", "time": "Closed"}], "id": "2180400022", "name": "USPS COLLECTION BOX - BLUE BOX", "address": {"city": "SALISBURY", "state": "MD", "street": "811 PRISCILLA ST", "postcode": "21804"}}},
{"geometry": {"type": "Point", "coordinates": [-75.5857750192, 38.3682887309]}, "type": "Feature", "properties": {"collection_times": [{"days": "Mon-Fri", "time": "5:00pm"}, {"days": "Sat", "time": "2:00pm"}, {"days": "Sun", "time": "Closed"}], "id": "2180400026", "name": "USPS COLLECTION BOX - BLUE BOX", "address": {"city": "SALISBURY", "state": "MD", "street": "816 E SALISBURY PKWY", "postcode": "21804"}}},
{"geometry": {"type": "Point", "coordinates": [-75.5711784968, 38.3561610653]}, "type": "Feature", "properties": {"collection_times": [{"days": "Mon-Fri", "time": "5:00pm"}, {"days": "Sat", "time": "2:00pm"}, {"days": "Sun", "time": "Closed"}], "id": "2180400028", "name": "USPS COLLECTION BOX - EXPRESS", "address": {"city": "SALISBURY", "state": "MD", "street": "816 E SALISBURY PKWY", "postcode": "21804"}}},
{"geometry": {"type": "Point", "coordinates": [-75.5857750192, 38.3682887309]}, "type": "Feature", "properties": {"collection_times": [{"days": "Mon-Fri", "time": "5:00pm"}, {"days": "Sat", "time": "2:00pm"}, {"days": "Sun", "time": "Closed"}], "id": "2180400029", "name": "USPS COLLECTION BOX - BLUE BOX", "address": {"city": "SALISBURY", "state": "MD", "street": "816 E SALISBURY PKWY", "postcode": "21804"}}},
{"geometry": {"type": "Point", "coordinates": [-75.5479940014, 38.3642543101]}, "type": "Feature", "properties": {"collection_times": [{"days": "Mon-Sat", "time": "10:30am"}, {"days": "Sun", "time": "Closed"}], "id": "2180400035", "name": "USPS COLLECTION BOX - BLUE BOX", "address": {"city": "SALISBURY", "state": "MD", "street": "329 TILGHMAN RD", "postcode": "21804"}}},
{"geometry": {"type": "Point", "coordinates": [-75.5840490034, 38.3511851923]}, "type": "Feature", "properties": {"collection_times": [{"days": "Mon-Sat", "time": "10:00am"}, {"days": "Sun", "time": "Closed"}], "id": "2180400036", "name": "USPS COLLECTION BOX - BLUE BOX", "address": {"city": "SALISBURY", "state": "MD", "street": "520 SNOW HILL RD", "postcode": "21804"}}},
{"geometry": {"type": "Point", "coordinates": [-75.5735598375, 38.3676611055]}, "type": "Feature", "properties": {"collection_times": [{"days": "Mon-Fri", "time": "4:00pm"}, {"days": "Sat", "time": "10:15am"}, {"days": "Sun", "time": "Closed"}], "id": "2180400038", "name": "USPS COLLECTION BOX - BLUE BOX", "address": {"city": "SALISBURY", "state": "MD", "street": "315 CIVIC AVE", "postcode": "21804"}}},
{"geometry": {"type": "Point", "coordinates": [-75.5798270444, 38.3436747354]}, "type": "Feature", "properties": {"collection_times": [{"days": "Mon-Sat", "time": "10:00am"}, {"days": "Sun", "time": "Closed"}], "id": "2180400042", "name": "USPS COLLECTION BOX - BLUE BOX", "address": {"city": "SALISBURY", "state": "MD", "street": "835 SNOW HILL RD", "postcode": "21804"}}},
{"geometry": {"type": "Point", "coordinates": [-75.5648551257, 38.3659460155]}, "type": "Feature", "properties": {"collection_times": [{"days": "Mon-Fri", "time": "4:00pm"}, {"days": "Sat", "time": "10:15am"}, {"days": "Sun", "time": "Closed"}], "id": "2180400043", "name": "USPS COLLECTION BOX - BLUE BOX", "address": {"city": "SALISBURY", "state": "MD", "street": "1323 MOUNT HERMON RD", "postcode": "21804"}}},
{"geometry": {"type": "Point", "coordinates": [-75.5781022999, 38.3513665218]}, "type": "Feature", "properties": {"collection_times": [{"days": "Mon-Sat", "time": "10:00am"}, {"days": "Sun", "time": "Closed"}], "id": "2180400046", "name": "USPS COLLECTION BOX - BLUE BOX", "address": {"city": "SALISBURY", "state": "MD", "street": "710 COLLEGE LN", "postcode": "21804"}}},
{"geometry": {"type": "Point", "coordinates": [-75.5475387812, 38.3687413065]}, "type": "Feature", "properties": {"collection_times": [{"days": "Mon-Sat", "time": "10:30am"}, {"days": "Sun", "time": "Closed"}], "id": "2180400047", "name": "USPS COLLECTION BOX - BLUE BOX", "address": {"city": "SALISBURY", "state": "MD", "street": "258 TILGHMAN RD", "postcode": "21804"}}},
{"geometry": {"type": "Point", "coordinates": [-75.5545504381, 38.3682722537]}, "type": "Feature", "properties": {"collection_times": [{"days": "Mon-Sat", "time": "10:45am"}, {"days": "Sun", "time": "Closed"}], "id": "2180400048", "name": "USPS COLLECTION BOX - BLUE BOX", "address": {"city": "SALISBURY", "state": "MD", "street": "224 PHILLIP MORRIS DR", "postcode": "21804"}}},
{"geometry": {"type": "Point", "coordinates": [-75.5857750192, 38.3682887309]}, "type": "Feature", "properties": {"collection_times": [{"days": "Mon-Fri", "time": "5:15pm"}, {"days": "Sat", "time": "2:00pm"}, {"days": "Sun", "time": "Closed"}], "id": "2180400051", "name": "USPS COLLECTION BOX - PO LOBBY", "address": {"city": "SALISBURY", "state": "MD", "street": "816 E SALISBURY PKWY", "postcode": "21804"}}},
{"geometry": {"type": "Point", "coordinates": [-75.5974005193, 38.3478952315]}, "type": "Feature", "properties": {"collection_times": [{"days": "Mon-Fri", "time": "4:00pm"}, {"days": "Sat", "time": "1:15pm"}, {"days": "Sun", "time": "Closed"}], "id": "2180400052", "name": "USPS COLLECTION BOX - BLUE BOX", "address": {"city": "SALISBURY", "state": "MD", "street": "119 E COLLEGE AVE", "postcode": "21804"}}},
{"geometry": {"type": "Point", "coordinates": [-75.599014, 38.34828]}, "type": "Feature", "properties": {"collection_times": [{"days": "Mon-Fri", "time": "4:30pm"}, {"days": "Sat-Sun", "time": "Closed"}], "id": "2180400054", "name": "USPS COLLECTION BOX - PO LOBBY", "address": {"city": "SALISBURY", "state": "MD", "street": "119 E COLLEGE AVE", "postcode": "21804"}}},
{"geometry": {"type": "Point", "coordinates": [-75.5373159955, 38.3323199712]}, "type": "Feature", "properties": {"collection_times": [{"days": "Mon-Fri", "time": "4:00pm"}, {"days": "Sat", "time": "10:30am"}, {"days": "Sun", "time": "Closed"}], "id": "2180400055", "name": "USPS COLLECTION BOX - BLUE BOX", "address": {"city": "SALISBURY", "state": "MD", "street": "6508 DEER POINTE DR", "postcode": "21804"}}},
{"geometry": {"type": "Point", "coordinates": [-75.5711784968, 38.3561610653]}, "type": "Feature", "properties": {"collection_times": [{"days": "Mon-Fri", "time": "4:00pm"}, {"days": "Sat", "time": "10:30am"}, {"days": "Sun", "time": "Closed"}], "id": "2180400056", "name": "USPS COLLECTION BOX - BLUE BOX", "address": {"city": "SALISBURY", "state": "MD", "street": "31901 TRI-COUNTY WAY", "postcode": "21804"}}},
{"geometry": {"type": "Point", "coordinates": [-75.6865282583, 38.292795153]}, "type": "Feature", "properties": {"collection_times": [{"days": "Mon-Fri", "time": "4:45pm"}, {"days": "Sat", "time": "11:45am"}, {"days": "Sun", "time": "Closed"}], "id": "2181000000", "name": "USPS COLLECTION BOX - BLUE BOX", "address": {"city": "ALLEN", "state": "MD", "street": "3519 ALLEN RD", "postcode": "21810"}}},
{"geometry": {"type": "Point", "coordinates": [-75.6865282583, 38.292795153]}, "type": "Feature", "properties": {"collection_times": [{"days": "Mon-Fri", "time": "4:45pm"}, {"days": "Sat", "time": "11:45am"}, {"days": "Sun", "time": "Closed"}], "id": "2181000001", "name": "USPS COLLECTION BOX - PO LOBBY", "address": {"city": "ALLEN", "state": "MD", "street": "3519 ALLEN RD", "postcode": "21810"}}},
{"geometry": {"type": "Point", "coordinates": [-75.1230646427, 38.3216746826]}, "type": "Feature", "properties": {"collection_times": [{"days": "Mon-Sat", "time": "12:00pm"}, {"days": "Sun", "time": "Closed"}], "id": "2181100000", "name": "USPS COLLECTION BOX - BLUE BOX", "address": {"city": "BERLIN", "state": "MD", "street": "1 MYSTIC HARBOUR BLVD", "postcode": "21811"}}},
{"geometry": {"type": "Point", "coordinates": [-75.17163914, 38.3789325641]}, "type": "Feature", "properties": {"collection_times": [{"days": "Mon-Sat", "time": "12:00pm"}, {"days": "Sun", "time": "Closed"}], "id": "2181100001", "name": "USPS COLLECTION BOX - BLUE BOX", "address": {"city": "BERLIN", "state": "MD", "street": "11070 CATHELL RD", "postcode": "21811"}}},
{"geometry": {"type": "Point", "coordinates": [-75.1758608687, 38.3861147471]}, "type": "Feature", "properties": {"collection_times": [{"days": "Mon-Sat", "time": "12:00pm"}, {"days": "Sun", "time": "Closed"}], "id": "2181100003", "name": "USPS COLLECTION BOX - BLUE BOX", "address": {"city": "BERLIN", "state": "MD", "street": "29 OCEAN PKWY", "postcode": "21811"}}},
{"geometry": {"type": "Point", "coordinates": [-75.1771982516, 38.3840685725]}, "type": "Feature", "properties": {"collection_times": [{"days": "Mon-Sat", "time": "12:00pm"}, {"days": "Sun", "time": "Closed"}], "id": "2181100004", "name": "USPS COLLECTION BOX - BLUE BOX", "address": {"city": "BERLIN", "state": "MD", "street": "7 OCEAN PKWY", "postcode": "21811"}}},
{"geometry": {"type": "Point", "coordinates": [-75.2284949095, 38.3286995624]}, "type": "Feature", "properties": {"collection_times": [{"days": "Mon-Fri", "time": "4:30pm"}, {"days": "Sat", "time": "2:00pm"}, {"days": "Sun", "time": "Closed"}], "id": "2181100005", "name": "USPS COLLECTION BOX - BLUE BOX", "address": {"city": "BERLIN", "state": "MD", "street": "20 BROAD ST", "postcode": "21811"}}},
{"geometry": {"type": "Point", "coordinates": [-75.2014749361, 38.3395474289]}, "type": "Feature", "properties": {"collection_times": [{"days": "Mon-Sat", "time": "10:00am"}, {"days": "Sun", "time": "Closed"}], "id": "2181100006", "name": "USPS COLLECTION BOX - BLUE BOX", "address": {"city": "BERLIN", "state": "MD", "street": "10452 OLD OCEAN CITY BLVD", "postcode": "21811"}}},
{"geometry": {"type": "Point", "coordinates": [-75.1605015869, 38.3973489756]}, "type": "Feature", "properties": {"collection_times": [{"days": "Mon-Sat", "time": "12:00pm"}, {"days": "Sun", "time": "Closed"}], "id": "2181100010", "name": "USPS COLLECTION BOX - BLUE BOX", "address": {"city": "BERLIN", "state": "MD", "street": "239 OCEAN PKWY", "postcode": "21811"}}},
{"geometry": {"type": "Point", "coordinates": [-75.2144589642, 38.3306214498]}, "type": "Feature", "properties": {"collection_times": [{"days": "Mon-Sat", "time": "10:00am"}, {"days": "Sun", "time": "Closed"}], "id": "2181100013", "name": "USPS COLLECTION BOX - BLUE BOX", "address": {"city": "BERLIN", "state": "MD", "street": "314 FRANKLIN AVE", "postcode": "21811"}}},
{"geometry": {"type": "Point", "coordinates": [-75.2161294418, 38.3339249605]}, "type": "Feature", "properties": {"collection_times": [{"days": "Mon-Sat", "time": "10:00am"}, {"days": "Sun", "time": "Closed"}], "id": "2181100015", "name": "USPS COLLECTION BOX - BLUE BOX", "address": {"city": "BERLIN", "state": "MD", "street": "10136 OLD OCEAN CITY BLVD", "postcode": "21811"}}},
{"geometry": {"type": "Point", "coordinates": [-75.2284949095, 38.3286995624]}, "type": "Feature", "properties": {"collection_times": [{"days": "Mon-Fri", "time": "4:30pm"}, {"days": "Sat", "time": "2:00pm"}, {"days": "Sun", "time": "Closed"}], "id": "2181100016", "name": "USPS COLLECTION BOX - BLUE BOX", "address": {"city": "BERLIN", "state": "MD", "street": "20 BROAD ST", "postcode": "21811"}}},
{"geometry": {"type": "Point", "coordinates": [-75.2284949095, 38.3286995624]}, "type": "Feature", "properties": {"collection_times": [{"days": "Mon-Fri", "time": "4:30pm"}, {"days": "Sat", "time": "2:00pm"}, {"days": "Sun", "time": "Closed"}], "id": "2181100017", "name": "USPS COLLECTION BOX - PO LOBBY", "address": {"city": "BERLIN", "state": "MD", "street": "20 BROAD ST", "postcode": "21811"}}},
{"geometry": {"type": "Point", "coordinates": [-75.1771982516, 38.3840685725]}, "type": "Feature", "properties": {"collection_times": [{"days": "Mon-Sat", "time": "12:00pm"}, {"days": "Sun", "time": "Closed"}], "id": "2181100018", "name": "USPS COLLECTION BOX - BLUE BOX", "address": {"city": "BERLIN", "state": "MD", "street": "1 OCEAN PINES/SOUTH GATE", "postcode": "21811"}}},
{"geometry": {"type": "Point", "coordinates": [-75.1660847408, 38.3792619921]}, "type": "Feature", "properties": {"collection_times": [{"days": "Mon-Fri", "time": "5:00pm"}, {"days": "Sat", "time": "3:00pm"}, {"days": "Sun", "time": "Closed"}], "id": "2181100019", "name": "USPS COLLECTION BOX - BLUE BOX", "address": {"city": "BERLIN", "state": "MD", "street": "11115 LAKE VIEW LN", "postcode": "21811"}}},
{"geometry": {"type": "Point", "coordinates": [-75.1660847408, 38.3792619921]}, "type": "Feature", "properties": {"collection_times": [{"days": "Mon-Fri", "time": "5:00pm"}, {"days": "Sat", "time": "3:00pm"}, {"days": "Sun", "time": "Closed"}], "id": "2181100021", "name": "USPS COLLECTION BOX - PO LOBBY", "address": {"city": "BERLIN", "state": "MD", "street": "11115 LAKE VIEW LN", "postcode": "21811"}}},
{"geometry": {"type": "Point", "coordinates": [-75.1660847408, 38.3792619921]}, "type": "Feature", "properties": {"collection_times": [{"days": "Mon-Fri", "time": "5:00pm"}, {"days": "Sat", "time": "3:00pm"}, {"days": "Sun", "time": "Closed"}], "id": "2181100022", "name": "USPS COLLECTION BOX - PO LOBBY", "address": {"city": "BERLIN", "state": "MD", "street": "11115 LAKE VIEW LN", "postcode": "21811"}}},
{"geometry": {"type": "Point", "coordinates": [-75.191655424, 38.446473088]}, "type": "Feature", "properties": {"collection_times": [{"days": "Mon-Fri", "time": "4:15pm"}, {"days": "Sat", "time": "10:30am"}, {"days": "Sun", "time": "Closed"}], "id": "2181300000", "name": "USPS COLLECTION BOX - BLUE BOX", "address": {"city": "BISHOPVILLE", "state": "MD", "street": "10656 BISHOPVILLE RD", "postcode": "21813"}}},
{"geometry": {"type": "Point", "coordinates": [-75.191655424, 38.446473088]}, "type": "Feature", "properties": {"collection_times": [{"days": "Mon-Fri", "time": "4:00pm"}, {"days": "Sat", "time": "10:30am"}, {"days": "Sun", "time": "Closed"}], "id": "2181300001", "name": "USPS COLLECTION BOX - PO LOBBY", "address": {"city": "BISHOPVILLE", "state": "MD", "street": "10656 BISHOPVILLE RD", "postcode": "21813"}}},
{"geometry": {"type": "Point", "coordinates": [-75.191655424, 38.446473088]}, "type": "Feature", "properties": {"collection_times": [{"days": "Mon-Fri", "time": "4:00pm"}, {"days": "Sat", "time": "10:30am"}, {"days": "Sun", "time": "Closed"}], "id": "2181300002", "name": "USPS COLLECTION BOX - PO LOBBY", "address": {"city": "BISHOPVILLE", "state": "MD", "street": "10656 BISHOPVILLE RD", "postcode": "21813"}}},
{"geometry": {"type": "Point", "coordinates": [-75.8921045121, 38.2957462442]}, "type": "Feature", "properties": {"collection_times": [{"days": "Mon-Fri", "time": "4:00pm"}, {"days": "Sat", "time": "10:30am"}, {"days": "Sun", "time": "Closed"}], "id": "2181400000", "name": "USPS COLLECTION BOX - BLUE BOX", "address": {"city": "BIVALVE", "state": "MD", "street": "20972 NANTICOKE RD", "postcode": "21814"}}},
{"geometry": {"type": "Point", "coordinates": [-75.8921045121, 38.2957462442]}, "type": "Feature", "properties": {"collection_times": [{"days": "Mon-Fri", "time": "4:00pm"}, {"days": "Sat", "time": "10:30am"}, {"days": "Sun", "time": "Closed"}], "id": "2181400001", "name": "USPS COLLECTION BOX - PO LOBBY", "address": {"city": "BIVALVE", "state": "MD", "street": "20972 NANTICOKE RD", "postcode": "21814"}}},
{"geometry": {"type": "Point", "coordinates": [-75.8951387356, 38.2868143425]}, "type": "Feature", "properties": {"collection_times": [{"days": "Mon-Sat", "time": "10:00am"}, {"days": "Sun", "time": "Closed"}], "id": "2181400003", "name": "USPS COLLECTION BOX - BLUE BOX", "address": {"city": "BIVALVE", "state": "MD", "street": "20815 OAK GROVE CHURCH RD", "postcode": "21814"}}},
{"geometry": {"type": "Point", "coordinates": [-75.8547270258, 37.982002043]}, "type": "Feature", "properties": {"collection_times": [{"days": "Mon-Fri", "time": "5:00pm"}, {"days": "Sat", "time": "3:30pm"}, {"days": "Sun", "time": "Closed"}], "id": "2181700001", "name": "USPS COLLECTION BOX - BLUE BOX", "address": {"city": "CRISFIELD", "state": "MD", "street": "400 W MAIN ST", "postcode": "21817"}}},
{"geometry": {"type": "Point", "coordinates": [-75.8567219499, 37.9812666685]}, "type": "Feature", "properties": {"collection_times": [{"days": "Mon-Sat", "time": "10:02am"}, {"days": "Sun", "time": "Closed"}], "id": "2181700002", "name": "USPS COLLECTION BOX - BLUE BOX", "address": {"city": "CRISFIELD", "state": "MD", "street": "619 W MAIN ST", "postcode": "21817"}}},
{"geometry": {"type": "Point", "coordinates": [-75.8614441062, 37.9790522711]}, "type": "Feature", "properties": {"collection_times": [{"days": "Mon-Sat", "time": "10:00am"}, {"days": "Sun", "time": "Closed"}], "id": "2181700003", "name": "USPS COLLECTION BOX - BLUE BOX", "address": {"city": "CRISFIELD", "state": "MD", "street": "952 W MAIN ST", "postcode": "21817"}}},
{"geometry": {"type": "Point", "coordinates": [-75.8446547745, 37.9816231442]}, "type": "Feature", "properties": {"collection_times": [{"days": "Mon-Sat", "time": "10:06am"}, {"days": "Sun", "time": "Closed"}], "id": "2181700007", "name": "USPS COLLECTION BOX - BLUE BOX", "address": {"city": "CRISFIELD", "state": "MD", "street": "2 N SOMERSET AVE", "postcode": "21817"}}},
{"geometry": {"type": "Point", "coordinates": [-75.8457575681, 37.9829357933]}, "type": "Feature", "properties": {"collection_times": [{"days": "Mon-Sat", "time": "10:08am"}, {"days": "Sun", "time": "Closed"}], "id": "2181700009", "name": "USPS COLLECTION BOX - BLUE BOX", "address": {"city": "CRISFIELD", "state": "MD", "street": "46 W CHESAPEAKE AVE", "postcode": "21817"}}},
{"geometry": {"type": "Point", "coordinates": [-75.8442372974, 37.9910158522]}, "type": "Feature", "properties": {"collection_times": [{"days": "Mon-Sat", "time": "10:12am"}, {"days": "Sun", "time": "Closed"}], "id": "2181700010", "name": "USPS COLLECTION BOX - BLUE BOX", "address": {"city": "CRISFIELD", "state": "MD", "street": "12 MARYLAND AVE", "postcode": "21817"}}},
{"geometry": {"type": "Point", "coordinates": [-75.8469404394, 37.987679123]}, "type": "Feature", "properties": {"collection_times": [{"days": "Mon-Sat", "time": "10:10am"}, {"days": "Sun", "time": "Closed"}], "id": "2181700011", "name": "USPS COLLECTION BOX - BLUE BOX", "address": {"city": "CRISFIELD", "state": "MD", "street": "101 POTOMAC ST", "postcode": "21817"}}},
{"geometry": {"type": "Point", "coordinates": [-75.8547270258, 37.982002043]}, "type": "Feature", "properties": {"collection_times": [{"days": "Mon-Fri", "time": "4:45pm"}, {"days": "Sat", "time": "3:30pm"}, {"days": "Sun", "time": "Closed"}], "id": "2181700012", "name": "USPS COLLECTION BOX - PO LOBBY", "address": {"city": "CRISFIELD", "state": "MD", "street": "400 W MAIN ST", "postcode": "21817"}}},
{"geometry": {"type": "Point", "coordinates": [-75.9487209607, 38.1592376607]}, "type": "Feature", "properties": {"collection_times": [{"days": "Mon-Fri", "time": "3:45pm"}, {"days": "Sat", "time": "10:45am"}, {"days": "Sun", "time": "Closed"}], "id": "2182100000", "name": "USPS COLLECTION BOX - BLUE BOX", "address": {"city": "DEAL ISLAND", "state": "MD", "street": "10051 DEAL ISLAND RD", "postcode": "21821"}}},
{"geometry": {"type": "Point", "coordinates": [-75.9487209607, 38.1592376607]}, "type": "Feature", "properties": {"collection_times": [{"days": "Mon-Fri", "time": "3:45pm"}, {"days": "Sat", "time": "10:45am"}, {"days": "Sun", "time": "Closed"}], "id": "2182100001", "name": "USPS COLLECTION BOX - PO LOBBY", "address": {"city": "DEAL ISLAND", "state": "MD", "street": "10051 DEAL ISLAND RD", "postcode": "21821"}}},
{"geometry": {"type": "Point", "coordinates": [-75.6515914101, 38.2809488576]}, "type": "Feature", "properties": {"collection_times": [{"days": "Mon-Fri", "time": "4:45pm"}, {"days": "Sat", "time": "11:00am"}, {"days": "Sun", "time": "Closed"}], "id": "2182200000", "name": "USPS COLLECTION BOX - BLUE BOX", "address": {"city": "EDEN", "state": "MD", "street": "31676 EDEN ALLEN RD", "postcode": "21822"}}},
{"geometry": {"type": "Point", "coordinates": [-75.6515914101, 38.2809488576]}, "type": "Feature", "properties": {"collection_times": [{"days": "Mon-Fri", "time": "4:45pm"}, {"days": "Sat", "time": "11:00am"}, {"days": "Sun", "time": "Closed"}], "id": "2182200001", "name": "USPS COLLECTION BOX - PO LOBBY", "address": {"city": "EDEN", "state": "MD", "street": "31676 EDEN ALLEN RD", "postcode": "21822"}}},
{"geometry": {"type": "Point", "coordinates": [-75.6515914101, 38.2809488576]}, "type": "Feature", "properties": {"collection_times": [{"days": "Mon-Fri", "time": "4:45pm"}, {"days": "Sat", "time": "11:00am"}, {"days": "Sun", "time": "Closed"}], "id": "2182200002", "name": "USPS COLLECTION BOX - PO LOBBY", "address": {"city": "EDEN", "state": "MD", "street": "31676 EDEN ALLEN RD", "postcode": "21822"}}},
{"geometry": {"type": "Point", "coordinates": [-76.0303784995, 37.9943605165]}, "type": "Feature", "properties": {"collection_times": [{"days": "Mon-Sat", "time": "7:00am"}, {"days": "Sun", "time": "Closed"}], "id": "2182400000", "name": "USPS COLLECTION BOX - BLUE BOX", "address": {"city": "EWELL", "state": "MD", "street": "20925 CALEB JONES RD", "postcode": "21824"}}},
{"geometry": {"type": "Point", "coordinates": [-76.0303784995, 37.9943605165]}, "type": "Feature", "properties": {"collection_times": [{"days": "Mon-Fri", "time": "3:30pm"}, {"days": "Sat", "time": "2:15pm"}, {"days": "Sun", "time": "Closed"}], "id": "2182400001", "name": "USPS COLLECTION BOX - PO LOBBY", "address": {"city": "EWELL", "state": "MD", "street": "20925 CALEB JONES RD", "postcode": "21824"}}},
{"geometry": {"type": "Point", "coordinates": [-75.61865934, 38.3207828179]}, "type": "Feature", "properties": {"collection_times": [{"days": "Mon-Fri", "time": "5:15pm"}, {"days": "Sat", "time": "12:15pm"}, {"days": "Sun", "time": "Closed"}], "id": "2182600000", "name": "USPS COLLECTION BOX - BLUE BOX", "address": {"city": "FRUITLAND", "state": "MD", "street": "103 N DULANY AVE", "postcode": "21826"}}},
{"geometry": {"type": "Point", "coordinates": [-75.61865934, 38.3207828179]}, "type": "Feature", "properties": {"collection_times": [{"days": "Mon-Fri", "time": "5:15pm"}, {"days": "Sat", "time": "12:15pm"}, {"days": "Sun", "time": "Closed"}], "id": "2182600001", "name": "USPS COLLECTION BOX - BLUE BOX", "address": {"city": "FRUITLAND", "state": "MD", "street": "103 N DULANY AVE", "postcode": "21826"}}},
{"geometry": {"type": "Point", "coordinates": [-75.6187058583, 38.3208004861]}, "type": "Feature", "properties": {"collection_times": [{"days": "Mon-Fri", "time": "5:15pm"}, {"days": "Sat", "time": "12:15pm"}, {"days": "Sun", "time": "Closed"}], "id": "2182600002", "name": "USPS COLLECTION BOX - PO LOBBY", "address": {"city": "FRUITLAND", "state": "MD", "street": "201 E MAIN ST", "postcode": "21826"}}},
{"geometry": {"type": "Point", "coordinates": [-75.6187058583, 38.3208004861]}, "type": "Feature", "properties": {"collection_times": [{"days": "Mon-Fri", "time": "5:15pm"}, {"days": "Sat", "time": "12:15pm"}, {"days": "Sun", "time": "Closed"}], "id": "2182600003", "name": "USPS COLLECTION BOX - PO LOBBY", "address": {"city": "FRUITLAND", "state": "MD", "street": "201 E MAIN ST", "postcode": "21826"}}},
{"geometry": {"type": "Point", "coordinates": [-75.4016386952, 38.0773317451]}, "type": "Feature", "properties": {"collection_times": [{"days": "Mon-Fri", "time": "4:30pm"}, {"days": "Sat", "time": "11:45am"}, {"days": "Sun", "time": "Closed"}], "id": "2182900000", "name": "USPS COLLECTION BOX - BLUE BOX", "address": {"city": "GIRDLETREE", "state": "MD", "street": "2744 SNOW HILL RD", "postcode": "21829"}}},
{"geometry": {"type": "Point", "coordinates": [-75.4016386952, 38.0773317451]}, "type": "Feature", "properties": {"collection_times": [{"days": "Mon-Fri", "time": "1:30pm"}, {"days": "Sat", "time": "11:45am"}, {"days": "Sun", "time": "Closed"}], "id": "2182900001", "name": "USPS COLLECTION BOX - PO LOBBY", "address": {"city": "GIRDLETREE", "state": "MD", "street": "2744 SNOW HILL RD", "postcode": "21829"}}},
{"geometry": {"type": "Point", "coordinates": [-75.4016386952, 38.0773317451]}, "type": "Feature", "properties": {"collection_times": [{"days": "Mon-Fri", "time": "1:30pm"}, {"days": "Sat", "time": "11:45am"}, {"days": "Sun", "time": "Closed"}], "id": "2182900002", "name": "USPS COLLECTION BOX - PO LOBBY", "address": {"city": "GIRDLETREE", "state": "MD", "street": "2744 SNOW HILL RD", "postcode": "21829"}}},
{"geometry": {"type": "Point", "coordinates": [-75.6892210682, 38.4187211007]}, "type": "Feature", "properties": {"collection_times": [{"days": "Mon-Fri", "time": "4:45pm"}, {"days": "Sat", "time": "10:45am"}, {"days": "Sun", "time": "Closed"}], "id": "2183000000", "name": "USPS COLLECTION BOX - BLUE BOX", "address": {"city": "HEBRON", "state": "MD", "street": "102 N MAIN ST", "postcode": "21830"}}},
{"geometry": {"type": "Point", "coordinates": [-75.6892210682, 38.4187211007]}, "type": "Feature", "properties": {"collection_times": [{"days": "Mon-Fri", "time": "4:45pm"}, {"days": "Sat", "time": "10:45am"}, {"days": "Sun", "time": "Closed"}], "id": "2183000001", "name": "USPS COLLECTION BOX - PO LOBBY", "address": {"city": "HEBRON", "state": "MD", "street": "102 N MAIN ST", "postcode": "21830"}}},
{"geometry": {"type": "Point", "coordinates": [-75.6892210682, 38.4187211007]}, "type": "Feature", "properties": {"collection_times": [{"days": "Mon-Fri", "time": "4:45pm"}, {"days": "Sat", "time": "10:45am"}, {"days": "Sun", "time": "Closed"}], "id": "2183000002", "name": "USPS COLLECTION BOX - PO LOBBY", "address": {"city": "HEBRON", "state": "MD", "street": "102 N MAIN ST", "postcode": "21830"}}},
{"geometry": {"type": "Point", "coordinates": [-75.9444265111, 38.5387863557]}, "type": "Feature", "properties": {"collection_times": [{"days": "Mon-Fri", "time": "4:30pm"}, {"days": "Sat", "time": "11:00am"}, {"days": "Sun", "time": "Closed"}], "id": "2183500000", "name": "USPS COLLECTION BOX - BLUE BOX", "address": {"city": "LINKWOOD", "state": "MD", "street": "3843 OCEAN GTWY", "postcode": "21835"}}},
{"geometry": {"type": "Point", "coordinates": [-75.9444265111, 38.5387863557]}, "type": "Feature", "properties": {"collection_times": [{"days": "Mon-Fri", "time": "4:30pm"}, {"days": "Sat", "time": "11:00am"}, {"days": "Sun", "time": "Closed"}], "id": "2183500001", "name": "USPS COLLECTION BOX - PO LOBBY", "address": {"city": "LINKWOOD", "state": "MD", "street": "3843 OCEAN GTWY", "postcode": "21835"}}},
{"geometry": {"type": "Point", "coordinates": [-75.7581080203, 38.4637416587]}, "type": "Feature", "properties": {"collection_times": [{"days": "Mon-Sat", "time": "9:30am"}, {"days": "Sun", "time": "Closed"}], "id": "2183700000", "name": "USPS COLLECTION BOX - BLUE BOX", "address": {"city": "MARDELA SPRINGS", "state": "MD", "street": "24948 OCEAN GTWY", "postcode": "21837"}}},
{"geometry": {"type": "Point", "coordinates": [-75.7550202265, 38.4623187911]}, "type": "Feature", "properties": {"collection_times": [{"days": "Mon-Fri", "time": "4:45pm"}, {"days": "Sat", "time": "11:00am"}, {"days": "Sun", "time": "Closed"}], "id": "2183700001", "name": "USPS COLLECTION BOX - BLUE BOX", "address": {"city": "MARDELA SPRINGS", "state": "MD", "street": "301 RAILROAD AVE", "postcode": "21837"}}},
{"geometry": {"type": "Point", "coordinates": [-75.7550202265, 38.4623187911]}, "type": "Feature", "properties": {"collection_times": [{"days": "Mon-Fri", "time": "4:45pm"}, {"days": "Sat", "time": "11:00am"}, {"days": "Sun", "time": "Closed"}], "id": "2183700002", "name": "USPS COLLECTION BOX - PO LOBBY", "address": {"city": "MARDELA SPRINGS", "state": "MD", "street": "301 RAILROAD AVE", "postcode": "21837"}}},
{"geometry": {"type": "Point", "coordinates": [-75.7550202265, 38.4623187911]}, "type": "Feature", "properties": {"collection_times": [{"days": "Mon-Fri", "time": "4:45pm"}, {"days": "Sat", "time": "11:00am"}, {"days": "Sun", "time": "Closed"}], "id": "2183700003", "name": "USPS COLLECTION BOX - PO LOBBY", "address": {"city": "MARDELA SPRINGS", "state": "MD", "street": "301 RAILROAD AVE", "postcode": "21837"}}},
{"geometry": {"type": "Point", "coordinates": [-75.7664838165, 38.0398675339]}, "type": "Feature", "properties": {"collection_times": [{"days": "Mon-Fri", "time": "4:45pm"}, {"days": "Sat", "time": "11:45am"}, {"days": "Sun", "time": "Closed"}], "id": "2183800000", "name": "USPS COLLECTION BOX - BLUE BOX", "address": {"city": "MARION STATION", "state": "MD", "street": "28530 HUDSON CORNER RD", "postcode": "21838"}}},
{"geometry": {"type": "Point", "coordinates": [-75.7325759005, 38.0160631729]}, "type": "Feature", "properties": {"collection_times": [{"days": "Mon-Fri", "time": "4:45pm"}, {"days": "Sat", "time": "11:45am"}, {"days": "Sun", "time": "Closed"}], "id": "2183800001", "name": "USPS COLLECTION BOX - PO LOBBY", "address": {"city": "MARION STATION", "state": "MD", "street": "28350 HUDSON CENTER RD", "postcode": "21838"}}},
{"geometry": {"type": "Point", "coordinates": [-75.7325759005, 38.0160631729]}, "type": "Feature", "properties": {"collection_times": [{"days": "Mon-Fri", "time": "4:45pm"}, {"days": "Sat", "time": "11:45am"}, {"days": "Sun", "time": "Closed"}], "id": "2183800002", "name": "USPS COLLECTION BOX - PO LOBBY", "address": {"city": "MARION STATION", "state": "MD", "street": "28350 HUDSON CENTER RD", "postcode": "21838"}}},
{"geometry": {"type": "Point", "coordinates": [-75.9066221016, 38.270862431]}, "type": "Feature", "properties": {"collection_times": [{"days": "Mon-Fri", "time": "4:00pm"}, {"days": "Sat", "time": "9:30am"}, {"days": "Sun", "time": "Closed"}], "id": "2184000000", "name": "USPS COLLECTION BOX - BLUE BOX", "address": {"city": "NANTICOKE", "state": "MD", "street": "20501 NANTICOKE RD", "postcode": "21840"}}},
{"geometry": {"type": "Point", "coordinates": [-75.9066221016, 38.270862431]}, "type": "Feature", "properties": {"collection_times": [{"days": "Mon-Fri", "time": "4:15pm"}, {"days": "Sat", "time": "9:45am"}, {"days": "Sun", "time": "Closed"}], "id": "2184000002", "name": "USPS COLLECTION BOX - PO LOBBY", "address": {"city": "NANTICOKE", "state": "MD", "street": "20501 NANTICOKE RD", "postcode": "21840"}}},
{"geometry": {"type": "Point", "coordinates": [-75.9066221016, 38.270862431]}, "type": "Feature", "properties": {"collection_times": [{"days": "Mon-Fri", "time": "4:15pm"}, {"days": "Sat", "time": "9:45am"}, {"days": "Sun", "time": "Closed"}], "id": "2184000003", "name": "USPS COLLECTION BOX - PO LOBBY", "address": {"city": "NANTICOKE", "state": "MD", "street": "20501 NANTICOKE RD", "postcode": "21840"}}},
{"geometry": {"type": "Point", "coordinates": [-75.2889707656, 38.2514559245]}, "type": "Feature", "properties": {"collection_times": [{"days": "Mon-Fri", "time": "4:15pm"}, {"days": "Sat", "time": "11:00am"}, {"days": "Sun", "time": "Closed"}], "id": "2184100000", "name": "USPS COLLECTION BOX - BLUE BOX", "address": {"city": "NEWARK", "state": "MD", "street": "8420 NEWARK RD", "postcode": "21841"}}},
{"geometry": {"type": "Point", "coordinates": [-75.2889707656, 38.2514559245]}, "type": "Feature", "properties": {"collection_times": [{"days": "Mon-Fri", "time": "4:15pm"}, {"days": "Sat", "time": "11:00am"}, {"days": "Sun", "time": "Closed"}], "id": "2184100003", "name": "USPS COLLECTION BOX - PO LOBBY", "address": {"city": "NEWARK", "state": "MD", "street": "8420 NEWARK RD", "postcode": "21841"}}},
{"geometry": {"type": "Point", "coordinates": [-75.2889707656, 38.2514559245]}, "type": "Feature", "properties": {"collection_times": [{"days": "Mon-Fri", "time": "4:15pm"}, {"days": "Sat", "time": "11:00am"}, {"days": "Sun", "time": "Closed"}], "id": "2184100004", "name": "USPS COLLECTION BOX - PO LOBBY", "address": {"city": "NEWARK", "state": "MD", "street": "8420 NEWARK RD", "postcode": "21841"}}},
{"geometry": {"type": "Point", "coordinates": [-75.0851973816, 38.3359371528]}, "type": "Feature", "properties": {"collection_times": [{"days": "Mon-Fri", "time": "4:00pm"}, {"days": "Sat", "time": "10:30am"}, {"days": "Sun", "time": "Closed"}], "id": "2184200001", "name": "USPS COLLECTION BOX - BLUE BOX", "address": {"city": "OCEAN CITY", "state": "MD", "street": "408 PHILADELPHIA AVE", "postcode": "21842"}}},
{"geometry": {"type": "Point", "coordinates": [-75.1126229986, 38.3362293128]}, "type": "Feature", "properties": {"collection_times": [{"days": "Mon-Fri", "time": "1:30pm"}, {"days": "Sat", "time": "10:00am"}, {"days": "Sun", "time": "Closed"}], "id": "2184200007", "name": "USPS COLLECTION BOX - BLUE BOX", "address": {"city": "OCEAN CITY", "state": "MD", "street": "9936 STEPHEN DECATUR HWY", "postcode": "21842"}}},
{"geometry": {"type": "Point", "coordinates": [-75.1004698898, 38.3350430747]}, "type": "Feature", "properties": {"collection_times": [{"days": "Mon-Fri", "time": "1:15pm"}, {"days": "Sat", "time": "10:00am"}, {"days": "Sun", "time": "Closed"}], "id": "2184200009", "name": "USPS COLLECTION BOX - BLUE BOX", "address": {"city": "OCEAN CITY", "state": "MD", "street": "12641 OCEAN GTWY", "postcode": "21842"}}},
{"geometry": {"type": "Point", "coordinates": [-75.0813092354, 38.3408101732]}, "type": "Feature", "properties": {"collection_times": [{"days": "Mon-Fri", "time": "1:00pm"}, {"days": "Sat", "time": "10:00am"}, {"days": "Sun", "time": "Closed"}], "id": "2184200011", "name": "USPS COLLECTION BOX - BLUE BOX", "address": {"city": "OCEAN CITY", "state": "MD", "street": "1003 PHILADELPHIA AVE", "postcode": "21842"}}},
{"geometry": {"type": "Point", "coordinates": [-75.0799004919, 38.3461885398]}, "type": "Feature", "properties": {"collection_times": [{"days": "Mon-Fri", "time": "1:00pm"}, {"days": "Sat", "time": "10:00am"}, {"days": "Sun", "time": "Closed"}], "id": "2184200012", "name": "USPS COLLECTION BOX - BLUE BOX", "address": {"city": "OCEAN CITY", "state": "MD", "street": "1601 PHILADELPHIA AVE", "postcode": "21842"}}},
{"geometry": {"type": "Point", "coordinates": [-75.0524246395, 38.4485007467]}, "type": "Feature", "properties": {"collection_times": [{"days": "Mon-Fri", "time": "12:00pm"}, {"days": "Sat", "time": "11:00am"}, {"days": "Sun", "time": "Closed"}], "id": "2184200025", "name": "USPS COLLECTION BOX - BLUE BOX", "address": {"city": "OCEAN CITY", "state": "MD", "street": "14314 COASTAL HWY", "postcode": "21842"}}},
{"geometry": {"type": "Point", "coordinates": [-75.0533004103, 38.4433158115]}, "type": "Feature", "properties": {"collection_times": [{"days": "Mon-Fri", "time": "12:00pm"}, {"days": "Sat", "time": "11:00am"}, {"days": "Sun", "time": "Closed"}], "id": "2184200026", "name": "USPS COLLECTION BOX - BLUE BOX", "address": {"city": "OCEAN CITY", "state": "MD", "street": "13801 COASTAL HWY", "postcode": "21842"}}},
{"geometry": {"type": "Point", "coordinates": [-75.0545923098, 38.434540037]}, "type": "Feature", "properties": {"collection_times": [{"days": "Mon-Fri", "time": "12:15pm"}, {"days": "Sat", "time": "11:00am"}, {"days": "Sun", "time": "Closed"}], "id": "2184200028", "name": "USPS COLLECTION BOX - BLUE BOX", "address": {"city": "OCEAN CITY", "state": "MD", "street": "12913 COASTAL HWY", "postcode": "21842"}}},
{"geometry": {"type": "Point", "coordinates": [-75.0642241181, 38.3923035958]}, "type": "Feature", "properties": {"collection_times": [{"days": "Mon-Fri", "time": "5:00pm"}, {"days": "Sat", "time": "11:30am"}, {"days": "Sun", "time": "Closed"}], "id": "2184200030", "name": "USPS COLLECTION BOX - BLUE BOX", "address": {"city": "OCEAN CITY", "state": "MD", "street": "7101 COASTAL HWY", "postcode": "21842"}}},
{"geometry": {"type": "Point", "coordinates": [-75.0642241181, 38.3923035958]}, "type": "Feature", "properties": {"collection_times": [{"days": "Mon-Fri", "time": "5:00pm"}, {"days": "Sat", "time": "11:30am"}, {"days": "Sun", "time": "Closed"}], "id": "2184200031", "name": "USPS COLLECTION BOX - BLUE BOX", "address": {"city": "OCEAN CITY", "state": "MD", "street": "7101 COASTAL HWY", "postcode": "21842"}}},
{"geometry": {"type": "Point", "coordinates": [-75.0700299075, 38.3911340145]}, "type": "Feature", "properties": {"collection_times": [{"days": "Mon-Fri", "time": "5:00pm"}, {"days": "Sat", "time": "11:30am"}, {"days": "Sun", "time": "Closed"}], "id": "2184200033", "name": "USPS COLLECTION BOX - EXPRESS", "address": {"city": "OCEAN CITY", "state": "MD", "street": "7101 COASTAL HWY", "postcode": "21842"}}},
{"geometry": {"type": "Point", "coordinates": [-75.0577070246, 38.4155552986]}, "type": "Feature", "properties": {"collection_times": [{"days": "Mon-Fri", "time": "12:30pm"}, {"days": "Sat", "time": "11:00am"}, {"days": "Sun", "time": "Closed"}], "id": "2184200034", "name": "USPS COLLECTION BOX - BLUE BOX", "address": {"city": "OCEAN CITY", "state": "MD", "street": "10501 COASTAL HWY", "postcode": "21842"}}},
{"geometry": {"type": "Point", "coordinates": [-75.0591188892, 38.4080122816]}, "type": "Feature", "properties": {"collection_times": [{"days": "Mon-Fri", "time": "12:30pm"}, {"days": "Sat", "time": "11:00am"}, {"days": "Sun", "time": "Closed"}], "id": "2184200037", "name": "USPS COLLECTION BOX - BLUE BOX", "address": {"city": "OCEAN CITY", "state": "MD", "street": "9201 COASTAL HWY", "postcode": "21842"}}},
{"geometry": {"type": "Point", "coordinates": [-75.0673368115, 38.3827336065]}, "type": "Feature", "properties": {"collection_times": [{"days": "Mon-Fri", "time": "12:30pm"}, {"days": "Sat", "time": "10:00am"}, {"days": "Sun", "time": "Closed"}], "id": "2184200041", "name": "USPS COLLECTION BOX - BLUE BOX", "address": {"city": "OCEAN CITY", "state": "MD", "street": "5901 COASTAL HWY", "postcode": "21842"}}},
{"geometry": {"type": "Point", "coordinates": [-75.0724887697, 38.3642081267]}, "type": "Feature", "properties": {"collection_times": [{"days": "Mon-Fri", "time": "12:30pm"}, {"days": "Sat", "time": "10:00am"}, {"days": "Sun", "time": "Closed"}], "id": "2184200045", "name": "USPS COLLECTION BOX - BLUE BOX", "address": {"city": "OCEAN CITY", "state": "MD", "street": "3509 COASTAL HWY", "postcode": "21842"}}},
{"geometry": {"type": "Point", "coordinates": [-75.1174902682, 38.3287638179]}, "type": "Feature", "properties": {"collection_times": [{"days": "Mon-Fri", "time": "1:30pm"}, {"days": "Sat", "time": "10:00am"}, {"days": "Sun", "time": "Closed"}], "id": "2184200048", "name": "USPS COLLECTION BOX - BLUE BOX", "address": {"city": "OCEAN CITY", "state": "MD", "street": "9636 STEPHEN DECATUR HWY", "postcode": "21842"}}},
{"geometry": {"type": "Point", "coordinates": [-75.0563073876, 38.4234767358]}, "type": "Feature", "properties": {"collection_times": [{"days": "Mon-Fri", "time": "12:15pm"}, {"days": "Sat", "time": "11:00am"}, {"days": "Sun", "time": "Closed"}], "id": "2184200049", "name": "USPS COLLECTION BOX - BLUE BOX", "address": {"city": "OCEAN CITY", "state": "MD", "street": "11805 COASTAL HWY", "postcode": "21842"}}},
{"geometry": {"type": "Point", "coordinates": [-75.0618345383, 38.4261212123]}, "type": "Feature", "properties": {"collection_times": [{"days": "Mon-Fri", "time": "12:15pm"}, {"days": "Sat", "time": "11:00am"}, {"days": "Sun", "time": "Closed"}], "id": "2184200051", "name": "USPS COLLECTION BOX - BLUE BOX", "address": {"city": "OCEAN CITY", "state": "MD", "street": "201 N HERON DR", "postcode": "21842"}}},
{"geometry": {"type": "Point", "coordinates": [-75.1042082037, 38.3360366799]}, "type": "Feature", "properties": {"collection_times": [{"days": "Mon-Fri", "time": "1:15pm"}, {"days": "Sat", "time": "10:00am"}, {"days": "Sun", "time": "Closed"}], "id": "2184200052", "name": "USPS COLLECTION BOX - BLUE BOX", "address": {"city": "OCEAN CITY", "state": "MD", "street": "12445 OCEAN GTWY", "postcode": "21842"}}},
{"geometry": {"type": "Point", "coordinates": [-75.0642241181, 38.3923035958]}, "type": "Feature", "properties": {"collection_times": [{"days": "Mon-Fri", "time": "5:00pm"}, {"days": "Sat", "time": "11:30am"}, {"days": "Sun", "time": "Closed"}], "id": "2184200055", "name": "USPS COLLECTION BOX - PO LOBBY", "address": {"city": "OCEAN CITY", "state": "MD", "street": "7101 COASTAL HWY", "postcode": "21842"}}},
{"geometry": {"type": "Point", "coordinates": [-75.0851973816, 38.3359371528]}, "type": "Feature", "properties": {"collection_times": [{"days": "Mon-Fri", "time": "4:00pm"}, {"days": "Sat", "time": "10:30am"}, {"days": "Sun", "time": "Closed"}], "id": "2184200056", "name": "USPS COLLECTION BOX - PO LOBBY", "address": {"city": "OCEAN CITY", "state": "MD", "street": "408 PHILADELPHIA AVE", "postcode": "21842"}}},
{"geometry": {"type": "Point", "coordinates": [-75.0642241181, 38.3923035958]}, "type": "Feature", "properties": {"collection_times": [{"days": "Mon-Fri", "time": "5:00pm"}, {"days": "Sat", "time": "11:30am"}, {"days": "Sun", "time": "Closed"}], "id": "2184200058", "name": "USPS COLLECTION BOX - BLUE BOX", "address": {"city": "OCEAN CITY", "state": "MD", "street": "7101 COASTAL HWY", "postcode": "21842"}}},
{"geometry": {"type": "Point", "coordinates": [-75.0874237847, 38.3293495055]}, "type": "Feature", "properties": {"collection_times": [{"days": "Mon-Fri", "time": "1:30pm"}, {"days": "Sat", "time": "10:00am"}, {"days": "Sun", "time": "Closed"}], "id": "2184200059", "name": "USPS COLLECTION BOX - BLUE BOX", "address": {"city": "OCEAN CITY", "state": "MD", "street": "400 S BALTIMORE AVE", "postcode": "21842"}}},
{"geometry": {"type": "Point", "coordinates": [-75.1061902885, 38.3362703045]}, "type": "Feature", "properties": {"collection_times": [{"days": "Mon-Fri", "time": "1:15pm"}, {"days": "Sat", "time": "10:00am"}, {"days": "Sun", "time": "Closed"}], "id": "2184200060", "name": "USPS COLLECTION BOX - BLUE BOX", "address": {"city": "OCEAN CITY", "state": "MD", "street": "12320 OCEAN GTWY", "postcode": "21842"}}},
{"geometry": {"type": "Point", "coordinates": [-75.0642241181, 38.3923035958]}, "type": "Feature", "properties": {"collection_times": [{"days": "Mon-Fri", "time": "5:00pm"}, {"days": "Sat", "time": "11:30am"}, {"days": "Sun", "time": "Closed"}], "id": "2184200062", "name": "USPS COLLECTION BOX - PO LOBBY", "address": {"city": "OCEAN CITY", "state": "MD", "street": "7101 COASTAL HWY", "postcode": "21842"}}},
{"geometry": {"type": "Point", "coordinates": [-75.0642241181, 38.3923035958]}, "type": "Feature", "properties": {"collection_times": [{"days": "Mon-Fri", "time": "5:00pm"}, {"days": "Sat", "time": "11:30am"}, {"days": "Sun", "time": "Closed"}], "id": "2184200063", "name": "USPS COLLECTION BOX - PO LOBBY", "address": {"city": "OCEAN CITY", "state": "MD", "street": "7101 COASTAL HWY", "postcode": "21842"}}},
{"geometry": {"type": "Point", "coordinates": [-75.4683683654, 38.3883460041]}, "type": "Feature", "properties": {"collection_times": [{"days": "Mon-Fri", "time": "5:00pm"}, {"days": "Sat", "time": "11:00am"}, {"days": "Sun", "time": "Closed"}], "id": "2184900000", "name": "USPS COLLECTION BOX - BLUE BOX", "address": {"city": "PARSONSBURG", "state": "MD", "street": "7237 PARSONSBURG RD", "postcode": "21849"}}},
{"geometry": {"type": "Point", "coordinates": [-75.4683683654, 38.3883460041]}, "type": "Feature", "properties": {"collection_times": [{"days": "Mon-Fri", "time": "5:00pm"}, {"days": "Sat", "time": "11:00am"}, {"days": "Sun", "time": "Closed"}], "id": "2184900001", "name": "USPS COLLECTION BOX - PO LOBBY", "address": {"city": "PARSONSBURG", "state": "MD", "street": "7237 PARSONSBURG RD", "postcode": "21849"}}},
{"geometry": {"type": "Point", "coordinates": [-75.4112997782, 38.3971571704]}, "type": "Feature", "properties": {"collection_times": [{"days": "Mon-Fri", "time": "4:00pm"}, {"days": "Sat", "time": "10:45am"}, {"days": "Sun", "time": "Closed"}], "id": "2185000000", "name": "USPS COLLECTION BOX - BLUE BOX", "address": {"city": "PITTSVILLE", "state": "MD", "street": "7390 PINE ST", "postcode": "21850"}}},
{"geometry": {"type": "Point", "coordinates": [-75.4112997782, 38.3971571704]}, "type": "Feature", "properties": {"collection_times": [{"days": "Mon-Fri", "time": "4:00pm"}, {"days": "Sat", "time": "10:45am"}, {"days": "Sun", "time": "Closed"}], "id": "2185000001", "name": "USPS COLLECTION BOX - PO LOBBY", "address": {"city": "PITTSVILLE", "state": "MD", "street": "7390 PINE ST", "postcode": "21850"}}},
{"geometry": {"type": "Point", "coordinates": [-75.5679133441, 38.075003502]}, "type": "Feature", "properties": {"collection_times": [{"days": "Mon-Fri", "time": "5:00pm"}, {"days": "Sat", "time": "3:00pm"}, {"days": "Sun", "time": "Closed"}], "id": "2185100001", "name": "USPS COLLECTION BOX - BLUE BOX", "address": {"city": "POCOMOKE CITY", "state": "MD", "street": "207 MARKET ST", "postcode": "21851"}}},
{"geometry": {"type": "Point", "coordinates": [-75.5614424817, 38.0753731356]}, "type": "Feature", "properties": {"collection_times": [{"days": "Mon-Sat", "time": "12:45pm"}, {"days": "Sun", "time": "Closed"}], "id": "2185100004", "name": "USPS COLLECTION BOX - BLUE BOX", "address": {"city": "POCOMOKE CITY", "state": "MD", "street": "509 LINDEN AVE", "postcode": "21851"}}},
{"geometry": {"type": "Point", "coordinates": [-75.5493398613, 38.0620445976]}, "type": "Feature", "properties": {"collection_times": [{"days": "Mon-Sat", "time": "12:45pm"}, {"days": "Sun", "time": "Closed"}], "id": "2185100006", "name": "USPS COLLECTION BOX - BLUE BOX", "address": {"city": "POCOMOKE CITY", "state": "MD", "street": "1701 MARKET ST", "postcode": "21851"}}},
{"geometry": {"type": "Point", "coordinates": [-75.5586591731, 38.0684501392]}, "type": "Feature", "properties": {"collection_times": [{"days": "Mon-Sat", "time": "12:45pm"}, {"days": "Sun", "time": "Closed"}], "id": "2185100008", "name": "USPS COLLECTION BOX - BLUE BOX", "address": {"city": "POCOMOKE CITY", "state": "MD", "street": "1000 MARKET ST", "postcode": "21851"}}},
{"geometry": {"type": "Point", "coordinates": [-75.5524384881, 38.0679829205]}, "type": "Feature", "properties": {"collection_times": [{"days": "Mon-Fri", "time": "4:45pm"}, {"days": "Sat", "time": "12:45pm"}, {"days": "Sun", "time": "Closed"}], "id": "2185100016", "name": "USPS COLLECTION BOX - BLUE BOX", "address": {"city": "POCOMOKE CITY", "state": "MD", "street": "153 MARKET ST", "postcode": "21851"}}},
{"geometry": {"type": "Point", "coordinates": [-75.5561640806, 38.0751337518]}, "type": "Feature", "properties": {"collection_times": [{"days": "Mon-Sat", "time": "12:45pm"}, {"days": "Sun", "time": "Closed"}], "id": "2185100017", "name": "USPS COLLECTION BOX - BLUE BOX", "address": {"city": "POCOMOKE CITY", "state": "MD", "street": "2146 OLD SNOW HILL RD", "postcode": "21851"}}},
{"geometry": {"type": "Point", "coordinates": [-75.5679133441, 38.075003502]}, "type": "Feature", "properties": {"collection_times": [{"days": "Mon-Fri", "time": "4:45pm"}, {"days": "Sat", "time": "3:00pm"}, {"days": "Sun", "time": "Closed"}], "id": "2185100018", "name": "USPS COLLECTION BOX - PO LOBBY", "address": {"city": "POCOMOKE CITY", "state": "MD", "street": "207 MARKET ST", "postcode": "21851"}}},
{"geometry": {"type": "Point", "coordinates": [-75.5679133441, 38.075003502]}, "type": "Feature", "properties": {"collection_times": [{"days": "Mon-Fri", "time": "4:45pm"}, {"days": "Sat", "time": "3:00pm"}, {"days": "Sun", "time": "Closed"}], "id": "2185100019", "name": "USPS COLLECTION BOX - PO LOBBY", "address": {"city": "POCOMOKE CITY", "state": "MD", "street": "207 MARKET ST", "postcode": "21851"}}},
{"geometry": {"type": "Point", "coordinates": [-75.6955228635, 38.2143857319]}, "type": "Feature", "properties": {"collection_times": [{"days": "Mon-Fri", "time": "5:15pm"}, {"days": "Sat", "time": "1:15pm"}, {"days": "Sun", "time": "Closed"}], "id": "2185300000", "name": "USPS COLLECTION BOX - BLUE BOX", "address": {"city": "PRINCESS ANNE", "state": "MD", "street": "11690 SOMERSET AVE", "postcode": "21853"}}},
{"geometry": {"type": "Point", "coordinates": [-75.6951089339, 38.2114049981]}, "type": "Feature", "properties": {"collection_times": [{"days": "Mon-Sat", "time": "1:00pm"}, {"days": "Sun", "time": "Closed"}], "id": "2185300001", "name": "USPS COLLECTION BOX - BLUE BOX", "address": {"city": "PRINCESS ANNE", "state": "MD", "street": "11794 SOMERSET AVE", "postcode": "21853"}}},
{"geometry": {"type": "Point", "coordinates": [-75.691866469, 38.2026614623]}, "type": "Feature", "properties": {"collection_times": [{"days": "Mon-Sat", "time": "1:15pm"}, {"days": "Sun", "time": "Closed"}], "id": "2185300002", "name": "USPS COLLECTION BOX - BLUE BOX", "address": {"city": "PRINCESS ANNE", "state": "MD", "street": "11767 BEECHWOOD ST", "postcode": "21853"}}},
{"geometry": {"type": "Point", "coordinates": [-75.6943647275, 38.2039538801]}, "type": "Feature", "properties": {"collection_times": [{"days": "Mon-Sat", "time": "1:00pm"}, {"days": "Sun", "time": "Closed"}], "id": "2185300003", "name": "USPS COLLECTION BOX - BLUE BOX", "address": {"city": "PRINCESS ANNE", "state": "MD", "street": "30500 PRINCE WILLIAM ST", "postcode": "21853"}}},
{"geometry": {"type": "Point", "coordinates": [-75.6945631611, 38.207672913]}, "type": "Feature", "properties": {"collection_times": [{"days": "Mon-Sat", "time": "1:00pm"}, {"days": "Sun", "time": "Closed"}], "id": "2185300008", "name": "USPS COLLECTION BOX - BLUE BOX", "address": {"city": "PRINCESS ANNE", "state": "MD", "street": "11916 SOMERSET AVE", "postcode": "21853"}}},
{"geometry": {"type": "Point", "coordinates": [-75.7520633878, 38.3395744995]}, "type": "Feature", "properties": {"collection_times": [{"days": "Mon-Fri", "time": "4:00pm"}, {"days": "Sat", "time": "11:00am"}, {"days": "Sun", "time": "Closed"}], "id": "2185600000", "name": "USPS COLLECTION BOX - BLUE BOX", "address": {"city": "QUANTICO", "state": "MD", "street": "6300 CHERRY WALK RD", "postcode": "21856"}}},
{"geometry": {"type": "Point", "coordinates": [-75.7520633878, 38.3395744995]}, "type": "Feature", "properties": {"collection_times": [{"days": "Mon-Fri", "time": "2:00pm"}, {"days": "Sat", "time": "11:00am"}, {"days": "Sun", "time": "Closed"}], "id": "2185600001", "name": "USPS COLLECTION BOX - PO LOBBY", "address": {"city": "QUANTICO", "state": "MD", "street": "6300 CHERRY WALK RD", "postcode": "21856"}}},
{"geometry": {"type": "Point", "coordinates": [-75.7520633878, 38.3395744995]}, "type": "Feature", "properties": {"collection_times": [{"days": "Mon-Fri", "time": "2:00pm"}, {"days": "Sat", "time": "11:00am"}, {"days": "Sun", "time": "Closed"}], "id": "2185600002", "name": "USPS COLLECTION BOX - PO LOBBY", "address": {"city": "QUANTICO", "state": "MD", "street": "6300 CHERRY WALK RD", "postcode": "21856"}}},
{"geometry": {"type": "Point", "coordinates": [-75.7181671241, 38.5402531528]}, "type": "Feature", "properties": {"collection_times": [{"days": "Mon-Fri", "time": "4:00pm"}, {"days": "Sat", "time": "11:00am"}, {"days": "Sun", "time": "Closed"}], "id": "2186100000", "name": "USPS COLLECTION BOX - BLUE BOX", "address": {"city": "SHARPTOWN", "state": "MD", "street": "103 4TH ST", "postcode": "21861"}}},
{"geometry": {"type": "Point", "coordinates": [-75.7181671241, 38.5402531528]}, "type": "Feature", "properties": {"collection_times": [{"days": "Mon-Fri", "time": "4:00pm"}, {"days": "Sat", "time": "11:00am"}, {"days": "Sun", "time": "Closed"}], "id": "2186100001", "name": "USPS COLLECTION BOX - PO LOBBY", "address": {"city": "SHARPTOWN", "state": "MD", "street": "103 4TH ST", "postcode": "21861"}}},
{"geometry": {"type": "Point", "coordinates": [-75.7181671241, 38.5402531528]}, "type": "Feature", "properties": {"collection_times": [{"days": "Mon-Fri", "time": "4:00pm"}, {"days": "Sat", "time": "11:00am"}, {"days": "Sun", "time": "Closed"}], "id": "2186100002", "name": "USPS COLLECTION BOX - PO LOBBY", "address": {"city": "SHARPTOWN", "state": "MD", "street": "103 4TH ST", "postcode": "21861"}}},
{"geometry": {"type": "Point", "coordinates": [-75.7159105176, 38.5340052943]}, "type": "Feature", "properties": {"collection_times": [{"days": "Mon-Sat", "time": "10:00am"}, {"days": "Sun", "time": "Closed"}], "id": "2186100004", "name": "USPS COLLECTION BOX - BLUE BOX", "address": {"city": "SHARPTOWN", "state": "MD", "street": "806 MAIN ST", "postcode": "21861"}}},
{"geometry": {"type": "Point", "coordinates": [-75.3928334646, 38.1767769676]}, "type": "Feature", "properties": {"collection_times": [{"days": "Mon-Fri", "time": "5:00pm"}, {"days": "Sat", "time": "3:00pm"}, {"days": "Sun", "time": "Closed"}], "id": "2186300000", "name": "USPS COLLECTION BOX - BLUE BOX", "address": {"city": "SNOW HILL", "state": "MD", "street": "306 N WASHINGTON ST", "postcode": "21863"}}},
{"geometry": {"type": "Point", "coordinates": [-75.3935317436, 38.1768609862]}, "type": "Feature", "properties": {"collection_times": [{"days": "Mon-Fri", "time": "12:15pm"}, {"days": "Sat", "time": "2:30pm"}, {"days": "Sun", "time": "Closed"}], "id": "2186300003", "name": "USPS COLLECTION BOX - BLUE BOX", "address": {"city": "SNOW HILL", "state": "MD", "street": "107 PEARL ST", "postcode": "21863"}}},
{"geometry": {"type": "Point", "coordinates": [-75.3928334646, 38.1767769676]}, "type": "Feature", "properties": {"collection_times": [{"days": "Mon-Fri", "time": "5:00pm"}, {"days": "Sat", "time": "12:00pm"}, {"days": "Sun", "time": "Closed"}], "id": "2186300007", "name": "USPS COLLECTION BOX - PO LOBBY", "address": {"city": "SNOW HILL", "state": "MD", "street": "306 N WASHINGTON ST", "postcode": "21863"}}},
{"geometry": {"type": "Point", "coordinates": [-75.8744404569, 38.3240791774]}, "type": "Feature", "properties": {"collection_times": [{"days": "Mon-Fri", "time": "4:00pm"}, {"days": "Sat", "time": "9:30am"}, {"days": "Sun", "time": "Closed"}], "id": "2186500000", "name": "USPS COLLECTION BOX - BLUE BOX", "address": {"city": "TYASKIN", "state": "MD", "street": "4693 TYASKIN RD", "postcode": "21865"}}},
{"geometry": {"type": "Point", "coordinates": [-75.8744404569, 38.3240791774]}, "type": "Feature", "properties": {"collection_times": [{"days": "Mon-Fri", "time": "4:00pm"}, {"days": "Sat", "time": "9:30am"}, {"days": "Sun", "time": "Closed"}], "id": "2186500001", "name": "USPS COLLECTION BOX - PO LOBBY", "address": {"city": "TYASKIN", "state": "MD", "street": "4693 TYASKIN RD", "postcode": "21865"}}},
{"geometry": {"type": "Point", "coordinates": [-75.7860798225, 38.1036389403]}, "type": "Feature", "properties": {"collection_times": [{"days": "Mon-Fri", "time": "4:15pm"}, {"days": "Sat", "time": "11:00am"}, {"days": "Sun", "time": "Closed"}], "id": "2186700000", "name": "USPS COLLECTION BOX - BLUE BOX", "address": {"city": "UPPER FAIRMOUNT", "state": "MD", "street": "27741 FAIRMOUNT RD", "postcode": "21867"}}},
{"geometry": {"type": "Point", "coordinates": [-75.7860798225, 38.1036389403]}, "type": "Feature", "properties": {"collection_times": [{"days": "Mon-Fri", "time": "4:15pm"}, {"days": "Sat", "time": "11:00am"}, {"days": "Sun", "time": "Closed"}], "id": "2186700001", "name": "USPS COLLECTION BOX - PO LOBBY", "address": {"city": "UPPER FAIRMOUNT", "state": "MD", "street": "27741 FAIRMOUNT RD", "postcode": "21867"}}},
{"geometry": {"type": "Point", "coordinates": [-75.8272607106, 38.4836820223]}, "type": "Feature", "properties": {"collection_times": [{"days": "Mon-Fri", "time": "3:45pm"}, {"days": "Sat", "time": "11:30am"}, {"days": "Sun", "time": "Closed"}], "id": "2186900000", "name": "USPS COLLECTION BOX - BLUE BOX", "address": {"city": "VIENNA", "state": "MD", "street": "121 MARKET ST", "postcode": "21869"}}},
{"geometry": {"type": "Point", "coordinates": [-75.8272607106, 38.4836820223]}, "type": "Feature", "properties": {"collection_times": [{"days": "Mon-Fri", "time": "3:45pm"}, {"days": "Sat", "time": "11:45am"}, {"days": "Sun", "time": "Closed"}], "id": "2186900001", "name": "USPS COLLECTION BOX - PO LOBBY", "address": {"city": "VIENNA", "state": "MD", "street": "121 MARKET ST", "postcode": "21869"}}},
{"geometry": {"type": "Point", "coordinates": [-75.8272607106, 38.4836820223]}, "type": "Feature", "properties": {"collection_times": [{"days": "Mon-Fri", "time": "3:45pm"}, {"days": "Sat", "time": "11:45am"}, {"days": "Sun", "time": "Closed"}], "id": "2186900002", "name": "USPS COLLECTION BOX - PO LOBBY", "address": {"city": "VIENNA", "state": "MD", "street": "121 MARKET ST", "postcode": "21869"}}},
{"geometry": {"type": "Point", "coordinates": [-75.8257367322, 38.4863000162]}, "type": "Feature", "properties": {"collection_times": [{"days": "Mon-Sat", "time": "10:00am"}, {"days": "Sun", "time": "Closed"}], "id": "2186900004", "name": "USPS COLLECTION BOX - BLUE BOX", "address": {"city": "VIENNA", "state": "MD", "street": "307 OCEAN GATEWAY RT 731", "postcode": "21869"}}},
{"geometry": {"type": "Point", "coordinates": [-75.725942535, 38.078880813]}, "type": "Feature", "properties": {"collection_times": [{"days": "Mon-Fri", "time": "4:30pm"}, {"days": "Sat", "time": "11:45am"}, {"days": "Sun", "time": "Closed"}], "id": "2187100000", "name": "USPS COLLECTION BOX - BLUE BOX", "address": {"city": "WESTOVER", "state": "MD", "street": "8930 CRISFIELD HWY", "postcode": "21871"}}},
{"geometry": {"type": "Point", "coordinates": [-75.725942535, 38.078880813]}, "type": "Feature", "properties": {"collection_times": [{"days": "Mon-Fri", "time": "4:30pm"}, {"days": "Sat", "time": "11:45am"}, {"days": "Sun", "time": "Closed"}], "id": "2187100002", "name": "USPS COLLECTION BOX - PO LOBBY", "address": {"city": "WESTOVER", "state": "MD", "street": "8930 CRISFIELD HWY", "postcode": "21871"}}},
{"geometry": {"type": "Point", "coordinates": [-75.725942535, 38.078880813]}, "type": "Feature", "properties": {"collection_times": [{"days": "Mon-Fri", "time": "4:30pm"}, {"days": "Sat", "time": "11:45am"}, {"days": "Sun", "time": "Closed"}], "id": "2187100003", "name": "USPS COLLECTION BOX - PO LOBBY", "address": {"city": "WESTOVER", "state": "MD", "street": "8930 CRISFIELD HWY", "postcode": "21871"}}},
{"geometry": {"type": "Point", "coordinates": [-75.3040830006, 38.402388736]}, "type": "Feature", "properties": {"collection_times": [{"days": "Mon-Fri", "time": "4:30pm"}, {"days": "Sat", "time": "10:00am"}, {"days": "Sun", "time": "Closed"}], "id": "2187200000", "name": "USPS COLLECTION BOX - BLUE BOX", "address": {"city": "WHALEYVILLE", "state": "MD", "street": "11721 SHEPPARDS CROSSING RD", "postcode": "21872"}}},
{"geometry": {"type": "Point", "coordinates": [-75.3040830006, 38.402388736]}, "type": "Feature", "properties": {"collection_times": [{"days": "Mon-Fri", "time": "4:30pm"}, {"days": "Sat", "time": "10:00am"}, {"days": "Sun", "time": "Closed"}], "id": "2187200001", "name": "USPS COLLECTION BOX - PO LOBBY", "address": {"city": "WHALEYVILLE", "state": "MD", "street": "11721 SHEPPARDS CROSSING RD", "postcode": "21872"}}},
{"geometry": {"type": "Point", "coordinates": [-75.3040830006, 38.402388736]}, "type": "Feature", "properties": {"collection_times": [{"days": "Mon-Fri", "time": "4:30pm"}, {"days": "Sat", "time": "10:00am"}, {"days": "Sun", "time": "Closed"}], "id": "2187200002", "name": "USPS COLLECTION BOX - PO LOBBY", "address": {"city": "WHALEYVILLE", "state": "MD", "street": "11721 SHEPPARDS CROSSING RD", "postcode": "21872"}}},
{"geometry": {"type": "Point", "coordinates": [-75.3516954368, 38.3958553313]}, "type": "Feature", "properties": {"collection_times": [{"days": "Mon-Fri", "time": "4:00pm"}, {"days": "Sat", "time": "11:00am"}, {"days": "Sun", "time": "Closed"}], "id": "2187400000", "name": "USPS COLLECTION BOX - BLUE BOX", "address": {"city": "WILLARDS", "state": "MD", "street": "36311 RICHLAND RD", "postcode": "21874"}}},
{"geometry": {"type": "Point", "coordinates": [-75.3516954368, 38.3958553313]}, "type": "Feature", "properties": {"collection_times": [{"days": "Mon-Fri", "time": "4:30pm"}, {"days": "Sat", "time": "11:30am"}, {"days": "Sun", "time": "Closed"}], "id": "2187400001", "name": "USPS COLLECTION BOX - PO LOBBY", "address": {"city": "WILLARDS", "state": "MD", "street": "36311 RICHLAND RD", "postcode": "21874"}}},
{"geometry": {"type": "Point", "coordinates": [-75.3516954368, 38.3958553313]}, "type": "Feature", "properties": {"collection_times": [{"days": "Mon-Fri", "time": "4:30pm"}, {"days": "Sat", "time": "11:30am"}, {"days": "Sun", "time": "Closed"}], "id": "2187400002", "name": "USPS COLLECTION BOX - PO LOBBY", "address": {"city": "WILLARDS", "state": "MD", "street": "36311 RICHLAND RD", "postcode": "21874"}}}
]}
