{"type": "FeatureCollection", "features": [
{"geometry": {"type": "Point", "coordinates": [-75.9430574668, 39.6009131903]}, "type": "Feature", "properties": {"collection_times": [{"days": "Mon-Sat", "time": "4:30pm"}, {"days": "Sun", "time": "Closed"}], "id": "2190100004", "name": "USPS COLLECTION BOX - BLUE BOX", "address": {"city": "NORTHEAST", "state": "MD", "street": "14 S MAIN ST", "postcode": "21901"}}},
{"geometry": {"type": "Point", "coordinates": [-75.9421082753, 39.5971771418]}, "type": "Feature", "properties": {"collection_times": [{"days": "Mon-Fri", "time": "5:00pm"}, {"days": "Sat", "time": "4:45pm"}, {"days": "Sun", "time": "Closed"}], "id": "2190100005", "name": "USPS COLLECTION BOX - BLUE BOX", "address": {"city": "NORTHEAST", "state": "MD", "street": "406 S MAIN ST", "postcode": "21901"}}},
{"geometry": {"type": "Point", "coordinates": [-75.917444184, 39.5776593465]}, "type": "Feature", "properties": {"collection_times": [{"days": "Mon-Sat", "time": "4:15pm"}, {"days": "Sun", "time": "Closed"}], "id": "2190100006", "name": "USPS COLLECTION BOX - BLUE BOX", "address": {"city": "NORTHEAST", "state": "MD", "street": "100 RIVER MANOR DR", "postcode": "21901"}}},
{"geometry": {"type": "Point", "coordinates": [-75.9481831302, 39.6248657888]}, "type": "Feature", "properties": {"collection_times": [{"days": "Mon-Sat", "time": "4:30pm"}, {"days": "Sun", "time": "Closed"}], "id": "2190100008", "name": "USPS COLLECTION BOX - BLUE BOX", "address": {"city": "NORTHEAST", "state": "MD", "street": "1 CENTER DR", "postcode": "21901"}}},
{"geometry": {"type": "Point", "coordinates": [-75.9421082753, 39.5971771418]}, "type": "Feature", "properties": {"collection_times": [{"days": "Mon-Fri", "time": "5:00pm"}, {"days": "Sat", "time": "4:45pm"}, {"days": "Sun", "time": "Closed"}], "id": "2190100009", "name": "USPS COLLECTION BOX - BLUE BOX", "address": {"city": "NORTHEAST", "state": "MD", "street": "406 S MAIN ST", "postcode": "21901"}}},
{"geometry": {"type": "Point", "coordinates": [-75.9421082753, 39.5971771418]}, "type": "Feature", "properties": {"collection_times": [{"days": "Mon-Sat", "time": "4:45pm"}, {"days": "Sun", "time": "Closed"}], "id": "2190100010", "name": "USPS COLLECTION BOX - PO LOBBY", "address": {"city": "NORTHEAST", "state": "MD", "street": "406 S MAIN ST", "postcode": "21901"}}},
{"geometry": {"type": "Point", "coordinates": [-75.9421082753, 39.5971771418]}, "type": "Feature", "properties": {"collection_times": [{"days": "Mon-Sat", "time": "4:45pm"}, {"days": "Sun", "time": "Closed"}], "id": "2190100011", "name": "USPS COLLECTION BOX - PO LOBBY", "address": {"city": "NORTHEAST", "state": "MD", "street": "406 S MAIN ST", "postcode": "21901"}}},
{"geometry": {"type": "Point", "coordinates": [-75.9428447959, 39.6000777772]}, "type": "Feature", "properties": {"collection_times": [{"days": "Mon-Sat", "time": "4:30pm"}, {"days": "Sun", "time": "Closed"}], "id": "2190100012", "name": "USPS COLLECTION BOX - BLUE BOX", "address": {"city": "NORTHEAST", "state": "MD", "street": "106 S MAIN ST", "postcode": "21901"}}},
{"geometry": {"type": "Point", "coordinates": [-75.9528233303, 39.6065629523]}, "type": "Feature", "properties": {"collection_times": [{"days": "Mon-Sat", "time": "4:30pm"}, {"days": "Sun", "time": "Closed"}], "id": "2190100013", "name": "USPS COLLECTION BOX - BLUE BOX", "address": {"city": "NORTHEAST", "state": "MD", "street": "2544 PULASKI HWY", "postcode": "21901"}}},
{"geometry": {"type": "Point", "coordinates": [-75.94822, 39.61088]}, "type": "Feature", "properties": {"collection_times": [{"days": "Mon-Sat", "time": "4:30pm"}, {"days": "Sun", "time": "Closed"}], "id": "2190100014", "name": "USPS COLLECTION BOX - BLUE BOX", "address": {"city": "NORTHEAST", "state": "MD", "street": "101 NORTH EAST PLZ", "postcode": "21901"}}},
{"geometry": {"type": "Point", "coordinates": [-76.0725456007, 39.5556172878]}, "type": "Feature", "properties": {"collection_times": [{"days": "Mon-Fri", "time": "4:00pm"}, {"days": "Sat", "time": "10:15am"}, {"days": "Sun", "time": "Closed"}], "id": "2190200000", "name": "USPS COLLECTION BOX - BLUE BOX", "address": {"city": "PERRY POINT", "state": "MD", "street": "N/A AVENUE D", "postcode": "21902"}}},
{"geometry": {"type": "Point", "coordinates": [-76.0725456007, 39.5556172878]}, "type": "Feature", "properties": {"collection_times": [{"days": "Mon-Fri", "time": "4:00pm"}, {"days": "Sat", "time": "10:15am"}, {"days": "Sun", "time": "Closed"}], "id": "2190200003", "name": "USPS COLLECTION BOX - PO LOBBY", "address": {"city": "PERRY POINT", "state": "MD", "street": "1 AVENUE D BLDG 59", "postcode": "21902"}}},
{"geometry": {"type": "Point", "coordinates": [-76.0725456007, 39.5556172878]}, "type": "Feature", "properties": {"collection_times": [{"days": "Mon-Fri", "time": "4:00pm"}, {"days": "Sat", "time": "10:15am"}, {"days": "Sun", "time": "Closed"}], "id": "2190200004", "name": "USPS COLLECTION BOX - PO LOBBY", "address": {"city": "PERRY POINT", "state": "MD", "street": "1 AVENUE D BLDG 59", "postcode": "21902"}}},
{"geometry": {"type": "Point", "coordinates": [-76.0725107719, 39.5594914992]}, "type": "Feature", "properties": {"collection_times": [{"days": "Mon-Fri", "time": "4:45pm"}, {"days": "Sat", "time": "10:45am"}, {"days": "Sun", "time": "Closed"}], "id": "2190300001", "name": "USPS COLLECTION BOX - BLUE BOX", "address": {"city": "PERRYVILLE", "state": "MD", "street": "620 BROAD ST", "postcode": "21903"}}},
{"geometry": {"type": "Point", "coordinates": [-76.0716597911, 39.5623353552]}, "type": "Feature", "properties": {"collection_times": [{"days": "Mon-Sat", "time": "10:30am"}, {"days": "Sun", "time": "Closed"}], "id": "2190300002", "name": "USPS COLLECTION BOX - BLUE BOX", "address": {"city": "PERRYVILLE", "state": "MD", "street": "600 CONCORD DR", "postcode": "21903"}}},
{"geometry": {"type": "Point", "coordinates": [-76.0556150845, 39.5738616592]}, "type": "Feature", "properties": {"collection_times": [{"days": "Mon-Sat", "time": "11:30am"}, {"days": "Sun", "time": "Closed"}], "id": "2190300003", "name": "USPS COLLECTION BOX - BLUE BOX", "address": {"city": "PERRYVILLE", "state": "MD", "street": "152 MILL CREEK LN", "postcode": "21903"}}},
{"geometry": {"type": "Point", "coordinates": [-76.0585360388, 39.5673834885]}, "type": "Feature", "properties": {"collection_times": [{"days": "Mon-Sat", "time": "10:00am"}, {"days": "Sun", "time": "Closed"}], "id": "2190300004", "name": "USPS COLLECTION BOX - BLUE BOX", "address": {"city": "PERRYVILLE", "state": "MD", "street": "302 MANSION DR", "postcode": "21903"}}},
{"geometry": {"type": "Point", "coordinates": [-76.0500532913, 39.5758708866]}, "type": "Feature", "properties": {"collection_times": [{"days": "Mon-Sat", "time": "11:00am"}, {"days": "Sun", "time": "Closed"}], "id": "2190300006", "name": "USPS COLLECTION BOX - BLUE BOX", "address": {"city": "PERRYVILLE", "state": "MD", "street": "2 BAYCIRCLE DR", "postcode": "21903"}}},
{"geometry": {"type": "Point", "coordinates": [-76.0776860428, 39.5575159784]}, "type": "Feature", "properties": {"collection_times": [{"days": "Mon-Sat", "time": "10:00am"}, {"days": "Sun", "time": "Closed"}], "id": "2190300009", "name": "USPS COLLECTION BOX - BLUE BOX", "address": {"city": "PERRYVILLE", "state": "MD", "street": "12 RIVER RD", "postcode": "21903"}}},
{"geometry": {"type": "Point", "coordinates": [-76.0725107719, 39.5594914992]}, "type": "Feature", "properties": {"collection_times": [{"days": "Mon-Fri", "time": "4:45pm"}, {"days": "Sat", "time": "10:45am"}, {"days": "Sun", "time": "Closed"}], "id": "2190300010", "name": "USPS COLLECTION BOX - PO LOBBY", "address": {"city": "PERRYVILLE", "state": "MD", "street": "620 BROAD ST", "postcode": "21903"}}},
{"geometry": {"type": "Point", "coordinates": [-76.0725107719, 39.5594914992]}, "type": "Feature", "properties": {"collection_times": [{"days": "Mon-Fri", "time": "4:45pm"}, {"days": "Sat", "time": "10:45am"}, {"days": "Sun", "time": "Closed"}], "id": "2190300011", "name": "USPS COLLECTION BOX - PO LOBBY", "address": {"city": "PERRYVILLE", "state": "MD", "street": "620 BROAD ST", "postcode": "21903"}}},
{"geometry": {"type": "Point", "coordinates": [-76.109732941, 39.5994518447]}, "type": "Feature", "properties": {"collection_times": [{"days": "Mon-Fri", "time": "5:00pm"}, {"days": "Sat", "time": "11:30am"}, {"days": "Sun", "time": "Closed"}], "id": "2190400004", "name": "USPS COLLECTION BOX - BLUE BOX", "address": {"city": "PORT DEPOSIT", "state": "MD", "street": "11 S MAIN ST", "postcode": "21904"}}},
{"geometry": {"type": "Point", "coordinates": [-76.109732941, 39.5994518447]}, "type": "Feature", "properties": {"collection_times": [{"days": "Mon-Fri", "time": "5:00pm"}, {"days": "Sat", "time": "11:30am"}, {"days": "Sun", "time": "Closed"}], "id": "2190400006", "name": "USPS COLLECTION BOX - PO LOBBY", "address": {"city": "PORT DEPOSIT", "state": "MD", "street": "11 S MAIN ST", "postcode": "21904"}}},
{"geometry": {"type": "Point", "coordinates": [-76.109732941, 39.5994518447]}, "type": "Feature", "properties": {"collection_times": [{"days": "Mon-Fri", "time": "5:00pm"}, {"days": "Sat", "time": "11:30am"}, {"days": "Sun", "time": "Closed"}], "id": "2190400007", "name": "USPS COLLECTION BOX - PO LOBBY", "address": {"city": "PORT DEPOSIT", "state": "MD", "street": "11 S MAIN ST", "postcode": "21904"}}},
{"geometry": {"type": "Point", "coordinates": [-76.0842538221, 39.6249339788]}, "type": "Feature", "properties": {"collection_times": [{"days": "Mon-Sat", "time": "9:00am"}, {"days": "Sun", "time": "Closed"}], "id": "2190400008", "name": "USPS COLLECTION BOX - BLUE BOX", "address": {"city": "PORT DEPOSIT", "state": "MD", "street": "3 DAISY LN", "postcode": "21904"}}},
{"geometry": {"type": "Point", "coordinates": [-76.061817423, 39.6980846365]}, "type": "Feature", "properties": {"collection_times": [{"days": "Mon-Fri", "time": "4:30pm"}, {"days": "Sat", "time": "3:45pm"}, {"days": "Sun", "time": "Closed"}], "id": "2191100001", "name": "USPS COLLECTION BOX - BLUE BOX", "address": {"city": "RISING SUN", "state": "MD", "street": "105 N WALNUT ST", "postcode": "21911"}}},
{"geometry": {"type": "Point", "coordinates": [-76.061817423, 39.6980846365]}, "type": "Feature", "properties": {"collection_times": [{"days": "Mon-Fri", "time": "5:00pm"}, {"days": "Sat", "time": "4:00pm"}, {"days": "Sun", "time": "Closed"}], "id": "2191100005", "name": "USPS COLLECTION BOX - PO LOBBY", "address": {"city": "RISING SUN", "state": "MD", "street": "105 N WALNUT ST", "postcode": "21911"}}},
{"geometry": {"type": "Point", "coordinates": [-76.061817423, 39.6980846365]}, "type": "Feature", "properties": {"collection_times": [{"days": "Mon-Fri", "time": "5:00pm"}, {"days": "Sat", "time": "4:00pm"}, {"days": "Sun", "time": "Closed"}], "id": "2191100006", "name": "USPS COLLECTION BOX - PO LOBBY", "address": {"city": "RISING SUN", "state": "MD", "street": "105 N WALNUT ST", "postcode": "21911"}}},
{"geometry": {"type": "Point", "coordinates": [-76.05736431, 39.6980370473]}, "type": "Feature", "properties": {"collection_times": [{"days": "Mon-Sat", "time": "10:00am"}, {"days": "Sun", "time": "Closed"}], "id": "2191100007", "name": "USPS COLLECTION BOX - BLUE BOX", "address": {"city": "RISING SUN", "state": "MD", "street": "58 RISING SUN TOWN CTR", "postcode": "21911"}}},
{"geometry": {"type": "Point", "coordinates": [-75.7805763999, 39.4152492139]}, "type": "Feature", "properties": {"collection_times": [{"days": "Mon-Fri", "time": "4:00pm"}, {"days": "Sat", "time": "10:50am"}, {"days": "Sun", "time": "Closed"}], "id": "2191200001", "name": "USPS COLLECTION BOX - BLUE BOX", "address": {"city": "WARWICK", "state": "MD", "street": "77 MAIN ST", "postcode": "21912"}}},
{"geometry": {"type": "Point", "coordinates": [-75.7805763999, 39.4152492139]}, "type": "Feature", "properties": {"collection_times": [{"days": "Mon-Fri", "time": "4:00pm"}, {"days": "Sat", "time": "10:50am"}, {"days": "Sun", "time": "Closed"}], "id": "2191200002", "name": "USPS COLLECTION BOX - PO LOBBY", "address": {"city": "WARWICK", "state": "MD", "street": "77 MAIN ST", "postcode": "21912"}}},
{"geometry": {"type": "Point", "coordinates": [-75.868944648, 39.4043632657]}, "type": "Feature", "properties": {"collection_times": [{"days": "Mon-Fri", "time": "4:30pm"}, {"days": "Sat", "time": "11:45am"}, {"days": "Sun", "time": "Closed"}], "id": "2191300000", "name": "USPS COLLECTION BOX - BLUE BOX", "address": {"city": "CECILTON", "state": "MD", "street": "127 W MAIN ST", "postcode": "21913"}}},
{"geometry": {"type": "Point", "coordinates": [-75.868944648, 39.4043632657]}, "type": "Feature", "properties": {"collection_times": [{"days": "Mon-Fri", "time": "4:15pm"}, {"days": "Sat", "time": "11:45am"}, {"days": "Sun", "time": "Closed"}], "id": "2191300002", "name": "USPS COLLECTION BOX - PO LOBBY", "address": {"city": "CECILTON", "state": "MD", "street": "127 W MAIN ST", "postcode": "21913"}}},
{"geometry": {"type": "Point", "coordinates": [-75.9751557557, 39.5729269296]}, "type": "Feature", "properties": {"collection_times": [{"days": "Mon-Fri", "time": "4:45pm"}, {"days": "Sat", "time": "11:15am"}, {"days": "Sun", "time": "Closed"}], "id": "2191400000", "name": "USPS COLLECTION BOX - BLUE BOX", "address": {"city": "CHARLESTOWN", "state": "MD", "street": "241 MARKET ST", "postcode": "21914"}}},
{"geometry": {"type": "Point", "coordinates": [-75.9751557557, 39.5729269296]}, "type": "Feature", "properties": {"collection_times": [{"days": "Mon-Fri", "time": "4:45pm"}, {"days": "Sat", "time": "11:15am"}, {"days": "Sun", "time": "Closed"}], "id": "2191400001", "name": "USPS COLLECTION BOX - PO LOBBY", "address": {"city": "CHARLESTOWN", "state": "MD", "street": "241 MARKET ST", "postcode": "21914"}}},
{"geometry": {"type": "Point", "coordinates": [-75.9751557557, 39.5729269296]}, "type": "Feature", "properties": {"collection_times": [{"days": "Mon-Fri", "time": "4:45pm"}, {"days": "Sat", "time": "11:15am"}, {"days": "Sun", "time": "Closed"}], "id": "2191400002", "name": "USPS COLLECTION BOX - PO LOBBY", "address": {"city": "CHARLESTOWN", "state": "MD", "street": "241 MARKET ST", "postcode": "21914"}}},
{"geometry": {"type": "Point", "coordinates": [-75.8229772487, 39.5159629646]}, "type": "Feature", "properties": {"collection_times": [{"days": "Mon-Fri", "time": "4:45pm"}, {"days": "Sat", "time": "12:00pm"}, {"days": "Sun", "time": "Closed"}], "id": "2191500001", "name": "USPS COLLECTION BOX - BLUE BOX", "address": {"city": "CHESAPEAKE CITY", "state": "MD", "street": "2551 AUGUSTINE HERMAN HWY", "postcode": "21915"}}},
{"geometry": {"type": "Point", "coordinates": [-75.8229772487, 39.5159629646]}, "type": "Feature", "properties": {"collection_times": [{"days": "Mon-Fri", "time": "5:00pm"}, {"days": "Sat", "time": "12:00pm"}, {"days": "Sun", "time": "Closed"}], "id": "2191500005", "name": "USPS COLLECTION BOX - PO LOBBY", "address": {"city": "CHESAPEAKE CITY", "state": "MD", "street": "2551 AUGUSTINE HERMAN HWY", "postcode": "21915"}}},
{"geometry": {"type": "Point", "coordinates": [-75.8718867126, 39.6463571434]}, "type": "Feature", "properties": {"collection_times": [{"days": "Mon-Fri", "time": "3:30pm"}, {"days": "Sat", "time": "10:00am"}, {"days": "Sun", "time": "Closed"}], "id": "2191600000", "name": "USPS COLLECTION BOX - BLUE BOX", "address": {"city": "CHILDS", "state": "MD", "street": "1470 BLUE BALL RD", "postcode": "21916"}}},
{"geometry": {"type": "Point", "coordinates": [-75.8718867126, 39.6463571434]}, "type": "Feature", "properties": {"collection_times": [{"days": "Mon-Fri", "time": "3:30pm"}, {"days": "Sat", "time": "10:00am"}, {"days": "Sun", "time": "Closed"}], "id": "2191600001", "name": "USPS COLLECTION BOX - PO LOBBY", "address": {"city": "CHILDS", "state": "MD", "street": "1470 BLUE BALL RD", "postcode": "21916"}}},
{"geometry": {"type": "Point", "coordinates": [-75.8718867126, 39.6463571434]}, "type": "Feature", "properties": {"collection_times": [{"days": "Mon-Fri", "time": "3:30pm"}, {"days": "Sat", "time": "10:00am"}, {"days": "Sun", "time": "Closed"}], "id": "2191600002", "name": "USPS COLLECTION BOX - PO LOBBY", "address": {"city": "CHILDS", "state": "MD", "street": "1470 BLUE BALL RD", "postcode": "21916"}}},
{"geometry": {"type": "Point", "coordinates": [-76.0989053475, 39.6756059301]}, "type": "Feature", "properties": {"collection_times": [{"days": "Mon-Sat", "time": "9:15am"}, {"days": "Sun", "time": "Closed"}], "id": "2191700000", "name": "USPS COLLECTION BOX - BLUE BOX", "address": {"city": "COLORA", "state": "MD", "street": "1115 COLORA RD", "postcode": "21917"}}},
{"geometry": {"type": "Point", "coordinates": [-76.0953394268, 39.672617338]}, "type": "Feature", "properties": {"collection_times": [{"days": "Mon-Fri", "time": "4:15pm"}, {"days": "Sat", "time": "11:30am"}, {"days": "Sun", "time": "Closed"}], "id": "2191700001", "name": "USPS COLLECTION BOX - BLUE BOX", "address": {"city": "COLORA", "state": "MD", "street": "2167 LIBERTY GROVE RD", "postcode": "21917"}}},
{"geometry": {"type": "Point", "coordinates": [-76.0953394268, 39.672617338]}, "type": "Feature", "properties": {"collection_times": [{"days": "Mon-Fri", "time": "4:15pm"}, {"days": "Sat", "time": "11:30am"}, {"days": "Sun", "time": "Closed"}], "id": "2191700002", "name": "USPS COLLECTION BOX - PO LOBBY", "address": {"city": "COLORA", "state": "MD", "street": "2167 LIBERTY GROVE RD", "postcode": "21917"}}},
{"geometry": {"type": "Point", "coordinates": [-76.0953394268, 39.672617338]}, "type": "Feature", "properties": {"collection_times": [{"days": "Mon-Fri", "time": "4:15pm"}, {"days": "Sat", "time": "11:30am"}, {"days": "Sun", "time": "Closed"}], "id": "2191700003", "name": "USPS COLLECTION BOX - PO LOBBY", "address": {"city": "COLORA", "state": "MD", "street": "2167 LIBERTY GROVE RD", "postcode": "21917"}}},
{"geometry": {"type": "Point", "coordinates": [-76.16277961, 39.6761783378]}, "type": "Feature", "properties": {"collection_times": [{"days": "Mon-Fri", "time": "4:00pm"}, {"days": "Sat", "time": "11:30am"}, {"days": "Sun", "time": "Closed"}], "id": "2191800000", "name": "USPS COLLECTION BOX - BLUE BOX", "address": {"city": "CONOWINGO", "state": "MD", "street": "305 CONOWINGO RD", "postcode": "21918"}}},
{"geometry": {"type": "Point", "coordinates": [-76.16277961, 39.6761783378]}, "type": "Feature", "properties": {"collection_times": [{"days": "Mon-Fri", "time": "4:00pm"}, {"days": "Sat", "time": "11:30am"}, {"days": "Sun", "time": "Closed"}], "id": "2191800002", "name": "USPS COLLECTION BOX - PO LOBBY", "address": {"city": "CONOWINGO", "state": "MD", "street": "305 CONOWINGO RD", "postcode": "21918"}}},
{"geometry": {"type": "Point", "coordinates": [-75.9182160474, 39.4195953434]}, "type": "Feature", "properties": {"collection_times": [{"days": "Mon-Fri", "time": "4:15pm"}, {"days": "Sat", "time": "10:45am"}, {"days": "Sun", "time": "Closed"}], "id": "2191900001", "name": "USPS COLLECTION BOX - BLUE BOX", "address": {"city": "EARLEVILLE", "state": "MD", "street": "1244 CRYSTAL BEACH RD", "postcode": "21919"}}},
{"geometry": {"type": "Point", "coordinates": [-75.9182160474, 39.4195953434]}, "type": "Feature", "properties": {"collection_times": [{"days": "Mon-Fri", "time": "4:15pm"}, {"days": "Sat", "time": "10:45am"}, {"days": "Sun", "time": "Closed"}], "id": "2191900003", "name": "USPS COLLECTION BOX - PO LOBBY", "address": {"city": "EARLEVILLE", "state": "MD", "street": "1244 CRYSTAL BEACH RD", "postcode": "21919"}}},
{"geometry": {"type": "Point", "coordinates": [-75.8391006776, 39.6663902121]}, "type": "Feature", "properties": {"collection_times": [{"days": "Mon-Fri", "time": "4:15pm"}, {"days": "Sat", "time": "11:45am"}, {"days": "Sun", "time": "Closed"}], "id": "2192000000", "name": "USPS COLLECTION BOX - BLUE BOX", "address": {"city": "ELK MILLS", "state": "MD", "street": "732 ELK MILLS RD", "postcode": "21920"}}},
{"geometry": {"type": "Point", "coordinates": [-75.8391006776, 39.6663902121]}, "type": "Feature", "properties": {"collection_times": [{"days": "Mon-Fri", "time": "4:30pm"}, {"days": "Sat", "time": "12:00pm"}, {"days": "Sun", "time": "Closed"}], "id": "2192000001", "name": "USPS COLLECTION BOX - PO LOBBY", "address": {"city": "ELK MILLS", "state": "MD", "street": "732 ELK MILLS RD", "postcode": "21920"}}},
{"geometry": {"type": "Point", "coordinates": [-75.8309537963, 39.6093247699]}, "type": "Feature", "properties": {"collection_times": [{"days": "Mon-Fri", "time": "5:20pm"}, {"days": "Sat", "time": "2:45pm"}, {"days": "Sun", "time": "Closed"}], "id": "2192100002", "name": "USPS COLLECTION BOX - BLUE BOX", "address": {"city": "ELKTON", "state": "MD", "street": "111 W HIGH ST", "postcode": "21921"}}},
{"geometry": {"type": "Point", "coordinates": [-75.8274955232, 39.6088092489]}, "type": "Feature", "properties": {"collection_times": [{"days": "Mon-Fri", "time": "5:20pm"}, {"days": "Sat", "time": "2:45pm"}, {"days": "Sun", "time": "Closed"}], "id": "2192100008", "name": "USPS COLLECTION BOX - BLUE BOX", "address": {"city": "ELKTON", "state": "MD", "street": "129 E MAIN ST", "postcode": "21921"}}},
{"geometry": {"type": "Point", "coordinates": [-75.8255495472, 39.5991939002]}, "type": "Feature", "properties": {"collection_times": [{"days": "Mon-Fri", "time": "5:00pm"}, {"days": "Sat", "time": "2:30pm"}, {"days": "Sun", "time": "Closed"}], "id": "2192100011", "name": "USPS COLLECTION BOX - BLUE BOX", "address": {"city": "ELKTON", "state": "MD", "street": "7 NORMAN ALLEN ST", "postcode": "21921"}}},
{"geometry": {"type": "Point", "coordinates": [-75.8273648333, 39.6215822524]}, "type": "Feature", "properties": {"collection_times": [{"days": "Mon-Fri", "time": "4:45pm"}, {"days": "Sat", "time": "2:15pm"}, {"days": "Sun", "time": "Closed"}], "id": "2192100028", "name": "USPS COLLECTION BOX - BLUE BOX", "address": {"city": "ELKTON", "state": "MD", "street": "1400 ELKTON RD", "postcode": "21921"}}},
{"geometry": {"type": "Point", "coordinates": [-75.798760769, 39.6026161746]}, "type": "Feature", "properties": {"collection_times": [{"days": "Mon-Fri", "time": "5:00pm"}, {"days": "Sat", "time": "2:30pm"}, {"days": "Sun", "time": "Closed"}], "id": "2192100030", "name": "USPS COLLECTION BOX - BLUE BOX", "address": {"city": "ELKTON", "state": "MD", "street": "101 VILLAGE AT ELKTON", "postcode": "21921"}}},
{"geometry": {"type": "Point", "coordinates": [-75.8310558475, 39.6073881627]}, "type": "Feature", "properties": {"collection_times": [{"days": "Mon-Fri", "time": "5:30pm"}, {"days": "Sat", "time": "3:00pm"}, {"days": "Sun", "time": "Closed"}], "id": "2192100034", "name": "USPS COLLECTION BOX - BLUE BOX", "address": {"city": "ELKTON", "state": "MD", "street": "137 W MAIN ST", "postcode": "21921"}}},
{"geometry": {"type": "Point", "coordinates": [-75.805705312, 39.6352897308]}, "type": "Feature", "properties": {"collection_times": [{"days": "Mon-Fri", "time": "4:45pm"}, {"days": "Sat", "time": "2:15pm"}, {"days": "Sun", "time": "Closed"}], "id": "2192100042", "name": "USPS COLLECTION BOX - BLUE BOX", "address": {"city": "ELKTON", "state": "MD", "street": "221 BELLE HILL RD", "postcode": "21921"}}},
{"geometry": {"type": "Point", "coordinates": [-75.829964972, 39.6083847808]}, "type": "Feature", "properties": {"collection_times": [{"days": "Mon-Fri", "time": "5:20pm"}, {"days": "Sat", "time": "2:45pm"}, {"days": "Sun", "time": "Closed"}], "id": "2192100054", "name": "USPS COLLECTION BOX - BLUE BOX", "address": {"city": "ELKTON", "state": "MD", "street": "140 NORTH ST", "postcode": "21921"}}},
{"geometry": {"type": "Point", "coordinates": [-75.8223542044, 39.6103162101]}, "type": "Feature", "properties": {"collection_times": [{"days": "Mon-Fri", "time": "5:20pm"}, {"days": "Sat", "time": "2:45pm"}, {"days": "Sun", "time": "Closed"}], "id": "2192100056", "name": "USPS COLLECTION BOX - BLUE BOX", "address": {"city": "ELKTON", "state": "MD", "street": "190 E MAIN ST", "postcode": "21921"}}},
{"geometry": {"type": "Point", "coordinates": [-75.8310558475, 39.6073881627]}, "type": "Feature", "properties": {"collection_times": [{"days": "Mon-Fri", "time": "5:30pm"}, {"days": "Sat", "time": "3:00pm"}, {"days": "Sun", "time": "Closed"}], "id": "2192100060", "name": "USPS COLLECTION BOX - PO LOBBY", "address": {"city": "ELKTON", "state": "MD", "street": "137 W MAIN ST", "postcode": "21921"}}},
{"geometry": {"type": "Point", "coordinates": [-75.8280544804, 39.6013272425]}, "type": "Feature", "properties": {"collection_times": [{"days": "Mon-Fri", "time": "5:15pm"}, {"days": "Sat", "time": "2:45pm"}, {"days": "Sun", "time": "Closed"}], "id": "2192100062", "name": "USPS COLLECTION BOX - BLUE BOX", "address": {"city": "ELKTON", "state": "MD", "street": "14 COMMERCIAL PLZ", "postcode": "21921"}}},
{"geometry": {"type": "Point", "coordinates": [-75.8830897772, 39.365460744]}, "type": "Feature", "properties": {"collection_times": [{"days": "Mon-Fri", "time": "4:00pm"}, {"days": "Sat", "time": "11:15am"}, {"days": "Sun", "time": "Closed"}], "id": "2193000001", "name": "USPS COLLECTION BOX - BLUE BOX", "address": {"city": "GEORGETOWN", "state": "MD", "street": "7480 AUGUSTINE HERMAN HWY", "postcode": "21930"}}},
{"geometry": {"type": "Point", "coordinates": [-75.8830897772, 39.365460744]}, "type": "Feature", "properties": {"collection_times": [{"days": "Mon-Fri", "time": "4:00pm"}, {"days": "Sat", "time": "11:15am"}, {"days": "Sun", "time": "Closed"}], "id": "2193000002", "name": "USPS COLLECTION BOX - PO LOBBY", "address": {"city": "GEORGETOWN", "state": "MD", "street": "7480 AUGUSTINE HERMAN HWY", "postcode": "21930"}}}
]}
