{"type": "FeatureCollection", "features": [
{"geometry": {"type": "Point", "coordinates": [-95.1207813296, 39.5630684417]}, "type": "Feature", "properties": {"collection_times": [{"days": "Mon-Fri", "time": "4:45pm"}, {"days": "Sat", "time": "3:00pm"}, {"days": "Sun", "time": "Closed"}], "id": "6600200000", "name": "USPS COLLECTION BOX - PO LOBBY", "address": {"city": "ATCHISON", "state": "KS", "street": "621 KANSAS AVE", "postcode": "66002"}}},
{"geometry": {"type": "Point", "coordinates": [-95.1207813296, 39.5630684417]}, "type": "Feature", "properties": {"collection_times": [{"days": "Mon-Sat", "time": "4:45pm"}, {"days": "Sun", "time": "Closed"}], "id": "6600200001", "name": "USPS COLLECTION BOX - BLUE BOX", "address": {"city": "ATCHISON", "state": "KS", "street": "621 KANSAS AVE", "postcode": "66002"}}},
{"geometry": {"type": "Point", "coordinates": [-95.1207813296, 39.5630684417]}, "type": "Feature", "properties": {"collection_times": [{"days": "Mon-Sat", "time": "4:45pm"}, {"days": "Sun", "time": "Closed"}], "id": "6600200002", "name": "USPS COLLECTION BOX - BLUE BOX", "address": {"city": "ATCHISON", "state": "KS", "street": "621 KANSAS AVE", "postcode": "66002"}}},
{"geometry": {"type": "Point", "coordinates": [-95.1399422236, 39.5269216929]}, "type": "Feature", "properties": {"collection_times": [{"days": "Mon-Sat", "time": "2:30pm"}, {"days": "Sun", "time": "Closed"}], "id": "6600200013", "name": "USPS COLLECTION BOX - BLUE BOX", "address": {"city": "ATCHISON", "state": "KS", "street": "2016 HIGHWAY 59", "postcode": "66002"}}},
{"geometry": {"type": "Point", "coordinates": [-95.1207813296, 39.5630684417]}, "type": "Feature", "properties": {"collection_times": [{"days": "Mon-Fri", "time": "4:45pm"}, {"days": "Sat", "time": "3:00pm"}, {"days": "Sun", "time": "Closed"}], "id": "6600200016", "name": "USPS COLLECTION BOX - PO LOBBY", "address": {"city": "ATCHISON", "state": "KS", "street": "621 KANSAS AVE", "postcode": "66002"}}},
{"geometry": {"type": "Point", "coordinates": [-95.0945858214, 39.4555009442]}, "type": "Feature", "properties": {"collection_times": [{"days": "Mon-Sat", "time": "1:00pm"}, {"days": "Sun", "time": "Closed"}], "id": "6600200018", "name": "USPS COLLECTION BOX - BLUE BOX", "address": {"city": "ATCHISON", "state": "KS", "street": "1920 HIGHWAY 73", "postcode": "66002"}}},
{"geometry": {"type": "Point", "coordinates": [-95.1875126102, 38.7749791936]}, "type": "Feature", "properties": {"collection_times": [{"days": "Mon-Sat", "time": "4:15pm"}, {"days": "Sun", "time": "Closed"}], "id": "6600600000", "name": "USPS COLLECTION BOX - BLUE BOX", "address": {"city": "BALDWIN CITY", "state": "KS", "street": "702 HIGH ST", "postcode": "66006"}}},
{"geometry": {"type": "Point", "coordinates": [-95.1875126102, 38.7749791936]}, "type": "Feature", "properties": {"collection_times": [{"days": "Mon-Fri", "time": "4:15pm"}, {"days": "Sat", "time": "10:30am"}, {"days": "Sun", "time": "Closed"}], "id": "6600600003", "name": "USPS COLLECTION BOX - PO LOBBY", "address": {"city": "BALDWIN CITY", "state": "KS", "street": "702 HIGH ST", "postcode": "66006"}}},
{"geometry": {"type": "Point", "coordinates": [-94.9385705776, 39.1335571109]}, "type": "Feature", "properties": {"collection_times": [{"days": "Mon-Sat", "time": "4:40pm"}, {"days": "Sun", "time": "Closed"}], "id": "6600700000", "name": "USPS COLLECTION BOX - BLUE BOX", "address": {"city": "BASEHOR", "state": "KS", "street": "2402 N 155TH ST", "postcode": "66007"}}},
{"geometry": {"type": "Point", "coordinates": [-94.9385705776, 39.1335571109]}, "type": "Feature", "properties": {"collection_times": [{"days": "Mon-Fri", "time": "4:30pm"}, {"days": "Sat", "time": "12:00pm"}, {"days": "Sun", "time": "Closed"}], "id": "6600700002", "name": "USPS COLLECTION BOX - PO LOBBY", "address": {"city": "BASEHOR", "state": "KS", "street": "2402 N 155TH ST", "postcode": "66007"}}},
{"geometry": {"type": "Point", "coordinates": [-95.1783954352, 39.7412124227]}, "type": "Feature", "properties": {"collection_times": [{"days": "Mon-Sat", "time": "3:15pm"}, {"days": "Sun", "time": "Closed"}], "id": "6600800000", "name": "USPS COLLECTION BOX - BLUE BOX", "address": {"city": "BENDENA", "state": "KS", "street": "206 COMMERCIAL ST", "postcode": "66008"}}},
{"geometry": {"type": "Point", "coordinates": [-95.1783954352, 39.7412124227]}, "type": "Feature", "properties": {"collection_times": [{"days": "Mon-Fri", "time": "10:45am"}, {"days": "Sat", "time": "10:15am"}, {"days": "Sun", "time": "Closed"}], "id": "6600800001", "name": "USPS COLLECTION BOX - PO LOBBY", "address": {"city": "BENDENA", "state": "KS", "street": "206 COMMERCIAL ST", "postcode": "66008"}}},
{"geometry": {"type": "Point", "coordinates": [-95.0078196239, 38.0899910623]}, "type": "Feature", "properties": {"collection_times": [{"days": "Mon-Sat", "time": "3:45pm"}, {"days": "Sun", "time": "Closed"}], "id": "6601000000", "name": "USPS COLLECTION BOX - BLUE BOX", "address": {"city": "BLUE MOUND", "state": "KS", "street": "409 E MAIN ST", "postcode": "66010"}}},
{"geometry": {"type": "Point", "coordinates": [-95.0078196239, 38.0899910623]}, "type": "Feature", "properties": {"collection_times": [{"days": "Mon-Fri", "time": "11:45am"}, {"days": "Sat", "time": "9:15am"}, {"days": "Sun", "time": "Closed"}], "id": "6601000001", "name": "USPS COLLECTION BOX - PO LOBBY", "address": {"city": "BLUE MOUND", "state": "KS", "street": "409 E MAIN ST", "postcode": "66010"}}},
{"geometry": {"type": "Point", "coordinates": [-94.8818656107, 39.0567560825]}, "type": "Feature", "properties": {"collection_times": [{"days": "Mon-Sat", "time": "5:00pm"}, {"days": "Sun", "time": "Closed"}], "id": "6601200005", "name": "USPS COLLECTION BOX - BLUE BOX", "address": {"city": "BONNER SPRINGS", "state": "KS", "street": "135 CEDAR AVE", "postcode": "66012"}}},
{"geometry": {"type": "Point", "coordinates": [-94.8900962465, 39.0623107712]}, "type": "Feature", "properties": {"collection_times": [{"days": "Mon-Sat", "time": "10:00am"}, {"days": "Sun", "time": "Closed"}], "id": "6601200010", "name": "USPS COLLECTION BOX - BLUE BOX", "address": {"city": "BONNER SPRINGS", "state": "KS", "street": "420 PARK", "postcode": "66012"}}},
{"geometry": {"type": "Point", "coordinates": [-94.8818656107, 39.0567560825]}, "type": "Feature", "properties": {"collection_times": [{"days": "Mon-Fri", "time": "5:00pm"}, {"days": "Sat", "time": "12:00pm"}, {"days": "Sun", "time": "Closed"}], "id": "6601200012", "name": "USPS COLLECTION BOX - PO LOBBY", "address": {"city": "BONNER SPRINGS", "state": "KS", "street": "135 CEDAR AVE", "postcode": "66012"}}},
{"geometry": {"type": "Point", "coordinates": [-94.8818656107, 39.0567560825]}, "type": "Feature", "properties": {"collection_times": [{"days": "Mon-Fri", "time": "5:00pm"}, {"days": "Sat", "time": "12:00pm"}, {"days": "Sun", "time": "Closed"}], "id": "6601200013", "name": "USPS COLLECTION BOX - PO LOBBY", "address": {"city": "BONNER SPRINGS", "state": "KS", "street": "135 CEDAR AVE", "postcode": "66012"}}},
{"geometry": {"type": "Point", "coordinates": [-94.8819046422, 39.0867608915]}, "type": "Feature", "properties": {"collection_times": [{"days": "Mon-Sat", "time": "9:00am"}, {"days": "Sun", "time": "Closed"}], "id": "6601200014", "name": "USPS COLLECTION BOX - BLUE BOX", "address": {"city": "BONNER SPRINGS", "state": "KS", "street": "606 S 130TH ST", "postcode": "66012"}}},
{"geometry": {"type": "Point", "coordinates": [-94.8831220418, 39.0558621285]}, "type": "Feature", "properties": {"collection_times": [{"days": "Mon-Sat", "time": "2:30pm"}, {"days": "Sun", "time": "Closed"}], "id": "6601200017", "name": "USPS COLLECTION BOX - BLUE BOX", "address": {"city": "BONNER SPRINGS", "state": "KS", "street": "109 W 2ND ST", "postcode": "66012"}}},
{"geometry": {"type": "Point", "coordinates": [-94.7184693129, 38.7273515801]}, "type": "Feature", "properties": {"collection_times": [{"days": "Mon-Sat", "time": "4:10pm"}, {"days": "Sun", "time": "Closed"}], "id": "6601300000", "name": "USPS COLLECTION BOX - BLUE BOX", "address": {"city": "BUCYRUS", "state": "KS", "street": "112 4TH AVE", "postcode": "66013"}}},
{"geometry": {"type": "Point", "coordinates": [-94.7184693129, 38.7273515801]}, "type": "Feature", "properties": {"collection_times": [{"days": "Mon-Fri", "time": "10:45am"}, {"days": "Sat", "time": "9:00am"}, {"days": "Sun", "time": "Closed"}], "id": "6601300001", "name": "USPS COLLECTION BOX - PO LOBBY", "address": {"city": "BUCYRUS", "state": "KS", "street": "112 4TH AVE", "postcode": "66013"}}},
{"geometry": {"type": "Point", "coordinates": [-95.0146758546, 38.2189735767]}, "type": "Feature", "properties": {"collection_times": [{"days": "Mon-Fri", "time": "1:15pm"}, {"days": "Sat", "time": "12:15pm"}, {"days": "Sun", "time": "Closed"}], "id": "6601400000", "name": "USPS COLLECTION BOX - BLUE BOX", "address": {"city": "CENTERVILLE", "state": "KS", "street": "206 E MARKET ST", "postcode": "66014"}}},
{"geometry": {"type": "Point", "coordinates": [-95.0146758546, 38.2189735767]}, "type": "Feature", "properties": {"collection_times": [{"days": "Mon-Fri", "time": "1:15pm"}, {"days": "Sat", "time": "10:15am"}, {"days": "Sun", "time": "Closed"}], "id": "6601400001", "name": "USPS COLLECTION BOX - PO LOBBY", "address": {"city": "CENTERVILLE", "state": "KS", "street": "206 E MARKET ST", "postcode": "66014"}}},
{"geometry": {"type": "Point", "coordinates": [-95.3667504162, 38.0712224902]}, "type": "Feature", "properties": {"collection_times": [{"days": "Mon-Fri", "time": "2:00pm"}, {"days": "Sat", "time": "2:15pm"}, {"days": "Sun", "time": "Closed"}], "id": "6601500000", "name": "USPS COLLECTION BOX - BLUE BOX", "address": {"city": "COLONY", "state": "KS", "street": "206 E BROAD ST", "postcode": "66015"}}},
{"geometry": {"type": "Point", "coordinates": [-95.3667504162, 38.0712224902]}, "type": "Feature", "properties": {"collection_times": [{"days": "Mon-Fri", "time": "1:45pm"}, {"days": "Sat", "time": "9:45am"}, {"days": "Sun", "time": "Closed"}], "id": "6601500002", "name": "USPS COLLECTION BOX - PO LOBBY", "address": {"city": "COLONY", "state": "KS", "street": "206 E BROAD ST", "postcode": "66015"}}},
{"geometry": {"type": "Point", "coordinates": [-95.2459875322, 39.4626593047]}, "type": "Feature", "properties": {"collection_times": [{"days": "Mon-Sat", "time": "3:50pm"}, {"days": "Sun", "time": "Closed"}], "id": "6601600000", "name": "USPS COLLECTION BOX - BLUE BOX", "address": {"city": "CUMMINGS", "state": "KS", "street": "13906 FRONT ST", "postcode": "66016"}}},
{"geometry": {"type": "Point", "coordinates": [-95.2459875322, 39.4626593047]}, "type": "Feature", "properties": {"collection_times": [{"days": "Mon-Fri", "time": "12:00pm"}, {"days": "Sat", "time": "11:45am"}, {"days": "Sun", "time": "Closed"}], "id": "6601600001", "name": "USPS COLLECTION BOX - PO LOBBY", "address": {"city": "CUMMINGS", "state": "KS", "street": "13906 FRONT ST", "postcode": "66016"}}},
{"geometry": {"type": "Point", "coordinates": [-95.269626578, 39.7325368994]}, "type": "Feature", "properties": {"collection_times": [{"days": "Mon-Fri", "time": "2:40pm"}, {"days": "Sat", "time": "3:00pm"}, {"days": "Sun", "time": "Closed"}], "id": "6601700000", "name": "USPS COLLECTION BOX - BLUE BOX", "address": {"city": "DENTON", "state": "KS", "street": "506 MAIN ST", "postcode": "66017"}}},
{"geometry": {"type": "Point", "coordinates": [-95.269626578, 39.7325368994]}, "type": "Feature", "properties": {"collection_times": [{"days": "Mon-Fri", "time": "2:40pm"}, {"days": "Sat", "time": "8:45am"}, {"days": "Sun", "time": "Closed"}], "id": "6601700001", "name": "USPS COLLECTION BOX - PO LOBBY", "address": {"city": "DENTON", "state": "KS", "street": "506 MAIN ST", "postcode": "66017"}}},
{"geometry": {"type": "Point", "coordinates": [-94.969969395, 38.9781420927]}, "type": "Feature", "properties": {"collection_times": [{"days": "Mon-Sat", "time": "4:30pm"}, {"days": "Sun", "time": "Closed"}], "id": "6601800000", "name": "USPS COLLECTION BOX - BLUE BOX", "address": {"city": "DE SOTO", "state": "KS", "street": "33155 W 83RD ST", "postcode": "66018"}}},
{"geometry": {"type": "Point", "coordinates": [-94.969969395, 38.9781420927]}, "type": "Feature", "properties": {"collection_times": [{"days": "Mon-Fri", "time": "4:30pm"}, {"days": "Sat", "time": "12:00pm"}, {"days": "Sun", "time": "Closed"}], "id": "6601800002", "name": "USPS COLLECTION BOX - PO LOBBY", "address": {"city": "DE SOTO", "state": "KS", "street": "33155 W 83RD ST", "postcode": "66018"}}},
{"geometry": {"type": "Point", "coordinates": [-95.1162515395, 39.3449901609]}, "type": "Feature", "properties": {"collection_times": [{"days": "Mon-Sat", "time": "4:00pm"}, {"days": "Sun", "time": "Closed"}], "id": "6602000000", "name": "USPS COLLECTION BOX - BLUE BOX", "address": {"city": "EASTON", "state": "KS", "street": "220 W RILEY ST", "postcode": "66020"}}},
{"geometry": {"type": "Point", "coordinates": [-95.1162515395, 39.3449901609]}, "type": "Feature", "properties": {"collection_times": [{"days": "Mon-Fri", "time": "11:45am"}, {"days": "Sat", "time": "9:15am"}, {"days": "Sun", "time": "Closed"}], "id": "6602000003", "name": "USPS COLLECTION BOX - PO LOBBY", "address": {"city": "EASTON", "state": "KS", "street": "220 W RILEY ST", "postcode": "66020"}}},
{"geometry": {"type": "Point", "coordinates": [-95.0071415692, 38.7649482415]}, "type": "Feature", "properties": {"collection_times": [{"days": "Mon-Sat", "time": "4:15pm"}, {"days": "Sun", "time": "Closed"}], "id": "6602100000", "name": "USPS COLLECTION BOX - BLUE BOX", "address": {"city": "EDGERTON", "state": "KS", "street": "328 E NELSON ST", "postcode": "66021"}}},
{"geometry": {"type": "Point", "coordinates": [-95.0071249531, 38.7649232029]}, "type": "Feature", "properties": {"collection_times": [{"days": "Mon-Fri", "time": "4:00pm"}, {"days": "Sat", "time": "10:00am"}, {"days": "Sun", "time": "Closed"}], "id": "6602100002", "name": "USPS COLLECTION BOX - PO LOBBY", "address": {"city": "EDGERTON", "state": "KS", "street": "328 E NELSON ST", "postcode": "66021"}}},
{"geometry": {"type": "Point", "coordinates": [-95.3988972102, 39.521944932]}, "type": "Feature", "properties": {"collection_times": [{"days": "Mon-Fri", "time": "2:25pm"}, {"days": "Sat", "time": "9:45am"}, {"days": "Sun", "time": "Closed"}], "id": "6602300001", "name": "USPS COLLECTION BOX - PO LOBBY", "address": {"city": "EFFINGHAM", "state": "KS", "street": "407 MAIN ST", "postcode": "66023"}}},
{"geometry": {"type": "Point", "coordinates": [-95.3988972102, 39.521944932]}, "type": "Feature", "properties": {"collection_times": [{"days": "Mon-Fri", "time": "3:20pm"}, {"days": "Sat", "time": "2:40pm"}, {"days": "Sun", "time": "Closed"}], "id": "6602300002", "name": "USPS COLLECTION BOX - BLUE BOX", "address": {"city": "EFFINGHAM", "state": "KS", "street": "407 MAIN ST", "postcode": "66023"}}},
{"geometry": {"type": "Point", "coordinates": [-94.8765711419, 39.7564588481]}, "type": "Feature", "properties": {"collection_times": [{"days": "Mon-Sat", "time": "2:20pm"}, {"days": "Sun", "time": "Closed"}], "id": "6602400000", "name": "USPS COLLECTION BOX - BLUE BOX", "address": {"city": "ELWOOD", "state": "KS", "street": "607 VERMONT ST", "postcode": "66024"}}},
{"geometry": {"type": "Point", "coordinates": [-94.8712468223, 39.7505459907]}, "type": "Feature", "properties": {"collection_times": [{"days": "Mon-Fri", "time": "2:20pm"}, {"days": "Sat", "time": "2:30pm"}, {"days": "Sun", "time": "Closed"}], "id": "6602400001", "name": "USPS COLLECTION BOX - BLUE BOX", "address": {"city": "ELWOOD", "state": "KS", "street": "209 ROSEPORT RD", "postcode": "66024"}}},
{"geometry": {"type": "Point", "coordinates": [-94.8765711419, 39.7564588481]}, "type": "Feature", "properties": {"collection_times": [{"days": "Mon-Fri", "time": "2:20pm"}, {"days": "Sat", "time": "10:45am"}, {"days": "Sun", "time": "Closed"}], "id": "6602400003", "name": "USPS COLLECTION BOX - PO LOBBY", "address": {"city": "ELWOOD", "state": "KS", "street": "607 VERMONT ST", "postcode": "66024"}}},
{"geometry": {"type": "Point", "coordinates": [-95.0989228583, 38.9464499541]}, "type": "Feature", "properties": {"collection_times": [{"days": "Mon-Sat", "time": "4:15pm"}, {"days": "Sun", "time": "Closed"}], "id": "6602500000", "name": "USPS COLLECTION BOX - BLUE BOX", "address": {"city": "EUDORA", "state": "KS", "street": "709 MAIN ST", "postcode": "66025"}}},
{"geometry": {"type": "Point", "coordinates": [-95.0989228583, 38.9464499541]}, "type": "Feature", "properties": {"collection_times": [{"days": "Mon-Fri", "time": "4:15pm"}, {"days": "Sat", "time": "11:00am"}, {"days": "Sun", "time": "Closed"}], "id": "6602500002", "name": "USPS COLLECTION BOX - PO LOBBY", "address": {"city": "EUDORA", "state": "KS", "street": "709 MAIN ST", "postcode": "66025"}}},
{"geometry": {"type": "Point", "coordinates": [-95.0958922867, 38.9356657823]}, "type": "Feature", "properties": {"collection_times": [{"days": "Mon-Fri", "time": "12:30pm"}, {"days": "Sat-Sun", "time": "Closed"}], "id": "6602500003", "name": "USPS COLLECTION BOX - BLUE BOX", "address": {"city": "EUDORA", "state": "KS", "street": "1402 CHURCH ST", "postcode": "66025"}}},
{"geometry": {"type": "Point", "coordinates": [-94.8401468518, 38.4232140261]}, "type": "Feature", "properties": {"collection_times": [{"days": "Mon-Sat", "time": "2:50pm"}, {"days": "Sun", "time": "Closed"}], "id": "6602600000", "name": "USPS COLLECTION BOX - BLUE BOX", "address": {"city": "FONTANA", "state": "KS", "street": "108 N OSAGE ST", "postcode": "66026"}}},
{"geometry": {"type": "Point", "coordinates": [-94.8401468518, 38.4232140261]}, "type": "Feature", "properties": {"collection_times": [{"days": "Mon-Fri", "time": "12:45pm"}, {"days": "Sat", "time": "10:15am"}, {"days": "Sun", "time": "Closed"}], "id": "6602600001", "name": "USPS COLLECTION BOX - PO LOBBY", "address": {"city": "FONTANA", "state": "KS", "street": "108 N OSAGE ST", "postcode": "66026"}}},
{"geometry": {"type": "Point", "coordinates": [-94.943370934, 38.8129189719]}, "type": "Feature", "properties": {"collection_times": [{"days": "Mon-Sat", "time": "4:40pm"}, {"days": "Sun", "time": "Closed"}], "id": "6603000000", "name": "USPS COLLECTION BOX - BLUE BOX", "address": {"city": "GARDNER", "state": "KS", "street": "18325 S GARDNER RD", "postcode": "66030"}}},
{"geometry": {"type": "Point", "coordinates": [-94.8966176584, 38.8109828932]}, "type": "Feature", "properties": {"collection_times": [{"days": "Mon-Fri", "time": "12:00pm"}, {"days": "Sat", "time": "11:00am"}, {"days": "Sun", "time": "Closed"}], "id": "6603000002", "name": "USPS COLLECTION BOX - BLUE BOX", "address": {"city": "GARDNER", "state": "KS", "street": "1199 E SANTA FE ST", "postcode": "66030"}}},
{"geometry": {"type": "Point", "coordinates": [-94.9093983471, 38.8115696408]}, "type": "Feature", "properties": {"collection_times": [{"days": "Mon-Fri", "time": "2:00pm"}, {"days": "Sat", "time": "1:00pm"}, {"days": "Sun", "time": "Closed"}], "id": "6603000003", "name": "USPS COLLECTION BOX - BLUE BOX", "address": {"city": "GARDNER", "state": "KS", "street": "830 E MAIN ST", "postcode": "66030"}}},
{"geometry": {"type": "Point", "coordinates": [-94.9250358816, 38.809863814]}, "type": "Feature", "properties": {"collection_times": [{"days": "Mon-Sat", "time": "1:00pm"}, {"days": "Sun", "time": "Closed"}], "id": "6603000004", "name": "USPS COLLECTION BOX - BLUE BOX", "address": {"city": "GARDNER", "state": "KS", "street": "127 S ELM ST", "postcode": "66030"}}},
{"geometry": {"type": "Point", "coordinates": [-94.943370934, 38.8129189719]}, "type": "Feature", "properties": {"collection_times": [{"days": "Mon-Fri", "time": "4:40pm"}, {"days": "Sat", "time": "12:00pm"}, {"days": "Sun", "time": "Closed"}], "id": "6603000005", "name": "USPS COLLECTION BOX - PO LOBBY", "address": {"city": "GARDNER", "state": "KS", "street": "18325 S GARDNER RD", "postcode": "66030"}}},
{"geometry": {"type": "Point", "coordinates": [-94.943370934, 38.8129189719]}, "type": "Feature", "properties": {"collection_times": [{"days": "Mon-Fri", "time": "4:40pm"}, {"days": "Sat", "time": "12:00pm"}, {"days": "Sun", "time": "Closed"}], "id": "6603000006", "name": "USPS COLLECTION BOX - PO LOBBY", "address": {"city": "GARDNER", "state": "KS", "street": "18325 S GARDNER RD", "postcode": "66030"}}},
{"geometry": {"type": "Point", "coordinates": [-94.9034149406, 38.8143484115]}, "type": "Feature", "properties": {"collection_times": [{"days": "Mon-Sat", "time": "12:00pm"}, {"days": "Sun", "time": "Closed"}], "id": "6603000007", "name": "USPS COLLECTION BOX - BLUE BOX", "address": {"city": "GARDNER", "state": "KS", "street": "101 BEECH ST", "postcode": "66030"}}},
{"geometry": {"type": "Point", "coordinates": [-94.9045163151, 38.807701753]}, "type": "Feature", "properties": {"collection_times": [{"days": "Mon-Sat", "time": "11:00am"}, {"days": "Sun", "time": "Closed"}], "id": "6603000008", "name": "USPS COLLECTION BOX - BLUE BOX", "address": {"city": "GARDNER", "state": "KS", "street": "1000 WILDERNESS TRL", "postcode": "66030"}}},
{"geometry": {"type": "Point", "coordinates": [-94.8954086744, 38.8388711508]}, "type": "Feature", "properties": {"collection_times": [{"days": "Mon-Fri", "time": "2:00pm"}, {"days": "Sat-Sun", "time": "Closed"}], "id": "6603100000", "name": "USPS COLLECTION BOX - BLUE BOX", "address": {"city": "NEW CENTURY", "state": "KS", "street": "1 NEW CENTURY PKWY", "postcode": "66031"}}},
{"geometry": {"type": "Point", "coordinates": [-95.2420589555, 38.2819629181]}, "type": "Feature", "properties": {"collection_times": [{"days": "Mon-Sat", "time": "3:40pm"}, {"days": "Sun", "time": "Closed"}], "id": "6603200001", "name": "USPS COLLECTION BOX - BLUE BOX", "address": {"city": "GARNETT", "state": "KS", "street": "304 S OAK ST", "postcode": "66032"}}},
{"geometry": {"type": "Point", "coordinates": [-95.2420589555, 38.2819629181]}, "type": "Feature", "properties": {"collection_times": [{"days": "Mon-Fri", "time": "3:45pm"}, {"days": "Sat", "time": "12:00pm"}, {"days": "Sun", "time": "Closed"}], "id": "6603200003", "name": "USPS COLLECTION BOX - PO LOBBY", "address": {"city": "GARNETT", "state": "KS", "street": "304 S OAK ST", "postcode": "66032"}}},
{"geometry": {"type": "Point", "coordinates": [-95.2420589555, 38.2819629181]}, "type": "Feature", "properties": {"collection_times": [{"days": "Mon-Sat", "time": "3:40pm"}, {"days": "Sun", "time": "Closed"}], "id": "6603200005", "name": "USPS COLLECTION BOX - BLUE BOX", "address": {"city": "GARNETT", "state": "KS", "street": "304 S OAK ST", "postcode": "66032"}}},
{"geometry": {"type": "Point", "coordinates": [-95.1274583886, 38.366637484]}, "type": "Feature", "properties": {"collection_times": [{"days": "Mon-Sat", "time": "3:00pm"}, {"days": "Sun", "time": "Closed"}], "id": "6603300000", "name": "USPS COLLECTION BOX - BLUE BOX", "address": {"city": "GREELEY", "state": "KS", "street": "114 W BROWN ST", "postcode": "66033"}}},
{"geometry": {"type": "Point", "coordinates": [-95.1274583886, 38.366637484]}, "type": "Feature", "properties": {"collection_times": [{"days": "Mon-Fri", "time": "12:45pm"}, {"days": "Sat", "time": "9:00am"}, {"days": "Sun", "time": "Closed"}], "id": "6603300001", "name": "USPS COLLECTION BOX - PO LOBBY", "address": {"city": "GREELEY", "state": "KS", "street": "114 W BROWN ST", "postcode": "66033"}}},
{"geometry": {"type": "Point", "coordinates": [-95.2652035643, 39.8595680755]}, "type": "Feature", "properties": {"collection_times": [{"days": "Mon-Sat", "time": "2:20pm"}, {"days": "Sun", "time": "Closed"}], "id": "6603500003", "name": "USPS COLLECTION BOX - BLUE BOX", "address": {"city": "HIGHLAND", "state": "KS", "street": "107 W MAIN ST", "postcode": "66035"}}},
{"geometry": {"type": "Point", "coordinates": [-95.2652035643, 39.8595680755]}, "type": "Feature", "properties": {"collection_times": [{"days": "Mon-Fri", "time": "2:20pm"}, {"days": "Sat", "time": "10:00am"}, {"days": "Sun", "time": "Closed"}], "id": "6603500004", "name": "USPS COLLECTION BOX - PO LOBBY", "address": {"city": "HIGHLAND", "state": "KS", "street": "107 W MAIN ST", "postcode": "66035"}}},
{"geometry": {"type": "Point", "coordinates": [-95.2652035643, 39.8595680755]}, "type": "Feature", "properties": {"collection_times": [{"days": "Mon-Fri", "time": "2:20pm"}, {"days": "Sat", "time": "10:00am"}, {"days": "Sun", "time": "Closed"}], "id": "6603500005", "name": "USPS COLLECTION BOX - PO LOBBY", "address": {"city": "HIGHLAND", "state": "KS", "street": "107 W MAIN ST", "postcode": "66035"}}},
{"geometry": {"type": "Point", "coordinates": [-94.8518638545, 38.6641713058]}, "type": "Feature", "properties": {"collection_times": [{"days": "Mon-Fri", "time": "4:15pm"}, {"days": "Sat", "time": "4:30pm"}, {"days": "Sun", "time": "Closed"}], "id": "6603600000", "name": "USPS COLLECTION BOX - BLUE BOX", "address": {"city": "HILLSDALE", "state": "KS", "street": "206 CENTRAL ST", "postcode": "66036"}}},
{"geometry": {"type": "Point", "coordinates": [-94.8518638545, 38.6641713058]}, "type": "Feature", "properties": {"collection_times": [{"days": "Mon-Fri", "time": "11:45am"}, {"days": "Sat", "time": "10:00am"}, {"days": "Sun", "time": "Closed"}], "id": "6603600001", "name": "USPS COLLECTION BOX - PO LOBBY", "address": {"city": "HILLSDALE", "state": "KS", "street": "206 CENTRAL ST", "postcode": "66036"}}},
{"geometry": {"type": "Point", "coordinates": [-95.1545325331, 38.0829690017]}, "type": "Feature", "properties": {"collection_times": [{"days": "Mon-Sat", "time": "3:30pm"}, {"days": "Sun", "time": "Closed"}], "id": "6603900000", "name": "USPS COLLECTION BOX - BLUE BOX", "address": {"city": "KINCAID", "state": "KS", "street": "100 N COMMERCIAL ST", "postcode": "66039"}}},
{"geometry": {"type": "Point", "coordinates": [-95.1545325331, 38.0829690017]}, "type": "Feature", "properties": {"collection_times": [{"days": "Mon-Fri", "time": "11:45am"}, {"days": "Sat", "time": "9:45am"}, {"days": "Sun", "time": "Closed"}], "id": "6603900001", "name": "USPS COLLECTION BOX - PO LOBBY", "address": {"city": "KINCAID", "state": "KS", "street": "100 N COMMERCIAL ST", "postcode": "66039"}}},
{"geometry": {"type": "Point", "coordinates": [-94.7591607905, 38.3452828148]}, "type": "Feature", "properties": {"collection_times": [{"days": "Mon-Sat", "time": "4:30pm"}, {"days": "Sun", "time": "Closed"}], "id": "6604000000", "name": "USPS COLLECTION BOX - BLUE BOX", "address": {"city": "LA CYGNE", "state": "KS", "street": "521 E MARKET ST", "postcode": "66040"}}},
{"geometry": {"type": "Point", "coordinates": [-94.7596455778, 38.3453412999]}, "type": "Feature", "properties": {"collection_times": [{"days": "Mon-Fri", "time": "4:30pm"}, {"days": "Sat", "time": "11:30am"}, {"days": "Sun", "time": "Closed"}], "id": "6604000001", "name": "USPS COLLECTION BOX - PO LOBBY", "address": {"city": "LA CYGNE", "state": "KS", "street": "521 E MARKET ST", "postcode": "66040"}}},
{"geometry": {"type": "Point", "coordinates": [-94.7435318388, 38.3597553298]}, "type": "Feature", "properties": {"collection_times": [{"days": "Mon-Sat", "time": "9:00am"}, {"days": "Sun", "time": "Closed"}], "id": "6604000002", "name": "USPS COLLECTION BOX - BLUE BOX", "address": {"city": "LA CYGNE", "state": "KS", "street": "5 ENTRANCE RD", "postcode": "66040"}}},
{"geometry": {"type": "Point", "coordinates": [-95.3022217442, 39.5728460351]}, "type": "Feature", "properties": {"collection_times": [{"days": "Mon-Fri", "time": "11:45am"}, {"days": "Sat", "time": "8:30am"}, {"days": "Sun", "time": "Closed"}], "id": "6604100000", "name": "USPS COLLECTION BOX - PO LOBBY", "address": {"city": "LANCASTER", "state": "KS", "street": "101 N BROADWAY ST", "postcode": "66041"}}},
{"geometry": {"type": "Point", "coordinates": [-95.3022217442, 39.5728460351]}, "type": "Feature", "properties": {"collection_times": [{"days": "Mon-Fri", "time": "11:45am"}, {"days": "Sat", "time": "8:30am"}, {"days": "Sun", "time": "Closed"}], "id": "6604100001", "name": "USPS COLLECTION BOX - PO LOBBY", "address": {"city": "LANCASTER", "state": "KS", "street": "101 N BROADWAY ST", "postcode": "66041"}}},
{"geometry": {"type": "Point", "coordinates": [-95.3022217442, 39.5728460351]}, "type": "Feature", "properties": {"collection_times": [{"days": "Mon-Sat", "time": "3:00pm"}, {"days": "Sun", "time": "Closed"}], "id": "6604100002", "name": "USPS COLLECTION BOX - BLUE BOX", "address": {"city": "LANCASTER", "state": "KS", "street": "101 N BROADWAY ST", "postcode": "66041"}}},
{"geometry": {"type": "Point", "coordinates": [-95.0842335492, 38.4403080097]}, "type": "Feature", "properties": {"collection_times": [{"days": "Mon-Fri", "time": "12:45pm"}, {"days": "Sat", "time": "12:00pm"}, {"days": "Sun", "time": "Closed"}], "id": "6604200000", "name": "USPS COLLECTION BOX - PO LOBBY", "address": {"city": "LANE", "state": "KS", "street": "416 KANSAS AVE", "postcode": "66042"}}},
{"geometry": {"type": "Point", "coordinates": [-95.0842335492, 38.4403080097]}, "type": "Feature", "properties": {"collection_times": [{"days": "Mon-Sat", "time": "3:15pm"}, {"days": "Sun", "time": "Closed"}], "id": "6604200001", "name": "USPS COLLECTION BOX - BLUE BOX", "address": {"city": "LANE", "state": "KS", "street": "416 KANSAS AVE", "postcode": "66042"}}},
{"geometry": {"type": "Point", "coordinates": [-94.9035374732, 39.2520707843]}, "type": "Feature", "properties": {"collection_times": [{"days": "Mon-Fri", "time": "3:00pm"}, {"days": "Sat", "time": "12:30pm"}, {"days": "Sun", "time": "Closed"}], "id": "6604300000", "name": "USPS COLLECTION BOX - EXPRESS", "address": {"city": "LANSING", "state": "KS", "street": "617 HOLIDAY PLZ", "postcode": "66043"}}},
{"geometry": {"type": "Point", "coordinates": [-94.9017269551, 39.2588898261]}, "type": "Feature", "properties": {"collection_times": [{"days": "Mon-Fri", "time": "3:00pm"}, {"days": "Sat", "time": "12:30pm"}, {"days": "Sun", "time": "Closed"}], "id": "6604300001", "name": "USPS COLLECTION BOX - BLUE BOX", "address": {"city": "LANSING", "state": "KS", "street": "617 HOLIDAY PLZ", "postcode": "66043"}}},
{"geometry": {"type": "Point", "coordinates": [-94.9017269551, 39.2588898261]}, "type": "Feature", "properties": {"collection_times": [{"days": "Mon-Fri", "time": "3:00pm"}, {"days": "Sat", "time": "12:30pm"}, {"days": "Sun", "time": "Closed"}], "id": "6604300003", "name": "USPS COLLECTION BOX - PO LOBBY", "address": {"city": "LANSING", "state": "KS", "street": "617 HOLIDAY PLZ", "postcode": "66043"}}},
{"geometry": {"type": "Point", "coordinates": [-94.9017269551, 39.2588898261]}, "type": "Feature", "properties": {"collection_times": [{"days": "Mon-Fri", "time": "3:00pm"}, {"days": "Sat", "time": "12:30pm"}, {"days": "Sun", "time": "Closed"}], "id": "6604300004", "name": "USPS COLLECTION BOX - PO LOBBY", "address": {"city": "LANSING", "state": "KS", "street": "617 HOLIDAY PLZ", "postcode": "66043"}}},
{"geometry": {"type": "Point", "coordinates": [-94.9001149959, 39.2415568224]}, "type": "Feature", "properties": {"collection_times": [{"days": "Mon-Fri", "time": "1:00pm"}, {"days": "Sat-Sun", "time": "Closed"}], "id": "6604300006", "name": "USPS COLLECTION BOX - BLUE BOX", "address": {"city": "LANSING", "state": "KS", "street": "601 S MAIN ST", "postcode": "66043"}}},
{"geometry": {"type": "Point", "coordinates": [-95.2381962525, 38.9717778508]}, "type": "Feature", "properties": {"collection_times": [{"days": "Mon-Fri", "time": "5:15pm"}, {"days": "Sat", "time": "4:15pm"}, {"days": "Sun", "time": "Closed"}], "id": "6604400009", "name": "USPS COLLECTION BOX - BLUE BOX", "address": {"city": "LAWRENCE", "state": "KS", "street": "646 KENTUCKY ST", "postcode": "66044"}}},
{"geometry": {"type": "Point", "coordinates": [-95.2358473503, 38.9672941676]}, "type": "Feature", "properties": {"collection_times": [{"days": "Mon-Fri", "time": "3:30pm"}, {"days": "Sat-Sun", "time": "Closed"}], "id": "6604400010", "name": "USPS COLLECTION BOX - BLUE BOX", "address": {"city": "LAWRENCE", "state": "KS", "street": "910 MASSACHUSETTS ST", "postcode": "66044"}}},
{"geometry": {"type": "Point", "coordinates": [-95.2359895675, 38.9670442711]}, "type": "Feature", "properties": {"collection_times": [{"days": "Mon-Sat", "time": "3:30pm"}, {"days": "Sun", "time": "Closed"}], "id": "6604400012", "name": "USPS COLLECTION BOX - BLUE BOX", "address": {"city": "LAWRENCE", "state": "KS", "street": "925 MASSACHUSETTS ST", "postcode": "66044"}}},
{"geometry": {"type": "Point", "coordinates": [-95.2370194474, 38.9647694273]}, "type": "Feature", "properties": {"collection_times": [{"days": "Mon-Fri", "time": "3:30pm"}, {"days": "Sat-Sun", "time": "Closed"}], "id": "6604400013", "name": "USPS COLLECTION BOX - BLUE BOX", "address": {"city": "LAWRENCE", "state": "KS", "street": "1046 VERMONT ST", "postcode": "66044"}}},
{"geometry": {"type": "Point", "coordinates": [-95.2343915749, 38.9637328101]}, "type": "Feature", "properties": {"collection_times": [{"days": "Mon-Sat", "time": "3:30pm"}, {"days": "Sun", "time": "Closed"}], "id": "6604400014", "name": "USPS COLLECTION BOX - BLUE BOX", "address": {"city": "LAWRENCE", "state": "KS", "street": "111 E 11TH ST", "postcode": "66044"}}},
{"geometry": {"type": "Point", "coordinates": [-95.2343915749, 38.9637328101]}, "type": "Feature", "properties": {"collection_times": [{"days": "Mon-Sat", "time": "3:30pm"}, {"days": "Sun", "time": "Closed"}], "id": "6604400015", "name": "USPS COLLECTION BOX - BLUE BOX", "address": {"city": "LAWRENCE", "state": "KS", "street": "111 E 11TH ST", "postcode": "66044"}}},
{"geometry": {"type": "Point", "coordinates": [-95.2590561772, 38.9535138894]}, "type": "Feature", "properties": {"collection_times": [{"days": "Mon-Fri", "time": "12:30pm"}, {"days": "Sat-Sun", "time": "Closed"}], "id": "6604400036", "name": "USPS COLLECTION BOX - BLUE BOX", "address": {"city": "LAWRENCE", "state": "KS", "street": "1900 IRVING HILL RD", "postcode": "66044"}}},
{"geometry": {"type": "Point", "coordinates": [-95.243356671, 38.9581121378]}, "type": "Feature", "properties": {"collection_times": [{"days": "Mon-Fri", "time": "2:45pm"}, {"days": "Sat-Sun", "time": "Closed"}], "id": "6604400043", "name": "USPS COLLECTION BOX - BLUE BOX", "address": {"city": "LAWRENCE", "state": "KS", "street": "1301 JAYHAWK BLVD", "postcode": "66044"}}},
{"geometry": {"type": "Point", "coordinates": [-95.2511038789, 38.9611379817]}, "type": "Feature", "properties": {"collection_times": [{"days": "Mon-Fri", "time": "3:00pm"}, {"days": "Sat-Sun", "time": "Closed"}], "id": "6604400045", "name": "USPS COLLECTION BOX - BLUE BOX", "address": {"city": "LAWRENCE", "state": "KS", "street": "1246 WEST CAMPUS", "postcode": "66044"}}},
{"geometry": {"type": "Point", "coordinates": [-95.2605577874, 38.9670817627]}, "type": "Feature", "properties": {"collection_times": [{"days": "Mon-Sat", "time": "3:00pm"}, {"days": "Sun", "time": "Closed"}], "id": "6604400054", "name": "USPS COLLECTION BOX - BLUE BOX", "address": {"city": "LAWRENCE", "state": "KS", "street": "935 IOWA ST", "postcode": "66044"}}},
{"geometry": {"type": "Point", "coordinates": [-95.2475761784, 38.9779582475]}, "type": "Feature", "properties": {"collection_times": [{"days": "Mon-Sat", "time": "2:45pm"}, {"days": "Sun", "time": "Closed"}], "id": "6604400061", "name": "USPS COLLECTION BOX - BLUE BOX", "address": {"city": "LAWRENCE", "state": "KS", "street": "346 MAINE ST", "postcode": "66044"}}},
{"geometry": {"type": "Point", "coordinates": [-95.2477696729, 38.9732650042]}, "type": "Feature", "properties": {"collection_times": [{"days": "Mon-Sat", "time": "3:00pm"}, {"days": "Sun", "time": "Closed"}], "id": "6604400062", "name": "USPS COLLECTION BOX - BLUE BOX", "address": {"city": "LAWRENCE", "state": "KS", "street": "1112 W 6TH ST", "postcode": "66044"}}},
{"geometry": {"type": "Point", "coordinates": [-95.2381962525, 38.9717778508]}, "type": "Feature", "properties": {"collection_times": [{"days": "Mon-Fri", "time": "5:15pm"}, {"days": "Sat", "time": "4:15pm"}, {"days": "Sun", "time": "Closed"}], "id": "6604400064", "name": "USPS COLLECTION BOX - BLUE BOX", "address": {"city": "LAWRENCE", "state": "KS", "street": "646 KENTUCKY ST", "postcode": "66044"}}},
{"geometry": {"type": "Point", "coordinates": [-95.2381962525, 38.9717778508]}, "type": "Feature", "properties": {"collection_times": [{"days": "Mon-Fri", "time": "5:15pm"}, {"days": "Sat", "time": "4:15pm"}, {"days": "Sun", "time": "Closed"}], "id": "6604400065", "name": "USPS COLLECTION BOX - BLUE BOX", "address": {"city": "LAWRENCE", "state": "KS", "street": "646 KENTUCKY ST", "postcode": "66044"}}},
{"geometry": {"type": "Point", "coordinates": [-95.2381962525, 38.9717778508]}, "type": "Feature", "properties": {"collection_times": [{"days": "Mon-Fri", "time": "5:15pm"}, {"days": "Sat", "time": "4:15pm"}, {"days": "Sun", "time": "Closed"}], "id": "6604400066", "name": "USPS COLLECTION BOX - BLUE BOX", "address": {"city": "LAWRENCE", "state": "KS", "street": "646 KENTUCKY ST", "postcode": "66044"}}},
{"geometry": {"type": "Point", "coordinates": [-95.2359917085, 38.9689179233]}, "type": "Feature", "properties": {"collection_times": [{"days": "Mon-Sat", "time": "3:30pm"}, {"days": "Sun", "time": "Closed"}], "id": "6604400076", "name": "USPS COLLECTION BOX - BLUE BOX", "address": {"city": "LAWRENCE", "state": "KS", "street": "825 MASSACHUSETTS ST", "postcode": "66044"}}},
{"geometry": {"type": "Point", "coordinates": [-95.2371823354, 38.9722514849]}, "type": "Feature", "properties": {"collection_times": [{"days": "Mon-Fri", "time": "5:15pm"}, {"days": "Sat", "time": "4:30pm"}, {"days": "Sun", "time": "Closed"}], "id": "6604400078", "name": "USPS COLLECTION BOX - PO LOBBY", "address": {"city": "LAWRENCE", "state": "KS", "street": "645 VERMONT ST", "postcode": "66044"}}},
{"geometry": {"type": "Point", "coordinates": [-95.2371823354, 38.9722514849]}, "type": "Feature", "properties": {"collection_times": [{"days": "Mon-Fri", "time": "5:15pm"}, {"days": "Sat", "time": "4:30pm"}, {"days": "Sun", "time": "Closed"}], "id": "6604400079", "name": "USPS COLLECTION BOX - PO LOBBY", "address": {"city": "LAWRENCE", "state": "KS", "street": "645 VERMONT ST", "postcode": "66044"}}},
{"geometry": {"type": "Point", "coordinates": [-95.2371823354, 38.9722514849]}, "type": "Feature", "properties": {"collection_times": [{"days": "Mon-Fri", "time": "5:15pm"}, {"days": "Sat", "time": "4:30pm"}, {"days": "Sun", "time": "Closed"}], "id": "6604400080", "name": "USPS COLLECTION BOX - APC", "address": {"city": "LAWRENCE", "state": "KS", "street": "645 VERMONT ST", "postcode": "66044"}}},
{"geometry": {"type": "Point", "coordinates": [-95.2239158026, 38.9426611134]}, "type": "Feature", "properties": {"collection_times": [{"days": "Mon-Sat", "time": "10:00am"}, {"days": "Sun", "time": "Closed"}], "id": "6604600000", "name": "USPS COLLECTION BOX - BLUE BOX", "address": {"city": "LAWRENCE", "state": "KS", "street": "955 E 23RD ST", "postcode": "66046"}}},
{"geometry": {"type": "Point", "coordinates": [-95.2327630183, 38.9408070082]}, "type": "Feature", "properties": {"collection_times": [{"days": "Mon-Fri", "time": "3:00pm"}, {"days": "Sat-Sun", "time": "Closed"}], "id": "6604600001", "name": "USPS COLLECTION BOX - BLUE BOX", "address": {"city": "LAWRENCE", "state": "KS", "street": "2411 BARKER AVE", "postcode": "66046"}}},
{"geometry": {"type": "Point", "coordinates": [-95.2443402955, 38.9427659491]}, "type": "Feature", "properties": {"collection_times": [{"days": "Mon-Sat", "time": "3:00pm"}, {"days": "Sun", "time": "Closed"}], "id": "6604600002", "name": "USPS COLLECTION BOX - BLUE BOX", "address": {"city": "LAWRENCE", "state": "KS", "street": "711 W 23RD ST", "postcode": "66046"}}},
{"geometry": {"type": "Point", "coordinates": [-95.2581297773, 38.9426672876]}, "type": "Feature", "properties": {"collection_times": [{"days": "Mon-Sat", "time": "3:00pm"}, {"days": "Sun", "time": "Closed"}], "id": "6604600004", "name": "USPS COLLECTION BOX - BLUE BOX", "address": {"city": "LAWRENCE", "state": "KS", "street": "1801 W 23RD ST", "postcode": "66046"}}},
{"geometry": {"type": "Point", "coordinates": [-95.2378682664, 38.9371925808]}, "type": "Feature", "properties": {"collection_times": [{"days": "Mon-Sat", "time": "3:00pm"}, {"days": "Sun", "time": "Closed"}], "id": "6604600005", "name": "USPS COLLECTION BOX - EXPRESS", "address": {"city": "LAWRENCE", "state": "KS", "street": "1801 W 23RD ST", "postcode": "66046"}}},
{"geometry": {"type": "Point", "coordinates": [-95.2147782421, 38.9426515244]}, "type": "Feature", "properties": {"collection_times": [{"days": "Mon-Sat", "time": "10:00am"}, {"days": "Sun", "time": "Closed"}], "id": "6604600006", "name": "USPS COLLECTION BOX - BLUE BOX", "address": {"city": "LAWRENCE", "state": "KS", "street": "1611 E 23RD ST", "postcode": "66046"}}},
{"geometry": {"type": "Point", "coordinates": [-95.2506168425, 38.9414634328]}, "type": "Feature", "properties": {"collection_times": [{"days": "Mon-Sat", "time": "10:00am"}, {"days": "Sun", "time": "Closed"}], "id": "6604600007", "name": "USPS COLLECTION BOX - BLUE BOX", "address": {"city": "LAWRENCE", "state": "KS", "street": "1301 W 24TH ST", "postcode": "66046"}}},
{"geometry": {"type": "Point", "coordinates": [-95.2567167412, 38.9280373368]}, "type": "Feature", "properties": {"collection_times": [{"days": "Mon-Fri", "time": "5:00pm"}, {"days": "Sat", "time": "4:00pm"}, {"days": "Sun", "time": "Closed"}], "id": "6604600008", "name": "USPS COLLECTION BOX - BLUE BOX", "address": {"city": "LAWRENCE", "state": "KS", "street": "1901 W 31ST ST", "postcode": "66046"}}},
{"geometry": {"type": "Point", "coordinates": [-95.2567167412, 38.9280373368]}, "type": "Feature", "properties": {"collection_times": [{"days": "Mon-Fri", "time": "5:00pm"}, {"days": "Sat", "time": "4:00pm"}, {"days": "Sun", "time": "Closed"}], "id": "6604600009", "name": "USPS COLLECTION BOX - BLUE BOX", "address": {"city": "LAWRENCE", "state": "KS", "street": "1901 W 31ST ST", "postcode": "66046"}}},
{"geometry": {"type": "Point", "coordinates": [-95.1832972554, 38.9476656342]}, "type": "Feature", "properties": {"collection_times": [{"days": "Mon-Sat", "time": "11:00am"}, {"days": "Sun", "time": "Closed"}], "id": "6604600012", "name": "USPS COLLECTION BOX - BLUE BOX", "address": {"city": "LAWRENCE", "state": "KS", "street": "3800 GREENWAY CIR", "postcode": "66046"}}},
{"geometry": {"type": "Point", "coordinates": [-95.2606749351, 38.9242109776]}, "type": "Feature", "properties": {"collection_times": [{"days": "Mon-Sat", "time": "1:00pm"}, {"days": "Sun", "time": "Closed"}], "id": "6604600013", "name": "USPS COLLECTION BOX - BLUE BOX", "address": {"city": "LAWRENCE", "state": "KS", "street": "3323 IOWA ST", "postcode": "66046"}}},
{"geometry": {"type": "Point", "coordinates": [-95.2567167412, 38.9280373368]}, "type": "Feature", "properties": {"collection_times": [{"days": "Mon-Sat", "time": "5:00pm"}, {"days": "Sun", "time": "Closed"}], "id": "6604600019", "name": "USPS COLLECTION BOX - PO LOBBY", "address": {"city": "LAWRENCE", "state": "KS", "street": "1901 W 31ST ST", "postcode": "66046"}}},
{"geometry": {"type": "Point", "coordinates": [-95.2567167412, 38.9280373368]}, "type": "Feature", "properties": {"collection_times": [{"days": "Mon-Sat", "time": "5:00pm"}, {"days": "Sun", "time": "Closed"}], "id": "6604600020", "name": "USPS COLLECTION BOX - PO LOBBY", "address": {"city": "LAWRENCE", "state": "KS", "street": "1901 W 31ST ST", "postcode": "66046"}}},
{"geometry": {"type": "Point", "coordinates": [-95.2567167412, 38.9280373368]}, "type": "Feature", "properties": {"collection_times": [{"days": "Mon-Fri", "time": "5:00pm"}, {"days": "Sat", "time": "4:45pm"}, {"days": "Sun", "time": "Closed"}], "id": "6604600027", "name": "USPS COLLECTION BOX - PO LOBBY", "address": {"city": "LAWRENCE", "state": "KS", "street": "1901 W 31ST ST", "postcode": "66046"}}},
{"geometry": {"type": "Point", "coordinates": [-95.2567167412, 38.9280373368]}, "type": "Feature", "properties": {"collection_times": [{"days": "Mon-Fri", "time": "5:00pm"}, {"days": "Sat", "time": "4:45pm"}, {"days": "Sun", "time": "Closed"}], "id": "6604600028", "name": "USPS COLLECTION BOX - APC", "address": {"city": "LAWRENCE", "state": "KS", "street": "1901 W 31ST ST", "postcode": "66046"}}},
{"geometry": {"type": "Point", "coordinates": [-95.2915681893, 38.9359716342]}, "type": "Feature", "properties": {"collection_times": [{"days": "Mon-Sat", "time": "3:15pm"}, {"days": "Sun", "time": "Closed"}], "id": "6604700003", "name": "USPS COLLECTION BOX - EXPRESS", "address": {"city": "LAWRENCE", "state": "KS", "street": "3510 CLINTON PKWY", "postcode": "66047"}}},
{"geometry": {"type": "Point", "coordinates": [-95.2795371736, 38.9415736359]}, "type": "Feature", "properties": {"collection_times": [{"days": "Mon-Sat", "time": "12:00pm"}, {"days": "Sun", "time": "Closed"}], "id": "6604700004", "name": "USPS COLLECTION BOX - BLUE BOX", "address": {"city": "LAWRENCE", "state": "KS", "street": "3510 CLINTON PARKWAY PL", "postcode": "66047"}}},
{"geometry": {"type": "Point", "coordinates": [-95.261725005, 38.9344865641]}, "type": "Feature", "properties": {"collection_times": [{"days": "Mon-Sat", "time": "3:30pm"}, {"days": "Sun", "time": "Closed"}], "id": "6604700008", "name": "USPS COLLECTION BOX - BLUE BOX", "address": {"city": "LAWRENCE", "state": "KS", "street": "2108 W 27TH ST", "postcode": "66047"}}},
{"geometry": {"type": "Point", "coordinates": [-95.2915681893, 38.9359716342]}, "type": "Feature", "properties": {"collection_times": [{"days": "Mon-Sat", "time": "3:30pm"}, {"days": "Sun", "time": "Closed"}], "id": "6604700009", "name": "USPS COLLECTION BOX - EXPRESS", "address": {"city": "LAWRENCE", "state": "KS", "street": "2108 W 27TH ST", "postcode": "66047"}}},
{"geometry": {"type": "Point", "coordinates": [-95.3070874372, 38.9425502548]}, "type": "Feature", "properties": {"collection_times": [{"days": "Mon-Sat", "time": "11:30am"}, {"days": "Sun", "time": "Closed"}], "id": "6604700011", "name": "USPS COLLECTION BOX - BLUE BOX", "address": {"city": "LAWRENCE", "state": "KS", "street": "2300 WAKARUSA DR", "postcode": "66047"}}},
{"geometry": {"type": "Point", "coordinates": [-95.2811732877, 38.9427856723]}, "type": "Feature", "properties": {"collection_times": [{"days": "Mon-Sat", "time": "3:15pm"}, {"days": "Sun", "time": "Closed"}], "id": "6604700012", "name": "USPS COLLECTION BOX - BLUE BOX", "address": {"city": "LAWRENCE", "state": "KS", "street": "3510 CLINTON PKWY", "postcode": "66047"}}},
{"geometry": {"type": "Point", "coordinates": [-95.3073261845, 38.9423039786]}, "type": "Feature", "properties": {"collection_times": [{"days": "Mon-Sat", "time": "10:30am"}, {"days": "Sun", "time": "Closed"}], "id": "6604700013", "name": "USPS COLLECTION BOX - BLUE BOX", "address": {"city": "LAWRENCE", "state": "KS", "street": "2311 WAKARUSA DR", "postcode": "66047"}}},
{"geometry": {"type": "Point", "coordinates": [-94.9854105417, 39.2756103983]}, "type": "Feature", "properties": {"collection_times": [{"days": "Mon-Fri", "time": "4:45pm"}, {"days": "Sat", "time": "12:00pm"}, {"days": "Sun", "time": "Closed"}], "id": "6604800007", "name": "USPS COLLECTION BOX - BLUE BOX", "address": {"city": "FT LEAVNWRTH", "state": "KS", "street": "311 KEARNY AVE", "postcode": "66048"}}},
{"geometry": {"type": "Point", "coordinates": [-94.8996665334, 39.2763089482]}, "type": "Feature", "properties": {"collection_times": [{"days": "Mon-Sat", "time": "2:00pm"}, {"days": "Sun", "time": "Closed"}], "id": "6604800010", "name": "USPS COLLECTION BOX - BLUE BOX", "address": {"city": "FT LEAVNWRTH", "state": "KS", "street": "4101 S 4TH ST", "postcode": "66048"}}},
{"geometry": {"type": "Point", "coordinates": [-94.9489579826, 39.3103293261]}, "type": "Feature", "properties": {"collection_times": [{"days": "Mon-Fri", "time": "2:30pm"}, {"days": "Sat", "time": "2:00pm"}, {"days": "Sun", "time": "Closed"}], "id": "6604800012", "name": "USPS COLLECTION BOX - BLUE BOX", "address": {"city": "FT LEAVNWRTH", "state": "KS", "street": "1920 SPRUCE ST", "postcode": "66048"}}},
{"geometry": {"type": "Point", "coordinates": [-94.9088764624, 39.2959276116]}, "type": "Feature", "properties": {"collection_times": [{"days": "Mon-Sat", "time": "12:00pm"}, {"days": "Sun", "time": "Closed"}], "id": "6604800015", "name": "USPS COLLECTION BOX - BLUE BOX", "address": {"city": "FT LEAVNWRTH", "state": "KS", "street": "2107 S 4TH ST", "postcode": "66048"}}},
{"geometry": {"type": "Point", "coordinates": [-94.9001103279, 39.2783953213]}, "type": "Feature", "properties": {"collection_times": [{"days": "Mon-Sat", "time": "2:00pm"}, {"days": "Sun", "time": "Closed"}], "id": "6604800016", "name": "USPS COLLECTION BOX - BLUE BOX", "address": {"city": "FT LEAVNWRTH", "state": "KS", "street": "4100 S 4TH ST", "postcode": "66048"}}},
{"geometry": {"type": "Point", "coordinates": [-94.9129199988, 39.3192262934]}, "type": "Feature", "properties": {"collection_times": [{"days": "Mon-Fri", "time": "5:30pm"}, {"days": "Sat", "time": "4:00pm"}, {"days": "Sun", "time": "Closed"}], "id": "6604800025", "name": "USPS COLLECTION BOX - BLUE BOX", "address": {"city": "FT LEAVNWRTH", "state": "KS", "street": "330 SHAWNEE ST", "postcode": "66048"}}},
{"geometry": {"type": "Point", "coordinates": [-94.9129199988, 39.3192262934]}, "type": "Feature", "properties": {"collection_times": [{"days": "Mon-Fri", "time": "5:30pm"}, {"days": "Sat", "time": "4:00pm"}, {"days": "Sun", "time": "Closed"}], "id": "6604800028", "name": "USPS COLLECTION BOX - BLUE BOX", "address": {"city": "FT LEAVNWRTH", "state": "KS", "street": "330 SHAWNEE ST", "postcode": "66048"}}},
{"geometry": {"type": "Point", "coordinates": [-94.9129199988, 39.3192262934]}, "type": "Feature", "properties": {"collection_times": [{"days": "Mon-Fri", "time": "5:30pm"}, {"days": "Sat", "time": "4:00pm"}, {"days": "Sun", "time": "Closed"}], "id": "6604800042", "name": "USPS COLLECTION BOX - PO LOBBY", "address": {"city": "FT LEAVNWRTH", "state": "KS", "street": "330 SHAWNEE ST", "postcode": "66048"}}},
{"geometry": {"type": "Point", "coordinates": [-94.9129199988, 39.3192262934]}, "type": "Feature", "properties": {"collection_times": [{"days": "Mon-Fri", "time": "5:30pm"}, {"days": "Sat", "time": "4:00pm"}, {"days": "Sun", "time": "Closed"}], "id": "6604800043", "name": "USPS COLLECTION BOX - PO LOBBY", "address": {"city": "FT LEAVNWRTH", "state": "KS", "street": "330 SHAWNEE ST", "postcode": "66048"}}},
{"geometry": {"type": "Point", "coordinates": [-94.9854105417, 39.2756103983]}, "type": "Feature", "properties": {"collection_times": [{"days": "Mon-Fri", "time": "4:30pm"}, {"days": "Sat", "time": "12:00pm"}, {"days": "Sun", "time": "Closed"}], "id": "6604800046", "name": "USPS COLLECTION BOX - BLUE BOX", "address": {"city": "FT LEAVNWRTH", "state": "KS", "street": "330 KANSAS AVE", "postcode": "66048"}}},
{"geometry": {"type": "Point", "coordinates": [-95.2718224806, 38.9716653449]}, "type": "Feature", "properties": {"collection_times": [{"days": "Mon-Sat", "time": "3:30pm"}, {"days": "Sun", "time": "Closed"}], "id": "6604900002", "name": "USPS COLLECTION BOX - BLUE BOX", "address": {"city": "LAWRENCE", "state": "KS", "street": "3000 W 6TH ST", "postcode": "66049"}}},
{"geometry": {"type": "Point", "coordinates": [-95.2718224806, 38.9716653449]}, "type": "Feature", "properties": {"collection_times": [{"days": "Mon-Sat", "time": "3:30pm"}, {"days": "Sun", "time": "Closed"}], "id": "6604900003", "name": "USPS COLLECTION BOX - BLUE BOX", "address": {"city": "LAWRENCE", "state": "KS", "street": "3000 W 6TH ST", "postcode": "66049"}}},
{"geometry": {"type": "Point", "coordinates": [-95.2788520431, 38.959105332]}, "type": "Feature", "properties": {"collection_times": [{"days": "Mon-Sat", "time": "3:15pm"}, {"days": "Sun", "time": "Closed"}], "id": "6604900004", "name": "USPS COLLECTION BOX - BLUE BOX", "address": {"city": "LAWRENCE", "state": "KS", "street": "1410 KASOLD DR", "postcode": "66049"}}},
{"geometry": {"type": "Point", "coordinates": [-95.2788520431, 38.959105332]}, "type": "Feature", "properties": {"collection_times": [{"days": "Mon-Sat", "time": "3:15pm"}, {"days": "Sun", "time": "Closed"}], "id": "6604900005", "name": "USPS COLLECTION BOX - BLUE BOX", "address": {"city": "LAWRENCE", "state": "KS", "street": "1410 KASOLD DR", "postcode": "66049"}}},
{"geometry": {"type": "Point", "coordinates": [-95.3068282877, 38.9587946706]}, "type": "Feature", "properties": {"collection_times": [{"days": "Mon-Fri", "time": "3:30pm"}, {"days": "Sat", "time": "3:00pm"}, {"days": "Sun", "time": "Closed"}], "id": "6604900009", "name": "USPS COLLECTION BOX - BLUE BOX", "address": {"city": "LAWRENCE", "state": "KS", "street": "1440 WAKARUSA DR", "postcode": "66049"}}},
{"geometry": {"type": "Point", "coordinates": [-95.2861499675, 38.9700104073]}, "type": "Feature", "properties": {"collection_times": [{"days": "Mon-Fri", "time": "3:30pm"}, {"days": "Sat", "time": "3:00pm"}, {"days": "Sun", "time": "Closed"}], "id": "6604900010", "name": "USPS COLLECTION BOX - EXPRESS", "address": {"city": "LAWRENCE", "state": "KS", "street": "1440 WAKARUSA DR", "postcode": "66049"}}},
{"geometry": {"type": "Point", "coordinates": [-95.3070500594, 38.9626338846]}, "type": "Feature", "properties": {"collection_times": [{"days": "Mon-Fri", "time": "3:30pm"}, {"days": "Sat", "time": "3:00pm"}, {"days": "Sun", "time": "Closed"}], "id": "6604900011", "name": "USPS COLLECTION BOX - BLUE BOX", "address": {"city": "LAWRENCE", "state": "KS", "street": "1321 WAKARUSA DR", "postcode": "66049"}}},
{"geometry": {"type": "Point", "coordinates": [-95.3070609816, 38.9644391908]}, "type": "Feature", "properties": {"collection_times": [{"days": "Mon-Fri", "time": "3:30pm"}, {"days": "Sat", "time": "3:00pm"}, {"days": "Sun", "time": "Closed"}], "id": "6604900017", "name": "USPS COLLECTION BOX - BLUE BOX", "address": {"city": "LAWRENCE", "state": "KS", "street": "1201 WAKARUSA DR", "postcode": "66049"}}},
{"geometry": {"type": "Point", "coordinates": [-95.3070609816, 38.9644391908]}, "type": "Feature", "properties": {"collection_times": [{"days": "Mon-Fri", "time": "3:30pm"}, {"days": "Sat", "time": "3:00pm"}, {"days": "Sun", "time": "Closed"}], "id": "6604900020", "name": "USPS COLLECTION BOX - BLUE BOX", "address": {"city": "LAWRENCE", "state": "KS", "street": "1201 WAKARUSA DR", "postcode": "66049"}}},
{"geometry": {"type": "Point", "coordinates": [-95.3111858102, 38.9706087428]}, "type": "Feature", "properties": {"collection_times": [{"days": "Mon-Sat", "time": "11:00am"}, {"days": "Sun", "time": "Closed"}], "id": "6604900021", "name": "USPS COLLECTION BOX - BLUE BOX", "address": {"city": "LAWRENCE", "state": "KS", "street": "5121 CONGRESSIONAL CIR", "postcode": "66049"}}},
{"geometry": {"type": "Point", "coordinates": [-95.3898764893, 39.0440977097]}, "type": "Feature", "properties": {"collection_times": [{"days": "Mon-Fri", "time": "3:00pm"}, {"days": "Sat", "time": "2:50pm"}, {"days": "Sun", "time": "Closed"}], "id": "6605000000", "name": "USPS COLLECTION BOX - BLUE BOX", "address": {"city": "LECOMPTON", "state": "KS", "street": "525 E WOODSON AVE", "postcode": "66050"}}},
{"geometry": {"type": "Point", "coordinates": [-95.3898764893, 39.0440977097]}, "type": "Feature", "properties": {"collection_times": [{"days": "Mon-Fri", "time": "11:45am"}, {"days": "Sat", "time": "9:45am"}, {"days": "Sun", "time": "Closed"}], "id": "6605000001", "name": "USPS COLLECTION BOX - PO LOBBY", "address": {"city": "LECOMPTON", "state": "KS", "street": "525 E WOODSON AVE", "postcode": "66050"}}},
{"geometry": {"type": "Point", "coordinates": [-95.0389137404, 39.0002603492]}, "type": "Feature", "properties": {"collection_times": [{"days": "Mon-Fri", "time": "4:00pm"}, {"days": "Sat", "time": "4:15pm"}, {"days": "Sun", "time": "Closed"}], "id": "6605200000", "name": "USPS COLLECTION BOX - BLUE BOX", "address": {"city": "LINWOOD", "state": "KS", "street": "113 E 4TH ST", "postcode": "66052"}}},
{"geometry": {"type": "Point", "coordinates": [-95.0389137404, 39.0002603492]}, "type": "Feature", "properties": {"collection_times": [{"days": "Mon-Fri", "time": "11:45am"}, {"days": "Sat", "time": "9:45am"}, {"days": "Sun", "time": "Closed"}], "id": "6605200002", "name": "USPS COLLECTION BOX - PO LOBBY", "address": {"city": "LINWOOD", "state": "KS", "street": "113 E 4TH ST", "postcode": "66052"}}},
{"geometry": {"type": "Point", "coordinates": [-94.6634177126, 38.617646855]}, "type": "Feature", "properties": {"collection_times": [{"days": "Mon-Sat", "time": "3:30pm"}, {"days": "Sun", "time": "Closed"}], "id": "6605300000", "name": "USPS COLLECTION BOX - BLUE BOX", "address": {"city": "LOUISBURG", "state": "KS", "street": "214 HARVEST DR", "postcode": "66053"}}},
{"geometry": {"type": "Point", "coordinates": [-94.6634177126, 38.617646855]}, "type": "Feature", "properties": {"collection_times": [{"days": "Mon-Fri", "time": "4:30pm"}, {"days": "Sat", "time": "11:00am"}, {"days": "Sun", "time": "Closed"}], "id": "6605300002", "name": "USPS COLLECTION BOX - PO LOBBY", "address": {"city": "LOUISBURG", "state": "KS", "street": "214 HARVEST DR", "postcode": "66053"}}},
{"geometry": {"type": "Point", "coordinates": [-94.6634177126, 38.617646855]}, "type": "Feature", "properties": {"collection_times": [{"days": "Mon-Fri", "time": "4:30pm"}, {"days": "Sat", "time": "11:00am"}, {"days": "Sun", "time": "Closed"}], "id": "6605300003", "name": "USPS COLLECTION BOX - PO LOBBY", "address": {"city": "LOUISBURG", "state": "KS", "street": "214 HARVEST DR", "postcode": "66053"}}},
{"geometry": {"type": "Point", "coordinates": [-94.6893596811, 38.6209129924]}, "type": "Feature", "properties": {"collection_times": [{"days": "Mon-Sat", "time": "3:30pm"}, {"days": "Sun", "time": "Closed"}], "id": "6605300004", "name": "USPS COLLECTION BOX - BLUE BOX", "address": {"city": "LOUISBURG", "state": "KS", "street": "1201 W AMITY ST", "postcode": "66053"}}},
{"geometry": {"type": "Point", "coordinates": [-95.2083886915, 39.1959540621]}, "type": "Feature", "properties": {"collection_times": [{"days": "Mon-Sat", "time": "4:00pm"}, {"days": "Sun", "time": "Closed"}], "id": "6605400000", "name": "USPS COLLECTION BOX - BLUE BOX", "address": {"city": "MC LOUTH", "state": "KS", "street": "301 S UNION ST", "postcode": "66054"}}},
{"geometry": {"type": "Point", "coordinates": [-95.2083886915, 39.1959540621]}, "type": "Feature", "properties": {"collection_times": [{"days": "Mon-Fri", "time": "4:00pm"}, {"days": "Sat", "time": "11:45am"}, {"days": "Sun", "time": "Closed"}], "id": "6605400001", "name": "USPS COLLECTION BOX - PO LOBBY", "address": {"city": "MC LOUTH", "state": "KS", "street": "301 S UNION ST", "postcode": "66054"}}},
{"geometry": {"type": "Point", "coordinates": [-95.2083886915, 39.1959540621]}, "type": "Feature", "properties": {"collection_times": [{"days": "Mon-Fri", "time": "4:00pm"}, {"days": "Sat", "time": "11:45am"}, {"days": "Sun", "time": "Closed"}], "id": "6605400002", "name": "USPS COLLECTION BOX - PO LOBBY", "address": {"city": "MC LOUTH", "state": "KS", "street": "301 S UNION ST", "postcode": "66054"}}},
{"geometry": {"type": "Point", "coordinates": [-94.8131839596, 38.1425759642]}, "type": "Feature", "properties": {"collection_times": [{"days": "Mon-Sat", "time": "3:45pm"}, {"days": "Sun", "time": "Closed"}], "id": "6605600000", "name": "USPS COLLECTION BOX - BLUE BOX", "address": {"city": "MOUND CITY", "state": "KS", "street": "504 MAIN ST", "postcode": "66056"}}},
{"geometry": {"type": "Point", "coordinates": [-94.8131839596, 38.1425759642]}, "type": "Feature", "properties": {"collection_times": [{"days": "Mon-Fri", "time": "3:45pm"}, {"days": "Sat", "time": "11:00am"}, {"days": "Sun", "time": "Closed"}], "id": "6605600002", "name": "USPS COLLECTION BOX - PO LOBBY", "address": {"city": "MOUND CITY", "state": "KS", "street": "504 MAIN ST", "postcode": "66056"}}},
{"geometry": {"type": "Point", "coordinates": [-94.8131839596, 38.1425759642]}, "type": "Feature", "properties": {"collection_times": [{"days": "Mon-Fri", "time": "3:45pm"}, {"days": "Sat", "time": "11:00am"}, {"days": "Sun", "time": "Closed"}], "id": "6605600004", "name": "USPS COLLECTION BOX - PO LOBBY", "address": {"city": "MOUND CITY", "state": "KS", "street": "504 MAIN ST", "postcode": "66056"}}},
{"geometry": {"type": "Point", "coordinates": [-95.5211117774, 39.5505225406]}, "type": "Feature", "properties": {"collection_times": [{"days": "Mon-Sat", "time": "3:00pm"}, {"days": "Sun", "time": "Closed"}], "id": "6605800000", "name": "USPS COLLECTION BOX - BLUE BOX", "address": {"city": "MUSCOTAH", "state": "KS", "street": "116 E 1ST ST", "postcode": "66058"}}},
{"geometry": {"type": "Point", "coordinates": [-95.5211117774, 39.5505225406]}, "type": "Feature", "properties": {"collection_times": [{"days": "Mon-Fri", "time": "2:45pm"}, {"days": "Sat", "time": "11:00am"}, {"days": "Sun", "time": "Closed"}], "id": "6605800001", "name": "USPS COLLECTION BOX - PO LOBBY", "address": {"city": "MUSCOTAH", "state": "KS", "street": "116 E 1ST ST", "postcode": "66058"}}},
{"geometry": {"type": "Point", "coordinates": [-95.3339513497, 39.4181579631]}, "type": "Feature", "properties": {"collection_times": [{"days": "Mon-Sat", "time": "3:45pm"}, {"days": "Sun", "time": "Closed"}], "id": "6606000000", "name": "USPS COLLECTION BOX - BLUE BOX", "address": {"city": "NORTONVILLE", "state": "KS", "street": "220 RAILROAD ST", "postcode": "66060"}}},
{"geometry": {"type": "Point", "coordinates": [-95.3339513497, 39.4181579631]}, "type": "Feature", "properties": {"collection_times": [{"days": "Mon-Fri", "time": "2:45pm"}, {"days": "Sat", "time": "10:00am"}, {"days": "Sun", "time": "Closed"}], "id": "6606000001", "name": "USPS COLLECTION BOX - PO LOBBY", "address": {"city": "NORTONVILLE", "state": "KS", "street": "220 RAILROAD ST", "postcode": "66060"}}},
{"geometry": {"type": "Point", "coordinates": [-94.81824781, 38.8824560909]}, "type": "Feature", "properties": {"collection_times": [{"days": "Mon-Fri", "time": "5:15pm"}, {"days": "Sat", "time": "4:00pm"}, {"days": "Sun", "time": "Closed"}], "id": "6606100003", "name": "USPS COLLECTION BOX - BLUE BOX", "address": {"city": "OLATHE", "state": "KS", "street": "110 N CHESTNUT ST", "postcode": "66061"}}},
{"geometry": {"type": "Point", "coordinates": [-94.81824781, 38.8824560909]}, "type": "Feature", "properties": {"collection_times": [{"days": "Mon-Fri", "time": "5:15pm"}, {"days": "Sat", "time": "4:00pm"}, {"days": "Sun", "time": "Closed"}], "id": "6606100004", "name": "USPS COLLECTION BOX - BLUE BOX", "address": {"city": "OLATHE", "state": "KS", "street": "110 N CHESTNUT ST", "postcode": "66061"}}},
{"geometry": {"type": "Point", "coordinates": [-94.8846685899, 38.9407605894]}, "type": "Feature", "properties": {"collection_times": [{"days": "Mon-Sat", "time": "11:00am"}, {"days": "Sun", "time": "Closed"}], "id": "6606100006", "name": "USPS COLLECTION BOX - BLUE BOX", "address": {"city": "OLATHE", "state": "KS", "street": "25775 W 103RD ST", "postcode": "66061"}}},
{"geometry": {"type": "Point", "coordinates": [-94.7972510085, 38.9073247482]}, "type": "Feature", "properties": {"collection_times": [{"days": "Mon-Sat", "time": "11:00am"}, {"days": "Sun", "time": "Closed"}], "id": "6606100015", "name": "USPS COLLECTION BOX - BLUE BOX", "address": {"city": "OLATHE", "state": "KS", "street": "1600 N RIDGEVIEW RD", "postcode": "66061"}}},
{"geometry": {"type": "Point", "coordinates": [-94.7864001887, 38.902891707]}, "type": "Feature", "properties": {"collection_times": [{"days": "Mon-Fri", "time": "9:30am"}, {"days": "Sat-Sun", "time": "Closed"}], "id": "6606100022", "name": "USPS COLLECTION BOX - BLUE BOX", "address": {"city": "OLATHE", "state": "KS", "street": "1260 N WINCHESTER ST", "postcode": "66061"}}},
{"geometry": {"type": "Point", "coordinates": [-94.81824781, 38.8824560909]}, "type": "Feature", "properties": {"collection_times": [{"days": "Mon-Fri", "time": "5:15pm"}, {"days": "Sat", "time": "4:00pm"}, {"days": "Sun", "time": "Closed"}], "id": "6606100028", "name": "USPS COLLECTION BOX - PO LOBBY", "address": {"city": "OLATHE", "state": "KS", "street": "110 N CHESTNUT ST", "postcode": "66061"}}},
{"geometry": {"type": "Point", "coordinates": [-94.81824781, 38.8824560909]}, "type": "Feature", "properties": {"collection_times": [{"days": "Mon-Fri", "time": "5:15pm"}, {"days": "Sat", "time": "4:00pm"}, {"days": "Sun", "time": "Closed"}], "id": "6606100029", "name": "USPS COLLECTION BOX - APC", "address": {"city": "OLATHE", "state": "KS", "street": "110 N CHESTNUT ST", "postcode": "66061"}}},
{"geometry": {"type": "Point", "coordinates": [-94.8205368356, 38.8547310816]}, "type": "Feature", "properties": {"collection_times": [{"days": "Mon-Sat", "time": "3:00pm"}, {"days": "Sun", "time": "Closed"}], "id": "6606100030", "name": "USPS COLLECTION BOX - BLUE BOX", "address": {"city": "OLATHE", "state": "KS", "street": "20030 W 151ST ST", "postcode": "66061"}}},
{"geometry": {"type": "Point", "coordinates": [-94.8200411757, 38.8624155831]}, "type": "Feature", "properties": {"collection_times": [{"days": "Mon-Sat", "time": "9:30am"}, {"days": "Sun", "time": "Closed"}], "id": "6606100033", "name": "USPS COLLECTION BOX - BLUE BOX", "address": {"city": "OLATHE", "state": "KS", "street": "1309 S FOUNTAIN DR", "postcode": "66061"}}},
{"geometry": {"type": "Point", "coordinates": [-94.7795413926, 38.8742522705]}, "type": "Feature", "properties": {"collection_times": [{"days": "Mon-Sat", "time": "9:30am"}, {"days": "Sun", "time": "Closed"}], "id": "6606200003", "name": "USPS COLLECTION BOX - BLUE BOX", "address": {"city": "OLATHE", "state": "KS", "street": "13509 S MUR LEN RD", "postcode": "66062"}}},
{"geometry": {"type": "Point", "coordinates": [-94.7798442301, 38.8878421031]}, "type": "Feature", "properties": {"collection_times": [{"days": "Mon-Sat", "time": "9:30am"}, {"days": "Sun", "time": "Closed"}], "id": "6606200004", "name": "USPS COLLECTION BOX - BLUE BOX", "address": {"city": "OLATHE", "state": "KS", "street": "525 N SOMERSET TER", "postcode": "66062"}}},
{"geometry": {"type": "Point", "coordinates": [-94.8075183721, 38.8437307462]}, "type": "Feature", "properties": {"collection_times": [{"days": "Mon-Fri", "time": "9:30am"}, {"days": "Sat-Sun", "time": "Closed"}], "id": "6606200009", "name": "USPS COLLECTION BOX - BLUE BOX", "address": {"city": "OLATHE", "state": "KS", "street": "15765 S KEELER ST", "postcode": "66062"}}},
{"geometry": {"type": "Point", "coordinates": [-94.779618285, 38.8927679442]}, "type": "Feature", "properties": {"collection_times": [{"days": "Mon-Sat", "time": "9:30am"}, {"days": "Sun", "time": "Closed"}], "id": "6606200011", "name": "USPS COLLECTION BOX - BLUE BOX", "address": {"city": "OLATHE", "state": "KS", "street": "13045 S MUR LEN RD", "postcode": "66062"}}},
{"geometry": {"type": "Point", "coordinates": [-94.7985598239, 38.8529459966]}, "type": "Feature", "properties": {"collection_times": [{"days": "Mon-Sat", "time": "9:30am"}, {"days": "Sun", "time": "Closed"}], "id": "6606200013", "name": "USPS COLLECTION BOX - BLUE BOX", "address": {"city": "OLATHE", "state": "KS", "street": "1805 S RIDGEVIEW RD", "postcode": "66062"}}},
{"geometry": {"type": "Point", "coordinates": [-94.7889967836, 38.8810838585]}, "type": "Feature", "properties": {"collection_times": [{"days": "Mon-Sat", "time": "9:30am"}, {"days": "Sun", "time": "Closed"}], "id": "6606200014", "name": "USPS COLLECTION BOX - BLUE BOX", "address": {"city": "OLATHE", "state": "KS", "street": "140 S CLAIRBORNE RD", "postcode": "66062"}}},
{"geometry": {"type": "Point", "coordinates": [-94.7721575419, 38.8656216502]}, "type": "Feature", "properties": {"collection_times": [{"days": "Mon-Sat", "time": "5:00pm"}, {"days": "Sun", "time": "Closed"}], "id": "6606200019", "name": "USPS COLLECTION BOX - EXPRESS", "address": {"city": "OLATHE", "state": "KS", "street": "15050 W 138TH ST", "postcode": "66062"}}},
{"geometry": {"type": "Point", "coordinates": [-94.7599894468, 38.8788090284]}, "type": "Feature", "properties": {"collection_times": [{"days": "Mon-Sat", "time": "5:00pm"}, {"days": "Sun", "time": "Closed"}], "id": "6606200020", "name": "USPS COLLECTION BOX - PO LOBBY", "address": {"city": "OLATHE", "state": "KS", "street": "15050 W 138TH ST", "postcode": "66062"}}},
{"geometry": {"type": "Point", "coordinates": [-94.7822278924, 38.8836402328]}, "type": "Feature", "properties": {"collection_times": [{"days": "Mon-Sat", "time": "9:30am"}, {"days": "Sun", "time": "Closed"}], "id": "6606200024", "name": "USPS COLLECTION BOX - BLUE BOX", "address": {"city": "OLATHE", "state": "KS", "street": "2049 E SANTA FE ST", "postcode": "66062"}}},
{"geometry": {"type": "Point", "coordinates": [-94.7794857935, 38.8977872391]}, "type": "Feature", "properties": {"collection_times": [{"days": "Mon-Sat", "time": "9:30am"}, {"days": "Sun", "time": "Closed"}], "id": "6606200026", "name": "USPS COLLECTION BOX - BLUE BOX", "address": {"city": "OLATHE", "state": "KS", "street": "12705 S MUR LEN RD", "postcode": "66062"}}},
{"geometry": {"type": "Point", "coordinates": [-94.7585249436, 38.9154535483]}, "type": "Feature", "properties": {"collection_times": [{"days": "Mon-Sat", "time": "9:30am"}, {"days": "Sun", "time": "Closed"}], "id": "6606200029", "name": "USPS COLLECTION BOX - BLUE BOX", "address": {"city": "OLATHE", "state": "KS", "street": "14824 W 117TH ST", "postcode": "66062"}}},
{"geometry": {"type": "Point", "coordinates": [-94.7585249436, 38.9154535483]}, "type": "Feature", "properties": {"collection_times": [{"days": "Mon-Sat", "time": "9:30am"}, {"days": "Sun", "time": "Closed"}], "id": "6606200030", "name": "USPS COLLECTION BOX - BLUE BOX", "address": {"city": "OLATHE", "state": "KS", "street": "14824 W 117TH ST", "postcode": "66062"}}},
{"geometry": {"type": "Point", "coordinates": [-94.7842057998, 38.8882951764]}, "type": "Feature", "properties": {"collection_times": [{"days": "Mon-Sat", "time": "9:30am"}, {"days": "Sun", "time": "Closed"}], "id": "6606200033", "name": "USPS COLLECTION BOX - BLUE BOX", "address": {"city": "OLATHE", "state": "KS", "street": "525 N LINDENWOOD DR", "postcode": "66062"}}},
{"geometry": {"type": "Point", "coordinates": [-94.7709176218, 38.8837183081]}, "type": "Feature", "properties": {"collection_times": [{"days": "Mon-Sat", "time": "9:30am"}, {"days": "Sun", "time": "Closed"}], "id": "6606200034", "name": "USPS COLLECTION BOX - BLUE BOX", "address": {"city": "OLATHE", "state": "KS", "street": "16100 W 135TH ST", "postcode": "66062"}}},
{"geometry": {"type": "Point", "coordinates": [-94.7599894468, 38.8788090284]}, "type": "Feature", "properties": {"collection_times": [{"days": "Mon-Sat", "time": "5:00pm"}, {"days": "Sun", "time": "Closed"}], "id": "6606200039", "name": "USPS COLLECTION BOX - BLUE BOX", "address": {"city": "OLATHE", "state": "KS", "street": "15050 W 138TH ST", "postcode": "66062"}}},
{"geometry": {"type": "Point", "coordinates": [-94.7599894468, 38.8788090284]}, "type": "Feature", "properties": {"collection_times": [{"days": "Mon-Sat", "time": "5:00pm"}, {"days": "Sun", "time": "Closed"}], "id": "6606200040", "name": "USPS COLLECTION BOX - BLUE BOX", "address": {"city": "OLATHE", "state": "KS", "street": "15050 W 138TH ST", "postcode": "66062"}}},
{"geometry": {"type": "Point", "coordinates": [-94.7795155196, 38.8741508203]}, "type": "Feature", "properties": {"collection_times": [{"days": "Mon-Sat", "time": "9:30am"}, {"days": "Sun", "time": "Closed"}], "id": "6606200044", "name": "USPS COLLECTION BOX - BLUE BOX", "address": {"city": "OLATHE", "state": "KS", "street": "14109 S MUR LEN RD", "postcode": "66062"}}},
{"geometry": {"type": "Point", "coordinates": [-94.7636057524, 38.9116609818]}, "type": "Feature", "properties": {"collection_times": [{"days": "Mon-Sat", "time": "9:30am"}, {"days": "Sun", "time": "Closed"}], "id": "6606200046", "name": "USPS COLLECTION BOX - BLUE BOX", "address": {"city": "OLATHE", "state": "KS", "street": "15315 W 119TH ST", "postcode": "66062"}}},
{"geometry": {"type": "Point", "coordinates": [-94.7599894468, 38.8788090284]}, "type": "Feature", "properties": {"collection_times": [{"days": "Mon-Sat", "time": "5:00pm"}, {"days": "Sun", "time": "Closed"}], "id": "6606200057", "name": "USPS COLLECTION BOX - APC", "address": {"city": "OLATHE", "state": "KS", "street": "15050 W 138TH ST", "postcode": "66062"}}},
{"geometry": {"type": "Point", "coordinates": [-94.949201385, 38.5001065291]}, "type": "Feature", "properties": {"collection_times": [{"days": "Mon-Sat", "time": "3:15pm"}, {"days": "Sun", "time": "Closed"}], "id": "6606400000", "name": "USPS COLLECTION BOX - BLUE BOX", "address": {"city": "OSAWATOMIE", "state": "KS", "street": "404 5TH ST", "postcode": "66064"}}},
{"geometry": {"type": "Point", "coordinates": [-94.949201385, 38.5001065291]}, "type": "Feature", "properties": {"collection_times": [{"days": "Mon-Fri", "time": "4:30pm"}, {"days": "Sat", "time": "11:00am"}, {"days": "Sun", "time": "Closed"}], "id": "6606400006", "name": "USPS COLLECTION BOX - PO LOBBY", "address": {"city": "OSAWATOMIE", "state": "KS", "street": "404 5TH ST", "postcode": "66064"}}},
{"geometry": {"type": "Point", "coordinates": [-95.3123680127, 39.2166086055]}, "type": "Feature", "properties": {"collection_times": [{"days": "Mon-Sat", "time": "3:45pm"}, {"days": "Sun", "time": "Closed"}], "id": "6606600001", "name": "USPS COLLECTION BOX - BLUE BOX", "address": {"city": "OSKALOOSA", "state": "KS", "street": "302 WASHINGTON ST", "postcode": "66066"}}},
{"geometry": {"type": "Point", "coordinates": [-95.3123680127, 39.2166086055]}, "type": "Feature", "properties": {"collection_times": [{"days": "Mon-Fri", "time": "3:45pm"}, {"days": "Sat", "time": "11:00am"}, {"days": "Sun", "time": "Closed"}], "id": "6606600002", "name": "USPS COLLECTION BOX - PO LOBBY", "address": {"city": "OSKALOOSA", "state": "KS", "street": "302 WASHINGTON ST", "postcode": "66066"}}},
{"geometry": {"type": "Point", "coordinates": [-95.2671507368, 38.6127993466]}, "type": "Feature", "properties": {"collection_times": [{"days": "Mon-Sat", "time": "3:55pm"}, {"days": "Sun", "time": "Closed"}], "id": "6606700000", "name": "USPS COLLECTION BOX - BLUE BOX", "address": {"city": "OTTAWA", "state": "KS", "street": "401 S HICKORY ST", "postcode": "66067"}}},
{"geometry": {"type": "Point", "coordinates": [-95.2688345095, 38.5954489899]}, "type": "Feature", "properties": {"collection_times": [{"days": "Mon-Sat", "time": "10:00am"}, {"days": "Sun", "time": "Closed"}], "id": "6606700007", "name": "USPS COLLECTION BOX - BLUE BOX", "address": {"city": "OTTAWA", "state": "KS", "street": "1418 S MAIN ST", "postcode": "66067"}}},
{"geometry": {"type": "Point", "coordinates": [-95.2685344389, 38.6140710341]}, "type": "Feature", "properties": {"collection_times": [{"days": "Mon-Sat", "time": "9:00am"}, {"days": "Sun", "time": "Closed"}], "id": "6606700009", "name": "USPS COLLECTION BOX - BLUE BOX", "address": {"city": "OTTAWA", "state": "KS", "street": "315 S MAIN ST", "postcode": "66067"}}},
{"geometry": {"type": "Point", "coordinates": [-95.2686235531, 38.6203871957]}, "type": "Feature", "properties": {"collection_times": [{"days": "Mon-Sat", "time": "9:00am"}, {"days": "Sun", "time": "Closed"}], "id": "6606700012", "name": "USPS COLLECTION BOX - BLUE BOX", "address": {"city": "OTTAWA", "state": "KS", "street": "302 N MAIN ST", "postcode": "66067"}}},
{"geometry": {"type": "Point", "coordinates": [-95.2686732986, 38.6157209622]}, "type": "Feature", "properties": {"collection_times": [{"days": "Mon-Sat", "time": "10:00am"}, {"days": "Sun", "time": "Closed"}], "id": "6606700015", "name": "USPS COLLECTION BOX - BLUE BOX", "address": {"city": "OTTAWA", "state": "KS", "street": "200 S MAIN ST", "postcode": "66067"}}},
{"geometry": {"type": "Point", "coordinates": [-95.2779871162, 38.6193597465]}, "type": "Feature", "properties": {"collection_times": [{"days": "Mon-Sat", "time": "10:00am"}, {"days": "Sun", "time": "Closed"}], "id": "6606700020", "name": "USPS COLLECTION BOX - BLUE BOX", "address": {"city": "OTTAWA", "state": "KS", "street": "2100 S PRINCETON CIRCLE DR", "postcode": "66067"}}},
{"geometry": {"type": "Point", "coordinates": [-95.2671507368, 38.6127993466]}, "type": "Feature", "properties": {"collection_times": [{"days": "Mon-Fri", "time": "3:40pm"}, {"days": "Sat", "time": "11:00am"}, {"days": "Sun", "time": "Closed"}], "id": "6606700023", "name": "USPS COLLECTION BOX - PO LOBBY", "address": {"city": "OTTAWA", "state": "KS", "street": "401 S HICKORY ST", "postcode": "66067"}}},
{"geometry": {"type": "Point", "coordinates": [-95.4213016001, 39.1761368156]}, "type": "Feature", "properties": {"collection_times": [{"days": "Mon-Sat", "time": "3:45pm"}, {"days": "Sun", "time": "Closed"}], "id": "6607000000", "name": "USPS COLLECTION BOX - BLUE BOX", "address": {"city": "OZAWKIE", "state": "KS", "street": "104 MAIN ST", "postcode": "66070"}}},
{"geometry": {"type": "Point", "coordinates": [-95.4213016001, 39.1761368156]}, "type": "Feature", "properties": {"collection_times": [{"days": "Mon-Fri", "time": "2:45pm"}, {"days": "Sat", "time": "10:15am"}, {"days": "Sun", "time": "Closed"}], "id": "6607000001", "name": "USPS COLLECTION BOX - PO LOBBY", "address": {"city": "OZAWKIE", "state": "KS", "street": "104 MAIN ST", "postcode": "66070"}}},
{"geometry": {"type": "Point", "coordinates": [-94.8777193563, 38.5716723439]}, "type": "Feature", "properties": {"collection_times": [{"days": "Mon-Fri", "time": "4:30pm"}, {"days": "Sat", "time": "3:35pm"}, {"days": "Sun", "time": "Closed"}], "id": "6607100001", "name": "USPS COLLECTION BOX - BLUE BOX", "address": {"city": "PAOLA", "state": "KS", "street": "19 E WEA ST", "postcode": "66071"}}},
{"geometry": {"type": "Point", "coordinates": [-94.8745280236, 38.5814379357]}, "type": "Feature", "properties": {"collection_times": [{"days": "Mon-Sat", "time": "2:00pm"}, {"days": "Sun", "time": "Closed"}], "id": "6607100004", "name": "USPS COLLECTION BOX - BLUE BOX", "address": {"city": "PAOLA", "state": "KS", "street": "901 N PEARL ST", "postcode": "66071"}}},
{"geometry": {"type": "Point", "coordinates": [-94.8777193563, 38.5716723439]}, "type": "Feature", "properties": {"collection_times": [{"days": "Mon-Fri", "time": "3:35pm"}, {"days": "Sat", "time": "11:00am"}, {"days": "Sun", "time": "Closed"}], "id": "6607100007", "name": "USPS COLLECTION BOX - PO LOBBY", "address": {"city": "PAOLA", "state": "KS", "street": "19 E WEA ST", "postcode": "66071"}}},
{"geometry": {"type": "Point", "coordinates": [-94.8777193563, 38.5716723439]}, "type": "Feature", "properties": {"collection_times": [{"days": "Mon-Fri", "time": "3:35pm"}, {"days": "Sat", "time": "11:00am"}, {"days": "Sun", "time": "Closed"}], "id": "6607100008", "name": "USPS COLLECTION BOX - PO LOBBY", "address": {"city": "PAOLA", "state": "KS", "street": "19 E WEA ST", "postcode": "66071"}}},
{"geometry": {"type": "Point", "coordinates": [-94.8562036708, 38.571402541]}, "type": "Feature", "properties": {"collection_times": [{"days": "Mon-Sat", "time": "3:35pm"}, {"days": "Sun", "time": "Closed"}], "id": "6607100010", "name": "USPS COLLECTION BOX - BLUE BOX", "address": {"city": "PAOLA", "state": "KS", "street": "310 HEDGE LN", "postcode": "66071"}}},
{"geometry": {"type": "Point", "coordinates": [-94.8560472447, 38.5842807663]}, "type": "Feature", "properties": {"collection_times": [{"days": "Mon-Sat", "time": "10:00am"}, {"days": "Sun", "time": "Closed"}], "id": "6607100011", "name": "USPS COLLECTION BOX - BLUE BOX", "address": {"city": "PAOLA", "state": "KS", "street": "1680 INDUSTRIAL PARK DR", "postcode": "66071"}}},
{"geometry": {"type": "Point", "coordinates": [-94.8560472447, 38.5842807663]}, "type": "Feature", "properties": {"collection_times": [{"days": "Mon-Sat", "time": "10:00am"}, {"days": "Sun", "time": "Closed"}], "id": "6607100013", "name": "USPS COLLECTION BOX - PO LOBBY", "address": {"city": "PAOLA", "state": "KS", "street": "1680 INDUSTRIAL PARK DR", "postcode": "66071"}}},
{"geometry": {"type": "Point", "coordinates": [-94.9920153677, 38.3284369467]}, "type": "Feature", "properties": {"collection_times": [{"days": "Mon-Sat", "time": "2:20pm"}, {"days": "Sun", "time": "Closed"}], "id": "6607200000", "name": "USPS COLLECTION BOX - BLUE BOX", "address": {"city": "PARKER", "state": "KS", "street": "102 N CENTER AVE", "postcode": "66072"}}},
{"geometry": {"type": "Point", "coordinates": [-94.9920153677, 38.3284369467]}, "type": "Feature", "properties": {"collection_times": [{"days": "Mon-Fri", "time": "12:45pm"}, {"days": "Sat", "time": "9:30am"}, {"days": "Sun", "time": "Closed"}], "id": "6607200004", "name": "USPS COLLECTION BOX - PO LOBBY", "address": {"city": "PARKER", "state": "KS", "street": "102 N CENTER AVE", "postcode": "66072"}}},
{"geometry": {"type": "Point", "coordinates": [-95.3938811056, 39.0747381004]}, "type": "Feature", "properties": {"collection_times": [{"days": "Mon-Sat", "time": "3:00pm"}, {"days": "Sun", "time": "Closed"}], "id": "6607300000", "name": "USPS COLLECTION BOX - BLUE BOX", "address": {"city": "PERRY", "state": "KS", "street": "209 N ELM ST", "postcode": "66073"}}},
{"geometry": {"type": "Point", "coordinates": [-95.3938811056, 39.0747381004]}, "type": "Feature", "properties": {"collection_times": [{"days": "Mon-Fri", "time": "4:15pm"}, {"days": "Sat", "time": "10:45am"}, {"days": "Sun", "time": "Closed"}], "id": "6607300001", "name": "USPS COLLECTION BOX - PO LOBBY", "address": {"city": "PERRY", "state": "KS", "street": "209 N ELM ST", "postcode": "66073"}}},
{"geometry": {"type": "Point", "coordinates": [-95.3938811056, 39.0747381004]}, "type": "Feature", "properties": {"collection_times": [{"days": "Mon-Fri", "time": "4:15pm"}, {"days": "Sat", "time": "10:45am"}, {"days": "Sun", "time": "Closed"}], "id": "6607300002", "name": "USPS COLLECTION BOX - PO LOBBY", "address": {"city": "PERRY", "state": "KS", "street": "209 N ELM ST", "postcode": "66073"}}},
{"geometry": {"type": "Point", "coordinates": [-94.7097718901, 38.1749598204]}, "type": "Feature", "properties": {"collection_times": [{"days": "Mon-Fri", "time": "4:00pm"}, {"days": "Sat", "time": "10:30am"}, {"days": "Sun", "time": "Closed"}], "id": "6607500000", "name": "USPS COLLECTION BOX - PO LOBBY", "address": {"city": "PLEASANTON", "state": "KS", "street": "1004 MAIN ST", "postcode": "66075"}}},
{"geometry": {"type": "Point", "coordinates": [-94.7097718901, 38.1749598204]}, "type": "Feature", "properties": {"collection_times": [{"days": "Mon-Sat", "time": "4:00pm"}, {"days": "Sun", "time": "Closed"}], "id": "6607500003", "name": "USPS COLLECTION BOX - BLUE BOX", "address": {"city": "PLEASANTON", "state": "KS", "street": "1004 MAIN ST", "postcode": "66075"}}},
{"geometry": {"type": "Point", "coordinates": [-95.4530002783, 38.6072028414]}, "type": "Feature", "properties": {"collection_times": [{"days": "Mon-Fri", "time": "2:30pm"}, {"days": "Sat", "time": "11:00am"}, {"days": "Sun", "time": "Closed"}], "id": "6607600000", "name": "USPS COLLECTION BOX - BLUE BOX", "address": {"city": "POMONA", "state": "KS", "street": "230 MADISON ST", "postcode": "66076"}}},
{"geometry": {"type": "Point", "coordinates": [-95.4530002783, 38.6072028414]}, "type": "Feature", "properties": {"collection_times": [{"days": "Mon-Fri", "time": "2:45pm"}, {"days": "Sat", "time": "9:45am"}, {"days": "Sun", "time": "Closed"}], "id": "6607600002", "name": "USPS COLLECTION BOX - PO LOBBY", "address": {"city": "POMONA", "state": "KS", "street": "230 MADISON ST", "postcode": "66076"}}},
{"geometry": {"type": "Point", "coordinates": [-95.274931577, 38.4880687488]}, "type": "Feature", "properties": {"collection_times": [{"days": "Mon-Sat", "time": "4:15pm"}, {"days": "Sun", "time": "Closed"}], "id": "6607800000", "name": "USPS COLLECTION BOX - BLUE BOX", "address": {"city": "PRINCETON", "state": "KS", "street": "314 GALVESTON ST", "postcode": "66078"}}},
{"geometry": {"type": "Point", "coordinates": [-95.274931577, 38.4880687488]}, "type": "Feature", "properties": {"collection_times": [{"days": "Mon-Fri", "time": "4:30pm"}, {"days": "Sat-Sun", "time": "Closed"}], "id": "6607800001", "name": "USPS COLLECTION BOX - PO LOBBY", "address": {"city": "PRINCETON", "state": "KS", "street": "314 GALVESTON ST", "postcode": "66078"}}},
{"geometry": {"type": "Point", "coordinates": [-95.1023793107, 38.5499660572]}, "type": "Feature", "properties": {"collection_times": [{"days": "Mon-Sat", "time": "3:00pm"}, {"days": "Sun", "time": "Closed"}], "id": "6607900000", "name": "USPS COLLECTION BOX - BLUE BOX", "address": {"city": "RANTOUL", "state": "KS", "street": "106 E MAIN ST", "postcode": "66079"}}},
{"geometry": {"type": "Point", "coordinates": [-95.1023793107, 38.5499660572]}, "type": "Feature", "properties": {"collection_times": [{"days": "Mon-Fri", "time": "11:45am"}, {"days": "Sat", "time": "9:30am"}, {"days": "Sun", "time": "Closed"}], "id": "6607900001", "name": "USPS COLLECTION BOX - PO LOBBY", "address": {"city": "RANTOUL", "state": "KS", "street": "106 E MAIN ST", "postcode": "66079"}}},
{"geometry": {"type": "Point", "coordinates": [-95.2560230833, 38.4016497492]}, "type": "Feature", "properties": {"collection_times": [{"days": "Mon-Fri", "time": "4:00pm"}, {"days": "Sat", "time": "3:00pm"}, {"days": "Sun", "time": "Closed"}], "id": "6608000000", "name": "USPS COLLECTION BOX - BLUE BOX", "address": {"city": "RICHMOND", "state": "KS", "street": "117 E CENTRAL ST", "postcode": "66080"}}},
{"geometry": {"type": "Point", "coordinates": [-95.2560230833, 38.4016497492]}, "type": "Feature", "properties": {"collection_times": [{"days": "Mon-Fri", "time": "12:45pm"}, {"days": "Sat", "time": "9:15am"}, {"days": "Sun", "time": "Closed"}], "id": "6608000001", "name": "USPS COLLECTION BOX - PO LOBBY", "address": {"city": "RICHMOND", "state": "KS", "street": "117 E CENTRAL ST", "postcode": "66080"}}},
{"geometry": {"type": "Point", "coordinates": [-94.8231576366, 38.7451941349]}, "type": "Feature", "properties": {"collection_times": [{"days": "Mon-Sat", "time": "4:30pm"}, {"days": "Sun", "time": "Closed"}], "id": "6608300000", "name": "USPS COLLECTION BOX - BLUE BOX", "address": {"city": "SPRING HILL", "state": "KS", "street": "201 N RACE ST", "postcode": "66083"}}},
{"geometry": {"type": "Point", "coordinates": [-94.8231576366, 38.7451941349]}, "type": "Feature", "properties": {"collection_times": [{"days": "Mon-Fri", "time": "4:30pm"}, {"days": "Sat", "time": "11:00am"}, {"days": "Sun", "time": "Closed"}], "id": "6608300002", "name": "USPS COLLECTION BOX - PO LOBBY", "address": {"city": "SPRING HILL", "state": "KS", "street": "201 N RACE ST", "postcode": "66083"}}},
{"geometry": {"type": "Point", "coordinates": [-94.8320700769, 38.7228353753]}, "type": "Feature", "properties": {"collection_times": [{"days": "Mon-Sat", "time": "12:30pm"}, {"days": "Sun", "time": "Closed"}], "id": "6608300003", "name": "USPS COLLECTION BOX - BLUE BOX", "address": {"city": "SPRING HILL", "state": "KS", "street": "22350 S HARRISON ST", "postcode": "66083"}}},
{"geometry": {"type": "Point", "coordinates": [-94.6677292942, 38.7691227073]}, "type": "Feature", "properties": {"collection_times": [{"days": "Mon-Fri", "time": "3:50pm"}, {"days": "Sat", "time": "10:30am"}, {"days": "Sun", "time": "Closed"}], "id": "6608500001", "name": "USPS COLLECTION BOX - PO LOBBY", "address": {"city": "STILWELL", "state": "KS", "street": "19800 METCALF AVE", "postcode": "66085"}}},
{"geometry": {"type": "Point", "coordinates": [-94.6535997213, 38.8030709967]}, "type": "Feature", "properties": {"collection_times": [{"days": "Mon-Fri", "time": "3:50pm"}, {"days": "Sat", "time": "3:45pm"}, {"days": "Sun", "time": "Closed"}], "id": "6608500002", "name": "USPS COLLECTION BOX - BLUE BOX", "address": {"city": "STILWELL", "state": "KS", "street": "19800 METCALF AVE", "postcode": "66085"}}},
{"geometry": {"type": "Point", "coordinates": [-95.076290839, 39.1150770869]}, "type": "Feature", "properties": {"collection_times": [{"days": "Mon-Sat", "time": "12:00pm"}, {"days": "Sun", "time": "Closed"}], "id": "6608600000", "name": "USPS COLLECTION BOX - BLUE BOX", "address": {"city": "TONGANOXIE", "state": "KS", "street": "526 E 4TH ST", "postcode": "66086"}}},
{"geometry": {"type": "Point", "coordinates": [-95.0803218221, 39.1160434543]}, "type": "Feature", "properties": {"collection_times": [{"days": "Mon-Sat", "time": "3:30pm"}, {"days": "Sun", "time": "Closed"}], "id": "6608600003", "name": "USPS COLLECTION BOX - BLUE BOX", "address": {"city": "TONGANOXIE", "state": "KS", "street": "1610 E WOODFIELD DR", "postcode": "66086"}}},
{"geometry": {"type": "Point", "coordinates": [-95.0803218221, 39.1160434543]}, "type": "Feature", "properties": {"collection_times": [{"days": "Mon-Fri", "time": "3:30pm"}, {"days": "Sat", "time": "12:00pm"}, {"days": "Sun", "time": "Closed"}], "id": "6608600006", "name": "USPS COLLECTION BOX - PO LOBBY", "address": {"city": "TONGANOXIE", "state": "KS", "street": "1610 E WOODFIELD DR", "postcode": "66086"}}},
{"geometry": {"type": "Point", "coordinates": [-95.0895763644, 39.7856381848]}, "type": "Feature", "properties": {"collection_times": [{"days": "Mon-Sat", "time": "2:55pm"}, {"days": "Sun", "time": "Closed"}], "id": "6608700000", "name": "USPS COLLECTION BOX - BLUE BOX", "address": {"city": "TROY", "state": "KS", "street": "205 S MAIN ST", "postcode": "66087"}}},
{"geometry": {"type": "Point", "coordinates": [-95.0895763644, 39.7856381848]}, "type": "Feature", "properties": {"collection_times": [{"days": "Mon-Fri", "time": "2:55pm"}, {"days": "Sat", "time": "10:30am"}, {"days": "Sun", "time": "Closed"}], "id": "6608700001", "name": "USPS COLLECTION BOX - PO LOBBY", "address": {"city": "TROY", "state": "KS", "street": "205 S MAIN ST", "postcode": "66087"}}},
{"geometry": {"type": "Point", "coordinates": [-95.0895763644, 39.7856381848]}, "type": "Feature", "properties": {"collection_times": [{"days": "Mon-Fri", "time": "2:55pm"}, {"days": "Sat", "time": "10:30am"}, {"days": "Sun", "time": "Closed"}], "id": "6608700002", "name": "USPS COLLECTION BOX - PO LOBBY", "address": {"city": "TROY", "state": "KS", "street": "205 S MAIN ST", "postcode": "66087"}}},
{"geometry": {"type": "Point", "coordinates": [-95.4572036634, 39.3460301176]}, "type": "Feature", "properties": {"collection_times": [{"days": "Mon-Fri", "time": "4:00pm"}, {"days": "Sat", "time": "10:15am"}, {"days": "Sun", "time": "Closed"}], "id": "6608800001", "name": "USPS COLLECTION BOX - PO LOBBY", "address": {"city": "VALLEY FALLS", "state": "KS", "street": "405 SYCAMORE ST", "postcode": "66088"}}},
{"geometry": {"type": "Point", "coordinates": [-95.4598439177, 39.3408255466]}, "type": "Feature", "properties": {"collection_times": [{"days": "Mon-Sat", "time": "10:00am"}, {"days": "Sun", "time": "Closed"}], "id": "6608800005", "name": "USPS COLLECTION BOX - BLUE BOX", "address": {"city": "VALLEY FALLS", "state": "KS", "street": "901 OAK ST", "postcode": "66088"}}},
{"geometry": {"type": "Point", "coordinates": [-95.4560213489, 39.3450961943]}, "type": "Feature", "properties": {"collection_times": [{"days": "Mon-Sat", "time": "2:00pm"}, {"days": "Sun", "time": "Closed"}], "id": "6608800006", "name": "USPS COLLECTION BOX - BLUE BOX", "address": {"city": "VALLEY FALLS", "state": "KS", "street": "306 MARY ST", "postcode": "66088"}}},
{"geometry": {"type": "Point", "coordinates": [-94.9529438162, 39.7596431652]}, "type": "Feature", "properties": {"collection_times": [{"days": "Mon-Sat", "time": "2:35pm"}, {"days": "Sun", "time": "Closed"}], "id": "6609000000", "name": "USPS COLLECTION BOX - BLUE BOX", "address": {"city": "WATHENA", "state": "KS", "street": "304 SAINT JOSEPH ST", "postcode": "66090"}}},
{"geometry": {"type": "Point", "coordinates": [-94.9529438162, 39.7596431652]}, "type": "Feature", "properties": {"collection_times": [{"days": "Mon-Fri", "time": "2:35pm"}, {"days": "Sat", "time": "10:30am"}, {"days": "Sun", "time": "Closed"}], "id": "6609000002", "name": "USPS COLLECTION BOX - PO LOBBY", "address": {"city": "WATHENA", "state": "KS", "street": "304 SAINT JOSEPH ST", "postcode": "66090"}}},
{"geometry": {"type": "Point", "coordinates": [-95.3224505832, 38.166674909]}, "type": "Feature", "properties": {"collection_times": [{"days": "Mon-Fri", "time": "2:25pm"}, {"days": "Sat", "time": "2:30pm"}, {"days": "Sun", "time": "Closed"}], "id": "6609100000", "name": "USPS COLLECTION BOX - BLUE BOX", "address": {"city": "WELDA", "state": "KS", "street": "104 KAUBLE ST", "postcode": "66091"}}},
{"geometry": {"type": "Point", "coordinates": [-95.3224505832, 38.166674909]}, "type": "Feature", "properties": {"collection_times": [{"days": "Mon-Fri", "time": "11:45am"}, {"days": "Sat", "time": "11:00am"}, {"days": "Sun", "time": "Closed"}], "id": "6609100001", "name": "USPS COLLECTION BOX - PO LOBBY", "address": {"city": "WELDA", "state": "KS", "street": "104 KAUBLE ST", "postcode": "66091"}}},
{"geometry": {"type": "Point", "coordinates": [-95.0820152577, 38.720165741]}, "type": "Feature", "properties": {"collection_times": [{"days": "Mon-Fri", "time": "3:20pm"}, {"days": "Sat", "time": "10:45am"}, {"days": "Sun", "time": "Closed"}], "id": "6609200001", "name": "USPS COLLECTION BOX - PO LOBBY", "address": {"city": "WELLSVILLE", "state": "KS", "street": "422 MAIN ST", "postcode": "66092"}}},
{"geometry": {"type": "Point", "coordinates": [-95.0820152577, 38.720165741]}, "type": "Feature", "properties": {"collection_times": [{"days": "Mon-Sat", "time": "3:20pm"}, {"days": "Sun", "time": "Closed"}], "id": "6609200002", "name": "USPS COLLECTION BOX - BLUE BOX", "address": {"city": "WELLSVILLE", "state": "KS", "street": "422 MAIN ST", "postcode": "66092"}}},
{"geometry": {"type": "Point", "coordinates": [-95.4898992529, 38.1817880556]}, "type": "Feature", "properties": {"collection_times": [{"days": "Mon-Sat", "time": "3:15pm"}, {"days": "Sun", "time": "Closed"}], "id": "6609300000", "name": "USPS COLLECTION BOX - BLUE BOX", "address": {"city": "WESTPHALIA", "state": "KS", "street": "504 LINCOLN AVE", "postcode": "66093"}}},
{"geometry": {"type": "Point", "coordinates": [-95.4898992529, 38.1817880556]}, "type": "Feature", "properties": {"collection_times": [{"days": "Mon-Fri", "time": "11:45am"}, {"days": "Sat", "time": "9:15am"}, {"days": "Sun", "time": "Closed"}], "id": "6609300002", "name": "USPS COLLECTION BOX - PO LOBBY", "address": {"city": "WESTPHALIA", "state": "KS", "street": "504 LINCOLN AVE", "postcode": "66093"}}},
{"geometry": {"type": "Point", "coordinates": [-95.2968737003, 39.9771181756]}, "type": "Feature", "properties": {"collection_times": [{"days": "Mon-Sat", "time": "1:50pm"}, {"days": "Sun", "time": "Closed"}], "id": "6609400000", "name": "USPS COLLECTION BOX - BLUE BOX", "address": {"city": "WHITE CLOUD", "state": "KS", "street": "214 MAIN ST", "postcode": "66094"}}},
{"geometry": {"type": "Point", "coordinates": [-95.2968737003, 39.9771181756]}, "type": "Feature", "properties": {"collection_times": [{"days": "Mon-Fri", "time": "12:45pm"}, {"days": "Sat", "time": "9:15am"}, {"days": "Sun", "time": "Closed"}], "id": "6609400001", "name": "USPS COLLECTION BOX - PO LOBBY", "address": {"city": "WHITE CLOUD", "state": "KS", "street": "214 MAIN ST", "postcode": "66094"}}},
{"geometry": {"type": "Point", "coordinates": [-95.4668263631, 38.4787554247]}, "type": "Feature", "properties": {"collection_times": [{"days": "Mon-Fri", "time": "11:45am"}, {"days": "Sat", "time": "9:45am"}, {"days": "Sun", "time": "Closed"}], "id": "6609500001", "name": "USPS COLLECTION BOX - PO LOBBY", "address": {"city": "WILLIAMSBURG", "state": "KS", "street": "100 W WILLIAM ST", "postcode": "66095"}}},
{"geometry": {"type": "Point", "coordinates": [-95.4668263631, 38.4787554247]}, "type": "Feature", "properties": {"collection_times": [{"days": "Mon-Fri", "time": "11:45am"}, {"days": "Sat", "time": "9:45am"}, {"days": "Sun", "time": "Closed"}], "id": "6609500002", "name": "USPS COLLECTION BOX - PO LOBBY", "address": {"city": "WILLIAMSBURG", "state": "KS", "street": "100 W WILLIAM ST", "postcode": "66095"}}},
{"geometry": {"type": "Point", "coordinates": [-95.4668263631, 38.4787554247]}, "type": "Feature", "properties": {"collection_times": [{"days": "Mon-Fri", "time": "2:05pm"}, {"days": "Sat", "time": "11:00am"}, {"days": "Sun", "time": "Closed"}], "id": "6609500003", "name": "USPS COLLECTION BOX - BLUE BOX", "address": {"city": "WILLIAMSBURG", "state": "KS", "street": "100 W WILLIAM ST", "postcode": "66095"}}},
{"geometry": {"type": "Point", "coordinates": [-95.2673320705, 39.3241439612]}, "type": "Feature", "properties": {"collection_times": [{"days": "Mon-Sat", "time": "3:15pm"}, {"days": "Sun", "time": "Closed"}], "id": "6609700000", "name": "USPS COLLECTION BOX - BLUE BOX", "address": {"city": "WINCHESTER", "state": "KS", "street": "203 3RD ST", "postcode": "66097"}}},
{"geometry": {"type": "Point", "coordinates": [-95.2673320705, 39.3241439612]}, "type": "Feature", "properties": {"collection_times": [{"days": "Mon-Fri", "time": "3:45pm"}, {"days": "Sat", "time": "9:00am"}, {"days": "Sun", "time": "Closed"}], "id": "6609700001", "name": "USPS COLLECTION BOX - PO LOBBY", "address": {"city": "WINCHESTER", "state": "KS", "street": "203 3RD ST", "postcode": "66097"}}}
]}
