{"type": "FeatureCollection", "features": [
{"geometry": {"type": "Point", "coordinates": [-94.6227430386, 39.1175944189]}, "type": "Feature", "properties": {"collection_times": [{"days": "Mon-Fri", "time": "3:00pm"}, {"days": "Sat", "time": "1:00pm"}, {"days": "Sun", "time": "Closed"}], "id": "6610100006", "name": "USPS COLLECTION BOX - BLUE BOX", "address": {"city": "KANSAS CITY", "state": "KS", "street": "550 NEBRASKA AVE", "postcode": "66101"}}},
{"geometry": {"type": "Point", "coordinates": [-94.6268721183, 39.1128082972]}, "type": "Feature", "properties": {"collection_times": [{"days": "Mon-Fri", "time": "1:00pm"}, {"days": "Sat-Sun", "time": "Closed"}], "id": "6610100019", "name": "USPS COLLECTION BOX - BLUE BOX", "address": {"city": "KANSAS CITY", "state": "KS", "street": "710 N 7TH ST", "postcode": "66101"}}},
{"geometry": {"type": "Point", "coordinates": [-94.6268721183, 39.1128082972]}, "type": "Feature", "properties": {"collection_times": [{"days": "Mon-Fri", "time": "1:00pm"}, {"days": "Sat-Sun", "time": "Closed"}], "id": "6610100020", "name": "USPS COLLECTION BOX - BLUE BOX", "address": {"city": "KANSAS CITY", "state": "KS", "street": "710 N 7TH ST", "postcode": "66101"}}},
{"geometry": {"type": "Point", "coordinates": [-94.6190471591, 39.1166134258]}, "type": "Feature", "properties": {"collection_times": [{"days": "Mon-Fri", "time": "1:00pm"}, {"days": "Sat-Sun", "time": "Closed"}], "id": "6610100023", "name": "USPS COLLECTION BOX - BLUE BOX", "address": {"city": "KANSAS CITY", "state": "KS", "street": "402 STATE AVE", "postcode": "66101"}}},
{"geometry": {"type": "Point", "coordinates": [-94.6237910977, 39.1099143979]}, "type": "Feature", "properties": {"collection_times": [{"days": "Mon-Sat", "time": "1:00pm"}, {"days": "Sun", "time": "Closed"}], "id": "6610100024", "name": "USPS COLLECTION BOX - BLUE BOX", "address": {"city": "KANSAS CITY", "state": "KS", "street": "401 N 6TH ST", "postcode": "66101"}}},
{"geometry": {"type": "Point", "coordinates": [-94.6227430386, 39.1175944189]}, "type": "Feature", "properties": {"collection_times": [{"days": "Mon-Fri", "time": "2:45pm"}, {"days": "Sat", "time": "1:00pm"}, {"days": "Sun", "time": "Closed"}], "id": "6610100069", "name": "USPS COLLECTION BOX - PO LOBBY", "address": {"city": "KANSAS CITY", "state": "KS", "street": "550 NEBRASKA AVE", "postcode": "66101"}}},
{"geometry": {"type": "Point", "coordinates": [-94.7097506086, 39.1203121476]}, "type": "Feature", "properties": {"collection_times": [{"days": "Mon-Sat", "time": "12:30pm"}, {"days": "Sun", "time": "Closed"}], "id": "6610200003", "name": "USPS COLLECTION BOX - BLUE BOX", "address": {"city": "KANSAS CITY", "state": "KS", "street": "1333 MEADOWLARK LN", "postcode": "66102"}}},
{"geometry": {"type": "Point", "coordinates": [-94.6713545551, 39.1168483068]}, "type": "Feature", "properties": {"collection_times": [{"days": "Mon-Sat", "time": "11:30am"}, {"days": "Sun", "time": "Closed"}], "id": "6610200020", "name": "USPS COLLECTION BOX - BLUE BOX", "address": {"city": "KANSAS CITY", "state": "KS", "street": "3750 STATE AVE", "postcode": "66102"}}},
{"geometry": {"type": "Point", "coordinates": [-94.731186, 39.128456]}, "type": "Feature", "properties": {"collection_times": [{"days": "Mon-Sat", "time": "11:15am"}, {"days": "Sun", "time": "Closed"}], "id": "6610200027", "name": "USPS COLLECTION BOX - BLUE BOX", "address": {"city": "KANSAS CITY", "state": "KS", "street": "6611 PARALLEL PKWY", "postcode": "66102"}}},
{"geometry": {"type": "Point", "coordinates": [-94.6493281429, 39.1002832124]}, "type": "Feature", "properties": {"collection_times": [{"days": "Mon-Sat", "time": "10:00am"}, {"days": "Sun", "time": "Closed"}], "id": "6610200029", "name": "USPS COLLECTION BOX - BLUE BOX", "address": {"city": "KANSAS CITY", "state": "KS", "street": "155 S 18TH ST", "postcode": "66102"}}},
{"geometry": {"type": "Point", "coordinates": [-94.6506186154, 39.1063581006]}, "type": "Feature", "properties": {"collection_times": [{"days": "Mon-Sat", "time": "12:00pm"}, {"days": "Sun", "time": "Closed"}], "id": "6610200039", "name": "USPS COLLECTION BOX - BLUE BOX", "address": {"city": "KANSAS CITY", "state": "KS", "street": "1901 CENTRAL AVE", "postcode": "66102"}}},
{"geometry": {"type": "Point", "coordinates": [-94.6112546641, 39.0611466493]}, "type": "Feature", "properties": {"collection_times": [{"days": "Mon-Fri", "time": "2:45pm"}, {"days": "Sat", "time": "1:00pm"}, {"days": "Sun", "time": "Closed"}], "id": "6610300000", "name": "USPS COLLECTION BOX - BLUE BOX", "address": {"city": "KANSAS CITY", "state": "KS", "street": "2200 W 36TH AVE", "postcode": "66103"}}},
{"geometry": {"type": "Point", "coordinates": [-94.6112546641, 39.0611466493]}, "type": "Feature", "properties": {"collection_times": [{"days": "Mon-Fri", "time": "2:45pm"}, {"days": "Sat", "time": "1:00pm"}, {"days": "Sun", "time": "Closed"}], "id": "6610300001", "name": "USPS COLLECTION BOX - BLUE BOX", "address": {"city": "KANSAS CITY", "state": "KS", "street": "2200 W 36TH AVE", "postcode": "66103"}}},
{"geometry": {"type": "Point", "coordinates": [-94.6131017118, 39.062889182]}, "type": "Feature", "properties": {"collection_times": [{"days": "Mon-Fri", "time": "2:45pm"}, {"days": "Sat", "time": "12:45pm"}, {"days": "Sun", "time": "Closed"}], "id": "6610300011", "name": "USPS COLLECTION BOX - BLUE BOX", "address": {"city": "KANSAS CITY", "state": "KS", "street": "3500 RAINBOW BLVD", "postcode": "66103"}}},
{"geometry": {"type": "Point", "coordinates": [-94.6239514849, 39.0876172816]}, "type": "Feature", "properties": {"collection_times": [{"days": "Mon-Fri", "time": "2:45pm"}, {"days": "Sat", "time": "12:45pm"}, {"days": "Sun", "time": "Closed"}], "id": "6610300025", "name": "USPS COLLECTION BOX - BLUE BOX", "address": {"city": "KANSAS CITY", "state": "KS", "street": "628 KANSAS AVE", "postcode": "66103"}}},
{"geometry": {"type": "Point", "coordinates": [-94.6134076126, 39.0751116511]}, "type": "Feature", "properties": {"collection_times": [{"days": "Mon-Fri", "time": "2:45pm"}, {"days": "Sat", "time": "1:00pm"}, {"days": "Sun", "time": "Closed"}], "id": "6610300031", "name": "USPS COLLECTION BOX - BLUE BOX", "address": {"city": "KANSAS CITY", "state": "KS", "street": "106 GREYSTONE AVE", "postcode": "66103"}}},
{"geometry": {"type": "Point", "coordinates": [-94.6112546641, 39.0611466493]}, "type": "Feature", "properties": {"collection_times": [{"days": "Mon-Fri", "time": "2:45pm"}, {"days": "Sat", "time": "1:00pm"}, {"days": "Sun", "time": "Closed"}], "id": "6610300032", "name": "USPS COLLECTION BOX - PO LOBBY", "address": {"city": "KANSAS CITY", "state": "KS", "street": "2200 W 36TH AVE", "postcode": "66103"}}},
{"geometry": {"type": "Point", "coordinates": [-94.6179611368, 39.0441222376]}, "type": "Feature", "properties": {"collection_times": [{"days": "Mon-Fri", "time": "2:45pm"}, {"days": "Sat", "time": "1:00pm"}, {"days": "Sun", "time": "Closed"}], "id": "6610300035", "name": "USPS COLLECTION BOX - BLUE BOX", "address": {"city": "KANSAS CITY", "state": "KS", "street": "2818 W 47TH AVE", "postcode": "66103"}}},
{"geometry": {"type": "Point", "coordinates": [-94.6964541138, 39.1431673372]}, "type": "Feature", "properties": {"collection_times": [{"days": "Mon-Sat", "time": "2:45pm"}, {"days": "Sun", "time": "Closed"}], "id": "6610400001", "name": "USPS COLLECTION BOX - BLUE BOX", "address": {"city": "KANSAS CITY", "state": "KS", "street": "3115 N 51ST ST", "postcode": "66104"}}},
{"geometry": {"type": "Point", "coordinates": [-94.6964541138, 39.1431673372]}, "type": "Feature", "properties": {"collection_times": [{"days": "Mon-Sat", "time": "2:45pm"}, {"days": "Sun", "time": "Closed"}], "id": "6610400002", "name": "USPS COLLECTION BOX - BLUE BOX", "address": {"city": "KANSAS CITY", "state": "KS", "street": "3115 N 51ST ST", "postcode": "66104"}}},
{"geometry": {"type": "Point", "coordinates": [-94.7180035674, 39.1431629264]}, "type": "Feature", "properties": {"collection_times": [{"days": "Mon-Sat", "time": "11:00am"}, {"days": "Sun", "time": "Closed"}], "id": "6610400004", "name": "USPS COLLECTION BOX - BLUE BOX", "address": {"city": "KANSAS CITY", "state": "KS", "street": "6000 LEAVENWORTH RD", "postcode": "66104"}}},
{"geometry": {"type": "Point", "coordinates": [-94.7198974592, 39.1431621119]}, "type": "Feature", "properties": {"collection_times": [{"days": "Mon-Sat", "time": "11:00am"}, {"days": "Sun", "time": "Closed"}], "id": "6610400015", "name": "USPS COLLECTION BOX - BLUE BOX", "address": {"city": "KANSAS CITY", "state": "KS", "street": "6100 LEAVENWORTH RD", "postcode": "66104"}}},
{"geometry": {"type": "Point", "coordinates": [-94.6964541138, 39.1431673372]}, "type": "Feature", "properties": {"collection_times": [{"days": "Mon-Fri", "time": "5:00pm"}, {"days": "Sat", "time": "3:15pm"}, {"days": "Sun", "time": "Closed"}], "id": "6610400016", "name": "USPS COLLECTION BOX - PO LOBBY", "address": {"city": "KANSAS CITY", "state": "KS", "street": "3115 N 51ST ST", "postcode": "66104"}}},
{"geometry": {"type": "Point", "coordinates": [-94.6964541138, 39.1431673372]}, "type": "Feature", "properties": {"collection_times": [{"days": "Mon-Fri", "time": "5:00pm"}, {"days": "Sat", "time": "3:15pm"}, {"days": "Sun", "time": "Closed"}], "id": "6610400017", "name": "USPS COLLECTION BOX - PO LOBBY", "address": {"city": "KANSAS CITY", "state": "KS", "street": "3115 N 51ST ST", "postcode": "66104"}}},
{"geometry": {"type": "Point", "coordinates": [-94.6479315064, 39.1291915513]}, "type": "Feature", "properties": {"collection_times": [{"days": "Mon-Sat", "time": "11:30am"}, {"days": "Sun", "time": "Closed"}], "id": "6610400019", "name": "USPS COLLECTION BOX - BLUE BOX", "address": {"city": "KANSAS CITY", "state": "KS", "street": "1705 PARALLEL PKWY", "postcode": "66104"}}},
{"geometry": {"type": "Point", "coordinates": [-94.6494431233, 39.1382032205]}, "type": "Feature", "properties": {"collection_times": [{"days": "Mon-Sat", "time": "11:45am"}, {"days": "Sun", "time": "Closed"}], "id": "6610400020", "name": "USPS COLLECTION BOX - BLUE BOX", "address": {"city": "KANSAS CITY", "state": "KS", "street": "1801 QUINDARO BLVD", "postcode": "66104"}}},
{"geometry": {"type": "Point", "coordinates": [-94.668120601, 39.0751636241]}, "type": "Feature", "properties": {"collection_times": [{"days": "Mon-Fri", "time": "2:45pm"}, {"days": "Sat", "time": "12:00pm"}, {"days": "Sun", "time": "Closed"}], "id": "6610600001", "name": "USPS COLLECTION BOX - BLUE BOX", "address": {"city": "KANSAS CITY", "state": "KS", "street": "3400 STRONG AVE", "postcode": "66106"}}},
{"geometry": {"type": "Point", "coordinates": [-94.730225292, 39.098623394]}, "type": "Feature", "properties": {"collection_times": [{"days": "Mon-Fri", "time": "2:30pm"}, {"days": "Sat", "time": "1:00pm"}, {"days": "Sun", "time": "Closed"}], "id": "6610600005", "name": "USPS COLLECTION BOX - BLUE BOX", "address": {"city": "KANSAS CITY", "state": "KS", "street": "5429 TURNER DR", "postcode": "66106"}}},
{"geometry": {"type": "Point", "coordinates": [-94.6671576462, 39.0445945453]}, "type": "Feature", "properties": {"collection_times": [{"days": "Mon-Sat", "time": "11:00am"}, {"days": "Sun", "time": "Closed"}], "id": "6610600007", "name": "USPS COLLECTION BOX - BLUE BOX", "address": {"city": "KANSAS CITY", "state": "KS", "street": "3320 MERRIAM LN", "postcode": "66106"}}},
{"geometry": {"type": "Point", "coordinates": [-94.6796905835, 39.048527963]}, "type": "Feature", "properties": {"collection_times": [{"days": "Mon-Sat", "time": "12:00pm"}, {"days": "Sun", "time": "Closed"}], "id": "6610600011", "name": "USPS COLLECTION BOX - BLUE BOX", "address": {"city": "KANSAS CITY", "state": "KS", "street": "4400 FOREST AVE", "postcode": "66106"}}},
{"geometry": {"type": "Point", "coordinates": [-94.6864219345, 39.0516739848]}, "type": "Feature", "properties": {"collection_times": [{"days": "Mon-Sat", "time": "11:00am"}, {"days": "Sun", "time": "Closed"}], "id": "6610600012", "name": "USPS COLLECTION BOX - BLUE BOX", "address": {"city": "KANSAS CITY", "state": "KS", "street": "2803 S 47TH ST", "postcode": "66106"}}},
{"geometry": {"type": "Point", "coordinates": [-94.6482363243, 39.0622569523]}, "type": "Feature", "properties": {"collection_times": [{"days": "Mon-Sat", "time": "12:00pm"}, {"days": "Sun", "time": "Closed"}], "id": "6610600018", "name": "USPS COLLECTION BOX - BLUE BOX", "address": {"city": "KANSAS CITY", "state": "KS", "street": "1717 STEELE RD", "postcode": "66106"}}},
{"geometry": {"type": "Point", "coordinates": [-94.6772515522, 39.0896071771]}, "type": "Feature", "properties": {"collection_times": [{"days": "Mon-Sat", "time": "12:00pm"}, {"days": "Sun", "time": "Closed"}], "id": "6610600027", "name": "USPS COLLECTION BOX - BLUE BOX", "address": {"city": "KANSAS CITY", "state": "KS", "street": "4202 KANSAS AVE", "postcode": "66106"}}},
{"geometry": {"type": "Point", "coordinates": [-94.668120601, 39.0751636241]}, "type": "Feature", "properties": {"collection_times": [{"days": "Mon-Fri", "time": "12:00pm"}, {"days": "Sat", "time": "10:00am"}, {"days": "Sun", "time": "Closed"}], "id": "6610600028", "name": "USPS COLLECTION BOX - PO LOBBY", "address": {"city": "KANSAS CITY", "state": "KS", "street": "3400 STRONG AVE", "postcode": "66106"}}},
{"geometry": {"type": "Point", "coordinates": [-98.3801698511, 38.4847267593]}, "type": "Feature", "properties": {"collection_times": [{"days": "Mon-Sat", "time": "12:00pm"}, {"days": "Sun", "time": "Closed"}], "id": "6610600033", "name": "USPS COLLECTION BOX - BLUE BOX", "address": {"city": "KANSAS CITY", "state": "KS", "street": "929 S 55TH ST", "postcode": "66106"}}},
{"geometry": {"type": "Point", "coordinates": [-94.6819074323, 39.0636018721]}, "type": "Feature", "properties": {"collection_times": [{"days": "Mon-Fri", "time": "12:00pm"}, {"days": "Sat-Sun", "time": "Closed"}], "id": "6610600034", "name": "USPS COLLECTION BOX - BLUE BOX", "address": {"city": "KANSAS CITY", "state": "KS", "street": "4900 SPEAKER RD", "postcode": "66106"}}},
{"geometry": {"type": "Point", "coordinates": [-94.8578258088, 39.1431971149]}, "type": "Feature", "properties": {"collection_times": [{"days": "Mon-Sat", "time": "11:00am"}, {"days": "Sun", "time": "Closed"}], "id": "6610900000", "name": "USPS COLLECTION BOX - BLUE BOX", "address": {"city": "KANSAS CITY", "state": "KS", "street": "12036 LEAVENWORTH RD", "postcode": "66109"}}},
{"geometry": {"type": "Point", "coordinates": [-94.7294662299, 39.0915316709]}, "type": "Feature", "properties": {"collection_times": [{"days": "Mon-Fri", "time": "4:45pm"}, {"days": "Sat", "time": "12:15pm"}, {"days": "Sun", "time": "Closed"}], "id": "6611100001", "name": "USPS COLLECTION BOX - BLUE BOX", "address": {"city": "KANSAS CITY", "state": "KS", "street": "6540 KAW DR", "postcode": "66111"}}},
{"geometry": {"type": "Point", "coordinates": [-94.7854662937, 39.0828502001]}, "type": "Feature", "properties": {"collection_times": [{"days": "Mon-Fri", "time": "4:45pm"}, {"days": "Sat", "time": "12:15pm"}, {"days": "Sun", "time": "Closed"}], "id": "6611100002", "name": "USPS COLLECTION BOX - EXPRESS", "address": {"city": "KANSAS CITY", "state": "KS", "street": "6540 KAW DR", "postcode": "66111"}}},
{"geometry": {"type": "Point", "coordinates": [-94.7294662299, 39.0915316709]}, "type": "Feature", "properties": {"collection_times": [{"days": "Mon-Fri", "time": "12:00pm"}, {"days": "Sat-Sun", "time": "Closed"}], "id": "6611100003", "name": "USPS COLLECTION BOX - PO LOBBY", "address": {"city": "KANSAS CITY", "state": "KS", "street": "6540 KAW DR", "postcode": "66111"}}},
{"geometry": {"type": "Point", "coordinates": [-94.828621504, 39.125135515]}, "type": "Feature", "properties": {"collection_times": [{"days": "Mon-Sat", "time": "11:00am"}, {"days": "Sun", "time": "Closed"}], "id": "6611100006", "name": "USPS COLLECTION BOX - BLUE BOX", "address": {"city": "KANSAS CITY", "state": "KS", "street": "1801 VILLAGE WEST PKWY", "postcode": "66111"}}},
{"geometry": {"type": "Point", "coordinates": [-94.8001018149, 39.0844707698]}, "type": "Feature", "properties": {"collection_times": [{"days": "Mon-Fri", "time": "10:00am"}, {"days": "Sat-Sun", "time": "Closed"}], "id": "6611100007", "name": "USPS COLLECTION BOX - BLUE BOX", "address": {"city": "KANSAS CITY", "state": "KS", "street": "2525 MIDPOINT DR", "postcode": "66111"}}},
{"geometry": {"type": "Point", "coordinates": [-94.7864277567, 39.1285304251]}, "type": "Feature", "properties": {"collection_times": [{"days": "Mon-Fri", "time": "10:00am"}, {"days": "Sat-Sun", "time": "Closed"}], "id": "6611200007", "name": "USPS COLLECTION BOX - BLUE BOX", "address": {"city": "KANSAS CITY", "state": "KS", "street": "8919 PARALLEL PKWY", "postcode": "66112"}}},
{"geometry": {"type": "Point", "coordinates": [-94.7866698272, 39.1285297607]}, "type": "Feature", "properties": {"collection_times": [{"days": "Mon-Fri", "time": "10:00am"}, {"days": "Sat-Sun", "time": "Closed"}], "id": "6611200008", "name": "USPS COLLECTION BOX - BLUE BOX", "address": {"city": "KANSAS CITY", "state": "KS", "street": "8929 PARALLEL PKWY", "postcode": "66112"}}},
{"geometry": {"type": "Point", "coordinates": [-94.7581863585, 39.1165419458]}, "type": "Feature", "properties": {"collection_times": [{"days": "Mon-Sat", "time": "10:00am"}, {"days": "Sun", "time": "Closed"}], "id": "6611200009", "name": "USPS COLLECTION BOX - BLUE BOX", "address": {"city": "KANSAS CITY", "state": "KS", "street": "7706 STATE AVE", "postcode": "66112"}}},
{"geometry": {"type": "Point", "coordinates": [-94.7632960359, 39.1188412654]}, "type": "Feature", "properties": {"collection_times": [{"days": "Mon-Sat", "time": "3:00pm"}, {"days": "Sun", "time": "Closed"}], "id": "6611200023", "name": "USPS COLLECTION BOX - BLUE BOX", "address": {"city": "KANSAS CITY", "state": "KS", "street": "1310 N 78TH TER", "postcode": "66112"}}},
{"geometry": {"type": "Point", "coordinates": [-94.7479799539, 39.1171953075]}, "type": "Feature", "properties": {"collection_times": [{"days": "Mon-Sat", "time": "12:00pm"}, {"days": "Sun", "time": "Closed"}], "id": "6611200027", "name": "USPS COLLECTION BOX - BLUE BOX", "address": {"city": "KANSAS CITY", "state": "KS", "street": "7250 STATE AVE", "postcode": "66112"}}},
{"geometry": {"type": "Point", "coordinates": [-94.7632960359, 39.1188412654]}, "type": "Feature", "properties": {"collection_times": [{"days": "Mon-Fri", "time": "2:45pm"}, {"days": "Sat", "time": "3:00pm"}, {"days": "Sun", "time": "Closed"}], "id": "6611200030", "name": "USPS COLLECTION BOX - PO LOBBY", "address": {"city": "KANSAS CITY", "state": "KS", "street": "1310 N 78TH TER", "postcode": "66112"}}},
{"geometry": {"type": "Point", "coordinates": [-94.7667951326, 39.1286946556]}, "type": "Feature", "properties": {"collection_times": [{"days": "Mon-Sat", "time": "10:00am"}, {"days": "Sun", "time": "Closed"}], "id": "6611200032", "name": "USPS COLLECTION BOX - BLUE BOX", "address": {"city": "KANSAS CITY", "state": "KS", "street": "8120 PARALLEL PKWY", "postcode": "66112"}}},
{"geometry": {"type": "Point", "coordinates": [-94.7864277567, 39.1285304251]}, "type": "Feature", "properties": {"collection_times": [{"days": "Mon-Fri", "time": "10:00am"}, {"days": "Sat-Sun", "time": "Closed"}], "id": "6611200033", "name": "USPS COLLECTION BOX - BLUE BOX", "address": {"city": "KANSAS CITY", "state": "KS", "street": "8919 PARALLEL PKWY", "postcode": "66112"}}},
{"geometry": {"type": "Point", "coordinates": [-94.7857359843, 39.1162354241]}, "type": "Feature", "properties": {"collection_times": [{"days": "Mon-Fri", "time": "11:00am"}, {"days": "Sat-Sun", "time": "Closed"}], "id": "6611200034", "name": "USPS COLLECTION BOX - BLUE BOX", "address": {"city": "KANSAS CITY", "state": "KS", "street": "8901 STATE AVE", "postcode": "66112"}}},
{"geometry": {"type": "Point", "coordinates": [-94.8216900618, 39.0623044588]}, "type": "Feature", "properties": {"collection_times": [{"days": "Mon-Fri", "time": "5:00pm"}, {"days": "Sat", "time": "12:00pm"}, {"days": "Sun", "time": "Closed"}], "id": "6611300001", "name": "USPS COLLECTION BOX - BLUE BOX", "address": {"city": "EDWARDSVILLE", "state": "KS", "street": "104 S 4TH ST", "postcode": "66113"}}},
{"geometry": {"type": "Point", "coordinates": [-94.8241281526, 39.0564933968]}, "type": "Feature", "properties": {"collection_times": [{"days": "Mon-Fri", "time": "5:00pm"}, {"days": "Sat", "time": "12:00pm"}, {"days": "Sun", "time": "Closed"}], "id": "6611300002", "name": "USPS COLLECTION BOX - EXPRESS", "address": {"city": "EDWARDSVILLE", "state": "KS", "street": "104 S 4TH ST", "postcode": "66113"}}},
{"geometry": {"type": "Point", "coordinates": [-94.8216900618, 39.0623044588]}, "type": "Feature", "properties": {"collection_times": [{"days": "Mon-Fri", "time": "1:00pm"}, {"days": "Sat", "time": "11:15am"}, {"days": "Sun", "time": "Closed"}], "id": "6611300003", "name": "USPS COLLECTION BOX - PO LOBBY", "address": {"city": "EDWARDSVILLE", "state": "KS", "street": "104 S 4TH ST", "postcode": "66113"}}},
{"geometry": {"type": "Point", "coordinates": [-94.6123962325, 39.1185489918]}, "type": "Feature", "properties": {"collection_times": [{"days": "Mon-Sat", "time": "1:00pm"}, {"days": "Sun", "time": "Closed"}], "id": "6611500001", "name": "USPS COLLECTION BOX - BLUE BOX", "address": {"city": "KANSAS CITY", "state": "KS", "street": "1401 FAIRFAX TRFY", "postcode": "66115"}}},
{"geometry": {"type": "Point", "coordinates": [-94.6220207763, 39.1487691873]}, "type": "Feature", "properties": {"collection_times": [{"days": "Mon-Fri", "time": "3:00pm"}, {"days": "Sat", "time": "2:15pm"}, {"days": "Sun", "time": "Closed"}], "id": "6611500008", "name": "USPS COLLECTION BOX - BLUE BOX", "address": {"city": "KANSAS CITY", "state": "KS", "street": "3260 N 7TH STREET TRFY", "postcode": "66115"}}}
]}
