{"type": "FeatureCollection", "features": [
{"geometry": {"type": "Point", "coordinates": [-94.66240243, 39.0205215976]}, "type": "Feature", "properties": {"collection_times": [{"days": "Mon-Sat", "time": "11:30am"}, {"days": "Sun", "time": "Closed"}], "id": "6620200000", "name": "USPS COLLECTION BOX - BLUE BOX", "address": {"city": "SHAWNEE MISSION", "state": "KS", "street": "6655 MARTWAY ST", "postcode": "66202"}}},
{"geometry": {"type": "Point", "coordinates": [-94.6896852819, 39.0173837723]}, "type": "Feature", "properties": {"collection_times": [{"days": "Mon-Fri", "time": "11:30am"}, {"days": "Sat-Sun", "time": "Closed"}], "id": "6620200007", "name": "USPS COLLECTION BOX - BLUE BOX", "address": {"city": "SHAWNEE MISSION", "state": "KS", "street": "9001 W 62ND ST", "postcode": "66202"}}},
{"geometry": {"type": "Point", "coordinates": [-94.685123674, 39.015689614]}, "type": "Feature", "properties": {"collection_times": [{"days": "Mon-Fri", "time": "11:15am"}, {"days": "Sat-Sun", "time": "Closed"}], "id": "6620200008", "name": "USPS COLLECTION BOX - BLUE BOX", "address": {"city": "SHAWNEE MISSION", "state": "KS", "street": "6250 TERRYDALE ST", "postcode": "66202"}}},
{"geometry": {"type": "Point", "coordinates": [-94.664450132, 39.0393708658]}, "type": "Feature", "properties": {"collection_times": [{"days": "Mon-Fri", "time": "1:00pm"}, {"days": "Sat-Sun", "time": "Closed"}], "id": "6620200054", "name": "USPS COLLECTION BOX - BLUE BOX", "address": {"city": "SHAWNEE MISSION", "state": "KS", "street": "4801 BROADMOOR ST", "postcode": "66202"}}},
{"geometry": {"type": "Point", "coordinates": [-94.6656378228, 39.0189589088]}, "type": "Feature", "properties": {"collection_times": [{"days": "Mon-Sat", "time": "5:20pm"}, {"days": "Sun", "time": "Closed"}], "id": "6620200127", "name": "USPS COLLECTION BOX - BLUE BOX", "address": {"city": "SHAWNEE MISSION", "state": "KS", "street": "6029 BROADMOOR ST", "postcode": "66202"}}},
{"geometry": {"type": "Point", "coordinates": [-94.6656378228, 39.0189589088]}, "type": "Feature", "properties": {"collection_times": [{"days": "Mon-Sat", "time": "5:20pm"}, {"days": "Sun", "time": "Closed"}], "id": "6620200128", "name": "USPS COLLECTION BOX - BLUE BOX", "address": {"city": "SHAWNEE MISSION", "state": "KS", "street": "6029 BROADMOOR ST", "postcode": "66202"}}},
{"geometry": {"type": "Point", "coordinates": [-94.6656378228, 39.0189589088]}, "type": "Feature", "properties": {"collection_times": [{"days": "Mon-Sat", "time": "5:20pm"}, {"days": "Sun", "time": "Closed"}], "id": "6620200130", "name": "USPS COLLECTION BOX - PO LOBBY", "address": {"city": "SHAWNEE MISSION", "state": "KS", "street": "6029 BROADMOOR ST", "postcode": "66202"}}},
{"geometry": {"type": "Point", "coordinates": [-94.6587104151, 39.0137089369]}, "type": "Feature", "properties": {"collection_times": [{"days": "Mon-Fri", "time": "11:45am"}, {"days": "Sat-Sun", "time": "Closed"}], "id": "6620200135", "name": "USPS COLLECTION BOX - BLUE BOX", "address": {"city": "SHAWNEE MISSION", "state": "KS", "street": "6300 LAMAR AVE", "postcode": "66202"}}},
{"geometry": {"type": "Point", "coordinates": [-94.6587104151, 39.0137089369]}, "type": "Feature", "properties": {"collection_times": [{"days": "Mon-Fri", "time": "11:45am"}, {"days": "Sat-Sun", "time": "Closed"}], "id": "6620200136", "name": "USPS COLLECTION BOX - BLUE BOX", "address": {"city": "SHAWNEE MISSION", "state": "KS", "street": "6300 LAMAR AVE", "postcode": "66202"}}},
{"geometry": {"type": "Point", "coordinates": [-94.666869283, 39.0133540493]}, "type": "Feature", "properties": {"collection_times": [{"days": "Mon-Fri", "time": "12:00pm"}, {"days": "Sat-Sun", "time": "Closed"}], "id": "6620200145", "name": "USPS COLLECTION BOX - BLUE BOX", "address": {"city": "SHAWNEE MISSION", "state": "KS", "street": "6901 SHAWNEE MISSION PKWY", "postcode": "66202"}}},
{"geometry": {"type": "Point", "coordinates": [-94.666869283, 39.0133540493]}, "type": "Feature", "properties": {"collection_times": [{"days": "Mon-Fri", "time": "12:00pm"}, {"days": "Sat-Sun", "time": "Closed"}], "id": "6620200147", "name": "USPS COLLECTION BOX - BLUE BOX", "address": {"city": "SHAWNEE MISSION", "state": "KS", "street": "6901 SHAWNEE MISSION PKWY", "postcode": "66202"}}},
{"geometry": {"type": "Point", "coordinates": [-94.666869283, 39.0133540493]}, "type": "Feature", "properties": {"collection_times": [{"days": "Mon-Fri", "time": "12:00pm"}, {"days": "Sat-Sun", "time": "Closed"}], "id": "6620200148", "name": "USPS COLLECTION BOX - BLUE BOX", "address": {"city": "SHAWNEE MISSION", "state": "KS", "street": "6901 SHAWNEE MISSION PKWY", "postcode": "66202"}}},
{"geometry": {"type": "Point", "coordinates": [-94.6648499721, 39.0122763736]}, "type": "Feature", "properties": {"collection_times": [{"days": "Mon-Fri", "time": "12:00pm"}, {"days": "Sat-Sun", "time": "Closed"}], "id": "6620200149", "name": "USPS COLLECTION BOX - BLUE BOX", "address": {"city": "SHAWNEE MISSION", "state": "KS", "street": "6800 W 64TH ST", "postcode": "66202"}}},
{"geometry": {"type": "Point", "coordinates": [-94.6648499721, 39.0122763736]}, "type": "Feature", "properties": {"collection_times": [{"days": "Mon-Fri", "time": "12:00pm"}, {"days": "Sat-Sun", "time": "Closed"}], "id": "6620200150", "name": "USPS COLLECTION BOX - BLUE BOX", "address": {"city": "SHAWNEE MISSION", "state": "KS", "street": "6800 W 64TH ST", "postcode": "66202"}}},
{"geometry": {"type": "Point", "coordinates": [-94.6648499721, 39.0122763736]}, "type": "Feature", "properties": {"collection_times": [{"days": "Mon-Fri", "time": "12:00pm"}, {"days": "Sat-Sun", "time": "Closed"}], "id": "6620200152", "name": "USPS COLLECTION BOX - BLUE BOX", "address": {"city": "SHAWNEE MISSION", "state": "KS", "street": "6800 W 64TH ST", "postcode": "66202"}}},
{"geometry": {"type": "Point", "coordinates": [-94.6633724563, 39.0122716418]}, "type": "Feature", "properties": {"collection_times": [{"days": "Mon-Fri", "time": "12:00pm"}, {"days": "Sat-Sun", "time": "Closed"}], "id": "6620200153", "name": "USPS COLLECTION BOX - BLUE BOX", "address": {"city": "SHAWNEE MISSION", "state": "KS", "street": "6701 W 64TH ST", "postcode": "66202"}}},
{"geometry": {"type": "Point", "coordinates": [-94.6656378228, 39.0189589088]}, "type": "Feature", "properties": {"collection_times": [{"days": "Mon-Fri", "time": "5:20pm"}, {"days": "Sat", "time": "6:00pm"}, {"days": "Sun", "time": "Closed"}], "id": "6620200158", "name": "USPS COLLECTION BOX - APC", "address": {"city": "SHAWNEE MISSION", "state": "KS", "street": "6029 BROADMOOR ST", "postcode": "66202"}}},
{"geometry": {"type": "Point", "coordinates": [-94.7145638226, 39.016878084]}, "type": "Feature", "properties": {"collection_times": [{"days": "Mon-Fri", "time": "4:00pm"}, {"days": "Sat", "time": "1:00pm"}, {"days": "Sun", "time": "Closed"}], "id": "6620300010", "name": "USPS COLLECTION BOX - BLUE BOX", "address": {"city": "SHAWNEE MISSION", "state": "KS", "street": "6201 NIEMAN RD", "postcode": "66203"}}},
{"geometry": {"type": "Point", "coordinates": [-94.7145638226, 39.016878084]}, "type": "Feature", "properties": {"collection_times": [{"days": "Mon-Fri", "time": "4:00pm"}, {"days": "Sat", "time": "1:00pm"}, {"days": "Sun", "time": "Closed"}], "id": "6620300011", "name": "USPS COLLECTION BOX - BLUE BOX", "address": {"city": "SHAWNEE MISSION", "state": "KS", "street": "6201 NIEMAN RD", "postcode": "66203"}}},
{"geometry": {"type": "Point", "coordinates": [-94.7151931568, 39.0229123577]}, "type": "Feature", "properties": {"collection_times": [{"days": "Mon-Sat", "time": "12:00pm"}, {"days": "Sun", "time": "Closed"}], "id": "6620300018", "name": "USPS COLLECTION BOX - BLUE BOX", "address": {"city": "SHAWNEE MISSION", "state": "KS", "street": "11110 JOHNSON DR", "postcode": "66203"}}},
{"geometry": {"type": "Point", "coordinates": [-94.7145638226, 39.016878084]}, "type": "Feature", "properties": {"collection_times": [{"days": "Mon-Fri", "time": "4:20pm"}, {"days": "Sat", "time": "1:00pm"}, {"days": "Sun", "time": "Closed"}], "id": "6620300022", "name": "USPS COLLECTION BOX - PO LOBBY", "address": {"city": "SHAWNEE MISSION", "state": "KS", "street": "6201 NIEMAN RD", "postcode": "66203"}}},
{"geometry": {"type": "Point", "coordinates": [-94.7145638226, 39.016878084]}, "type": "Feature", "properties": {"collection_times": [{"days": "Mon-Fri", "time": "4:20pm"}, {"days": "Sat", "time": "1:00pm"}, {"days": "Sun", "time": "Closed"}], "id": "6620300028", "name": "USPS COLLECTION BOX - APC", "address": {"city": "SHAWNEE MISSION", "state": "KS", "street": "6201 NIEMAN RD", "postcode": "66203"}}},
{"geometry": {"type": "Point", "coordinates": [-94.6793178093, 38.990353723]}, "type": "Feature", "properties": {"collection_times": [{"days": "Mon-Sat", "time": "3:30pm"}, {"days": "Sun", "time": "Closed"}], "id": "6620400009", "name": "USPS COLLECTION BOX - EXPRESS", "address": {"city": "SHAWNEE MISSION", "state": "KS", "street": "7000 W 75TH ST", "postcode": "66204"}}},
{"geometry": {"type": "Point", "coordinates": [-94.6656650308, 38.9931337317]}, "type": "Feature", "properties": {"collection_times": [{"days": "Mon-Sat", "time": "11:30am"}, {"days": "Sun", "time": "Closed"}], "id": "6620400010", "name": "USPS COLLECTION BOX - BLUE BOX", "address": {"city": "SHAWNEE MISSION", "state": "KS", "street": "7000 W 75TH ST", "postcode": "66204"}}},
{"geometry": {"type": "Point", "coordinates": [-94.6793178093, 38.990353723]}, "type": "Feature", "properties": {"collection_times": [{"days": "Mon-Sat", "time": "2:30pm"}, {"days": "Sun", "time": "Closed"}], "id": "6620400013", "name": "USPS COLLECTION BOX - EXPRESS", "address": {"city": "SHAWNEE MISSION", "state": "KS", "street": "10200 W 75TH ST", "postcode": "66204"}}},
{"geometry": {"type": "Point", "coordinates": [-94.6887694328, 38.9929621088]}, "type": "Feature", "properties": {"collection_times": [{"days": "Mon-Sat", "time": "12:30pm"}, {"days": "Sun", "time": "Closed"}], "id": "6620400017", "name": "USPS COLLECTION BOX - BLUE BOX", "address": {"city": "SHAWNEE MISSION", "state": "KS", "street": "8861 W 75TH ST", "postcode": "66204"}}},
{"geometry": {"type": "Point", "coordinates": [-94.6913352404, 38.9951483108]}, "type": "Feature", "properties": {"collection_times": [{"days": "Mon-Sat", "time": "12:00pm"}, {"days": "Sun", "time": "Closed"}], "id": "6620400020", "name": "USPS COLLECTION BOX - BLUE BOX", "address": {"city": "SHAWNEE MISSION", "state": "KS", "street": "9100 W 74TH ST", "postcode": "66204"}}},
{"geometry": {"type": "Point", "coordinates": [-94.673558916, 38.9836570474]}, "type": "Feature", "properties": {"collection_times": [{"days": "Mon-Fri", "time": "4:00pm"}, {"days": "Sat", "time": "1:00pm"}, {"days": "Sun", "time": "Closed"}], "id": "6620400027", "name": "USPS COLLECTION BOX - PO LOBBY", "address": {"city": "SHAWNEE MISSION", "state": "KS", "street": "8010 CONSER ST", "postcode": "66204"}}},
{"geometry": {"type": "Point", "coordinates": [-94.6770476249, 38.9928684977]}, "type": "Feature", "properties": {"collection_times": [{"days": "Mon-Sat", "time": "1:45pm"}, {"days": "Sun", "time": "Closed"}], "id": "6620400029", "name": "USPS COLLECTION BOX - BLUE BOX", "address": {"city": "SHAWNEE MISSION", "state": "KS", "street": "6700 LEE DR", "postcode": "66204"}}},
{"geometry": {"type": "Point", "coordinates": [-94.6883671963, 38.993095877]}, "type": "Feature", "properties": {"collection_times": [{"days": "Mon-Sat", "time": "12:00pm"}, {"days": "Sun", "time": "Closed"}], "id": "6620400030", "name": "USPS COLLECTION BOX - BLUE BOX", "address": {"city": "SHAWNEE MISSION", "state": "KS", "street": "8800 W 75TH ST", "postcode": "66204"}}},
{"geometry": {"type": "Point", "coordinates": [-94.6735423546, 38.9821452258]}, "type": "Feature", "properties": {"collection_times": [{"days": "Mon-Sat", "time": "1:00pm"}, {"days": "Sun", "time": "Closed"}], "id": "6620400033", "name": "USPS COLLECTION BOX - BLUE BOX", "address": {"city": "SHAWNEE MISSION", "state": "KS", "street": "8101 SANTA FE DR", "postcode": "66204"}}},
{"geometry": {"type": "Point", "coordinates": [-94.673558916, 38.9836570474]}, "type": "Feature", "properties": {"collection_times": [{"days": "Mon-Fri", "time": "4:00pm"}, {"days": "Sat", "time": "1:00pm"}, {"days": "Sun", "time": "Closed"}], "id": "6620400034", "name": "USPS COLLECTION BOX - BLUE BOX", "address": {"city": "SHAWNEE MISSION", "state": "KS", "street": "8010 CONSER ST", "postcode": "66204"}}},
{"geometry": {"type": "Point", "coordinates": [-94.6793178093, 38.990353723]}, "type": "Feature", "properties": {"collection_times": [{"days": "Mon-Fri", "time": "5:00pm"}, {"days": "Sat", "time": "1:00pm"}, {"days": "Sun", "time": "Closed"}], "id": "6620400036", "name": "USPS COLLECTION BOX - EXPRESS", "address": {"city": "SHAWNEE MISSION", "state": "KS", "street": "8010 CONSER ST", "postcode": "66204"}}},
{"geometry": {"type": "Point", "coordinates": [-94.703770505, 38.9929657515]}, "type": "Feature", "properties": {"collection_times": [{"days": "Mon-Sat", "time": "11:45am"}, {"days": "Sun", "time": "Closed"}], "id": "6620400039", "name": "USPS COLLECTION BOX - BLUE BOX", "address": {"city": "SHAWNEE MISSION", "state": "KS", "street": "10200 W 75TH ST", "postcode": "66204"}}},
{"geometry": {"type": "Point", "coordinates": [-94.703770505, 38.9929657515]}, "type": "Feature", "properties": {"collection_times": [{"days": "Mon-Sat", "time": "11:45am"}, {"days": "Sun", "time": "Closed"}], "id": "6620400040", "name": "USPS COLLECTION BOX - BLUE BOX", "address": {"city": "SHAWNEE MISSION", "state": "KS", "street": "10200 W 75TH ST", "postcode": "66204"}}},
{"geometry": {"type": "Point", "coordinates": [-94.6311273533, 39.0324307563]}, "type": "Feature", "properties": {"collection_times": [{"days": "Mon-Fri", "time": "3:00pm"}, {"days": "Sat", "time": "1:00pm"}, {"days": "Sun", "time": "Closed"}], "id": "6620500000", "name": "USPS COLLECTION BOX - EXPRESS", "address": {"city": "FAIRWAY", "state": "KS", "street": "5419 JOHNSON DR", "postcode": "66205"}}},
{"geometry": {"type": "Point", "coordinates": [-94.6480507718, 39.0225515552]}, "type": "Feature", "properties": {"collection_times": [{"days": "Mon-Sat", "time": "12:00pm"}, {"days": "Sun", "time": "Closed"}], "id": "6620500002", "name": "USPS COLLECTION BOX - BLUE BOX", "address": {"city": "FAIRWAY", "state": "KS", "street": "5419 JOHNSON DR", "postcode": "66205"}}},
{"geometry": {"type": "Point", "coordinates": [-94.6359715778, 39.0268007438]}, "type": "Feature", "properties": {"collection_times": [{"days": "Mon-Fri", "time": "12:00pm"}, {"days": "Sat-Sun", "time": "Closed"}], "id": "6620500003", "name": "USPS COLLECTION BOX - BLUE BOX", "address": {"city": "FAIRWAY", "state": "KS", "street": "4400 SHAWNEE MISSION PKWY", "postcode": "66205"}}},
{"geometry": {"type": "Point", "coordinates": [-94.6359715778, 39.0268007438]}, "type": "Feature", "properties": {"collection_times": [{"days": "Mon-Fri", "time": "12:00pm"}, {"days": "Sat-Sun", "time": "Closed"}], "id": "6620500008", "name": "USPS COLLECTION BOX - BLUE BOX", "address": {"city": "FAIRWAY", "state": "KS", "street": "4400 SHAWNEE MISSION PKWY", "postcode": "66205"}}},
{"geometry": {"type": "Point", "coordinates": [-94.6304056437, 39.0203696214]}, "type": "Feature", "properties": {"collection_times": [{"days": "Mon-Fri", "time": "1:00pm"}, {"days": "Sat-Sun", "time": "Closed"}], "id": "6620500012", "name": "USPS COLLECTION BOX - BLUE BOX", "address": {"city": "FAIRWAY", "state": "KS", "street": "6000 MISSION RD", "postcode": "66205"}}},
{"geometry": {"type": "Point", "coordinates": [-94.6170395026, 39.0333058352]}, "type": "Feature", "properties": {"collection_times": [{"days": "Mon-Fri", "time": "11:45am"}, {"days": "Sat-Sun", "time": "Closed"}], "id": "6620500013", "name": "USPS COLLECTION BOX - BLUE BOX", "address": {"city": "FAIRWAY", "state": "KS", "street": "2706 W 53RD ST", "postcode": "66205"}}},
{"geometry": {"type": "Point", "coordinates": [-94.6398954212, 39.0361998001]}, "type": "Feature", "properties": {"collection_times": [{"days": "Mon-Fri", "time": "11:15am"}, {"days": "Sat-Sun", "time": "Closed"}], "id": "6620500015", "name": "USPS COLLECTION BOX - BLUE BOX", "address": {"city": "FAIRWAY", "state": "KS", "street": "5150 ROE BLVD", "postcode": "66205"}}},
{"geometry": {"type": "Point", "coordinates": [-94.6398954212, 39.0361998001]}, "type": "Feature", "properties": {"collection_times": [{"days": "Mon-Fri", "time": "12:00pm"}, {"days": "Sat-Sun", "time": "Closed"}], "id": "6620500016", "name": "USPS COLLECTION BOX - BLUE BOX", "address": {"city": "FAIRWAY", "state": "KS", "street": "5150 ROE BLVD", "postcode": "66205"}}},
{"geometry": {"type": "Point", "coordinates": [-94.6083956214, 39.0428061786]}, "type": "Feature", "properties": {"collection_times": [{"days": "Mon-Fri", "time": "11:30am"}, {"days": "Sat-Sun", "time": "Closed"}], "id": "6620500022", "name": "USPS COLLECTION BOX - BLUE BOX", "address": {"city": "FAIRWAY", "state": "KS", "street": "1900 W 47TH PL", "postcode": "66205"}}},
{"geometry": {"type": "Point", "coordinates": [-94.6083956214, 39.0428061786]}, "type": "Feature", "properties": {"collection_times": [{"days": "Mon-Fri", "time": "11:30am"}, {"days": "Sat-Sun", "time": "Closed"}], "id": "6620500024", "name": "USPS COLLECTION BOX - BLUE BOX", "address": {"city": "FAIRWAY", "state": "KS", "street": "1900 W 47TH PL", "postcode": "66205"}}},
{"geometry": {"type": "Point", "coordinates": [-94.6303146681, 38.9773814501]}, "type": "Feature", "properties": {"collection_times": [{"days": "Mon-Fri", "time": "12:00pm"}, {"days": "Sat-Sun", "time": "Closed"}], "id": "6620600000", "name": "USPS COLLECTION BOX - BLUE BOX", "address": {"city": "SHAWNEE MISSION", "state": "KS", "street": "8340 MISSION RD", "postcode": "66206"}}},
{"geometry": {"type": "Point", "coordinates": [-94.6303146681, 38.9773814501]}, "type": "Feature", "properties": {"collection_times": [{"days": "Mon-Fri", "time": "12:00pm"}, {"days": "Sat-Sun", "time": "Closed"}], "id": "6620600001", "name": "USPS COLLECTION BOX - BLUE BOX", "address": {"city": "SHAWNEE MISSION", "state": "KS", "street": "8340 MISSION RD", "postcode": "66206"}}},
{"geometry": {"type": "Point", "coordinates": [-94.6197477839, 38.9597909544]}, "type": "Feature", "properties": {"collection_times": [{"days": "Mon-Sat", "time": "3:00pm"}, {"days": "Sun", "time": "Closed"}], "id": "6620600004", "name": "USPS COLLECTION BOX - EXPRESS", "address": {"city": "SHAWNEE MISSION", "state": "KS", "street": "3500 W 95TH ST", "postcode": "66206"}}},
{"geometry": {"type": "Point", "coordinates": [-94.6262263619, 38.9568996986]}, "type": "Feature", "properties": {"collection_times": [{"days": "Mon-Sat", "time": "12:00pm"}, {"days": "Sun", "time": "Closed"}], "id": "6620600005", "name": "USPS COLLECTION BOX - BLUE BOX", "address": {"city": "SHAWNEE MISSION", "state": "KS", "street": "3500 W 95TH ST", "postcode": "66206"}}},
{"geometry": {"type": "Point", "coordinates": [-94.608206348, 38.9669607646]}, "type": "Feature", "properties": {"collection_times": [{"days": "Mon-Fri", "time": "12:00pm"}, {"days": "Sat-Sun", "time": "Closed"}], "id": "6620600007", "name": "USPS COLLECTION BOX - BLUE BOX", "address": {"city": "SHAWNEE MISSION", "state": "KS", "street": "8900 STATE LINE RD", "postcode": "66206"}}},
{"geometry": {"type": "Point", "coordinates": [-94.6154318613, 38.9535507417]}, "type": "Feature", "properties": {"collection_times": [{"days": "Mon-Fri", "time": "12:00pm"}, {"days": "Sat-Sun", "time": "Closed"}], "id": "6620600010", "name": "USPS COLLECTION BOX - BLUE BOX", "address": {"city": "SHAWNEE MISSION", "state": "KS", "street": "9615 LEE BLVD", "postcode": "66206"}}},
{"geometry": {"type": "Point", "coordinates": [-94.6262263619, 38.9568996986]}, "type": "Feature", "properties": {"collection_times": [{"days": "Mon-Sat", "time": "12:00pm"}, {"days": "Sun", "time": "Closed"}], "id": "6620600024", "name": "USPS COLLECTION BOX - BLUE BOX", "address": {"city": "SHAWNEE MISSION", "state": "KS", "street": "3500 W 95TH ST", "postcode": "66206"}}},
{"geometry": {"type": "Point", "coordinates": [-94.6355764695, 38.9354088831]}, "type": "Feature", "properties": {"collection_times": [{"days": "Mon-Fri", "time": "3:45pm"}, {"days": "Sat", "time": "4:00pm"}, {"days": "Sun", "time": "Closed"}], "id": "6620700001", "name": "USPS COLLECTION BOX - BLUE BOX", "address": {"city": "PRAIRIE VILLAGE", "state": "KS", "street": "4225 W 107TH ST", "postcode": "66207"}}},
{"geometry": {"type": "Point", "coordinates": [-94.6355764695, 38.9354088831]}, "type": "Feature", "properties": {"collection_times": [{"days": "Mon-Fri", "time": "3:45pm"}, {"days": "Sat", "time": "4:00pm"}, {"days": "Sun", "time": "Closed"}], "id": "6620700002", "name": "USPS COLLECTION BOX - BLUE BOX", "address": {"city": "PRAIRIE VILLAGE", "state": "KS", "street": "4225 W 107TH ST", "postcode": "66207"}}},
{"geometry": {"type": "Point", "coordinates": [-94.6466170256, 38.9579170433]}, "type": "Feature", "properties": {"collection_times": [{"days": "Mon-Fri", "time": "12:00pm"}, {"days": "Sat", "time": "9:30am"}, {"days": "Sun", "time": "Closed"}], "id": "6620700007", "name": "USPS COLLECTION BOX - BLUE BOX", "address": {"city": "PRAIRIE VILLAGE", "state": "KS", "street": "5305 W 94TH TER", "postcode": "66207"}}},
{"geometry": {"type": "Point", "coordinates": [-94.6451399961, 38.9569102157]}, "type": "Feature", "properties": {"collection_times": [{"days": "Mon-Fri", "time": "2:45pm"}, {"days": "Sat", "time": "10:15am"}, {"days": "Sun", "time": "Closed"}], "id": "6620700011", "name": "USPS COLLECTION BOX - EXPRESS", "address": {"city": "PRAIRIE VILLAGE", "state": "KS", "street": "9400 REEDS RD", "postcode": "66207"}}},
{"geometry": {"type": "Point", "coordinates": [-94.651333483, 38.958241174]}, "type": "Feature", "properties": {"collection_times": [{"days": "Mon-Fri", "time": "12:00pm"}, {"days": "Sat", "time": "10:15am"}, {"days": "Sun", "time": "Closed"}], "id": "6620700012", "name": "USPS COLLECTION BOX - BLUE BOX", "address": {"city": "PRAIRIE VILLAGE", "state": "KS", "street": "9400 REEDS RD", "postcode": "66207"}}},
{"geometry": {"type": "Point", "coordinates": [-94.6355764695, 38.9354088831]}, "type": "Feature", "properties": {"collection_times": [{"days": "Mon-Fri", "time": "5:15pm"}, {"days": "Sat", "time": "1:00pm"}, {"days": "Sun", "time": "Closed"}], "id": "6620700017", "name": "USPS COLLECTION BOX - PO LOBBY", "address": {"city": "PRAIRIE VILLAGE", "state": "KS", "street": "4225 W 107TH ST", "postcode": "66207"}}},
{"geometry": {"type": "Point", "coordinates": [-94.6355764695, 38.9354088831]}, "type": "Feature", "properties": {"collection_times": [{"days": "Mon-Fri", "time": "4:15pm"}, {"days": "Sat", "time": "1:00pm"}, {"days": "Sun", "time": "Closed"}], "id": "6620700023", "name": "USPS COLLECTION BOX - APC", "address": {"city": "PRAIRIE VILLAGE", "state": "KS", "street": "4225 W 107TH ST", "postcode": "66207"}}},
{"geometry": {"type": "Point", "coordinates": [-94.6080388398, 38.9908664447]}, "type": "Feature", "properties": {"collection_times": [{"days": "Mon-Sat", "time": "12:00pm"}, {"days": "Sun", "time": "Closed"}], "id": "6620800006", "name": "USPS COLLECTION BOX - BLUE BOX", "address": {"city": "SHAWNEE MISSION", "state": "KS", "street": "7600 STATE LINE RD", "postcode": "66208"}}},
{"geometry": {"type": "Point", "coordinates": [-94.6080388398, 38.9908664447]}, "type": "Feature", "properties": {"collection_times": [{"days": "Mon-Sat", "time": "2:45pm"}, {"days": "Sun", "time": "Closed"}], "id": "6620800007", "name": "USPS COLLECTION BOX - BLUE BOX", "address": {"city": "SHAWNEE MISSION", "state": "KS", "street": "7600 STATE LINE RD", "postcode": "66208"}}},
{"geometry": {"type": "Point", "coordinates": [-94.6289732179, 38.9956970712]}, "type": "Feature", "properties": {"collection_times": [{"days": "Mon-Sat", "time": "1:00pm"}, {"days": "Sun", "time": "Closed"}], "id": "6620800016", "name": "USPS COLLECTION BOX - BLUE BOX", "address": {"city": "SHAWNEE MISSION", "state": "KS", "street": "3710 W 73RD TER", "postcode": "66208"}}},
{"geometry": {"type": "Point", "coordinates": [-94.6337275047, 38.9786886197]}, "type": "Feature", "properties": {"collection_times": [{"days": "Mon-Fri", "time": "12:00pm"}, {"days": "Sat-Sun", "time": "Closed"}], "id": "6620800026", "name": "USPS COLLECTION BOX - BLUE BOX", "address": {"city": "SHAWNEE MISSION", "state": "KS", "street": "4121 W 83RD ST", "postcode": "66208"}}},
{"geometry": {"type": "Point", "coordinates": [-94.6337275047, 38.9786886197]}, "type": "Feature", "properties": {"collection_times": [{"days": "Mon-Fri", "time": "12:00pm"}, {"days": "Sat-Sun", "time": "Closed"}], "id": "6620800027", "name": "USPS COLLECTION BOX - BLUE BOX", "address": {"city": "SHAWNEE MISSION", "state": "KS", "street": "4121 W 83RD ST", "postcode": "66208"}}},
{"geometry": {"type": "Point", "coordinates": [-94.6289732179, 38.9956970712]}, "type": "Feature", "properties": {"collection_times": [{"days": "Mon-Fri", "time": "3:45pm"}, {"days": "Sat", "time": "11:45am"}, {"days": "Sun", "time": "Closed"}], "id": "6620800034", "name": "USPS COLLECTION BOX - BLUE BOX", "address": {"city": "SHAWNEE MISSION", "state": "KS", "street": "6917 TOMAHAWK RD", "postcode": "66208"}}},
{"geometry": {"type": "Point", "coordinates": [-94.6289732179, 38.9956970712]}, "type": "Feature", "properties": {"collection_times": [{"days": "Mon-Fri", "time": "3:45pm"}, {"days": "Sat", "time": "11:45am"}, {"days": "Sun", "time": "Closed"}], "id": "6620800037", "name": "USPS COLLECTION BOX - PO LOBBY", "address": {"city": "SHAWNEE MISSION", "state": "KS", "street": "6917 TOMAHAWK RD", "postcode": "66208"}}},
{"geometry": {"type": "Point", "coordinates": [-94.6335264017, 38.9786909857]}, "type": "Feature", "properties": {"collection_times": [{"days": "Mon-Sat", "time": "12:00pm"}, {"days": "Sun", "time": "Closed"}], "id": "6620800038", "name": "USPS COLLECTION BOX - BLUE BOX", "address": {"city": "SHAWNEE MISSION", "state": "KS", "street": "4050 W 83RD ST", "postcode": "66208"}}},
{"geometry": {"type": "Point", "coordinates": [-94.6335264017, 38.9786909857]}, "type": "Feature", "properties": {"collection_times": [{"days": "Mon-Sat", "time": "12:00pm"}, {"days": "Sun", "time": "Closed"}], "id": "6620800039", "name": "USPS COLLECTION BOX - BLUE BOX", "address": {"city": "SHAWNEE MISSION", "state": "KS", "street": "4050 W 83RD ST", "postcode": "66208"}}},
{"geometry": {"type": "Point", "coordinates": [-94.6303061473, 38.997431737]}, "type": "Feature", "properties": {"collection_times": [{"days": "Mon-Sat", "time": "2:45pm"}, {"days": "Sun", "time": "Closed"}], "id": "6620800040", "name": "USPS COLLECTION BOX - EXPRESS", "address": {"city": "SHAWNEE MISSION", "state": "KS", "street": "4050 W 83RD ST", "postcode": "66208"}}},
{"geometry": {"type": "Point", "coordinates": [-94.6316111911, 38.9846945024]}, "type": "Feature", "properties": {"collection_times": [{"days": "Mon-Fri", "time": "12:00pm"}, {"days": "Sat", "time": "10:00am"}, {"days": "Sun", "time": "Closed"}], "id": "6620800041", "name": "USPS COLLECTION BOX - BLUE BOX", "address": {"city": "SHAWNEE MISSION", "state": "KS", "street": "3904 W 80TH ST", "postcode": "66208"}}},
{"geometry": {"type": "Point", "coordinates": [-94.6289732179, 38.9956970712]}, "type": "Feature", "properties": {"collection_times": [{"days": "Mon-Fri", "time": "5:15pm"}, {"days": "Sat", "time": "11:45am"}, {"days": "Sun", "time": "Closed"}], "id": "6620800051", "name": "USPS COLLECTION BOX - APC", "address": {"city": "SHAWNEE MISSION", "state": "KS", "street": "6917 TOMAHAWK RD", "postcode": "66208"}}},
{"geometry": {"type": "Point", "coordinates": [-94.6293729618, 39.0026761289]}, "type": "Feature", "properties": {"collection_times": [{"days": "Mon-Sat", "time": "10:00am"}, {"days": "Sun", "time": "Closed"}], "id": "6620800054", "name": "USPS COLLECTION BOX - BLUE BOX", "address": {"city": "SHAWNEE MISSION", "state": "KS", "street": "6949 MISSION RD", "postcode": "66208"}}},
{"geometry": {"type": "Point", "coordinates": [-94.6080494704, 38.8919213508]}, "type": "Feature", "properties": {"collection_times": [{"days": "Mon-Sat", "time": "10:00am"}, {"days": "Sun", "time": "Closed"}], "id": "6620900000", "name": "USPS COLLECTION BOX - BLUE BOX", "address": {"city": "SHAWNEE MISSION", "state": "KS", "street": "13000 STATE LINE RD", "postcode": "66209"}}},
{"geometry": {"type": "Point", "coordinates": [-94.6662671569, 38.9086763764]}, "type": "Feature", "properties": {"collection_times": [{"days": "Mon-Fri", "time": "12:00pm"}, {"days": "Sat-Sun", "time": "Closed"}], "id": "6620900003", "name": "USPS COLLECTION BOX - BLUE BOX", "address": {"city": "SHAWNEE MISSION", "state": "KS", "street": "7000 W 121ST ST", "postcode": "66209"}}},
{"geometry": {"type": "Point", "coordinates": [-94.6091740084, 38.9070876625]}, "type": "Feature", "properties": {"collection_times": [{"days": "Mon-Sat", "time": "1:00pm"}, {"days": "Sun", "time": "Closed"}], "id": "6620900004", "name": "USPS COLLECTION BOX - BLUE BOX", "address": {"city": "SHAWNEE MISSION", "state": "KS", "street": "12200 STATE LINE RD", "postcode": "66209"}}},
{"geometry": {"type": "Point", "coordinates": [-94.637477709, 38.8988426676]}, "type": "Feature", "properties": {"collection_times": [{"days": "Mon-Fri", "time": "12:00pm"}, {"days": "Sat", "time": "11:00am"}, {"days": "Sun", "time": "Closed"}], "id": "6620900006", "name": "USPS COLLECTION BOX - BLUE BOX", "address": {"city": "SHAWNEE MISSION", "state": "KS", "street": "4700 TOMAHAWK RD", "postcode": "66209"}}},
{"geometry": {"type": "Point", "coordinates": [-94.6404256651, 38.8995126931]}, "type": "Feature", "properties": {"collection_times": [{"days": "Mon-Sat", "time": "1:00pm"}, {"days": "Sun", "time": "Closed"}], "id": "6620900009", "name": "USPS COLLECTION BOX - EXPRESS", "address": {"city": "SHAWNEE MISSION", "state": "KS", "street": "12200 STATE LINE RD", "postcode": "66209"}}},
{"geometry": {"type": "Point", "coordinates": [-94.6428753264, 38.9130343972]}, "type": "Feature", "properties": {"collection_times": [{"days": "Mon-Sat", "time": "10:00am"}, {"days": "Sun", "time": "Closed"}], "id": "6620900010", "name": "USPS COLLECTION BOX - BLUE BOX", "address": {"city": "SHAWNEE MISSION", "state": "KS", "street": "5000 W 119TH ST", "postcode": "66209"}}},
{"geometry": {"type": "Point", "coordinates": [-94.6664040798, 38.8866173574]}, "type": "Feature", "properties": {"collection_times": [{"days": "Mon-Fri", "time": "12:00pm"}, {"days": "Sat-Sun", "time": "Closed"}], "id": "6620900011", "name": "USPS COLLECTION BOX - BLUE BOX", "address": {"city": "SHAWNEE MISSION", "state": "KS", "street": "7000 W 133RD ST", "postcode": "66209"}}},
{"geometry": {"type": "Point", "coordinates": [-94.6664040798, 38.8866173574]}, "type": "Feature", "properties": {"collection_times": [{"days": "Mon-Fri", "time": "12:00pm"}, {"days": "Sat-Sun", "time": "Closed"}], "id": "6620900012", "name": "USPS COLLECTION BOX - BLUE BOX", "address": {"city": "SHAWNEE MISSION", "state": "KS", "street": "7000 W 133RD ST", "postcode": "66209"}}},
{"geometry": {"type": "Point", "coordinates": [-94.6305548087, 38.8854075735]}, "type": "Feature", "properties": {"collection_times": [{"days": "Mon-Fri", "time": "11:00am"}, {"days": "Sat", "time": "10:00am"}, {"days": "Sun", "time": "Closed"}], "id": "6620900015", "name": "USPS COLLECTION BOX - BLUE BOX", "address": {"city": "SHAWNEE MISSION", "state": "KS", "street": "13351 MISSION RD", "postcode": "66209"}}},
{"geometry": {"type": "Point", "coordinates": [-94.6662671569, 38.9086763764]}, "type": "Feature", "properties": {"collection_times": [{"days": "Mon-Fri", "time": "12:00pm"}, {"days": "Sat-Sun", "time": "Closed"}], "id": "6620900016", "name": "USPS COLLECTION BOX - BLUE BOX", "address": {"city": "SHAWNEE MISSION", "state": "KS", "street": "7000 W 121ST ST", "postcode": "66209"}}},
{"geometry": {"type": "Point", "coordinates": [-94.7391563565, 38.9274795091]}, "type": "Feature", "properties": {"collection_times": [{"days": "Mon-Fri", "time": "12:00pm"}, {"days": "Sat-Sun", "time": "Closed"}], "id": "6621000003", "name": "USPS COLLECTION BOX - BLUE BOX", "address": {"city": "SHAWNEE MISSION", "state": "KS", "street": "13300 COLLEGE BLVD", "postcode": "66210"}}},
{"geometry": {"type": "Point", "coordinates": [-94.6948545433, 38.9292385691]}, "type": "Feature", "properties": {"collection_times": [{"days": "Mon-Fri", "time": "11:15am"}, {"days": "Sat-Sun", "time": "Closed"}], "id": "6621000008", "name": "USPS COLLECTION BOX - BLUE BOX", "address": {"city": "SHAWNEE MISSION", "state": "KS", "street": "9393 W 110TH ST", "postcode": "66210"}}},
{"geometry": {"type": "Point", "coordinates": [-94.7241910125, 38.9275775187]}, "type": "Feature", "properties": {"collection_times": [{"days": "Mon-Fri", "time": "11:15am"}, {"days": "Sat-Sun", "time": "Closed"}], "id": "6621000010", "name": "USPS COLLECTION BOX - BLUE BOX", "address": {"city": "SHAWNEE MISSION", "state": "KS", "street": "11900 COLLEGE BLVD", "postcode": "66210"}}},
{"geometry": {"type": "Point", "coordinates": [-94.6809700743, 38.927363195]}, "type": "Feature", "properties": {"collection_times": [{"days": "Mon-Fri", "time": "11:45am"}, {"days": "Sat-Sun", "time": "Closed"}], "id": "6621000012", "name": "USPS COLLECTION BOX - BLUE BOX", "address": {"city": "SHAWNEE MISSION", "state": "KS", "street": "8101 COLLEGE BLVD", "postcode": "66210"}}},
{"geometry": {"type": "Point", "coordinates": [-94.6809700743, 38.927363195]}, "type": "Feature", "properties": {"collection_times": [{"days": "Mon-Fri", "time": "11:45am"}, {"days": "Sat-Sun", "time": "Closed"}], "id": "6621000013", "name": "USPS COLLECTION BOX - BLUE BOX", "address": {"city": "SHAWNEE MISSION", "state": "KS", "street": "8101 COLLEGE BLVD", "postcode": "66210"}}},
{"geometry": {"type": "Point", "coordinates": [-94.6881613614, 38.9312649778]}, "type": "Feature", "properties": {"collection_times": [{"days": "Mon-Fri", "time": "1:00pm"}, {"days": "Sat-Sun", "time": "Closed"}], "id": "6621000016", "name": "USPS COLLECTION BOX - BLUE BOX", "address": {"city": "SHAWNEE MISSION", "state": "KS", "street": "10880 BENSON DR", "postcode": "66210"}}},
{"geometry": {"type": "Point", "coordinates": [-94.6881613614, 38.9312649778]}, "type": "Feature", "properties": {"collection_times": [{"days": "Mon-Fri", "time": "1:00pm"}, {"days": "Sat-Sun", "time": "Closed"}], "id": "6621000017", "name": "USPS COLLECTION BOX - BLUE BOX", "address": {"city": "SHAWNEE MISSION", "state": "KS", "street": "10880 BENSON DR", "postcode": "66210"}}},
{"geometry": {"type": "Point", "coordinates": [-94.6990469498, 38.9274901557]}, "type": "Feature", "properties": {"collection_times": [{"days": "Mon-Fri", "time": "11:30am"}, {"days": "Sat-Sun", "time": "Closed"}], "id": "6621000019", "name": "USPS COLLECTION BOX - BLUE BOX", "address": {"city": "SHAWNEE MISSION", "state": "KS", "street": "9962 COLLEGE BLVD", "postcode": "66210"}}},
{"geometry": {"type": "Point", "coordinates": [-94.6990469498, 38.9274901557]}, "type": "Feature", "properties": {"collection_times": [{"days": "Mon-Fri", "time": "11:30am"}, {"days": "Sat-Sun", "time": "Closed"}], "id": "6621000020", "name": "USPS COLLECTION BOX - BLUE BOX", "address": {"city": "SHAWNEE MISSION", "state": "KS", "street": "9962 COLLEGE BLVD", "postcode": "66210"}}},
{"geometry": {"type": "Point", "coordinates": [-94.6911980171, 38.9290197217]}, "type": "Feature", "properties": {"collection_times": [{"days": "Mon-Fri", "time": "1:00pm"}, {"days": "Sat-Sun", "time": "Closed"}], "id": "6621000025", "name": "USPS COLLECTION BOX - BLUE BOX", "address": {"city": "SHAWNEE MISSION", "state": "KS", "street": "10950 GRANDVIEW DR", "postcode": "66210"}}},
{"geometry": {"type": "Point", "coordinates": [-94.7206703109, 38.9273290468]}, "type": "Feature", "properties": {"collection_times": [{"days": "Mon-Fri", "time": "12:00pm"}, {"days": "Sat-Sun", "time": "Closed"}], "id": "6621000026", "name": "USPS COLLECTION BOX - BLUE BOX", "address": {"city": "SHAWNEE MISSION", "state": "KS", "street": "11700 W 112TH ST", "postcode": "66210"}}},
{"geometry": {"type": "Point", "coordinates": [-94.6697723623, 38.9292434326]}, "type": "Feature", "properties": {"collection_times": [{"days": "Mon-Fri", "time": "10:00am"}, {"days": "Sat-Sun", "time": "Closed"}], "id": "6621000028", "name": "USPS COLLECTION BOX - BLUE BOX", "address": {"city": "SHAWNEE MISSION", "state": "KS", "street": "7201 W 110TH ST", "postcode": "66210"}}},
{"geometry": {"type": "Point", "coordinates": [-94.6697723623, 38.9292434326]}, "type": "Feature", "properties": {"collection_times": [{"days": "Mon-Fri", "time": "10:00am"}, {"days": "Sat-Sun", "time": "Closed"}], "id": "6621000029", "name": "USPS COLLECTION BOX - BLUE BOX", "address": {"city": "SHAWNEE MISSION", "state": "KS", "street": "7201 W 110TH ST", "postcode": "66210"}}},
{"geometry": {"type": "Point", "coordinates": [-94.6847307805, 38.9290445638]}, "type": "Feature", "properties": {"collection_times": [{"days": "Mon-Fri", "time": "12:00pm"}, {"days": "Sat-Sun", "time": "Closed"}], "id": "6621000030", "name": "USPS COLLECTION BOX - BLUE BOX", "address": {"city": "SHAWNEE MISSION", "state": "KS", "street": "8620 W 110TH ST", "postcode": "66210"}}},
{"geometry": {"type": "Point", "coordinates": [-94.6944842771, 38.9292279225]}, "type": "Feature", "properties": {"collection_times": [{"days": "Mon-Fri", "time": "9:00am"}, {"days": "Sat-Sun", "time": "Closed"}], "id": "6621000035", "name": "USPS COLLECTION BOX - BLUE BOX", "address": {"city": "SHAWNEE MISSION", "state": "KS", "street": "9300 W 110TH ST", "postcode": "66210"}}},
{"geometry": {"type": "Point", "coordinates": [-94.6802563053, 38.9276107994]}, "type": "Feature", "properties": {"collection_times": [{"days": "Mon-Fri", "time": "12:00pm"}, {"days": "Sat-Sun", "time": "Closed"}], "id": "6621000038", "name": "USPS COLLECTION BOX - BLUE BOX", "address": {"city": "SHAWNEE MISSION", "state": "KS", "street": "8005 W 110TH ST", "postcode": "66210"}}},
{"geometry": {"type": "Point", "coordinates": [-94.6948545433, 38.9292385691]}, "type": "Feature", "properties": {"collection_times": [{"days": "Mon-Fri", "time": "11:15am"}, {"days": "Sat-Sun", "time": "Closed"}], "id": "6621000042", "name": "USPS COLLECTION BOX - BLUE BOX", "address": {"city": "SHAWNEE MISSION", "state": "KS", "street": "9393 W 110TH ST", "postcode": "66210"}}},
{"geometry": {"type": "Point", "coordinates": [-94.7206703109, 38.9273290468]}, "type": "Feature", "properties": {"collection_times": [{"days": "Mon-Fri", "time": "12:00pm"}, {"days": "Sat-Sun", "time": "Closed"}], "id": "6621000043", "name": "USPS COLLECTION BOX - BLUE BOX", "address": {"city": "SHAWNEE MISSION", "state": "KS", "street": "11700 W 112TH ST", "postcode": "66210"}}},
{"geometry": {"type": "Point", "coordinates": [-94.7206703109, 38.9273290468]}, "type": "Feature", "properties": {"collection_times": [{"days": "Mon-Fri", "time": "12:00pm"}, {"days": "Sat-Sun", "time": "Closed"}], "id": "6621000044", "name": "USPS COLLECTION BOX - BLUE BOX", "address": {"city": "SHAWNEE MISSION", "state": "KS", "street": "11700 W 112TH ST", "postcode": "66210"}}},
{"geometry": {"type": "Point", "coordinates": [-94.7205241528, 38.9261351024]}, "type": "Feature", "properties": {"collection_times": [{"days": "Mon-Fri", "time": "2:00pm"}, {"days": "Sat-Sun", "time": "Closed"}], "id": "6621000045", "name": "USPS COLLECTION BOX - EXPRESS", "address": {"city": "SHAWNEE MISSION", "state": "KS", "street": "11700 W 112TH ST", "postcode": "66210"}}},
{"geometry": {"type": "Point", "coordinates": [-94.6809700743, 38.927363195]}, "type": "Feature", "properties": {"collection_times": [{"days": "Mon-Fri", "time": "11:45am"}, {"days": "Sat-Sun", "time": "Closed"}], "id": "6621000046", "name": "USPS COLLECTION BOX - BLUE BOX", "address": {"city": "SHAWNEE MISSION", "state": "KS", "street": "8101 COLLEGE BLVD", "postcode": "66210"}}},
{"geometry": {"type": "Point", "coordinates": [-94.6982663783, 38.9230930379]}, "type": "Feature", "properties": {"collection_times": [{"days": "Mon-Fri", "time": "3:00pm"}, {"days": "Sat-Sun", "time": "Closed"}], "id": "6621000047", "name": "USPS COLLECTION BOX - EXPRESS", "address": {"city": "SHAWNEE MISSION", "state": "KS", "street": "8005 W 110TH ST", "postcode": "66210"}}},
{"geometry": {"type": "Point", "coordinates": [-94.6847307805, 38.9290445638]}, "type": "Feature", "properties": {"collection_times": [{"days": "Mon-Fri", "time": "12:00pm"}, {"days": "Sat-Sun", "time": "Closed"}], "id": "6621000048", "name": "USPS COLLECTION BOX - BLUE BOX", "address": {"city": "SHAWNEE MISSION", "state": "KS", "street": "8620 W 110TH ST", "postcode": "66210"}}},
{"geometry": {"type": "Point", "coordinates": [-94.6894022854, 38.9329506943]}, "type": "Feature", "properties": {"collection_times": [{"days": "Mon-Fri", "time": "12:00pm"}, {"days": "Sat-Sun", "time": "Closed"}], "id": "6621000050", "name": "USPS COLLECTION BOX - BLUE BOX", "address": {"city": "SHAWNEE MISSION", "state": "KS", "street": "8900 INDIAN CREEK PKWY", "postcode": "66210"}}},
{"geometry": {"type": "Point", "coordinates": [-94.717144809, 38.9285004965]}, "type": "Feature", "properties": {"collection_times": [{"days": "Mon-Fri", "time": "12:00pm"}, {"days": "Sat-Sun", "time": "Closed"}], "id": "6621000054", "name": "USPS COLLECTION BOX - BLUE BOX", "address": {"city": "SHAWNEE MISSION", "state": "KS", "street": "11011 KING ST", "postcode": "66210"}}},
{"geometry": {"type": "Point", "coordinates": [-94.717144809, 38.9285004965]}, "type": "Feature", "properties": {"collection_times": [{"days": "Mon-Fri", "time": "12:00pm"}, {"days": "Sat-Sun", "time": "Closed"}], "id": "6621000055", "name": "USPS COLLECTION BOX - BLUE BOX", "address": {"city": "SHAWNEE MISSION", "state": "KS", "street": "11011 KING ST", "postcode": "66210"}}},
{"geometry": {"type": "Point", "coordinates": [-94.7256706243, 38.9275079001]}, "type": "Feature", "properties": {"collection_times": [{"days": "Mon-Fri", "time": "11:15am"}, {"days": "Sat-Sun", "time": "Closed"}], "id": "6621000067", "name": "USPS COLLECTION BOX - BLUE BOX", "address": {"city": "SHAWNEE MISSION", "state": "KS", "street": "11930 COLLEGE BLVD", "postcode": "66210"}}},
{"geometry": {"type": "Point", "coordinates": [-94.6769564448, 38.9308457688]}, "type": "Feature", "properties": {"collection_times": [{"days": "Mon-Fri", "time": "12:00pm"}, {"days": "Sat-Sun", "time": "Closed"}], "id": "6621000070", "name": "USPS COLLECTION BOX - BLUE BOX", "address": {"city": "SHAWNEE MISSION", "state": "KS", "street": "10901 LOWELL AVE", "postcode": "66210"}}},
{"geometry": {"type": "Point", "coordinates": [-94.6769564448, 38.9308457688]}, "type": "Feature", "properties": {"collection_times": [{"days": "Mon-Fri", "time": "12:00pm"}, {"days": "Sat-Sun", "time": "Closed"}], "id": "6621000071", "name": "USPS COLLECTION BOX - BLUE BOX", "address": {"city": "SHAWNEE MISSION", "state": "KS", "street": "10901 LOWELL AVE", "postcode": "66210"}}},
{"geometry": {"type": "Point", "coordinates": [-94.6677139157, 38.9170907635]}, "type": "Feature", "properties": {"collection_times": [{"days": "Mon-Sat", "time": "10:00am"}, {"days": "Sun", "time": "Closed"}], "id": "6621000074", "name": "USPS COLLECTION BOX - BLUE BOX", "address": {"city": "SHAWNEE MISSION", "state": "KS", "street": "11585 METCALF AVE", "postcode": "66210"}}},
{"geometry": {"type": "Point", "coordinates": [-94.7253202489, 38.9275683006]}, "type": "Feature", "properties": {"collection_times": [{"days": "Mon-Fri", "time": "11:30am"}, {"days": "Sat-Sun", "time": "Closed"}], "id": "6621000079", "name": "USPS COLLECTION BOX - BLUE BOX", "address": {"city": "SHAWNEE MISSION", "state": "KS", "street": "11920 COLLEGE BLVD", "postcode": "66210"}}},
{"geometry": {"type": "Point", "coordinates": [-94.6894022854, 38.9329506943]}, "type": "Feature", "properties": {"collection_times": [{"days": "Mon-Fri", "time": "12:00pm"}, {"days": "Sat-Sun", "time": "Closed"}], "id": "6621000103", "name": "USPS COLLECTION BOX - BLUE BOX", "address": {"city": "SHAWNEE MISSION", "state": "KS", "street": "8900 INDIAN CREEK PKWY", "postcode": "66210"}}},
{"geometry": {"type": "Point", "coordinates": [-94.6484297335, 38.9252546802]}, "type": "Feature", "properties": {"collection_times": [{"days": "Mon-Fri", "time": "12:00pm"}, {"days": "Sat-Sun", "time": "Closed"}], "id": "6621100011", "name": "USPS COLLECTION BOX - BLUE BOX", "address": {"city": "SHAWNEE MISSION", "state": "KS", "street": "5400 W 112TH ST", "postcode": "66211"}}},
{"geometry": {"type": "Point", "coordinates": [-94.6484297335, 38.9252546802]}, "type": "Feature", "properties": {"collection_times": [{"days": "Mon-Fri", "time": "12:00pm"}, {"days": "Sat-Sun", "time": "Closed"}], "id": "6621100012", "name": "USPS COLLECTION BOX - BLUE BOX", "address": {"city": "SHAWNEE MISSION", "state": "KS", "street": "5400 W 112TH ST", "postcode": "66211"}}},
{"geometry": {"type": "Point", "coordinates": [-94.6410078958, 38.9252438156]}, "type": "Feature", "properties": {"collection_times": [{"days": "Mon-Fri", "time": "12:00pm"}, {"days": "Sat", "time": "9:30am"}, {"days": "Sun", "time": "Closed"}], "id": "6621100013", "name": "USPS COLLECTION BOX - EXPRESS", "address": {"city": "SHAWNEE MISSION", "state": "KS", "street": "10977 GRANADA LN", "postcode": "66211"}}},
{"geometry": {"type": "Point", "coordinates": [-94.6378276404, 38.9292752408]}, "type": "Feature", "properties": {"collection_times": [{"days": "Mon-Fri", "time": "12:00pm"}, {"days": "Sat", "time": "9:30am"}, {"days": "Sun", "time": "Closed"}], "id": "6621100014", "name": "USPS COLLECTION BOX - BLUE BOX", "address": {"city": "SHAWNEE MISSION", "state": "KS", "street": "10977 GRANADA LN", "postcode": "66211"}}},
{"geometry": {"type": "Point", "coordinates": [-94.6414510438, 38.9274452033]}, "type": "Feature", "properties": {"collection_times": [{"days": "Mon-Fri", "time": "12:00pm"}, {"days": "Sat-Sun", "time": "Closed"}], "id": "6621100017", "name": "USPS COLLECTION BOX - BLUE BOX", "address": {"city": "SHAWNEE MISSION", "state": "KS", "street": "4707 COLLEGE BLVD", "postcode": "66211"}}},
{"geometry": {"type": "Point", "coordinates": [-94.6430788824, 38.9276507996]}, "type": "Feature", "properties": {"collection_times": [{"days": "Mon-Fri", "time": "11:45am"}, {"days": "Sat", "time": "9:30am"}, {"days": "Sun", "time": "Closed"}], "id": "6621100022", "name": "USPS COLLECTION BOX - BLUE BOX", "address": {"city": "SHAWNEE MISSION", "state": "KS", "street": "4900 COLLEGE BLVD", "postcode": "66211"}}},
{"geometry": {"type": "Point", "coordinates": [-94.6430788824, 38.9276507996]}, "type": "Feature", "properties": {"collection_times": [{"days": "Mon-Fri", "time": "11:45am"}, {"days": "Sat", "time": "9:30am"}, {"days": "Sun", "time": "Closed"}], "id": "6621100023", "name": "USPS COLLECTION BOX - BLUE BOX", "address": {"city": "SHAWNEE MISSION", "state": "KS", "street": "4900 COLLEGE BLVD", "postcode": "66211"}}},
{"geometry": {"type": "Point", "coordinates": [-94.6362318288, 38.9312365868]}, "type": "Feature", "properties": {"collection_times": [{"days": "Mon-Fri", "time": "11:45am"}, {"days": "Sat", "time": "9:30am"}, {"days": "Sun", "time": "Closed"}], "id": "6621100032", "name": "USPS COLLECTION BOX - BLUE BOX", "address": {"city": "SHAWNEE MISSION", "state": "KS", "street": "4370 W 109TH ST", "postcode": "66211"}}},
{"geometry": {"type": "Point", "coordinates": [-94.6362318288, 38.9312365868]}, "type": "Feature", "properties": {"collection_times": [{"days": "Mon-Fri", "time": "11:45am"}, {"days": "Sat", "time": "9:30am"}, {"days": "Sun", "time": "Closed"}], "id": "6621100033", "name": "USPS COLLECTION BOX - BLUE BOX", "address": {"city": "SHAWNEE MISSION", "state": "KS", "street": "4370 W 109TH ST", "postcode": "66211"}}},
{"geometry": {"type": "Point", "coordinates": [-94.6397404851, 38.9144634116]}, "type": "Feature", "properties": {"collection_times": [{"days": "Mon-Fri", "time": "12:00pm"}, {"days": "Sat-Sun", "time": "Closed"}], "id": "6621100037", "name": "USPS COLLECTION BOX - BLUE BOX", "address": {"city": "SHAWNEE MISSION", "state": "KS", "street": "11839 ROE AVE", "postcode": "66211"}}},
{"geometry": {"type": "Point", "coordinates": [-94.6397404851, 38.9144634116]}, "type": "Feature", "properties": {"collection_times": [{"days": "Mon-Fri", "time": "12:00pm"}, {"days": "Sat-Sun", "time": "Closed"}], "id": "6621100038", "name": "USPS COLLECTION BOX - BLUE BOX", "address": {"city": "SHAWNEE MISSION", "state": "KS", "street": "11839 ROE AVE", "postcode": "66211"}}},
{"geometry": {"type": "Point", "coordinates": [-94.6602565424, 38.9291853359]}, "type": "Feature", "properties": {"collection_times": [{"days": "Mon-Fri", "time": "12:00pm"}, {"days": "Sat-Sun", "time": "Closed"}], "id": "6621100046", "name": "USPS COLLECTION BOX - BLUE BOX", "address": {"city": "SHAWNEE MISSION", "state": "KS", "street": "6400 W 110TH ST", "postcode": "66211"}}},
{"geometry": {"type": "Point", "coordinates": [-94.6414510438, 38.9274452033]}, "type": "Feature", "properties": {"collection_times": [{"days": "Mon-Fri", "time": "12:00pm"}, {"days": "Sat-Sun", "time": "Closed"}], "id": "6621100052", "name": "USPS COLLECTION BOX - BLUE BOX", "address": {"city": "SHAWNEE MISSION", "state": "KS", "street": "4707 COLLEGE BLVD", "postcode": "66211"}}},
{"geometry": {"type": "Point", "coordinates": [-94.6520657346, 38.9325295609]}, "type": "Feature", "properties": {"collection_times": [{"days": "Mon-Fri", "time": "11:00am"}, {"days": "Sat-Sun", "time": "Closed"}], "id": "6621100067", "name": "USPS COLLECTION BOX - BLUE BOX", "address": {"city": "SHAWNEE MISSION", "state": "KS", "street": "10730 NALL AVE", "postcode": "66211"}}},
{"geometry": {"type": "Point", "coordinates": [-94.6639260811, 38.9381083954]}, "type": "Feature", "properties": {"collection_times": [{"days": "Mon-Sat", "time": "11:30am"}, {"days": "Sun", "time": "Closed"}], "id": "6621200007", "name": "USPS COLLECTION BOX - BLUE BOX", "address": {"city": "SHAWNEE MISSION", "state": "KS", "street": "10551 BARKLEY ST", "postcode": "66212"}}},
{"geometry": {"type": "Point", "coordinates": [-94.6639260811, 38.9381083954]}, "type": "Feature", "properties": {"collection_times": [{"days": "Mon-Sat", "time": "11:30am"}, {"days": "Sun", "time": "Closed"}], "id": "6621200008", "name": "USPS COLLECTION BOX - BLUE BOX", "address": {"city": "SHAWNEE MISSION", "state": "KS", "street": "10551 BARKLEY ST", "postcode": "66212"}}},
{"geometry": {"type": "Point", "coordinates": [-94.6639260811, 38.9381083954]}, "type": "Feature", "properties": {"collection_times": [{"days": "Mon-Fri", "time": "11:30am"}, {"days": "Sat", "time": "1:00pm"}, {"days": "Sun", "time": "Closed"}], "id": "6621200009", "name": "USPS COLLECTION BOX - BLUE BOX", "address": {"city": "SHAWNEE MISSION", "state": "KS", "street": "10551 BARKLEY ST", "postcode": "66212"}}},
{"geometry": {"type": "Point", "coordinates": [-94.6639260811, 38.9381083954]}, "type": "Feature", "properties": {"collection_times": [{"days": "Mon-Sat", "time": "12:00pm"}, {"days": "Sun", "time": "Closed"}], "id": "6621200010", "name": "USPS COLLECTION BOX - BLUE BOX", "address": {"city": "SHAWNEE MISSION", "state": "KS", "street": "10551 BARKLEY ST", "postcode": "66212"}}},
{"geometry": {"type": "Point", "coordinates": [-94.6639260811, 38.9381083954]}, "type": "Feature", "properties": {"collection_times": [{"days": "Mon-Sat", "time": "12:00pm"}, {"days": "Sun", "time": "Closed"}], "id": "6621200011", "name": "USPS COLLECTION BOX - BLUE BOX", "address": {"city": "SHAWNEE MISSION", "state": "KS", "street": "10551 BARKLEY ST", "postcode": "66212"}}},
{"geometry": {"type": "Point", "coordinates": [-94.6616713613, 38.9567612924]}, "type": "Feature", "properties": {"collection_times": [{"days": "Mon-Fri", "time": "11:30am"}, {"days": "Sat", "time": "9:00am"}, {"days": "Sun", "time": "Closed"}], "id": "6621200013", "name": "USPS COLLECTION BOX - BLUE BOX", "address": {"city": "SHAWNEE MISSION", "state": "KS", "street": "6580 W 95TH ST", "postcode": "66212"}}},
{"geometry": {"type": "Point", "coordinates": [-94.6862804567, 38.9526256678]}, "type": "Feature", "properties": {"collection_times": [{"days": "Mon-Sat", "time": "4:30pm"}, {"days": "Sun", "time": "Closed"}], "id": "6621200018", "name": "USPS COLLECTION BOX - BLUE BOX", "address": {"city": "SHAWNEE MISSION", "state": "KS", "street": "9727 ANTIOCH RD", "postcode": "66212"}}},
{"geometry": {"type": "Point", "coordinates": [-94.6862804567, 38.9526256678]}, "type": "Feature", "properties": {"collection_times": [{"days": "Mon-Sat", "time": "4:30pm"}, {"days": "Sun", "time": "Closed"}], "id": "6621200019", "name": "USPS COLLECTION BOX - BLUE BOX", "address": {"city": "SHAWNEE MISSION", "state": "KS", "street": "9727 ANTIOCH RD", "postcode": "66212"}}},
{"geometry": {"type": "Point", "coordinates": [-94.7019202616, 38.9415558099]}, "type": "Feature", "properties": {"collection_times": [{"days": "Mon-Fri", "time": "2:00pm"}, {"days": "Sat", "time": "9:30am"}, {"days": "Sun", "time": "Closed"}], "id": "6621200025", "name": "USPS COLLECTION BOX - BLUE BOX", "address": {"city": "SHAWNEE MISSION", "state": "KS", "street": "10330 MASTIN ST", "postcode": "66212"}}},
{"geometry": {"type": "Point", "coordinates": [-94.6675163616, 38.9656843518]}, "type": "Feature", "properties": {"collection_times": [{"days": "Mon-Sat", "time": "1:00pm"}, {"days": "Sun", "time": "Closed"}], "id": "6621200037", "name": "USPS COLLECTION BOX - BLUE BOX", "address": {"city": "SHAWNEE MISSION", "state": "KS", "street": "9001 METCALF AVE", "postcode": "66212"}}},
{"geometry": {"type": "Point", "coordinates": [-94.7035986315, 38.9712316108]}, "type": "Feature", "properties": {"collection_times": [{"days": "Mon-Fri", "time": "11:30am"}, {"days": "Sat", "time": "9:00am"}, {"days": "Sun", "time": "Closed"}], "id": "6621200043", "name": "USPS COLLECTION BOX - BLUE BOX", "address": {"city": "SHAWNEE MISSION", "state": "KS", "street": "10100 SANTA FE LN", "postcode": "66212"}}},
{"geometry": {"type": "Point", "coordinates": [-94.6706807768, 38.9514225986]}, "type": "Feature", "properties": {"collection_times": [{"days": "Mon-Fri", "time": "12:00pm"}, {"days": "Sat-Sun", "time": "Closed"}], "id": "6621200050", "name": "USPS COLLECTION BOX - BLUE BOX", "address": {"city": "SHAWNEE MISSION", "state": "KS", "street": "7255 W 98TH TER", "postcode": "66212"}}},
{"geometry": {"type": "Point", "coordinates": [-94.6863750934, 38.9718996182]}, "type": "Feature", "properties": {"collection_times": [{"days": "Mon-Fri", "time": "12:00pm"}, {"days": "Sat-Sun", "time": "Closed"}], "id": "6621200051", "name": "USPS COLLECTION BOX - BLUE BOX", "address": {"city": "SHAWNEE MISSION", "state": "KS", "street": "8686 ANTIOCH RD", "postcode": "66212"}}},
{"geometry": {"type": "Point", "coordinates": [-94.6862804567, 38.9526256678]}, "type": "Feature", "properties": {"collection_times": [{"days": "Mon-Fri", "time": "4:30pm"}, {"days": "Sat", "time": "4:00pm"}, {"days": "Sun", "time": "Closed"}], "id": "6621200054", "name": "USPS COLLECTION BOX - PO LOBBY", "address": {"city": "SHAWNEE MISSION", "state": "KS", "street": "9727 ANTIOCH RD", "postcode": "66212"}}},
{"geometry": {"type": "Point", "coordinates": [-94.6820160578, 38.9575141715]}, "type": "Feature", "properties": {"collection_times": [{"days": "Mon-Fri", "time": "3:00pm"}, {"days": "Sat", "time": "11:00am"}, {"days": "Sun", "time": "Closed"}], "id": "6621200056", "name": "USPS COLLECTION BOX - EXPRESS", "address": {"city": "SHAWNEE MISSION", "state": "KS", "street": "7255 W 98TH TER", "postcode": "66212"}}},
{"geometry": {"type": "Point", "coordinates": [-94.6862804567, 38.9526256678]}, "type": "Feature", "properties": {"collection_times": [{"days": "Mon-Fri", "time": "4:30pm"}, {"days": "Sat", "time": "4:00pm"}, {"days": "Sun", "time": "Closed"}], "id": "6621200072", "name": "USPS COLLECTION BOX - APC", "address": {"city": "SHAWNEE MISSION", "state": "KS", "street": "9727 ANTIOCH RD", "postcode": "66212"}}},
{"geometry": {"type": "Point", "coordinates": [-94.7025922779, 38.9145012663]}, "type": "Feature", "properties": {"collection_times": [{"days": "Mon-Fri", "time": "10:00am"}, {"days": "Sat-Sun", "time": "Closed"}], "id": "6621300001", "name": "USPS COLLECTION BOX - BLUE BOX", "address": {"city": "SHAWNEE MISSION", "state": "KS", "street": "10118 W 119TH ST", "postcode": "66213"}}},
{"geometry": {"type": "Point", "coordinates": [-94.723834672, 38.8990778473]}, "type": "Feature", "properties": {"collection_times": [{"days": "Mon-Fri", "time": "10:00am"}, {"days": "Sat-Sun", "time": "Closed"}], "id": "6621300010", "name": "USPS COLLECTION BOX - BLUE BOX", "address": {"city": "SHAWNEE MISSION", "state": "KS", "street": "12600 QUIVIRA RD", "postcode": "66213"}}},
{"geometry": {"type": "Point", "coordinates": [-94.672355615, 38.9116506799]}, "type": "Feature", "properties": {"collection_times": [{"days": "Mon-Fri", "time": "12:00pm"}, {"days": "Sat-Sun", "time": "Closed"}], "id": "6621300013", "name": "USPS COLLECTION BOX - BLUE BOX", "address": {"city": "SHAWNEE MISSION", "state": "KS", "street": "11935 RILEY ST", "postcode": "66213"}}},
{"geometry": {"type": "Point", "coordinates": [-94.7020291531, 38.8989608774]}, "type": "Feature", "properties": {"collection_times": [{"days": "Mon-Fri", "time": "12:00pm"}, {"days": "Sat-Sun", "time": "Closed"}], "id": "6621300014", "name": "USPS COLLECTION BOX - EXPRESS", "address": {"city": "SHAWNEE MISSION", "state": "KS", "street": "11935 RILEY ST", "postcode": "66213"}}},
{"geometry": {"type": "Point", "coordinates": [-94.6723440171, 38.9120620049]}, "type": "Feature", "properties": {"collection_times": [{"days": "Mon-Fri", "time": "12:00pm"}, {"days": "Sat-Sun", "time": "Closed"}], "id": "6621300015", "name": "USPS COLLECTION BOX - BLUE BOX", "address": {"city": "SHAWNEE MISSION", "state": "KS", "street": "11935 RILEY ST", "postcode": "66213"}}},
{"geometry": {"type": "Point", "coordinates": [-94.6678736152, 38.8949670649]}, "type": "Feature", "properties": {"collection_times": [{"days": "Mon-Fri", "time": "12:00pm"}, {"days": "Sat-Sun", "time": "Closed"}], "id": "6621300016", "name": "USPS COLLECTION BOX - BLUE BOX", "address": {"city": "SHAWNEE MISSION", "state": "KS", "street": "12900 METCALF AVE", "postcode": "66213"}}},
{"geometry": {"type": "Point", "coordinates": [-94.6709233834, 38.9130613842]}, "type": "Feature", "properties": {"collection_times": [{"days": "Mon-Sat", "time": "12:00pm"}, {"days": "Sun", "time": "Closed"}], "id": "6621300017", "name": "USPS COLLECTION BOX - BLUE BOX", "address": {"city": "SHAWNEE MISSION", "state": "KS", "street": "7124 W 119TH ST", "postcode": "66213"}}},
{"geometry": {"type": "Point", "coordinates": [-94.6863514342, 38.9014958154]}, "type": "Feature", "properties": {"collection_times": [{"days": "Mon-Fri", "time": "5:15pm"}, {"days": "Sat", "time": "4:45pm"}, {"days": "Sun", "time": "Closed"}], "id": "6621300019", "name": "USPS COLLECTION BOX - BLUE BOX", "address": {"city": "SHAWNEE MISSION", "state": "KS", "street": "12433 ANTIOCH RD", "postcode": "66213"}}},
{"geometry": {"type": "Point", "coordinates": [-94.6863514342, 38.9014958154]}, "type": "Feature", "properties": {"collection_times": [{"days": "Mon-Fri", "time": "4:05pm"}, {"days": "Sat", "time": "4:45pm"}, {"days": "Sun", "time": "Closed"}], "id": "6621300020", "name": "USPS COLLECTION BOX - BLUE BOX", "address": {"city": "SHAWNEE MISSION", "state": "KS", "street": "12433 ANTIOCH RD", "postcode": "66213"}}},
{"geometry": {"type": "Point", "coordinates": [-94.671424858, 38.892282931]}, "type": "Feature", "properties": {"collection_times": [{"days": "Mon-Fri", "time": "12:00pm"}, {"days": "Sat-Sun", "time": "Closed"}], "id": "6621300022", "name": "USPS COLLECTION BOX - BLUE BOX", "address": {"city": "SHAWNEE MISSION", "state": "KS", "street": "7311 W 130TH ST", "postcode": "66213"}}},
{"geometry": {"type": "Point", "coordinates": [-94.7020291531, 38.8989608774]}, "type": "Feature", "properties": {"collection_times": [{"days": "Mon-Fri", "time": "12:00pm"}, {"days": "Sat-Sun", "time": "Closed"}], "id": "6621300023", "name": "USPS COLLECTION BOX - EXPRESS", "address": {"city": "SHAWNEE MISSION", "state": "KS", "street": "12900 METCALF AVE", "postcode": "66213"}}},
{"geometry": {"type": "Point", "coordinates": [-94.6678736152, 38.8949670649]}, "type": "Feature", "properties": {"collection_times": [{"days": "Mon-Fri", "time": "12:00pm"}, {"days": "Sat-Sun", "time": "Closed"}], "id": "6621300024", "name": "USPS COLLECTION BOX - BLUE BOX", "address": {"city": "SHAWNEE MISSION", "state": "KS", "street": "12900 METCALF AVE", "postcode": "66213"}}},
{"geometry": {"type": "Point", "coordinates": [-94.6863514342, 38.9014958154]}, "type": "Feature", "properties": {"collection_times": [{"days": "Mon-Fri", "time": "4:05pm"}, {"days": "Sat", "time": "4:45pm"}, {"days": "Sun", "time": "Closed"}], "id": "6621300025", "name": "USPS COLLECTION BOX - PO LOBBY", "address": {"city": "SHAWNEE MISSION", "state": "KS", "street": "12433 ANTIOCH RD", "postcode": "66213"}}},
{"geometry": {"type": "Point", "coordinates": [-94.6863514342, 38.9014958154]}, "type": "Feature", "properties": {"collection_times": [{"days": "Mon-Fri", "time": "4:05pm"}, {"days": "Sat", "time": "4:45pm"}, {"days": "Sun", "time": "Closed"}], "id": "6621300026", "name": "USPS COLLECTION BOX - PO LOBBY", "address": {"city": "SHAWNEE MISSION", "state": "KS", "street": "12433 ANTIOCH RD", "postcode": "66213"}}},
{"geometry": {"type": "Point", "coordinates": [-94.671424858, 38.892282931]}, "type": "Feature", "properties": {"collection_times": [{"days": "Mon-Fri", "time": "12:00pm"}, {"days": "Sat-Sun", "time": "Closed"}], "id": "6621300028", "name": "USPS COLLECTION BOX - BLUE BOX", "address": {"city": "SHAWNEE MISSION", "state": "KS", "street": "7311 W 130TH ST", "postcode": "66213"}}},
{"geometry": {"type": "Point", "coordinates": [-94.6678736152, 38.8949670649]}, "type": "Feature", "properties": {"collection_times": [{"days": "Mon-Fri", "time": "12:00pm"}, {"days": "Sat-Sun", "time": "Closed"}], "id": "6621300033", "name": "USPS COLLECTION BOX - BLUE BOX", "address": {"city": "SHAWNEE MISSION", "state": "KS", "street": "12900 METCALF AVE", "postcode": "66213"}}},
{"geometry": {"type": "Point", "coordinates": [-94.6678535049, 38.8895585765]}, "type": "Feature", "properties": {"collection_times": [{"days": "Mon-Fri", "time": "12:30pm"}, {"days": "Sat-Sun", "time": "Closed"}], "id": "6621300042", "name": "USPS COLLECTION BOX - BLUE BOX", "address": {"city": "SHAWNEE MISSION", "state": "KS", "street": "13200 METCALF AVE", "postcode": "66213"}}},
{"geometry": {"type": "Point", "coordinates": [-94.6678736152, 38.8949670649]}, "type": "Feature", "properties": {"collection_times": [{"days": "Mon-Fri", "time": "12:00pm"}, {"days": "Sat-Sun", "time": "Closed"}], "id": "6621300043", "name": "USPS COLLECTION BOX - BLUE BOX", "address": {"city": "SHAWNEE MISSION", "state": "KS", "street": "12900 METCALF AVE", "postcode": "66213"}}},
{"geometry": {"type": "Point", "coordinates": [-94.6678535049, 38.8895585765]}, "type": "Feature", "properties": {"collection_times": [{"days": "Mon-Fri", "time": "12:30pm"}, {"days": "Sat-Sun", "time": "Closed"}], "id": "6621300044", "name": "USPS COLLECTION BOX - BLUE BOX", "address": {"city": "SHAWNEE MISSION", "state": "KS", "street": "13200 METCALF AVE", "postcode": "66213"}}},
{"geometry": {"type": "Point", "coordinates": [-94.6675859039, 38.8993554463]}, "type": "Feature", "properties": {"collection_times": [{"days": "Mon-Sat", "time": "11:00am"}, {"days": "Sun", "time": "Closed"}], "id": "6621300046", "name": "USPS COLLECTION BOX - BLUE BOX", "address": {"city": "SHAWNEE MISSION", "state": "KS", "street": "12641 METCALF AVE", "postcode": "66213"}}},
{"geometry": {"type": "Point", "coordinates": [-94.6863514342, 38.9014958154]}, "type": "Feature", "properties": {"collection_times": [{"days": "Mon-Fri", "time": "4:05pm"}, {"days": "Sat", "time": "4:45pm"}, {"days": "Sun", "time": "Closed"}], "id": "6621300048", "name": "USPS COLLECTION BOX - APC", "address": {"city": "SHAWNEE MISSION", "state": "KS", "street": "12433 ANTIOCH RD", "postcode": "66213"}}},
{"geometry": {"type": "Point", "coordinates": [-94.6678617856, 38.9041515583]}, "type": "Feature", "properties": {"collection_times": [{"days": "Mon-Sat", "time": "11:00am"}, {"days": "Sun", "time": "Closed"}], "id": "6621300050", "name": "USPS COLLECTION BOX - BLUE BOX", "address": {"city": "SHAWNEE MISSION", "state": "KS", "street": "12300 METCALF AVE", "postcode": "66213"}}},
{"geometry": {"type": "Point", "coordinates": [-94.707335988, 38.9747118127]}, "type": "Feature", "properties": {"collection_times": [{"days": "Mon-Fri", "time": "2:30pm"}, {"days": "Sat-Sun", "time": "Closed"}], "id": "6621400002", "name": "USPS COLLECTION BOX - EXPRESS", "address": {"city": "SHAWNEE MISSION", "state": "KS", "street": "11850 W 85TH ST", "postcode": "66214"}}},
{"geometry": {"type": "Point", "coordinates": [-94.707335988, 38.9747118127]}, "type": "Feature", "properties": {"collection_times": [{"days": "Mon-Fri", "time": "12:00pm"}, {"days": "Sat-Sun", "time": "Closed"}], "id": "6621400004", "name": "USPS COLLECTION BOX - BLUE BOX", "address": {"city": "SHAWNEE MISSION", "state": "KS", "street": "11850 W 85TH ST", "postcode": "66214"}}},
{"geometry": {"type": "Point", "coordinates": [-94.718443928, 38.9725916492]}, "type": "Feature", "properties": {"collection_times": [{"days": "Mon-Fri", "time": "12:00pm"}, {"days": "Sat-Sun", "time": "Closed"}], "id": "6621400007", "name": "USPS COLLECTION BOX - BLUE BOX", "address": {"city": "SHAWNEE MISSION", "state": "KS", "street": "8600 MARSHALL DR", "postcode": "66214"}}},
{"geometry": {"type": "Point", "coordinates": [-94.7170373898, 38.9564655526]}, "type": "Feature", "properties": {"collection_times": [{"days": "Mon-Sat", "time": "12:00pm"}, {"days": "Sun", "time": "Closed"}], "id": "6621400011", "name": "USPS COLLECTION BOX - BLUE BOX", "address": {"city": "SHAWNEE MISSION", "state": "KS", "street": "11201 W 95TH ST", "postcode": "66214"}}},
{"geometry": {"type": "Point", "coordinates": [-94.713048087, 38.9647138456]}, "type": "Feature", "properties": {"collection_times": [{"days": "Mon-Fri", "time": "2:30pm"}, {"days": "Sat", "time": "12:30pm"}, {"days": "Sun", "time": "Closed"}], "id": "6621400018", "name": "USPS COLLECTION BOX - EXPRESS", "address": {"city": "SHAWNEE MISSION", "state": "KS", "street": "11201 W 95TH ST", "postcode": "66214"}}},
{"geometry": {"type": "Point", "coordinates": [-94.7077298332, 38.9758522867]}, "type": "Feature", "properties": {"collection_times": [{"days": "Mon-Sat", "time": "12:00pm"}, {"days": "Sun", "time": "Closed"}], "id": "6621400020", "name": "USPS COLLECTION BOX - BLUE BOX", "address": {"city": "SHAWNEE MISSION", "state": "KS", "street": "10412 W 84TH TER", "postcode": "66214"}}},
{"geometry": {"type": "Point", "coordinates": [-94.7077298332, 38.9758522867]}, "type": "Feature", "properties": {"collection_times": [{"days": "Mon-Sat", "time": "12:00pm"}, {"days": "Sun", "time": "Closed"}], "id": "6621400027", "name": "USPS COLLECTION BOX - BLUE BOX", "address": {"city": "SHAWNEE MISSION", "state": "KS", "street": "10412 W 84TH TER", "postcode": "66214"}}},
{"geometry": {"type": "Point", "coordinates": [-94.7077298332, 38.9758522867]}, "type": "Feature", "properties": {"collection_times": [{"days": "Mon-Sat", "time": "12:00pm"}, {"days": "Sun", "time": "Closed"}], "id": "6621400028", "name": "USPS COLLECTION BOX - BLUE BOX", "address": {"city": "SHAWNEE MISSION", "state": "KS", "street": "10412 W 84TH TER", "postcode": "66214"}}},
{"geometry": {"type": "Point", "coordinates": [-94.754983201, 38.9549877693]}, "type": "Feature", "properties": {"collection_times": [{"days": "Mon-Sat", "time": "1:30pm"}, {"days": "Sun", "time": "Closed"}], "id": "6621500003", "name": "USPS COLLECTION BOX - BLUE BOX", "address": {"city": "SHAWNEE MISSION", "state": "KS", "street": "9601 DICE LN", "postcode": "66215"}}},
{"geometry": {"type": "Point", "coordinates": [-94.7237317546, 38.9852303828]}, "type": "Feature", "properties": {"collection_times": [{"days": "Mon-Fri", "time": "12:00pm"}, {"days": "Sat-Sun", "time": "Closed"}], "id": "6621500006", "name": "USPS COLLECTION BOX - BLUE BOX", "address": {"city": "SHAWNEE MISSION", "state": "KS", "street": "7900 QUIVIRA RD", "postcode": "66215"}}},
{"geometry": {"type": "Point", "coordinates": [-94.7545615434, 38.9473157652]}, "type": "Feature", "properties": {"collection_times": [{"days": "Mon-Sat", "time": "1:45pm"}, {"days": "Sun", "time": "Closed"}], "id": "6621500009", "name": "USPS COLLECTION BOX - BLUE BOX", "address": {"city": "SHAWNEE MISSION", "state": "KS", "street": "14600 W 100TH ST", "postcode": "66215"}}},
{"geometry": {"type": "Point", "coordinates": [-94.754561543, 38.947315765]}, "type": "Feature", "properties": {"collection_times": [{"days": "Mon-Sat", "time": "1:45pm"}, {"days": "Sun", "time": "Closed"}], "id": "6621500010", "name": "USPS COLLECTION BOX - BLUE BOX", "address": {"city": "SHAWNEE MISSION", "state": "KS", "street": "14600 W 100TH ST", "postcode": "66215"}}},
{"geometry": {"type": "Point", "coordinates": [-94.7596747798, 38.9447921136]}, "type": "Feature", "properties": {"collection_times": [{"days": "Mon-Sat", "time": "12:00pm"}, {"days": "Sun", "time": "Closed"}], "id": "6621500020", "name": "USPS COLLECTION BOX - BLUE BOX", "address": {"city": "SHAWNEE MISSION", "state": "KS", "street": "15001 W 101ST TER", "postcode": "66215"}}},
{"geometry": {"type": "Point", "coordinates": [-94.7407170821, 38.9599908246]}, "type": "Feature", "properties": {"collection_times": [{"days": "Mon-Fri", "time": "5:30pm"}, {"days": "Sat", "time": "4:30pm"}, {"days": "Sun", "time": "Closed"}], "id": "6621500022", "name": "USPS COLLECTION BOX - EXPRESS", "address": {"city": "SHAWNEE MISSION", "state": "KS", "street": "8820 MONROVIA ST", "postcode": "66215"}}},
{"geometry": {"type": "Point", "coordinates": [-94.7454633424, 38.9586928501]}, "type": "Feature", "properties": {"collection_times": [{"days": "Mon-Fri", "time": "3:00pm"}, {"days": "Sat-Sun", "time": "Closed"}], "id": "6621500023", "name": "USPS COLLECTION BOX - BLUE BOX", "address": {"city": "SHAWNEE MISSION", "state": "KS", "street": "13801 SANTA FE TRAIL DR", "postcode": "66215"}}},
{"geometry": {"type": "Point", "coordinates": [-94.7454633424, 38.9586928501]}, "type": "Feature", "properties": {"collection_times": [{"days": "Mon-Fri", "time": "12:00pm"}, {"days": "Sat-Sun", "time": "Closed"}], "id": "6621500024", "name": "USPS COLLECTION BOX - BLUE BOX", "address": {"city": "SHAWNEE MISSION", "state": "KS", "street": "13801 SANTA FE TRAIL DR", "postcode": "66215"}}},
{"geometry": {"type": "Point", "coordinates": [-94.7454633424, 38.9586928501]}, "type": "Feature", "properties": {"collection_times": [{"days": "Mon-Fri", "time": "12:00pm"}, {"days": "Sat-Sun", "time": "Closed"}], "id": "6621500025", "name": "USPS COLLECTION BOX - BLUE BOX", "address": {"city": "SHAWNEE MISSION", "state": "KS", "street": "13801 SANTA FE TRAIL DR", "postcode": "66215"}}},
{"geometry": {"type": "Point", "coordinates": [-94.7454633424, 38.9586928501]}, "type": "Feature", "properties": {"collection_times": [{"days": "Mon-Fri", "time": "12:00pm"}, {"days": "Sat-Sun", "time": "Closed"}], "id": "6621500026", "name": "USPS COLLECTION BOX - BLUE BOX", "address": {"city": "SHAWNEE MISSION", "state": "KS", "street": "13801 SANTA FE TRAIL DR", "postcode": "66215"}}},
{"geometry": {"type": "Point", "coordinates": [-94.7286102773, 38.9564761993]}, "type": "Feature", "properties": {"collection_times": [{"days": "Mon-Sat", "time": "12:00pm"}, {"days": "Sun", "time": "Closed"}], "id": "6621500028", "name": "USPS COLLECTION BOX - BLUE BOX", "address": {"city": "SHAWNEE MISSION", "state": "KS", "street": "12345 W 95TH ST", "postcode": "66215"}}},
{"geometry": {"type": "Point", "coordinates": [-94.7435581468, 38.9565519086]}, "type": "Feature", "properties": {"collection_times": [{"days": "Mon-Fri", "time": "12:00pm"}, {"days": "Sat-Sun", "time": "Closed"}], "id": "6621500031", "name": "USPS COLLECTION BOX - BLUE BOX", "address": {"city": "SHAWNEE MISSION", "state": "KS", "street": "13610 W 95TH ST", "postcode": "66215"}}},
{"geometry": {"type": "Point", "coordinates": [-94.723785409, 38.936413216]}, "type": "Feature", "properties": {"collection_times": [{"days": "Mon-Fri", "time": "12:00pm"}, {"days": "Sat-Sun", "time": "Closed"}], "id": "6621500034", "name": "USPS COLLECTION BOX - BLUE BOX", "address": {"city": "SHAWNEE MISSION", "state": "KS", "street": "10600 QUIVIRA RD", "postcode": "66215"}}},
{"geometry": {"type": "Point", "coordinates": [-94.7283062569, 38.9686890676]}, "type": "Feature", "properties": {"collection_times": [{"days": "Mon-Sat", "time": "3:45pm"}, {"days": "Sun", "time": "Closed"}], "id": "6621500040", "name": "USPS COLLECTION BOX - BLUE BOX", "address": {"city": "SHAWNEE MISSION", "state": "KS", "street": "8820 MONROVIA ST", "postcode": "66215"}}},
{"geometry": {"type": "Point", "coordinates": [-94.7283062569, 38.9686890676]}, "type": "Feature", "properties": {"collection_times": [{"days": "Mon-Sat", "time": "3:45pm"}, {"days": "Sun", "time": "Closed"}], "id": "6621500042", "name": "USPS COLLECTION BOX - BLUE BOX", "address": {"city": "SHAWNEE MISSION", "state": "KS", "street": "8820 MONROVIA ST", "postcode": "66215"}}},
{"geometry": {"type": "Point", "coordinates": [-94.7397018354, 38.9490923578]}, "type": "Feature", "properties": {"collection_times": [{"days": "Mon-Sat", "time": "12:00pm"}, {"days": "Sun", "time": "Closed"}], "id": "6621500044", "name": "USPS COLLECTION BOX - BLUE BOX", "address": {"city": "SHAWNEE MISSION", "state": "KS", "street": "10000 MARSHALL DR", "postcode": "66215"}}},
{"geometry": {"type": "Point", "coordinates": [-94.7432127228, 38.9357602219]}, "type": "Feature", "properties": {"collection_times": [{"days": "Mon-Fri", "time": "12:00pm"}, {"days": "Sat-Sun", "time": "Closed"}], "id": "6621500048", "name": "USPS COLLECTION BOX - BLUE BOX", "address": {"city": "SHAWNEE MISSION", "state": "KS", "street": "10610 SUMMIT ST", "postcode": "66215"}}},
{"geometry": {"type": "Point", "coordinates": [-94.7407170821, 38.9599908246]}, "type": "Feature", "properties": {"collection_times": [{"days": "Mon-Sat", "time": "1:00pm"}, {"days": "Sun", "time": "Closed"}], "id": "6621500049", "name": "USPS COLLECTION BOX - EXPRESS", "address": {"city": "SHAWNEE MISSION", "state": "KS", "street": "15000 W 87TH STREET PKWY", "postcode": "66215"}}},
{"geometry": {"type": "Point", "coordinates": [-94.7598486747, 38.971098755]}, "type": "Feature", "properties": {"collection_times": [{"days": "Mon-Sat", "time": "1:00pm"}, {"days": "Sun", "time": "Closed"}], "id": "6621500050", "name": "USPS COLLECTION BOX - BLUE BOX", "address": {"city": "SHAWNEE MISSION", "state": "KS", "street": "15000 W 87TH STREET PKWY", "postcode": "66215"}}},
{"geometry": {"type": "Point", "coordinates": [-94.7283062569, 38.9686890676]}, "type": "Feature", "properties": {"collection_times": [{"days": "Mon-Fri", "time": "4:35pm"}, {"days": "Sat", "time": "1:00pm"}, {"days": "Sun", "time": "Closed"}], "id": "6621500053", "name": "USPS COLLECTION BOX - PO LOBBY", "address": {"city": "SHAWNEE MISSION", "state": "KS", "street": "8820 MONROVIA ST", "postcode": "66215"}}},
{"geometry": {"type": "Point", "coordinates": [-94.7283062569, 38.9686890676]}, "type": "Feature", "properties": {"collection_times": [{"days": "Mon-Fri", "time": "4:35pm"}, {"days": "Sat", "time": "1:00pm"}, {"days": "Sun", "time": "Closed"}], "id": "6621500054", "name": "USPS COLLECTION BOX - APC", "address": {"city": "SHAWNEE MISSION", "state": "KS", "street": "8820 MONROVIA ST", "postcode": "66215"}}},
{"geometry": {"type": "Point", "coordinates": [-94.7431666971, 38.9564097335]}, "type": "Feature", "properties": {"collection_times": [{"days": "Mon-Fri", "time": "12:00pm"}, {"days": "Sat-Sun", "time": "Closed"}], "id": "6621500057", "name": "USPS COLLECTION BOX - BLUE BOX", "address": {"city": "SHAWNEE MISSION", "state": "KS", "street": "14610 W 112TH ST", "postcode": "66215"}}},
{"geometry": {"type": "Point", "coordinates": [-94.7397018354, 38.9490923578]}, "type": "Feature", "properties": {"collection_times": [{"days": "Mon-Sat", "time": "12:00pm"}, {"days": "Sun", "time": "Closed"}], "id": "6621500060", "name": "USPS COLLECTION BOX - BLUE BOX", "address": {"city": "SHAWNEE MISSION", "state": "KS", "street": "10000 MARSHALL DR", "postcode": "66215"}}},
{"geometry": {"type": "Point", "coordinates": [-94.7308212276, 39.013996396]}, "type": "Feature", "properties": {"collection_times": [{"days": "Mon-Sat", "time": "3:00pm"}, {"days": "Sun", "time": "Closed"}], "id": "6621600005", "name": "USPS COLLECTION BOX - BLUE BOX", "address": {"city": "SHAWNEE MISSION", "state": "KS", "street": "6333 LONG AVE", "postcode": "66216"}}},
{"geometry": {"type": "Point", "coordinates": [-94.7434197406, 39.0148043569]}, "type": "Feature", "properties": {"collection_times": [{"days": "Mon-Sat", "time": "12:00pm"}, {"days": "Sun", "time": "Closed"}], "id": "6621600006", "name": "USPS COLLECTION BOX - BLUE BOX", "address": {"city": "SHAWNEE MISSION", "state": "KS", "street": "13550 W 63RD ST", "postcode": "66216"}}},
{"geometry": {"type": "Point", "coordinates": [-94.7754306102, 38.9989633534]}, "type": "Feature", "properties": {"collection_times": [{"days": "Mon-Sat", "time": "12:00pm"}, {"days": "Sun", "time": "Closed"}], "id": "6621700000", "name": "USPS COLLECTION BOX - BLUE BOX", "address": {"city": "LAKE QUIVIRA", "state": "KS", "street": "16301 MIDLAND DR", "postcode": "66217"}}},
{"geometry": {"type": "Point", "coordinates": [-94.7690294894, 39.050756146]}, "type": "Feature", "properties": {"collection_times": [{"days": "Mon-Sat", "time": "10:30am"}, {"days": "Sun", "time": "Closed"}], "id": "6621700002", "name": "USPS COLLECTION BOX - BLUE BOX", "address": {"city": "LAKE QUIVIRA", "state": "KS", "street": "8100 HOLIDAY DR", "postcode": "66217"}}},
{"geometry": {"type": "Point", "coordinates": [-94.7739867892, 39.0095412673]}, "type": "Feature", "properties": {"collection_times": [{"days": "Mon-Sat", "time": "12:00pm"}, {"days": "Sun", "time": "Closed"}], "id": "6621700003", "name": "USPS COLLECTION BOX - EXPRESS", "address": {"city": "LAKE QUIVIRA", "state": "KS", "street": "16301 MIDLAND DR", "postcode": "66217"}}},
{"geometry": {"type": "Point", "coordinates": [-94.769928554, 38.9655220166]}, "type": "Feature", "properties": {"collection_times": [{"days": "Mon-Sat", "time": "11:00am"}, {"days": "Sun", "time": "Closed"}], "id": "6621900002", "name": "USPS COLLECTION BOX - EXPRESS", "address": {"city": "SHAWNEE MISSION", "state": "KS", "street": "15377 W 95TH ST", "postcode": "66219"}}},
{"geometry": {"type": "Point", "coordinates": [-94.7724531025, 38.9539517648]}, "type": "Feature", "properties": {"collection_times": [{"days": "Mon-Sat", "time": "11:00am"}, {"days": "Sun", "time": "Closed"}], "id": "6621900010", "name": "USPS COLLECTION BOX - BLUE BOX", "address": {"city": "SHAWNEE MISSION", "state": "KS", "street": "9640 LEGLER RD", "postcode": "66219"}}},
{"geometry": {"type": "Point", "coordinates": [-94.7630000774, 38.9309668721]}, "type": "Feature", "properties": {"collection_times": [{"days": "Mon-Fri", "time": "11:30am"}, {"days": "Sat", "time": "10:00am"}, {"days": "Sun", "time": "Closed"}], "id": "6621900012", "name": "USPS COLLECTION BOX - BLUE BOX", "address": {"city": "SHAWNEE MISSION", "state": "KS", "street": "15301 W 109TH ST", "postcode": "66219"}}},
{"geometry": {"type": "Point", "coordinates": [-94.7630000774, 38.9309668721]}, "type": "Feature", "properties": {"collection_times": [{"days": "Mon-Fri", "time": "11:30am"}, {"days": "Sat", "time": "10:00am"}, {"days": "Sun", "time": "Closed"}], "id": "6621900013", "name": "USPS COLLECTION BOX - BLUE BOX", "address": {"city": "SHAWNEE MISSION", "state": "KS", "street": "15301 W 109TH ST", "postcode": "66219"}}},
{"geometry": {"type": "Point", "coordinates": [-94.7793556681, 38.9506832492]}, "type": "Feature", "properties": {"collection_times": [{"days": "Mon-Fri", "time": "12:00pm"}, {"days": "Sat-Sun", "time": "Closed"}], "id": "6621900019", "name": "USPS COLLECTION BOX - BLUE BOX", "address": {"city": "SHAWNEE MISSION", "state": "KS", "street": "9801 RENNER BLVD", "postcode": "66219"}}},
{"geometry": {"type": "Point", "coordinates": [-94.769928554, 38.9655220166]}, "type": "Feature", "properties": {"collection_times": [{"days": "Mon-Fri", "time": "12:00pm"}, {"days": "Sat-Sun", "time": "Closed"}], "id": "6621900021", "name": "USPS COLLECTION BOX - BLUE BOX", "address": {"city": "SHAWNEE MISSION", "state": "KS", "street": "11214 RENNER BLVD", "postcode": "66219"}}},
{"geometry": {"type": "Point", "coordinates": [-94.6888740374, 38.8838717548]}, "type": "Feature", "properties": {"collection_times": [{"days": "Mon-Sat", "time": "12:00pm"}, {"days": "Sun", "time": "Closed"}], "id": "6622100000", "name": "USPS COLLECTION BOX - BLUE BOX", "address": {"city": "SHAWNEE MISSION", "state": "KS", "street": "8900 W 135TH ST", "postcode": "66221"}}},
{"geometry": {"type": "Point", "coordinates": [-94.7217514813, 38.8837608946]}, "type": "Feature", "properties": {"collection_times": [{"days": "Mon-Sat", "time": "12:00pm"}, {"days": "Sun", "time": "Closed"}], "id": "6622100001", "name": "USPS COLLECTION BOX - BLUE BOX", "address": {"city": "SHAWNEE MISSION", "state": "KS", "street": "11700 W 135TH ST", "postcode": "66221"}}},
{"geometry": {"type": "Point", "coordinates": [-94.667977345, 38.8620022606]}, "type": "Feature", "properties": {"collection_times": [{"days": "Mon-Fri", "time": "5:45pm"}, {"days": "Sat", "time": "3:00pm"}, {"days": "Sun", "time": "Closed"}], "id": "6622300000", "name": "USPS COLLECTION BOX - EXPRESS", "address": {"city": "SHAWNEE MISSION", "state": "KS", "street": "7500 W 151ST ST", "postcode": "66223"}}},
{"geometry": {"type": "Point", "coordinates": [-94.6726054511, 38.8546541893]}, "type": "Feature", "properties": {"collection_times": [{"days": "Mon-Fri", "time": "4:30pm"}, {"days": "Sat", "time": "3:00pm"}, {"days": "Sun", "time": "Closed"}], "id": "6622300002", "name": "USPS COLLECTION BOX - BLUE BOX", "address": {"city": "SHAWNEE MISSION", "state": "KS", "street": "7500 W 151ST ST", "postcode": "66223"}}},
{"geometry": {"type": "Point", "coordinates": [-94.6694138278, 38.8545370764]}, "type": "Feature", "properties": {"collection_times": [{"days": "Mon-Fri", "time": "10:00am"}, {"days": "Sat-Sun", "time": "Closed"}], "id": "6622300006", "name": "USPS COLLECTION BOX - BLUE BOX", "address": {"city": "SHAWNEE MISSION", "state": "KS", "street": "7201 W 151ST ST", "postcode": "66223"}}},
{"geometry": {"type": "Point", "coordinates": [-94.667977345, 38.8620022606]}, "type": "Feature", "properties": {"collection_times": [{"days": "Mon-Fri", "time": "10:00am"}, {"days": "Sat-Sun", "time": "Closed"}], "id": "6622300008", "name": "USPS COLLECTION BOX - EXPRESS", "address": {"city": "SHAWNEE MISSION", "state": "KS", "street": "7201 W 151ST ST", "postcode": "66223"}}},
{"geometry": {"type": "Point", "coordinates": [-94.6726054511, 38.8546541893]}, "type": "Feature", "properties": {"collection_times": [{"days": "Mon-Fri", "time": "5:20pm"}, {"days": "Sat", "time": "1:00pm"}, {"days": "Sun", "time": "Closed"}], "id": "6622300010", "name": "USPS COLLECTION BOX - PO LOBBY", "address": {"city": "SHAWNEE MISSION", "state": "KS", "street": "7500 W 151ST ST", "postcode": "66223"}}},
{"geometry": {"type": "Point", "coordinates": [-94.6726054511, 38.8546541893]}, "type": "Feature", "properties": {"collection_times": [{"days": "Mon-Fri", "time": "5:20pm"}, {"days": "Sat", "time": "1:00pm"}, {"days": "Sun", "time": "Closed"}], "id": "6622300011", "name": "USPS COLLECTION BOX - PO LOBBY", "address": {"city": "SHAWNEE MISSION", "state": "KS", "street": "7500 W 151ST ST", "postcode": "66223"}}},
{"geometry": {"type": "Point", "coordinates": [-94.6726054511, 38.8546541893]}, "type": "Feature", "properties": {"collection_times": [{"days": "Mon-Fri", "time": "5:20pm"}, {"days": "Sat", "time": "1:00pm"}, {"days": "Sun", "time": "Closed"}], "id": "6622300012", "name": "USPS COLLECTION BOX - PO LOBBY", "address": {"city": "SHAWNEE MISSION", "state": "KS", "street": "7500 W 151ST ST", "postcode": "66223"}}},
{"geometry": {"type": "Point", "coordinates": [-94.6726054511, 38.8546541893]}, "type": "Feature", "properties": {"collection_times": [{"days": "Mon-Fri", "time": "5:20pm"}, {"days": "Sat", "time": "1:00pm"}, {"days": "Sun", "time": "Closed"}], "id": "6622300013", "name": "USPS COLLECTION BOX - PO LOBBY", "address": {"city": "SHAWNEE MISSION", "state": "KS", "street": "7500 W 151ST ST", "postcode": "66223"}}},
{"geometry": {"type": "Point", "coordinates": [-94.6677798443, 38.8619275301]}, "type": "Feature", "properties": {"collection_times": [{"days": "Mon-Fri", "time": "4:30pm"}, {"days": "Sat", "time": "4:00pm"}, {"days": "Sun", "time": "Closed"}], "id": "6622300016", "name": "USPS COLLECTION BOX - BLUE BOX", "address": {"city": "SHAWNEE MISSION", "state": "KS", "street": "16050 MARTY CIR", "postcode": "66223"}}},
{"geometry": {"type": "Point", "coordinates": [-94.667977345, 38.8620022606]}, "type": "Feature", "properties": {"collection_times": [{"days": "Mon-Fri", "time": "5:00pm"}, {"days": "Sat", "time": "4:00pm"}, {"days": "Sun", "time": "Closed"}], "id": "6622300018", "name": "USPS COLLECTION BOX - EXPRESS", "address": {"city": "SHAWNEE MISSION", "state": "KS", "street": "16050 MARTY CIR", "postcode": "66223"}}},
{"geometry": {"type": "Point", "coordinates": [-94.6726054511, 38.8546541893]}, "type": "Feature", "properties": {"collection_times": [{"days": "Mon-Fri", "time": "5:20pm"}, {"days": "Sat", "time": "1:00pm"}, {"days": "Sun", "time": "Closed"}], "id": "6622300021", "name": "USPS COLLECTION BOX - APC", "address": {"city": "SHAWNEE MISSION", "state": "KS", "street": "7500 W 151ST ST", "postcode": "66223"}}},
{"geometry": {"type": "Point", "coordinates": [-94.6406673292, 38.8812310989]}, "type": "Feature", "properties": {"collection_times": [{"days": "Mon-Sat", "time": "10:00am"}, {"days": "Sun", "time": "Closed"}], "id": "6622400003", "name": "USPS COLLECTION BOX - BLUE BOX", "address": {"city": "SHAWNEE MISSION", "state": "KS", "street": "4744 W 137TH ST", "postcode": "66224"}}},
{"geometry": {"type": "Point", "coordinates": [-94.8416573849, 39.0094443699]}, "type": "Feature", "properties": {"collection_times": [{"days": "Mon-Fri", "time": "4:50pm"}, {"days": "Sat", "time": "4:45pm"}, {"days": "Sun", "time": "Closed"}], "id": "6622600001", "name": "USPS COLLECTION BOX - BLUE BOX", "address": {"city": "SHAWNEE MISSION", "state": "KS", "street": "22015 W 66TH ST", "postcode": "66226"}}},
{"geometry": {"type": "Point", "coordinates": [-94.8539262004, 39.0267822492]}, "type": "Feature", "properties": {"collection_times": [{"days": "Mon-Fri", "time": "6:00pm"}, {"days": "Sat", "time": "4:45pm"}, {"days": "Sun", "time": "Closed"}], "id": "6622600003", "name": "USPS COLLECTION BOX - EXPRESS", "address": {"city": "SHAWNEE MISSION", "state": "KS", "street": "22015 W 66TH ST", "postcode": "66226"}}},
{"geometry": {"type": "Point", "coordinates": [-94.8416573849, 39.0094443699]}, "type": "Feature", "properties": {"collection_times": [{"days": "Mon-Fri", "time": "4:50pm"}, {"days": "Sat", "time": "3:45pm"}, {"days": "Sun", "time": "Closed"}], "id": "6622600004", "name": "USPS COLLECTION BOX - PO LOBBY", "address": {"city": "SHAWNEE MISSION", "state": "KS", "street": "22015 W 66TH ST", "postcode": "66226"}}},
{"geometry": {"type": "Point", "coordinates": [-94.8416573849, 39.0094443699]}, "type": "Feature", "properties": {"collection_times": [{"days": "Mon-Fri", "time": "4:50pm"}, {"days": "Sat", "time": "3:45pm"}, {"days": "Sun", "time": "Closed"}], "id": "6622600005", "name": "USPS COLLECTION BOX - PO LOBBY", "address": {"city": "SHAWNEE MISSION", "state": "KS", "street": "22015 W 66TH ST", "postcode": "66226"}}},
{"geometry": {"type": "Point", "coordinates": [-94.8416573849, 39.0094443699]}, "type": "Feature", "properties": {"collection_times": [{"days": "Mon-Fri", "time": "4:50pm"}, {"days": "Sat", "time": "3:45pm"}, {"days": "Sun", "time": "Closed"}], "id": "6622600006", "name": "USPS COLLECTION BOX - APC", "address": {"city": "SHAWNEE MISSION", "state": "KS", "street": "22015 W 66TH ST", "postcode": "66226"}}},
{"geometry": {"type": "Point", "coordinates": [-94.8602982915, 38.981780834]}, "type": "Feature", "properties": {"collection_times": [{"days": "Mon-Sat", "time": "12:00pm"}, {"days": "Sun", "time": "Closed"}], "id": "6622700000", "name": "USPS COLLECTION BOX - BLUE BOX", "address": {"city": "SHAWNEE MISSION", "state": "KS", "street": "8100 COLE PKWY", "postcode": "66227"}}}
]}
