{"type": "FeatureCollection", "features": [
{"geometry": {"type": "Point", "coordinates": [-96.2895207612, 39.0174509871]}, "type": "Feature", "properties": {"collection_times": [{"days": "Mon-Fri", "time": "2:00pm"}, {"days": "Sat", "time": "9:30am"}, {"days": "Sun", "time": "Closed"}], "id": "6640100002", "name": "USPS COLLECTION BOX - PO LOBBY", "address": {"city": "ALMA", "state": "KS", "street": "320 MISSOURI AVE", "postcode": "66401"}}},
{"geometry": {"type": "Point", "coordinates": [-96.2895207612, 39.0174509871]}, "type": "Feature", "properties": {"collection_times": [{"days": "Mon-Sat", "time": "2:00pm"}, {"days": "Sun", "time": "Closed"}], "id": "6640100003", "name": "USPS COLLECTION BOX - BLUE BOX", "address": {"city": "ALMA", "state": "KS", "street": "320 MISSOURI AVE", "postcode": "66401"}}},
{"geometry": {"type": "Point", "coordinates": [-95.8163693183, 38.9071894803]}, "type": "Feature", "properties": {"collection_times": [{"days": "Mon-Sat", "time": "4:00pm"}, {"days": "Sun", "time": "Closed"}], "id": "6640200001", "name": "USPS COLLECTION BOX - BLUE BOX", "address": {"city": "AUBURN", "state": "KS", "street": "110 W 9TH ST", "postcode": "66402"}}},
{"geometry": {"type": "Point", "coordinates": [-95.8163693183, 38.9071894803]}, "type": "Feature", "properties": {"collection_times": [{"days": "Mon-Fri", "time": "4:00pm"}, {"days": "Sat", "time": "9:15am"}, {"days": "Sun", "time": "Closed"}], "id": "6640200002", "name": "USPS COLLECTION BOX - PO LOBBY", "address": {"city": "AUBURN", "state": "KS", "street": "110 W 9TH ST", "postcode": "66402"}}},
{"geometry": {"type": "Point", "coordinates": [-96.2577746179, 39.8716836861]}, "type": "Feature", "properties": {"collection_times": [{"days": "Mon-Sat", "time": "2:30pm"}, {"days": "Sun", "time": "Closed"}], "id": "6640300001", "name": "USPS COLLECTION BOX - BLUE BOX", "address": {"city": "AXTELL", "state": "KS", "street": "206 5TH ST", "postcode": "66403"}}},
{"geometry": {"type": "Point", "coordinates": [-96.2577746179, 39.8716836861]}, "type": "Feature", "properties": {"collection_times": [{"days": "Mon-Fri", "time": "2:00pm"}, {"days": "Sat", "time": "9:00am"}, {"days": "Sun", "time": "Closed"}], "id": "6640300002", "name": "USPS COLLECTION BOX - PO LOBBY", "address": {"city": "AXTELL", "state": "KS", "street": "206 5TH ST", "postcode": "66403"}}},
{"geometry": {"type": "Point", "coordinates": [-96.1843932345, 39.8429415167]}, "type": "Feature", "properties": {"collection_times": [{"days": "Mon-Sat", "time": "2:45pm"}, {"days": "Sun", "time": "Closed"}], "id": "6640400001", "name": "USPS COLLECTION BOX - BLUE BOX", "address": {"city": "BAILEYVILLE", "state": "KS", "street": "215 MAIN ST", "postcode": "66404"}}},
{"geometry": {"type": "Point", "coordinates": [-96.1843932345, 39.8429415167]}, "type": "Feature", "properties": {"collection_times": [{"days": "Mon-Fri", "time": "1:15pm"}, {"days": "Sat", "time": "10:45am"}, {"days": "Sun", "time": "Closed"}], "id": "6640400002", "name": "USPS COLLECTION BOX - PO LOBBY", "address": {"city": "BAILEYVILLE", "state": "KS", "street": "215 MAIN ST", "postcode": "66404"}}},
{"geometry": {"type": "Point", "coordinates": [-96.4170450418, 39.8603524997]}, "type": "Feature", "properties": {"collection_times": [{"days": "Mon-Sat", "time": "2:00pm"}, {"days": "Sun", "time": "Closed"}], "id": "6640600001", "name": "USPS COLLECTION BOX - BLUE BOX", "address": {"city": "BEATTIE", "state": "KS", "street": "302 CENTER ST", "postcode": "66406"}}},
{"geometry": {"type": "Point", "coordinates": [-96.4170450418, 39.8603524997]}, "type": "Feature", "properties": {"collection_times": [{"days": "Mon-Fri", "time": "12:15pm"}, {"days": "Sat", "time": "9:15am"}, {"days": "Sun", "time": "Closed"}], "id": "6640600002", "name": "USPS COLLECTION BOX - PO LOBBY", "address": {"city": "BEATTIE", "state": "KS", "street": "302 CENTER ST", "postcode": "66406"}}},
{"geometry": {"type": "Point", "coordinates": [-96.1805161769, 39.2157481871]}, "type": "Feature", "properties": {"collection_times": [{"days": "Mon-Sat", "time": "4:00pm"}, {"days": "Sun", "time": "Closed"}], "id": "6640700001", "name": "USPS COLLECTION BOX - BLUE BOX", "address": {"city": "BELVUE", "state": "KS", "street": "307 3RD ST", "postcode": "66407"}}},
{"geometry": {"type": "Point", "coordinates": [-96.1805161769, 39.2157481871]}, "type": "Feature", "properties": {"collection_times": [{"days": "Mon-Fri", "time": "10:45am"}, {"days": "Sat", "time": "8:45am"}, {"days": "Sun", "time": "Closed"}], "id": "6640700002", "name": "USPS COLLECTION BOX - PO LOBBY", "address": {"city": "BELVUE", "state": "KS", "street": "307 3RD ST", "postcode": "66407"}}},
{"geometry": {"type": "Point", "coordinates": [-95.9739371683, 39.9627574617]}, "type": "Feature", "properties": {"collection_times": [{"days": "Mon-Sat", "time": "1:45pm"}, {"days": "Sun", "time": "Closed"}], "id": "6640800001", "name": "USPS COLLECTION BOX - BLUE BOX", "address": {"city": "BERN", "state": "KS", "street": "403 MAIN ST", "postcode": "66408"}}},
{"geometry": {"type": "Point", "coordinates": [-95.9739371683, 39.9627574617]}, "type": "Feature", "properties": {"collection_times": [{"days": "Mon-Fri", "time": "11:30am"}, {"days": "Sat", "time": "9:00am"}, {"days": "Sun", "time": "Closed"}], "id": "6640800002", "name": "USPS COLLECTION BOX - PO LOBBY", "address": {"city": "BERN", "state": "KS", "street": "403 MAIN ST", "postcode": "66408"}}},
{"geometry": {"type": "Point", "coordinates": [-95.6325786155, 38.9399970157]}, "type": "Feature", "properties": {"collection_times": [{"days": "Mon-Sat", "time": "3:45pm"}, {"days": "Sun", "time": "Closed"}], "id": "6640900001", "name": "USPS COLLECTION BOX - BLUE BOX", "address": {"city": "BERRYTON", "state": "KS", "street": "7049 SE BERRYTON RD", "postcode": "66409"}}},
{"geometry": {"type": "Point", "coordinates": [-95.6325786155, 38.9399970157]}, "type": "Feature", "properties": {"collection_times": [{"days": "Mon-Fri", "time": "3:45pm"}, {"days": "Sat", "time": "8:15am"}, {"days": "Sun", "time": "Closed"}], "id": "6640900002", "name": "USPS COLLECTION BOX - PO LOBBY", "address": {"city": "BERRYTON", "state": "KS", "street": "7049 SE BERRYTON RD", "postcode": "66409"}}},
{"geometry": {"type": "Point", "coordinates": [-96.6586853087, 39.6822594015]}, "type": "Feature", "properties": {"collection_times": [{"days": "Mon-Sat", "time": "2:00pm"}, {"days": "Sun", "time": "Closed"}], "id": "6641100001", "name": "USPS COLLECTION BOX - BLUE BOX", "address": {"city": "BLUE RAPIDS", "state": "KS", "street": "22 PUBLIC SQ", "postcode": "66411"}}},
{"geometry": {"type": "Point", "coordinates": [-96.6586853087, 39.6822594015]}, "type": "Feature", "properties": {"collection_times": [{"days": "Mon-Fri", "time": "2:00pm"}, {"days": "Sat", "time": "8:45am"}, {"days": "Sun", "time": "Closed"}], "id": "6641100002", "name": "USPS COLLECTION BOX - PO LOBBY", "address": {"city": "BLUE RAPIDS", "state": "KS", "street": "22 PUBLIC SQ", "postcode": "66411"}}},
{"geometry": {"type": "Point", "coordinates": [-96.7889635737, 39.9018728038]}, "type": "Feature", "properties": {"collection_times": [{"days": "Mon-Sat", "time": "1:00pm"}, {"days": "Sun", "time": "Closed"}], "id": "6641200001", "name": "USPS COLLECTION BOX - BLUE BOX", "address": {"city": "BREMEN", "state": "KS", "street": "201 BRENNEKE ST", "postcode": "66412"}}},
{"geometry": {"type": "Point", "coordinates": [-96.7889635737, 39.9018728038]}, "type": "Feature", "properties": {"collection_times": [{"days": "Mon-Fri", "time": "1:00pm"}, {"days": "Sat", "time": "11:15am"}, {"days": "Sun", "time": "Closed"}], "id": "6641200002", "name": "USPS COLLECTION BOX - PO LOBBY", "address": {"city": "BREMEN", "state": "KS", "street": "201 BRENNEKE ST", "postcode": "66412"}}},
{"geometry": {"type": "Point", "coordinates": [-95.8346933946, 38.7533760001]}, "type": "Feature", "properties": {"collection_times": [{"days": "Mon-Sat", "time": "3:30pm"}, {"days": "Sun", "time": "Closed"}], "id": "6641300001", "name": "USPS COLLECTION BOX - BLUE BOX", "address": {"city": "BURLINGAME", "state": "KS", "street": "123 S TOPEKA AVE", "postcode": "66413"}}},
{"geometry": {"type": "Point", "coordinates": [-95.8346933946, 38.7533760001]}, "type": "Feature", "properties": {"collection_times": [{"days": "Mon-Fri", "time": "2:00pm"}, {"days": "Sat", "time": "9:15am"}, {"days": "Sun", "time": "Closed"}], "id": "6641300003", "name": "USPS COLLECTION BOX - PO LOBBY", "address": {"city": "BURLINGAME", "state": "KS", "street": "123 S TOPEKA AVE", "postcode": "66413"}}},
{"geometry": {"type": "Point", "coordinates": [-95.8346933946, 38.7533760001]}, "type": "Feature", "properties": {"collection_times": [{"days": "Mon-Sat", "time": "3:30pm"}, {"days": "Sun", "time": "Closed"}], "id": "6641300004", "name": "USPS COLLECTION BOX - BLUE BOX", "address": {"city": "BURLINGAME", "state": "KS", "street": "123 S TOPEKA AVE", "postcode": "66413"}}},
{"geometry": {"type": "Point", "coordinates": [-95.6919994124, 38.8189215949]}, "type": "Feature", "properties": {"collection_times": [{"days": "Mon-Sat", "time": "3:15pm"}, {"days": "Sun", "time": "Closed"}], "id": "6641400001", "name": "USPS COLLECTION BOX - BLUE BOX", "address": {"city": "CARBONDALE", "state": "KS", "street": "223 MAIN ST", "postcode": "66414"}}},
{"geometry": {"type": "Point", "coordinates": [-95.6863482798, 38.8189862001]}, "type": "Feature", "properties": {"collection_times": [{"days": "Mon-Sat", "time": "3:15pm"}, {"days": "Sun", "time": "Closed"}], "id": "6641400004", "name": "USPS COLLECTION BOX - BLUE BOX", "address": {"city": "CARBONDALE", "state": "KS", "street": "515 MAIN ST", "postcode": "66414"}}},
{"geometry": {"type": "Point", "coordinates": [-96.1300791747, 39.7225619625]}, "type": "Feature", "properties": {"collection_times": [{"days": "Mon-Sat", "time": "3:00pm"}, {"days": "Sun", "time": "Closed"}], "id": "6641500001", "name": "USPS COLLECTION BOX - BLUE BOX", "address": {"city": "CENTRALIA", "state": "KS", "street": "505 4TH ST", "postcode": "66415"}}},
{"geometry": {"type": "Point", "coordinates": [-96.1300791747, 39.7225619625]}, "type": "Feature", "properties": {"collection_times": [{"days": "Mon-Fri", "time": "11:45am"}, {"days": "Sat", "time": "9:15am"}, {"days": "Sun", "time": "Closed"}], "id": "6641500002", "name": "USPS COLLECTION BOX - PO LOBBY", "address": {"city": "CENTRALIA", "state": "KS", "street": "505 4TH ST", "postcode": "66415"}}},
{"geometry": {"type": "Point", "coordinates": [-95.8595923723, 39.5069357033]}, "type": "Feature", "properties": {"collection_times": [{"days": "Mon-Sat", "time": "1:30pm"}, {"days": "Sun", "time": "Closed"}], "id": "6641600001", "name": "USPS COLLECTION BOX - BLUE BOX", "address": {"city": "CIRCLEVILLE", "state": "KS", "street": "203 LINCOLN ST", "postcode": "66416"}}},
{"geometry": {"type": "Point", "coordinates": [-95.8595923723, 39.5069357033]}, "type": "Feature", "properties": {"collection_times": [{"days": "Mon-Fri", "time": "9:30am"}, {"days": "Sat", "time": "8:45am"}, {"days": "Sun", "time": "Closed"}], "id": "6641600002", "name": "USPS COLLECTION BOX - PO LOBBY", "address": {"city": "CIRCLEVILLE", "state": "KS", "street": "203 LINCOLN ST", "postcode": "66416"}}},
{"geometry": {"type": "Point", "coordinates": [-96.0660908795, 39.6530689318]}, "type": "Feature", "properties": {"collection_times": [{"days": "Mon-Sat", "time": "3:30pm"}, {"days": "Sun", "time": "Closed"}], "id": "6641700001", "name": "USPS COLLECTION BOX - BLUE BOX", "address": {"city": "CORNING", "state": "KS", "street": "6501 MAIN ST", "postcode": "66417"}}},
{"geometry": {"type": "Point", "coordinates": [-95.6278156389, 39.3913548384]}, "type": "Feature", "properties": {"collection_times": [{"days": "Mon-Sat", "time": "2:35pm"}, {"days": "Sun", "time": "Closed"}], "id": "6641900001", "name": "USPS COLLECTION BOX - BLUE BOX", "address": {"city": "DENISON", "state": "KS", "street": "201 CENTRAL AVE", "postcode": "66419"}}},
{"geometry": {"type": "Point", "coordinates": [-95.6278156389, 39.3913548384]}, "type": "Feature", "properties": {"collection_times": [{"days": "Mon-Sat", "time": "9:30am"}, {"days": "Sun", "time": "Closed"}], "id": "6641900002", "name": "USPS COLLECTION BOX - PO LOBBY", "address": {"city": "DENISON", "state": "KS", "street": "201 CENTRAL AVE", "postcode": "66419"}}},
{"geometry": {"type": "Point", "coordinates": [-95.9281852238, 38.9645181535]}, "type": "Feature", "properties": {"collection_times": [{"days": "Mon-Sat", "time": "4:00pm"}, {"days": "Sun", "time": "Closed"}], "id": "6642000001", "name": "USPS COLLECTION BOX - BLUE BOX", "address": {"city": "DOVER", "state": "KS", "street": "13538 SW 57TH ST", "postcode": "66420"}}},
{"geometry": {"type": "Point", "coordinates": [-95.9281852238, 38.9645181535]}, "type": "Feature", "properties": {"collection_times": [{"days": "Mon-Fri", "time": "9:45am"}, {"days": "Sat", "time": "9:30am"}, {"days": "Sun", "time": "Closed"}], "id": "6642000002", "name": "USPS COLLECTION BOX - PO LOBBY", "address": {"city": "DOVER", "state": "KS", "street": "13538 SW 57TH ST", "postcode": "66420"}}},
{"geometry": {"type": "Point", "coordinates": [-96.0561178116, 39.3075363665]}, "type": "Feature", "properties": {"collection_times": [{"days": "Mon-Sat", "time": "3:00pm"}, {"days": "Sun", "time": "Closed"}], "id": "6642200001", "name": "USPS COLLECTION BOX - BLUE BOX", "address": {"city": "EMMETT", "state": "KS", "street": "501 MAIN ST", "postcode": "66422"}}},
{"geometry": {"type": "Point", "coordinates": [-96.0561178116, 39.3075363665]}, "type": "Feature", "properties": {"collection_times": [{"days": "Mon-Fri", "time": "10:45am"}, {"days": "Sat", "time": "8:45am"}, {"days": "Sun", "time": "Closed"}], "id": "6642200002", "name": "USPS COLLECTION BOX - PO LOBBY", "address": {"city": "EMMETT", "state": "KS", "street": "501 MAIN ST", "postcode": "66422"}}},
{"geometry": {"type": "Point", "coordinates": [-96.1075795724, 38.8601199229]}, "type": "Feature", "properties": {"collection_times": [{"days": "Mon-Sat", "time": "2:00pm"}, {"days": "Sun", "time": "Closed"}], "id": "6642300001", "name": "USPS COLLECTION BOX - BLUE BOX", "address": {"city": "ESKRIDGE", "state": "KS", "street": "122 S MAIN ST", "postcode": "66423"}}},
{"geometry": {"type": "Point", "coordinates": [-96.1075795724, 38.8601199229]}, "type": "Feature", "properties": {"collection_times": [{"days": "Mon-Fri", "time": "11:15am"}, {"days": "Sat", "time": "8:45am"}, {"days": "Sun", "time": "Closed"}], "id": "6642300002", "name": "USPS COLLECTION BOX - PO LOBBY", "address": {"city": "ESKRIDGE", "state": "KS", "street": "122 S MAIN ST", "postcode": "66423"}}},
{"geometry": {"type": "Point", "coordinates": [-95.4261955244, 39.6773960988]}, "type": "Feature", "properties": {"collection_times": [{"days": "Mon-Sat", "time": "2:00pm"}, {"days": "Sun", "time": "Closed"}], "id": "6642400001", "name": "USPS COLLECTION BOX - BLUE BOX", "address": {"city": "EVEREST", "state": "KS", "street": "601 MAIN ST", "postcode": "66424"}}},
{"geometry": {"type": "Point", "coordinates": [-95.4261955244, 39.6773960988]}, "type": "Feature", "properties": {"collection_times": [{"days": "Mon-Fri", "time": "2:00pm"}, {"days": "Sat", "time": "11:30am"}, {"days": "Sun", "time": "Closed"}], "id": "6642400002", "name": "USPS COLLECTION BOX - PO LOBBY", "address": {"city": "EVEREST", "state": "KS", "street": "601 MAIN ST", "postcode": "66424"}}},
{"geometry": {"type": "Point", "coordinates": [-95.751560335, 39.805364298]}, "type": "Feature", "properties": {"collection_times": [{"days": "Mon-Sat", "time": "1:30pm"}, {"days": "Sun", "time": "Closed"}], "id": "6642500001", "name": "USPS COLLECTION BOX - BLUE BOX", "address": {"city": "FAIRVIEW", "state": "KS", "street": "210 S WALNUT ST", "postcode": "66425"}}},
{"geometry": {"type": "Point", "coordinates": [-95.751560335, 39.805364298]}, "type": "Feature", "properties": {"collection_times": [{"days": "Mon-Fri", "time": "1:30pm"}, {"days": "Sat", "time": "11:30am"}, {"days": "Sun", "time": "Closed"}], "id": "6642500002", "name": "USPS COLLECTION BOX - PO LOBBY", "address": {"city": "FAIRVIEW", "state": "KS", "street": "210 S WALNUT ST", "postcode": "66425"}}},
{"geometry": {"type": "Point", "coordinates": [-96.4194478356, 39.702006853]}, "type": "Feature", "properties": {"collection_times": [{"days": "Mon-Sat", "time": "2:30pm"}, {"days": "Sun", "time": "Closed"}], "id": "6642700002", "name": "USPS COLLECTION BOX - BLUE BOX", "address": {"city": "FRANKFORT", "state": "KS", "street": "137 W 2ND ST", "postcode": "66427"}}},
{"geometry": {"type": "Point", "coordinates": [-96.4194478356, 39.702006853]}, "type": "Feature", "properties": {"collection_times": [{"days": "Mon-Fri", "time": "2:00pm"}, {"days": "Sat", "time": "8:45am"}, {"days": "Sun", "time": "Closed"}], "id": "6642700003", "name": "USPS COLLECTION BOX - PO LOBBY", "address": {"city": "FRANKFORT", "state": "KS", "street": "137 W 2ND ST", "postcode": "66427"}}},
{"geometry": {"type": "Point", "coordinates": [-95.9578640019, 39.652855814]}, "type": "Feature", "properties": {"collection_times": [{"days": "Mon-Sat", "time": "3:45pm"}, {"days": "Sun", "time": "Closed"}], "id": "6642800001", "name": "USPS COLLECTION BOX - BLUE BOX", "address": {"city": "GOFF", "state": "KS", "street": "1737 STATE HIGHWAY 9", "postcode": "66428"}}},
{"geometry": {"type": "Point", "coordinates": [-95.9578640019, 39.652855814]}, "type": "Feature", "properties": {"collection_times": [{"days": "Mon-Fri", "time": "11:45am"}, {"days": "Sat", "time": "9:30am"}, {"days": "Sun", "time": "Closed"}], "id": "6642800002", "name": "USPS COLLECTION BOX - PO LOBBY", "address": {"city": "GOFF", "state": "KS", "street": "1737 STATE HIGHWAY 9", "postcode": "66428"}}},
{"geometry": {"type": "Point", "coordinates": [-95.5600883683, 39.0828800675]}, "type": "Feature", "properties": {"collection_times": [{"days": "Mon-Sat", "time": "4:10pm"}, {"days": "Sun", "time": "Closed"}], "id": "6642900001", "name": "USPS COLLECTION BOX - BLUE BOX", "address": {"city": "GRANTVILLE", "state": "KS", "street": "2123 WASHINGTON ST", "postcode": "66429"}}},
{"geometry": {"type": "Point", "coordinates": [-95.5600883683, 39.0828800675]}, "type": "Feature", "properties": {"collection_times": [{"days": "Mon-Fri", "time": "10:45am"}, {"days": "Sat", "time": "11:45am"}, {"days": "Sun", "time": "Closed"}], "id": "6642900002", "name": "USPS COLLECTION BOX - PO LOBBY", "address": {"city": "GRANTVILLE", "state": "KS", "street": "2123 WASHINGTON ST", "postcode": "66429"}}},
{"geometry": {"type": "Point", "coordinates": [-95.9602420076, 38.7914064881]}, "type": "Feature", "properties": {"collection_times": [{"days": "Mon-Sat", "time": "3:00pm"}, {"days": "Sun", "time": "Closed"}], "id": "6643100001", "name": "USPS COLLECTION BOX - BLUE BOX", "address": {"city": "HARVEYVILLE", "state": "KS", "street": "185 MAIN ST", "postcode": "66431"}}},
{"geometry": {"type": "Point", "coordinates": [-95.9602420076, 38.7914064881]}, "type": "Feature", "properties": {"collection_times": [{"days": "Mon-Fri", "time": "11:30am"}, {"days": "Sat", "time": "9:45am"}, {"days": "Sun", "time": "Closed"}], "id": "6643100002", "name": "USPS COLLECTION BOX - PO LOBBY", "address": {"city": "HARVEYVILLE", "state": "KS", "street": "185 MAIN ST", "postcode": "66431"}}},
{"geometry": {"type": "Point", "coordinates": [-95.5358226098, 39.8518135967]}, "type": "Feature", "properties": {"collection_times": [{"days": "Mon-Sat", "time": "3:15pm"}, {"days": "Sun", "time": "Closed"}], "id": "6643400001", "name": "USPS COLLECTION BOX - BLUE BOX", "address": {"city": "HIAWATHA", "state": "KS", "street": "613 UTAH ST", "postcode": "66434"}}},
{"geometry": {"type": "Point", "coordinates": [-95.5358226098, 39.8518135967]}, "type": "Feature", "properties": {"collection_times": [{"days": "Mon-Fri", "time": "3:15pm"}, {"days": "Sat", "time": "11:00am"}, {"days": "Sun", "time": "Closed"}], "id": "6643400005", "name": "USPS COLLECTION BOX - PO LOBBY", "address": {"city": "HIAWATHA", "state": "KS", "street": "613 UTAH ST", "postcode": "66434"}}},
{"geometry": {"type": "Point", "coordinates": [-95.7319171168, 39.4641331692]}, "type": "Feature", "properties": {"collection_times": [{"days": "Mon-Sat", "time": "4:25pm"}, {"days": "Sun", "time": "Closed"}], "id": "6643600004", "name": "USPS COLLECTION BOX - BLUE BOX", "address": {"city": "HOLTON", "state": "KS", "street": "328 PENNSYLVANIA AVE", "postcode": "66436"}}},
{"geometry": {"type": "Point", "coordinates": [-95.7319171168, 39.4641331692]}, "type": "Feature", "properties": {"collection_times": [{"days": "Mon-Sat", "time": "4:25pm"}, {"days": "Sun", "time": "Closed"}], "id": "6643600005", "name": "USPS COLLECTION BOX - BLUE BOX", "address": {"city": "HOLTON", "state": "KS", "street": "328 PENNSYLVANIA AVE", "postcode": "66436"}}},
{"geometry": {"type": "Point", "coordinates": [-95.7319171167, 39.4640027726]}, "type": "Feature", "properties": {"collection_times": [{"days": "Mon-Sat", "time": "12:00pm"}, {"days": "Sun", "time": "Closed"}], "id": "6643600006", "name": "USPS COLLECTION BOX - BLUE BOX", "address": {"city": "HOLTON", "state": "KS", "street": "210 ARIZONA AVE", "postcode": "66436"}}},
{"geometry": {"type": "Point", "coordinates": [-95.7346306713, 39.4622048069]}, "type": "Feature", "properties": {"collection_times": [{"days": "Mon-Fri", "time": "4:15pm"}, {"days": "Sat", "time": "9:15am"}, {"days": "Sun", "time": "Closed"}], "id": "6643600007", "name": "USPS COLLECTION BOX - PO LOBBY", "address": {"city": "HOLTON", "state": "KS", "street": "328 PENNSYLVANIA AVE", "postcode": "66436"}}},
{"geometry": {"type": "Point", "coordinates": [-96.522096669, 39.8403827789]}, "type": "Feature", "properties": {"collection_times": [{"days": "Mon-Sat", "time": "3:00pm"}, {"days": "Sun", "time": "Closed"}], "id": "6643800001", "name": "USPS COLLECTION BOX - BLUE BOX", "address": {"city": "HOME", "state": "KS", "street": "213 2ND ST", "postcode": "66438"}}},
{"geometry": {"type": "Point", "coordinates": [-96.522096669, 39.8403827789]}, "type": "Feature", "properties": {"collection_times": [{"days": "Mon-Fri", "time": "12:00pm"}, {"days": "Sat-Sun", "time": "Closed"}], "id": "6643800002", "name": "USPS COLLECTION BOX - PO LOBBY", "address": {"city": "HOME", "state": "KS", "street": "213 2ND ST", "postcode": "66438"}}},
{"geometry": {"type": "Point", "coordinates": [-95.5259592876, 39.6601498793]}, "type": "Feature", "properties": {"collection_times": [{"days": "Mon-Sat", "time": "3:00pm"}, {"days": "Sun", "time": "Closed"}], "id": "6643900003", "name": "USPS COLLECTION BOX - BLUE BOX", "address": {"city": "HORTON", "state": "KS", "street": "825 1ST AVE E", "postcode": "66439"}}},
{"geometry": {"type": "Point", "coordinates": [-95.5259592876, 39.6601498793]}, "type": "Feature", "properties": {"collection_times": [{"days": "Mon-Fri", "time": "3:00pm"}, {"days": "Sat", "time": "9:15am"}, {"days": "Sun", "time": "Closed"}], "id": "6643900005", "name": "USPS COLLECTION BOX - PO LOBBY", "address": {"city": "HORTON", "state": "KS", "street": "825 1ST AVE E", "postcode": "66439"}}},
{"geometry": {"type": "Point", "coordinates": [-95.7062224424, 39.248741444]}, "type": "Feature", "properties": {"collection_times": [{"days": "Mon-Sat", "time": "2:00pm"}, {"days": "Sun", "time": "Closed"}], "id": "6644000001", "name": "USPS COLLECTION BOX - BLUE BOX", "address": {"city": "HOYT", "state": "KS", "street": "109 E 4TH ST", "postcode": "66440"}}},
{"geometry": {"type": "Point", "coordinates": [-95.7062224424, 39.248741444]}, "type": "Feature", "properties": {"collection_times": [{"days": "Mon-Fri", "time": "11:45am"}, {"days": "Sat", "time": "9:15am"}, {"days": "Sun", "time": "Closed"}], "id": "6644000002", "name": "USPS COLLECTION BOX - PO LOBBY", "address": {"city": "HOYT", "state": "KS", "street": "109 E 4TH ST", "postcode": "66440"}}},
{"geometry": {"type": "Point", "coordinates": [-96.8334851368, 39.0293777263]}, "type": "Feature", "properties": {"collection_times": [{"days": "Mon-Fri", "time": "2:30pm"}, {"days": "Sat", "time": "2:00pm"}, {"days": "Sun", "time": "Closed"}], "id": "6644100004", "name": "USPS COLLECTION BOX - BLUE BOX", "address": {"city": "JUNCTION CITY", "state": "KS", "street": "700 N ADAMS ST", "postcode": "66441"}}},
{"geometry": {"type": "Point", "coordinates": [-96.8296139277, 39.0294122629]}, "type": "Feature", "properties": {"collection_times": [{"days": "Mon-Sat", "time": "1:30pm"}, {"days": "Sun", "time": "Closed"}], "id": "6644100009", "name": "USPS COLLECTION BOX - BLUE BOX", "address": {"city": "JUNCTION CITY", "state": "KS", "street": "702 N WASHINGTON ST", "postcode": "66441"}}},
{"geometry": {"type": "Point", "coordinates": [-96.8475319793, 39.0283335624]}, "type": "Feature", "properties": {"collection_times": [{"days": "Mon-Sat", "time": "1:00pm"}, {"days": "Sun", "time": "Closed"}], "id": "6644100010", "name": "USPS COLLECTION BOX - BLUE BOX", "address": {"city": "JUNCTION CITY", "state": "KS", "street": "1000 W 6TH ST", "postcode": "66441"}}},
{"geometry": {"type": "Point", "coordinates": [-96.8394658836, 39.0283406292]}, "type": "Feature", "properties": {"collection_times": [{"days": "Mon-Sat", "time": "2:00pm"}, {"days": "Sun", "time": "Closed"}], "id": "6644100011", "name": "USPS COLLECTION BOX - BLUE BOX", "address": {"city": "JUNCTION CITY", "state": "KS", "street": "614 W 6TH ST", "postcode": "66441"}}},
{"geometry": {"type": "Point", "coordinates": [-96.8296498721, 39.0304648096]}, "type": "Feature", "properties": {"collection_times": [{"days": "Mon-Sat", "time": "1:30pm"}, {"days": "Sun", "time": "Closed"}], "id": "6644100013", "name": "USPS COLLECTION BOX - BLUE BOX", "address": {"city": "JUNCTION CITY", "state": "KS", "street": "800 N WASHINGTON ST", "postcode": "66441"}}},
{"geometry": {"type": "Point", "coordinates": [-96.8335094905, 39.029397326]}, "type": "Feature", "properties": {"collection_times": [{"days": "Mon-Sat", "time": "2:30pm"}, {"days": "Sun", "time": "Closed"}], "id": "6644100019", "name": "USPS COLLECTION BOX - PO LOBBY", "address": {"city": "JUNCTION CITY", "state": "KS", "street": "302 W 7TH ST", "postcode": "66441"}}},
{"geometry": {"type": "Point", "coordinates": [-96.8011722433, 39.0963372634]}, "type": "Feature", "properties": {"collection_times": [{"days": "Mon-Fri", "time": "2:30pm"}, {"days": "Sat", "time": "2:00pm"}, {"days": "Sun", "time": "Closed"}], "id": "6644200001", "name": "USPS COLLECTION BOX - BLUE BOX", "address": {"city": "JUNCTION CITY", "state": "KS", "street": "5302 ASHBY AVE", "postcode": "66442"}}},
{"geometry": {"type": "Point", "coordinates": [-96.8011722433, 39.0963372634]}, "type": "Feature", "properties": {"collection_times": [{"days": "Mon-Fri", "time": "2:30pm"}, {"days": "Sat", "time": "2:00pm"}, {"days": "Sun", "time": "Closed"}], "id": "6644200010", "name": "USPS COLLECTION BOX - PO LOBBY", "address": {"city": "JUNCTION CITY", "state": "KS", "street": "5302 ASHBY AVE", "postcode": "66442"}}},
{"geometry": {"type": "Point", "coordinates": [-96.8589675864, 39.3644360182]}, "type": "Feature", "properties": {"collection_times": [{"days": "Mon-Sat", "time": "1:45pm"}, {"days": "Sun", "time": "Closed"}], "id": "6644900001", "name": "USPS COLLECTION BOX - BLUE BOX", "address": {"city": "LEONARDVILLE", "state": "KS", "street": "103 W BARTON RD", "postcode": "66449"}}},
{"geometry": {"type": "Point", "coordinates": [-96.859037, 39.364391901]}, "type": "Feature", "properties": {"collection_times": [{"days": "Mon-Fri", "time": "12:30pm"}, {"days": "Sat", "time": "9:45am"}, {"days": "Sun", "time": "Closed"}], "id": "6644900002", "name": "USPS COLLECTION BOX - PO LOBBY", "address": {"city": "LEONARDVILLE", "state": "KS", "street": "103 W BARTON RD", "postcode": "66449"}}},
{"geometry": {"type": "Point", "coordinates": [-95.6843700296, 38.6100410598]}, "type": "Feature", "properties": {"collection_times": [{"days": "Mon-Fri", "time": "2:15pm"}, {"days": "Sat", "time": "1:00pm"}, {"days": "Sun", "time": "Closed"}], "id": "6645100001", "name": "USPS COLLECTION BOX - BLUE BOX", "address": {"city": "LYNDON", "state": "KS", "street": "712 TOPEKA AVE", "postcode": "66451"}}},
{"geometry": {"type": "Point", "coordinates": [-95.6843700296, 38.6100410598]}, "type": "Feature", "properties": {"collection_times": [{"days": "Mon-Fri", "time": "2:15pm"}, {"days": "Sat", "time": "1:00pm"}, {"days": "Sun", "time": "Closed"}], "id": "6645100002", "name": "USPS COLLECTION BOX - PO LOBBY", "address": {"city": "LYNDON", "state": "KS", "street": "712 TOPEKA AVE", "postcode": "66451"}}}
]}
