{"type": "FeatureCollection", "features": [
{"geometry": {"type": "Point", "coordinates": [-96.5634291352, 39.1815482627]}, "type": "Feature", "properties": {"collection_times": [{"days": "Mon-Fri", "time": "3:30pm"}, {"days": "Sat", "time": "2:20pm"}, {"days": "Sun", "time": "Closed"}], "id": "6650200002", "name": "USPS COLLECTION BOX - BLUE BOX", "address": {"city": "MANHATTAN", "state": "KS", "street": "500 LEAVENWORTH ST", "postcode": "66502"}}},
{"geometry": {"type": "Point", "coordinates": [-96.5634291352, 39.1815482627]}, "type": "Feature", "properties": {"collection_times": [{"days": "Mon-Fri", "time": "3:30pm"}, {"days": "Sat", "time": "2:20pm"}, {"days": "Sun", "time": "Closed"}], "id": "6650200003", "name": "USPS COLLECTION BOX - BLUE BOX", "address": {"city": "MANHATTAN", "state": "KS", "street": "500 LEAVENWORTH ST", "postcode": "66502"}}},
{"geometry": {"type": "Point", "coordinates": [-96.5634291352, 39.1815482627]}, "type": "Feature", "properties": {"collection_times": [{"days": "Mon-Fri", "time": "3:30pm"}, {"days": "Sat", "time": "2:20pm"}, {"days": "Sun", "time": "Closed"}], "id": "6650200004", "name": "USPS COLLECTION BOX - BLUE BOX", "address": {"city": "MANHATTAN", "state": "KS", "street": "500 LEAVENWORTH ST", "postcode": "66502"}}},
{"geometry": {"type": "Point", "coordinates": [-96.5634291352, 39.1815482627]}, "type": "Feature", "properties": {"collection_times": [{"days": "Mon-Fri", "time": "3:30pm"}, {"days": "Sat", "time": "2:20pm"}, {"days": "Sun", "time": "Closed"}], "id": "6650200005", "name": "USPS COLLECTION BOX - BLUE BOX", "address": {"city": "MANHATTAN", "state": "KS", "street": "500 LEAVENWORTH ST", "postcode": "66502"}}},
{"geometry": {"type": "Point", "coordinates": [-96.5634291352, 39.1815482627]}, "type": "Feature", "properties": {"collection_times": [{"days": "Mon-Fri", "time": "3:30pm"}, {"days": "Sat", "time": "2:20pm"}, {"days": "Sun", "time": "Closed"}], "id": "6650200006", "name": "USPS COLLECTION BOX - BLUE BOX", "address": {"city": "MANHATTAN", "state": "KS", "street": "500 LEAVENWORTH ST", "postcode": "66502"}}},
{"geometry": {"type": "Point", "coordinates": [-96.5634291352, 39.1815482627]}, "type": "Feature", "properties": {"collection_times": [{"days": "Mon-Fri", "time": "3:30pm"}, {"days": "Sat", "time": "2:20pm"}, {"days": "Sun", "time": "Closed"}], "id": "6650200007", "name": "USPS COLLECTION BOX - BLUE BOX", "address": {"city": "MANHATTAN", "state": "KS", "street": "500 LEAVENWORTH ST", "postcode": "66502"}}},
{"geometry": {"type": "Point", "coordinates": [-96.563358803, 39.1797176381]}, "type": "Feature", "properties": {"collection_times": [{"days": "Mon-Fri", "time": "1:15pm"}, {"days": "Sat-Sun", "time": "Closed"}], "id": "6650200009", "name": "USPS COLLECTION BOX - BLUE BOX", "address": {"city": "MANHATTAN", "state": "KS", "street": "100 COURTHOUSE PLZ", "postcode": "66502"}}},
{"geometry": {"type": "Point", "coordinates": [-96.6094107524, 39.1909765872]}, "type": "Feature", "properties": {"collection_times": [{"days": "Mon-Fri", "time": "3:15pm"}, {"days": "Sat", "time": "11:00am"}, {"days": "Sun", "time": "Closed"}], "id": "6650200012", "name": "USPS COLLECTION BOX - BLUE BOX", "address": {"city": "MANHATTAN", "state": "KS", "street": "1100 WESTLOOP PL", "postcode": "66502"}}},
{"geometry": {"type": "Point", "coordinates": [-96.6094857659, 39.1910034386]}, "type": "Feature", "properties": {"collection_times": [{"days": "Mon-Sat", "time": "3:15pm"}, {"days": "Sun", "time": "Closed"}], "id": "6650200014", "name": "USPS COLLECTION BOX - EXPRESS", "address": {"city": "MANHATTAN", "state": "KS", "street": "1100 WESTLOOP PL", "postcode": "66502"}}},
{"geometry": {"type": "Point", "coordinates": [-96.557229422, 39.1839648504]}, "type": "Feature", "properties": {"collection_times": [{"days": "Mon-Sat", "time": "1:05pm"}, {"days": "Sun", "time": "Closed"}], "id": "6650200016", "name": "USPS COLLECTION BOX - BLUE BOX", "address": {"city": "MANHATTAN", "state": "KS", "street": "130 SARBER LN", "postcode": "66502"}}},
{"geometry": {"type": "Point", "coordinates": [-96.557229422, 39.1839648504]}, "type": "Feature", "properties": {"collection_times": [{"days": "Mon-Sat", "time": "1:05pm"}, {"days": "Sun", "time": "Closed"}], "id": "6650200025", "name": "USPS COLLECTION BOX - BLUE BOX", "address": {"city": "MANHATTAN", "state": "KS", "street": "130 SARBER LN", "postcode": "66502"}}},
{"geometry": {"type": "Point", "coordinates": [-96.5984365786, 39.1910103639]}, "type": "Feature", "properties": {"collection_times": [{"days": "Mon-Fri", "time": "12:20pm"}, {"days": "Sat", "time": "1:25pm"}, {"days": "Sun", "time": "Closed"}], "id": "6650200031", "name": "USPS COLLECTION BOX - BLUE BOX", "address": {"city": "MANHATTAN", "state": "KS", "street": "1133 COLLEGE AVE", "postcode": "66502"}}},
{"geometry": {"type": "Point", "coordinates": [-96.563358803, 39.1797176381]}, "type": "Feature", "properties": {"collection_times": [{"days": "Mon-Fri", "time": "1:15pm"}, {"days": "Sat-Sun", "time": "Closed"}], "id": "6650200033", "name": "USPS COLLECTION BOX - BLUE BOX", "address": {"city": "MANHATTAN", "state": "KS", "street": "100 COURTHOUSE PLZ", "postcode": "66502"}}},
{"geometry": {"type": "Point", "coordinates": [-96.5634291352, 39.1815482627]}, "type": "Feature", "properties": {"collection_times": [{"days": "Mon-Sat", "time": "3:30pm"}, {"days": "Sun", "time": "Closed"}], "id": "6650200051", "name": "USPS COLLECTION BOX - PO LOBBY", "address": {"city": "MANHATTAN", "state": "KS", "street": "500 LEAVENWORTH ST", "postcode": "66502"}}},
{"geometry": {"type": "Point", "coordinates": [-96.5889459783, 39.1914289599]}, "type": "Feature", "properties": {"collection_times": [{"days": "Mon-Sat", "time": "12:35pm"}, {"days": "Sun", "time": "Closed"}], "id": "6650200054", "name": "USPS COLLECTION BOX - BLUE BOX", "address": {"city": "MANHATTAN", "state": "KS", "street": "1105 SUNSET AVE", "postcode": "66502"}}},
{"geometry": {"type": "Point", "coordinates": [-96.58365, 39.18607]}, "type": "Feature", "properties": {"collection_times": [{"days": "Mon-Sat", "time": "12:30pm"}, {"days": "Sun", "time": "Closed"}], "id": "6650200055", "name": "USPS COLLECTION BOX - BLUE BOX", "address": {"city": "MANHATTAN", "state": "KS", "street": "1700 ANDERSON AVE", "postcode": "66502"}}},
{"geometry": {"type": "Point", "coordinates": [-96.6094107524, 39.1909765872]}, "type": "Feature", "properties": {"collection_times": [{"days": "Mon-Sat", "time": "3:15pm"}, {"days": "Sun", "time": "Closed"}], "id": "6650200056", "name": "USPS COLLECTION BOX - BLUE BOX", "address": {"city": "MANHATTAN", "state": "KS", "street": "1100 WESTLOOP PL", "postcode": "66502"}}},
{"geometry": {"type": "Point", "coordinates": [-96.5634291352, 39.1815482627]}, "type": "Feature", "properties": {"collection_times": [{"days": "Mon-Sat", "time": "3:30pm"}, {"days": "Sun", "time": "Closed"}], "id": "6650200057", "name": "USPS COLLECTION BOX - PO LOBBY", "address": {"city": "MANHATTAN", "state": "KS", "street": "500 LEAVENWORTH ST", "postcode": "66502"}}},
{"geometry": {"type": "Point", "coordinates": [-96.6052061295, 39.1746921412]}, "type": "Feature", "properties": {"collection_times": [{"days": "Mon-Fri", "time": "1:00pm"}, {"days": "Sat-Sun", "time": "Closed"}], "id": "6650300000", "name": "USPS COLLECTION BOX - BLUE BOX", "address": {"city": "MANHATTAN", "state": "KS", "street": "222 SOUTHWIND PL", "postcode": "66503"}}},
{"geometry": {"type": "Point", "coordinates": [-96.618279693, 39.2037173942]}, "type": "Feature", "properties": {"collection_times": [{"days": "Mon-Sat", "time": "1:10pm"}, {"days": "Sun", "time": "Closed"}], "id": "6650300002", "name": "USPS COLLECTION BOX - BLUE BOX", "address": {"city": "MANHATTAN", "state": "KS", "street": "3270 KIMBALL AVE", "postcode": "66503"}}},
{"geometry": {"type": "Point", "coordinates": [-96.6126574855, 39.1895235725]}, "type": "Feature", "properties": {"collection_times": [{"days": "Mon-Sat", "time": "1:00pm"}, {"days": "Sun", "time": "Closed"}], "id": "6650300003", "name": "USPS COLLECTION BOX - BLUE BOX", "address": {"city": "MANHATTAN", "state": "KS", "street": "3011 ANDERSON AVE", "postcode": "66503"}}},
{"geometry": {"type": "Point", "coordinates": [-96.6260825994, 39.189955507]}, "type": "Feature", "properties": {"collection_times": [{"days": "Mon-Fri", "time": "1:00pm"}, {"days": "Sat-Sun", "time": "Closed"}], "id": "6650300004", "name": "USPS COLLECTION BOX - BLUE BOX", "address": {"city": "MANHATTAN", "state": "KS", "street": "1121 HUDSON AVE", "postcode": "66503"}}},
{"geometry": {"type": "Point", "coordinates": [-98.3801698511, 38.4847267593]}, "type": "Feature", "properties": {"collection_times": [{"days": "Mon-Sat", "time": "2:00pm"}, {"days": "Sun", "time": "Closed"}], "id": "6650600000", "name": "USPS COLLECTION BOX - BLUE BOX", "address": {"city": "MANHATTAN", "state": "KS", "street": "113 DYKSTRA HALL", "postcode": "66506"}}},
{"geometry": {"type": "Point", "coordinates": [-96.0267108626, 39.0820840644]}, "type": "Feature", "properties": {"collection_times": [{"days": "Mon-Sat", "time": "3:25pm"}, {"days": "Sun", "time": "Closed"}], "id": "6650700001", "name": "USPS COLLECTION BOX - BLUE BOX", "address": {"city": "MAPLE HILL", "state": "KS", "street": "213 MAIN ST", "postcode": "66507"}}},
{"geometry": {"type": "Point", "coordinates": [-96.0267108626, 39.0820840644]}, "type": "Feature", "properties": {"collection_times": [{"days": "Mon-Fri", "time": "10:45am"}, {"days": "Sat", "time": "8:45am"}, {"days": "Sun", "time": "Closed"}], "id": "6650700002", "name": "USPS COLLECTION BOX - PO LOBBY", "address": {"city": "MAPLE HILL", "state": "KS", "street": "213 MAIN ST", "postcode": "66507"}}},
{"geometry": {"type": "Point", "coordinates": [-96.6443455382, 39.8417994433]}, "type": "Feature", "properties": {"collection_times": [{"days": "Mon-Sat", "time": "12:00pm"}, {"days": "Sun", "time": "Closed"}], "id": "6650800002", "name": "USPS COLLECTION BOX - BLUE BOX", "address": {"city": "MARYSVILLE", "state": "KS", "street": "1100 BROADWAY", "postcode": "66508"}}},
{"geometry": {"type": "Point", "coordinates": [-96.6469238105, 39.8416351613]}, "type": "Feature", "properties": {"collection_times": [{"days": "Mon-Sat", "time": "2:15pm"}, {"days": "Sun", "time": "Closed"}], "id": "6650800005", "name": "USPS COLLECTION BOX - BLUE BOX", "address": {"city": "MARYSVILLE", "state": "KS", "street": "109 S 9TH ST", "postcode": "66508"}}},
{"geometry": {"type": "Point", "coordinates": [-96.6469238105, 39.8416351613]}, "type": "Feature", "properties": {"collection_times": [{"days": "Mon-Fri", "time": "2:15pm"}, {"days": "Sat", "time": "10:15am"}, {"days": "Sun", "time": "Closed"}], "id": "6650800007", "name": "USPS COLLECTION BOX - PO LOBBY", "address": {"city": "MARYSVILLE", "state": "KS", "street": "109 S 9TH ST", "postcode": "66508"}}},
{"geometry": {"type": "Point", "coordinates": [-96.6541418767, 39.8442944464]}, "type": "Feature", "properties": {"collection_times": [{"days": "Mon-Fri", "time": "12:00pm"}, {"days": "Sat-Sun", "time": "Closed"}], "id": "6650800008", "name": "USPS COLLECTION BOX - BLUE BOX", "address": {"city": "MARYSVILLE", "state": "KS", "street": "406 N 3RD ST", "postcode": "66508"}}},
{"geometry": {"type": "Point", "coordinates": [-96.6469238105, 39.8416351613]}, "type": "Feature", "properties": {"collection_times": [{"days": "Mon-Sat", "time": "2:15pm"}, {"days": "Sun", "time": "Closed"}], "id": "6650800010", "name": "USPS COLLECTION BOX - BLUE BOX", "address": {"city": "MARYSVILLE", "state": "KS", "street": "109 S 9TH ST", "postcode": "66508"}}},
{"geometry": {"type": "Point", "coordinates": [-96.6469238105, 39.8416351613]}, "type": "Feature", "properties": {"collection_times": [{"days": "Mon-Fri", "time": "2:15pm"}, {"days": "Sat", "time": "10:15am"}, {"days": "Sun", "time": "Closed"}], "id": "6650800011", "name": "USPS COLLECTION BOX - PO LOBBY", "address": {"city": "MARYSVILLE", "state": "KS", "street": "109 S 9TH ST", "postcode": "66508"}}},
{"geometry": {"type": "Point", "coordinates": [-95.7253895483, 39.3380464293]}, "type": "Feature", "properties": {"collection_times": [{"days": "Mon-Sat", "time": "3:00pm"}, {"days": "Sun", "time": "Closed"}], "id": "6650900001", "name": "USPS COLLECTION BOX - BLUE BOX", "address": {"city": "MAYETTA", "state": "KS", "street": "111 E MAIN ST", "postcode": "66509"}}},
{"geometry": {"type": "Point", "coordinates": [-95.7253895483, 39.3380464293]}, "type": "Feature", "properties": {"collection_times": [{"days": "Mon-Fri", "time": "2:30pm"}, {"days": "Sat", "time": "9:30am"}, {"days": "Sun", "time": "Closed"}], "id": "6650900002", "name": "USPS COLLECTION BOX - PO LOBBY", "address": {"city": "MAYETTA", "state": "KS", "street": "111 E MAIN ST", "postcode": "66509"}}},
{"geometry": {"type": "Point", "coordinates": [-95.6374113154, 38.5070530539]}, "type": "Feature", "properties": {"collection_times": [{"days": "Mon-Sat", "time": "2:30pm"}, {"days": "Sun", "time": "Closed"}], "id": "6651000001", "name": "USPS COLLECTION BOX - BLUE BOX", "address": {"city": "MELVERN", "state": "KS", "street": "118 NE EMPORIA ST", "postcode": "66510"}}},
{"geometry": {"type": "Point", "coordinates": [-95.6374113154, 38.5070530539]}, "type": "Feature", "properties": {"collection_times": [{"days": "Mon-Fri", "time": "11:45am"}, {"days": "Sat", "time": "8:45am"}, {"days": "Sun", "time": "Closed"}], "id": "6651000002", "name": "USPS COLLECTION BOX - PO LOBBY", "address": {"city": "MELVERN", "state": "KS", "street": "118 NE EMPORIA ST", "postcode": "66510"}}},
{"geometry": {"type": "Point", "coordinates": [-95.5709051303, 39.1908702086]}, "type": "Feature", "properties": {"collection_times": [{"days": "Mon-Sat", "time": "3:45pm"}, {"days": "Sun", "time": "Closed"}], "id": "6651200001", "name": "USPS COLLECTION BOX - BLUE BOX", "address": {"city": "MERIDEN", "state": "KS", "street": "101 N PALMBERG ST", "postcode": "66512"}}},
{"geometry": {"type": "Point", "coordinates": [-95.5709051303, 39.1908702086]}, "type": "Feature", "properties": {"collection_times": [{"days": "Mon-Fri", "time": "3:45pm"}, {"days": "Sat", "time": "9:15am"}, {"days": "Sun", "time": "Closed"}], "id": "6651200002", "name": "USPS COLLECTION BOX - PO LOBBY", "address": {"city": "MERIDEN", "state": "KS", "street": "101 N PALMBERG ST", "postcode": "66512"}}},
{"geometry": {"type": "Point", "coordinates": [-96.9128044701, 39.1672916964]}, "type": "Feature", "properties": {"collection_times": [{"days": "Mon-Sat", "time": "2:15pm"}, {"days": "Sun", "time": "Closed"}], "id": "6651400001", "name": "USPS COLLECTION BOX - BLUE BOX", "address": {"city": "MILFORD", "state": "KS", "street": "106 WHITING ST", "postcode": "66514"}}},
{"geometry": {"type": "Point", "coordinates": [-96.9128044701, 39.1672916964]}, "type": "Feature", "properties": {"collection_times": [{"days": "Mon-Fri", "time": "11:45am"}, {"days": "Sat", "time": "8:45am"}, {"days": "Sun", "time": "Closed"}], "id": "6651400002", "name": "USPS COLLECTION BOX - PO LOBBY", "address": {"city": "MILFORD", "state": "KS", "street": "106 WHITING ST", "postcode": "66514"}}},
{"geometry": {"type": "Point", "coordinates": [-95.6926108859, 39.9285273092]}, "type": "Feature", "properties": {"collection_times": [{"days": "Mon-Sat", "time": "2:00pm"}, {"days": "Sun", "time": "Closed"}], "id": "6651500001", "name": "USPS COLLECTION BOX - BLUE BOX", "address": {"city": "MORRILL", "state": "KS", "street": "616 ROXANNA ST", "postcode": "66515"}}},
{"geometry": {"type": "Point", "coordinates": [-95.6926108859, 39.9285273092]}, "type": "Feature", "properties": {"collection_times": [{"days": "Mon-Sat", "time": "9:00am"}, {"days": "Sun", "time": "Closed"}], "id": "6651500002", "name": "USPS COLLECTION BOX - PO LOBBY", "address": {"city": "MORRILL", "state": "KS", "street": "616 ROXANNA ST", "postcode": "66515"}}},
{"geometry": {"type": "Point", "coordinates": [-95.7179269181, 39.6030499519]}, "type": "Feature", "properties": {"collection_times": [{"days": "Mon-Sat", "time": "3:45pm"}, {"days": "Sun", "time": "Closed"}], "id": "6651600001", "name": "USPS COLLECTION BOX - BLUE BOX", "address": {"city": "NETAWAKA", "state": "KS", "street": "412 COMMERCIAL ST", "postcode": "66516"}}},
{"geometry": {"type": "Point", "coordinates": [-95.7179269181, 39.6030499519]}, "type": "Feature", "properties": {"collection_times": [{"days": "Mon-Fri", "time": "10:45am"}, {"days": "Sat", "time": "10:15am"}, {"days": "Sun", "time": "Closed"}], "id": "6651600002", "name": "USPS COLLECTION BOX - PO LOBBY", "address": {"city": "NETAWAKA", "state": "KS", "street": "412 COMMERCIAL ST", "postcode": "66516"}}},
{"geometry": {"type": "Point", "coordinates": [-96.710538061, 39.1158151323]}, "type": "Feature", "properties": {"collection_times": [{"days": "Mon-Sat", "time": "2:45pm"}, {"days": "Sun", "time": "Closed"}], "id": "6651700001", "name": "USPS COLLECTION BOX - BLUE BOX", "address": {"city": "OGDEN", "state": "KS", "street": "310 RILEY AVE", "postcode": "66517"}}},
{"geometry": {"type": "Point", "coordinates": [-96.710538061, 39.1158151323]}, "type": "Feature", "properties": {"collection_times": [{"days": "Mon-Fri", "time": "2:45pm"}, {"days": "Sat", "time": "10:00am"}, {"days": "Sun", "time": "Closed"}], "id": "6651700002", "name": "USPS COLLECTION BOX - PO LOBBY", "address": {"city": "OGDEN", "state": "KS", "street": "310 RILEY AVE", "postcode": "66517"}}},
{"geometry": {"type": "Point", "coordinates": [-96.6014689595, 39.9634010971]}, "type": "Feature", "properties": {"collection_times": [{"days": "Mon-Sat", "time": "1:00pm"}, {"days": "Sun", "time": "Closed"}], "id": "6651800001", "name": "USPS COLLECTION BOX - BLUE BOX", "address": {"city": "OKETO", "state": "KS", "street": "121 CENTER ST", "postcode": "66518"}}},
{"geometry": {"type": "Point", "coordinates": [-96.6014689595, 39.9634010971]}, "type": "Feature", "properties": {"collection_times": [{"days": "Mon-Fri", "time": "9:45am"}, {"days": "Sat", "time": "9:15am"}, {"days": "Sun", "time": "Closed"}], "id": "6651800002", "name": "USPS COLLECTION BOX - PO LOBBY", "address": {"city": "OKETO", "state": "KS", "street": "121 CENTER ST", "postcode": "66518"}}},
{"geometry": {"type": "Point", "coordinates": [-96.6150835079, 39.4308433643]}, "type": "Feature", "properties": {"collection_times": [{"days": "Mon-Sat", "time": "2:30pm"}, {"days": "Sun", "time": "Closed"}], "id": "6652000001", "name": "USPS COLLECTION BOX - BLUE BOX", "address": {"city": "OLSBURG", "state": "KS", "street": "319 2ND ST", "postcode": "66520"}}},
{"geometry": {"type": "Point", "coordinates": [-96.6150835079, 39.4308433643]}, "type": "Feature", "properties": {"collection_times": [{"days": "Mon-Fri", "time": "11:45am"}, {"days": "Sat", "time": "9:00am"}, {"days": "Sun", "time": "Closed"}], "id": "6652000002", "name": "USPS COLLECTION BOX - PO LOBBY", "address": {"city": "OLSBURG", "state": "KS", "street": "319 2ND ST", "postcode": "66520"}}},
{"geometry": {"type": "Point", "coordinates": [-96.1717154716, 39.4897896469]}, "type": "Feature", "properties": {"collection_times": [{"days": "Mon-Sat", "time": "2:15pm"}, {"days": "Sun", "time": "Closed"}], "id": "6652100001", "name": "USPS COLLECTION BOX - BLUE BOX", "address": {"city": "ONAGA", "state": "KS", "street": "300 LUCIEN ST", "postcode": "66521"}}},
{"geometry": {"type": "Point", "coordinates": [-96.1717154716, 39.4897896469]}, "type": "Feature", "properties": {"collection_times": [{"days": "Mon-Fri", "time": "2:15pm"}, {"days": "Sat", "time": "9:45am"}, {"days": "Sun", "time": "Closed"}], "id": "6652100002", "name": "USPS COLLECTION BOX - PO LOBBY", "address": {"city": "ONAGA", "state": "KS", "street": "300 LUCIEN ST", "postcode": "66521"}}},
{"geometry": {"type": "Point", "coordinates": [-95.8255801479, 38.6343344309]}, "type": "Feature", "properties": {"collection_times": [{"days": "Mon-Sat", "time": "3:30pm"}, {"days": "Sun", "time": "Closed"}], "id": "6652300001", "name": "USPS COLLECTION BOX - BLUE BOX", "address": {"city": "OSAGE CITY", "state": "KS", "street": "123 S 6TH ST", "postcode": "66523"}}},
{"geometry": {"type": "Point", "coordinates": [-95.8255801479, 38.6343344309]}, "type": "Feature", "properties": {"collection_times": [{"days": "Mon-Sat", "time": "3:30pm"}, {"days": "Sun", "time": "Closed"}], "id": "6652300002", "name": "USPS COLLECTION BOX - BLUE BOX", "address": {"city": "OSAGE CITY", "state": "KS", "street": "123 S 6TH ST", "postcode": "66523"}}},
{"geometry": {"type": "Point", "coordinates": [-95.8255801479, 38.6343344309]}, "type": "Feature", "properties": {"collection_times": [{"days": "Mon-Sat", "time": "3:30pm"}, {"days": "Sun", "time": "Closed"}], "id": "6652300003", "name": "USPS COLLECTION BOX - BLUE BOX", "address": {"city": "OSAGE CITY", "state": "KS", "street": "123 S 6TH ST", "postcode": "66523"}}},
{"geometry": {"type": "Point", "coordinates": [-95.8255801479, 38.6343344309]}, "type": "Feature", "properties": {"collection_times": [{"days": "Mon-Fri", "time": "3:30pm"}, {"days": "Sat", "time": "9:45am"}, {"days": "Sun", "time": "Closed"}], "id": "6652300004", "name": "USPS COLLECTION BOX - PO LOBBY", "address": {"city": "OSAGE CITY", "state": "KS", "street": "123 S 6TH ST", "postcode": "66523"}}},
{"geometry": {"type": "Point", "coordinates": [-95.5566435293, 38.7801984952]}, "type": "Feature", "properties": {"collection_times": [{"days": "Mon-Sat", "time": "2:30pm"}, {"days": "Sun", "time": "Closed"}], "id": "6652400002", "name": "USPS COLLECTION BOX - BLUE BOX", "address": {"city": "OVERBROOK", "state": "KS", "street": "320 MAPLE ST", "postcode": "66524"}}},
{"geometry": {"type": "Point", "coordinates": [-95.5566435293, 38.7801984952]}, "type": "Feature", "properties": {"collection_times": [{"days": "Mon-Fri", "time": "2:15pm"}, {"days": "Sat", "time": "9:15am"}, {"days": "Sun", "time": "Closed"}], "id": "6652400003", "name": "USPS COLLECTION BOX - PO LOBBY", "address": {"city": "OVERBROOK", "state": "KS", "street": "320 MAPLE ST", "postcode": "66524"}}},
{"geometry": {"type": "Point", "coordinates": [-96.1689896303, 39.0686505915]}, "type": "Feature", "properties": {"collection_times": [{"days": "Mon-Sat", "time": "3:00pm"}, {"days": "Sun", "time": "Closed"}], "id": "6652600001", "name": "USPS COLLECTION BOX - BLUE BOX", "address": {"city": "PAXICO", "state": "KS", "street": "201 NEWBURY AVE", "postcode": "66526"}}},
{"geometry": {"type": "Point", "coordinates": [-96.1689896303, 39.0686505915]}, "type": "Feature", "properties": {"collection_times": [{"days": "Mon-Fri", "time": "2:30pm"}, {"days": "Sat", "time": "12:15pm"}, {"days": "Sun", "time": "Closed"}], "id": "6652600002", "name": "USPS COLLECTION BOX - PO LOBBY", "address": {"city": "PAXICO", "state": "KS", "street": "201 NEWBURY AVE", "postcode": "66526"}}},
{"geometry": {"type": "Point", "coordinates": [-95.6324197215, 39.7618277041]}, "type": "Feature", "properties": {"collection_times": [{"days": "Mon-Sat", "time": "2:45pm"}, {"days": "Sun", "time": "Closed"}], "id": "6652700001", "name": "USPS COLLECTION BOX - BLUE BOX", "address": {"city": "POWHATTAN", "state": "KS", "street": "302 MAIN ST", "postcode": "66527"}}},
{"geometry": {"type": "Point", "coordinates": [-95.6324197215, 39.7618277041]}, "type": "Feature", "properties": {"collection_times": [{"days": "Mon-Sat", "time": "12:00pm"}, {"days": "Sun", "time": "Closed"}], "id": "6652700002", "name": "USPS COLLECTION BOX - PO LOBBY", "address": {"city": "POWHATTAN", "state": "KS", "street": "302 MAIN ST", "postcode": "66527"}}},
{"geometry": {"type": "Point", "coordinates": [-95.5270266672, 38.5800263076]}, "type": "Feature", "properties": {"collection_times": [{"days": "Mon-Sat", "time": "2:00pm"}, {"days": "Sun", "time": "Closed"}], "id": "6652800001", "name": "USPS COLLECTION BOX - BLUE BOX", "address": {"city": "QUENEMO", "state": "KS", "street": "121 N 5TH ST", "postcode": "66528"}}},
{"geometry": {"type": "Point", "coordinates": [-95.5270266672, 38.5800263076]}, "type": "Feature", "properties": {"collection_times": [{"days": "Mon-Fri", "time": "11:45am"}, {"days": "Sat", "time": "9:15am"}, {"days": "Sun", "time": "Closed"}], "id": "6652800002", "name": "USPS COLLECTION BOX - PO LOBBY", "address": {"city": "QUENEMO", "state": "KS", "street": "121 N 5TH ST", "postcode": "66528"}}},
{"geometry": {"type": "Point", "coordinates": [-96.8250812784, 39.2985754605]}, "type": "Feature", "properties": {"collection_times": [{"days": "Mon-Sat", "time": "2:00pm"}, {"days": "Sun", "time": "Closed"}], "id": "6653100001", "name": "USPS COLLECTION BOX - BLUE BOX", "address": {"city": "RILEY", "state": "KS", "street": "122 S BROADWAY ST", "postcode": "66531"}}},
{"geometry": {"type": "Point", "coordinates": [-96.8250812784, 39.2985754605]}, "type": "Feature", "properties": {"collection_times": [{"days": "Mon-Fri", "time": "2:00pm"}, {"days": "Sat", "time": "9:15am"}, {"days": "Sun", "time": "Closed"}], "id": "6653100002", "name": "USPS COLLECTION BOX - PO LOBBY", "address": {"city": "RILEY", "state": "KS", "street": "122 S BROADWAY ST", "postcode": "66531"}}},
{"geometry": {"type": "Point", "coordinates": [-95.4104832111, 39.8158704367]}, "type": "Feature", "properties": {"collection_times": [{"days": "Mon-Sat", "time": "2:30pm"}, {"days": "Sun", "time": "Closed"}], "id": "6653200001", "name": "USPS COLLECTION BOX - BLUE BOX", "address": {"city": "ROBINSON", "state": "KS", "street": "117 PARSONS ST", "postcode": "66532"}}},
{"geometry": {"type": "Point", "coordinates": [-95.4104832111, 39.8158704367]}, "type": "Feature", "properties": {"collection_times": [{"days": "Mon-Fri", "time": "11:15am"}, {"days": "Sat", "time": "8:30am"}, {"days": "Sun", "time": "Closed"}], "id": "6653200002", "name": "USPS COLLECTION BOX - PO LOBBY", "address": {"city": "ROBINSON", "state": "KS", "street": "117 PARSONS ST", "postcode": "66532"}}},
{"geometry": {"type": "Point", "coordinates": [-95.9521068251, 39.1394807926]}, "type": "Feature", "properties": {"collection_times": [{"days": "Mon-Sat", "time": "3:45pm"}, {"days": "Sun", "time": "Closed"}], "id": "6653300001", "name": "USPS COLLECTION BOX - BLUE BOX", "address": {"city": "ROSSVILLE", "state": "KS", "street": "436 N MAIN ST", "postcode": "66533"}}},
{"geometry": {"type": "Point", "coordinates": [-95.9521068251, 39.1394807926]}, "type": "Feature", "properties": {"collection_times": [{"days": "Mon-Fri", "time": "3:45pm"}, {"days": "Sat", "time": "9:15am"}, {"days": "Sun", "time": "Closed"}], "id": "6653300002", "name": "USPS COLLECTION BOX - PO LOBBY", "address": {"city": "ROSSVILLE", "state": "KS", "street": "436 N MAIN ST", "postcode": "66533"}}},
{"geometry": {"type": "Point", "coordinates": [-95.8011057627, 39.9030036442]}, "type": "Feature", "properties": {"collection_times": [{"days": "Mon-Sat", "time": "2:00pm"}, {"days": "Sun", "time": "Closed"}], "id": "6653400001", "name": "USPS COLLECTION BOX - BLUE BOX", "address": {"city": "SABETHA", "state": "KS", "street": "122 S 9TH ST", "postcode": "66534"}}},
{"geometry": {"type": "Point", "coordinates": [-95.8011057627, 39.9030036442]}, "type": "Feature", "properties": {"collection_times": [{"days": "Mon-Sat", "time": "2:00pm"}, {"days": "Sun", "time": "Closed"}], "id": "6653400005", "name": "USPS COLLECTION BOX - BLUE BOX", "address": {"city": "SABETHA", "state": "KS", "street": "122 S 9TH ST", "postcode": "66534"}}},
{"geometry": {"type": "Point", "coordinates": [-95.8011057627, 39.9030036442]}, "type": "Feature", "properties": {"collection_times": [{"days": "Mon-Fri", "time": "2:00pm"}, {"days": "Sat", "time": "9:00am"}, {"days": "Sun", "time": "Closed"}], "id": "6653400006", "name": "USPS COLLECTION BOX - PO LOBBY", "address": {"city": "SABETHA", "state": "KS", "street": "122 S 9TH ST", "postcode": "66534"}}},
{"geometry": {"type": "Point", "coordinates": [-96.4223474983, 39.1908027636]}, "type": "Feature", "properties": {"collection_times": [{"days": "Mon-Sat", "time": "3:15pm"}, {"days": "Sun", "time": "Closed"}], "id": "6653500001", "name": "USPS COLLECTION BOX - BLUE BOX", "address": {"city": "SAINT GEORGE", "state": "KS", "street": "203 1ST ST", "postcode": "66535"}}},
{"geometry": {"type": "Point", "coordinates": [-96.4223474983, 39.1908027636]}, "type": "Feature", "properties": {"collection_times": [{"days": "Mon-Fri", "time": "3:15pm"}, {"days": "Sat", "time": "8:45am"}, {"days": "Sun", "time": "Closed"}], "id": "6653500004", "name": "USPS COLLECTION BOX - PO LOBBY", "address": {"city": "SAINT GEORGE", "state": "KS", "street": "203 1ST ST", "postcode": "66535"}}},
{"geometry": {"type": "Point", "coordinates": [-96.0691764437, 39.2049709247]}, "type": "Feature", "properties": {"collection_times": [{"days": "Mon-Sat", "time": "2:15pm"}, {"days": "Sun", "time": "Closed"}], "id": "6653600001", "name": "USPS COLLECTION BOX - BLUE BOX", "address": {"city": "SAINT MARYS", "state": "KS", "street": "118 S 6TH ST", "postcode": "66536"}}},
{"geometry": {"type": "Point", "coordinates": [-96.0691764437, 39.2049709247]}, "type": "Feature", "properties": {"collection_times": [{"days": "Mon-Fri", "time": "2:15pm"}, {"days": "Sat", "time": "9:15am"}, {"days": "Sun", "time": "Closed"}], "id": "6653600005", "name": "USPS COLLECTION BOX - PO LOBBY", "address": {"city": "SAINT MARYS", "state": "KS", "street": "118 S 6TH ST", "postcode": "66536"}}},
{"geometry": {"type": "Point", "coordinates": [-96.0691764437, 39.2049709247]}, "type": "Feature", "properties": {"collection_times": [{"days": "Mon-Fri", "time": "2:15pm"}, {"days": "Sat", "time": "9:15am"}, {"days": "Sun", "time": "Closed"}], "id": "6653600006", "name": "USPS COLLECTION BOX - PO LOBBY", "address": {"city": "SAINT MARYS", "state": "KS", "street": "118 S 6TH ST", "postcode": "66536"}}},
{"geometry": {"type": "Point", "coordinates": [-95.7386659644, 38.7814260436]}, "type": "Feature", "properties": {"collection_times": [{"days": "Mon-Sat", "time": "3:00pm"}, {"days": "Sun", "time": "Closed"}], "id": "6653700001", "name": "USPS COLLECTION BOX - BLUE BOX", "address": {"city": "SCRANTON", "state": "KS", "street": "324 S BROWNIE BLVD", "postcode": "66537"}}},
{"geometry": {"type": "Point", "coordinates": [-95.7386659644, 38.7814260436]}, "type": "Feature", "properties": {"collection_times": [{"days": "Mon-Fri", "time": "10:45am"}, {"days": "Sat", "time": "9:15am"}, {"days": "Sun", "time": "Closed"}], "id": "6653700002", "name": "USPS COLLECTION BOX - PO LOBBY", "address": {"city": "SCRANTON", "state": "KS", "street": "324 S BROWNIE BLVD", "postcode": "66537"}}},
{"geometry": {"type": "Point", "coordinates": [-96.0641221453, 39.8343587842]}, "type": "Feature", "properties": {"collection_times": [{"days": "Mon-Sat", "time": "3:00pm"}, {"days": "Sun", "time": "Closed"}], "id": "6653800001", "name": "USPS COLLECTION BOX - BLUE BOX", "address": {"city": "SENECA", "state": "KS", "street": "607 MAIN ST", "postcode": "66538"}}},
{"geometry": {"type": "Point", "coordinates": [-96.062708619, 39.8342522125]}, "type": "Feature", "properties": {"collection_times": [{"days": "Mon-Sat", "time": "1:00pm"}, {"days": "Sun", "time": "Closed"}], "id": "6653800002", "name": "USPS COLLECTION BOX - BLUE BOX", "address": {"city": "SENECA", "state": "KS", "street": "502 MAIN ST", "postcode": "66538"}}},
{"geometry": {"type": "Point", "coordinates": [-96.0641386312, 39.8363635032]}, "type": "Feature", "properties": {"collection_times": [{"days": "Mon-Sat", "time": "1:15pm"}, {"days": "Sun", "time": "Closed"}], "id": "6653800005", "name": "USPS COLLECTION BOX - BLUE BOX", "address": {"city": "SENECA", "state": "KS", "street": "607 NEMAHA ST", "postcode": "66538"}}},
{"geometry": {"type": "Point", "coordinates": [-96.0641221453, 39.8343587842]}, "type": "Feature", "properties": {"collection_times": [{"days": "Mon-Sat", "time": "3:00pm"}, {"days": "Sun", "time": "Closed"}], "id": "6653800009", "name": "USPS COLLECTION BOX - BLUE BOX", "address": {"city": "SENECA", "state": "KS", "street": "607 MAIN ST", "postcode": "66538"}}},
{"geometry": {"type": "Point", "coordinates": [-96.0641221453, 39.8343587842]}, "type": "Feature", "properties": {"collection_times": [{"days": "Mon-Fri", "time": "3:00pm"}, {"days": "Sat", "time": "10:30am"}, {"days": "Sun", "time": "Closed"}], "id": "6653800010", "name": "USPS COLLECTION BOX - PO LOBBY", "address": {"city": "SENECA", "state": "KS", "street": "607 MAIN ST", "postcode": "66538"}}},
{"geometry": {"type": "Point", "coordinates": [-95.8608528188, 39.1054944175]}, "type": "Feature", "properties": {"collection_times": [{"days": "Mon-Sat", "time": "3:45pm"}, {"days": "Sun", "time": "Closed"}], "id": "6653900001", "name": "USPS COLLECTION BOX - BLUE BOX", "address": {"city": "SILVER LAKE", "state": "KS", "street": "102 BEAUBEIN AVE", "postcode": "66539"}}},
{"geometry": {"type": "Point", "coordinates": [-95.8567540029, 39.0946020497]}, "type": "Feature", "properties": {"collection_times": [{"days": "Mon-Sat", "time": "9:15am"}, {"days": "Sun", "time": "Closed"}], "id": "6653900002", "name": "USPS COLLECTION BOX - BLUE BOX", "address": {"city": "SILVER LAKE", "state": "KS", "street": "10020 NW US HIGHWAY 24", "postcode": "66539"}}},
{"geometry": {"type": "Point", "coordinates": [-95.8608528188, 39.1054944175]}, "type": "Feature", "properties": {"collection_times": [{"days": "Mon-Fri", "time": "3:45pm"}, {"days": "Sat", "time": "9:15am"}, {"days": "Sun", "time": "Closed"}], "id": "6653900003", "name": "USPS COLLECTION BOX - PO LOBBY", "address": {"city": "SILVER LAKE", "state": "KS", "street": "102 BEAUBEIN AVE", "postcode": "66539"}}},
{"geometry": {"type": "Point", "coordinates": [-95.9625278451, 39.535026618]}, "type": "Feature", "properties": {"collection_times": [{"days": "Mon-Sat", "time": "1:30pm"}, {"days": "Sun", "time": "Closed"}], "id": "6654000001", "name": "USPS COLLECTION BOX - BLUE BOX", "address": {"city": "HAVENSVILLE", "state": "KS", "street": "205 1ST ST", "postcode": "66540"}}},
{"geometry": {"type": "Point", "coordinates": [-95.9625278451, 39.535026618]}, "type": "Feature", "properties": {"collection_times": [{"days": "Mon-Fri", "time": "11:45am"}, {"days": "Sat", "time": "9:00am"}, {"days": "Sun", "time": "Closed"}], "id": "6654000002", "name": "USPS COLLECTION BOX - PO LOBBY", "address": {"city": "HAVENSVILLE", "state": "KS", "street": "205 1ST ST", "postcode": "66540"}}},
{"geometry": {"type": "Point", "coordinates": [-96.0765322608, 39.5128628492]}, "type": "Feature", "properties": {"collection_times": [{"days": "Mon-Sat", "time": "2:10pm"}, {"days": "Sun", "time": "Closed"}], "id": "6654000003", "name": "USPS COLLECTION BOX - BLUE BOX", "address": {"city": "HAVENSVILLE", "state": "KS", "street": "321 COMMERCIAL ST", "postcode": "66540"}}},
{"geometry": {"type": "Point", "coordinates": [-96.3484917568, 39.9950355857]}, "type": "Feature", "properties": {"collection_times": [{"days": "Mon-Sat", "time": "2:15pm"}, {"days": "Sun", "time": "Closed"}], "id": "6654100001", "name": "USPS COLLECTION BOX - BLUE BOX", "address": {"city": "SUMMERFIELD", "state": "KS", "street": "320 MAIN ST", "postcode": "66541"}}},
{"geometry": {"type": "Point", "coordinates": [-96.3484917568, 39.9950355857]}, "type": "Feature", "properties": {"collection_times": [{"days": "Mon-Fri", "time": "11:45am"}, {"days": "Sat", "time": "9:15am"}, {"days": "Sun", "time": "Closed"}], "id": "6654100002", "name": "USPS COLLECTION BOX - PO LOBBY", "address": {"city": "SUMMERFIELD", "state": "KS", "street": "320 MAIN ST", "postcode": "66541"}}},
{"geometry": {"type": "Point", "coordinates": [-95.5821051749, 39.0491352374]}, "type": "Feature", "properties": {"collection_times": [{"days": "Mon-Sat", "time": "4:00pm"}, {"days": "Sun", "time": "Closed"}], "id": "6654200001", "name": "USPS COLLECTION BOX - BLUE BOX", "address": {"city": "TECUMSEH", "state": "KS", "street": "339 SE TECUMSEH RD", "postcode": "66542"}}},
{"geometry": {"type": "Point", "coordinates": [-95.5821051749, 39.0491352374]}, "type": "Feature", "properties": {"collection_times": [{"days": "Mon-Fri", "time": "11:45am"}, {"days": "Sat", "time": "8:45am"}, {"days": "Sun", "time": "Closed"}], "id": "6654200002", "name": "USPS COLLECTION BOX - PO LOBBY", "address": {"city": "TECUMSEH", "state": "KS", "street": "339 SE TECUMSEH RD", "postcode": "66542"}}},
{"geometry": {"type": "Point", "coordinates": [-95.6091124296, 38.6408164418]}, "type": "Feature", "properties": {"collection_times": [{"days": "Mon-Sat", "time": "2:00pm"}, {"days": "Sun", "time": "Closed"}], "id": "6654300001", "name": "USPS COLLECTION BOX - BLUE BOX", "address": {"city": "VASSAR", "state": "KS", "street": "130 TOPEKA ST", "postcode": "66543"}}},
{"geometry": {"type": "Point", "coordinates": [-95.6091124296, 38.6408164418]}, "type": "Feature", "properties": {"collection_times": [{"days": "Mon-Fri", "time": "11:45am"}, {"days": "Sat", "time": "8:00am"}, {"days": "Sun", "time": "Closed"}], "id": "6654300002", "name": "USPS COLLECTION BOX - PO LOBBY", "address": {"city": "VASSAR", "state": "KS", "street": "130 TOPEKA ST", "postcode": "66543"}}},
{"geometry": {"type": "Point", "coordinates": [-95.6965204446, 38.8840506009]}, "type": "Feature", "properties": {"collection_times": [{"days": "Mon-Sat", "time": "3:30pm"}, {"days": "Sun", "time": "Closed"}], "id": "6654600001", "name": "USPS COLLECTION BOX - BLUE BOX", "address": {"city": "WAKARUSA", "state": "KS", "street": "10120 SW JORDAN RD", "postcode": "66546"}}},
{"geometry": {"type": "Point", "coordinates": [-95.6965204446, 38.8840506009]}, "type": "Feature", "properties": {"collection_times": [{"days": "Mon-Fri", "time": "3:30pm"}, {"days": "Sat", "time": "1:45pm"}, {"days": "Sun", "time": "Closed"}], "id": "6654600002", "name": "USPS COLLECTION BOX - PO LOBBY", "address": {"city": "WAKARUSA", "state": "KS", "street": "10120 SW JORDAN RD", "postcode": "66546"}}},
{"geometry": {"type": "Point", "coordinates": [-96.3051753297, 39.2021191252]}, "type": "Feature", "properties": {"collection_times": [{"days": "Mon-Sat", "time": "3:15pm"}, {"days": "Sun", "time": "Closed"}], "id": "6654700002", "name": "USPS COLLECTION BOX - BLUE BOX", "address": {"city": "WAMEGO", "state": "KS", "street": "807 5TH ST", "postcode": "66547"}}},
{"geometry": {"type": "Point", "coordinates": [-96.3051753297, 39.2021191252]}, "type": "Feature", "properties": {"collection_times": [{"days": "Mon-Sat", "time": "3:15pm"}, {"days": "Sun", "time": "Closed"}], "id": "6654700003", "name": "USPS COLLECTION BOX - BLUE BOX", "address": {"city": "WAMEGO", "state": "KS", "street": "807 5TH ST", "postcode": "66547"}}},
{"geometry": {"type": "Point", "coordinates": [-96.3051753297, 39.2021191252]}, "type": "Feature", "properties": {"collection_times": [{"days": "Mon-Sat", "time": "3:15pm"}, {"days": "Sun", "time": "Closed"}], "id": "6654700008", "name": "USPS COLLECTION BOX - PO LOBBY", "address": {"city": "WAMEGO", "state": "KS", "street": "807 5TH ST", "postcode": "66547"}}},
{"geometry": {"type": "Point", "coordinates": [-96.3051753297, 39.2021191252]}, "type": "Feature", "properties": {"collection_times": [{"days": "Mon-Sat", "time": "3:15pm"}, {"days": "Sun", "time": "Closed"}], "id": "6654700009", "name": "USPS COLLECTION BOX - PO LOBBY", "address": {"city": "WAMEGO", "state": "KS", "street": "807 5TH ST", "postcode": "66547"}}},
{"geometry": {"type": "Point", "coordinates": [-96.7494019124, 39.690829878]}, "type": "Feature", "properties": {"collection_times": [{"days": "Mon-Sat", "time": "1:45pm"}, {"days": "Sun", "time": "Closed"}], "id": "6654800001", "name": "USPS COLLECTION BOX - BLUE BOX", "address": {"city": "WATERVILLE", "state": "KS", "street": "102 S NEBRASKA ST", "postcode": "66548"}}},
{"geometry": {"type": "Point", "coordinates": [-96.7494019124, 39.690829878]}, "type": "Feature", "properties": {"collection_times": [{"days": "Mon-Fri", "time": "1:45pm"}, {"days": "Sat", "time": "9:15am"}, {"days": "Sun", "time": "Closed"}], "id": "6654800002", "name": "USPS COLLECTION BOX - PO LOBBY", "address": {"city": "WATERVILLE", "state": "KS", "street": "102 S NEBRASKA ST", "postcode": "66548"}}},
{"geometry": {"type": "Point", "coordinates": [-96.4160416079, 39.3930112756]}, "type": "Feature", "properties": {"collection_times": [{"days": "Mon-Sat", "time": "2:15pm"}, {"days": "Sun", "time": "Closed"}], "id": "6654900001", "name": "USPS COLLECTION BOX - BLUE BOX", "address": {"city": "WESTMORELAND", "state": "KS", "street": "306 MAIN ST", "postcode": "66549"}}},
{"geometry": {"type": "Point", "coordinates": [-96.4160416079, 39.3930112756]}, "type": "Feature", "properties": {"collection_times": [{"days": "Mon-Fri", "time": "2:15pm"}, {"days": "Sat", "time": "9:45am"}, {"days": "Sun", "time": "Closed"}], "id": "6654900002", "name": "USPS COLLECTION BOX - PO LOBBY", "address": {"city": "WESTMORELAND", "state": "KS", "street": "306 MAIN ST", "postcode": "66549"}}},
{"geometry": {"type": "Point", "coordinates": [-95.8108873523, 39.6317537842]}, "type": "Feature", "properties": {"collection_times": [{"days": "Mon-Sat", "time": "4:00pm"}, {"days": "Sun", "time": "Closed"}], "id": "6655000001", "name": "USPS COLLECTION BOX - BLUE BOX", "address": {"city": "WETMORE", "state": "KS", "street": "321 2ND ST", "postcode": "66550"}}},
{"geometry": {"type": "Point", "coordinates": [-95.8108873523, 39.6317537842]}, "type": "Feature", "properties": {"collection_times": [{"days": "Mon-Fri", "time": "10:45am"}, {"days": "Sat", "time": "8:45am"}, {"days": "Sun", "time": "Closed"}], "id": "6655000002", "name": "USPS COLLECTION BOX - PO LOBBY", "address": {"city": "WETMORE", "state": "KS", "street": "321 2ND ST", "postcode": "66550"}}},
{"geometry": {"type": "Point", "coordinates": [-95.6123500913, 39.5882359168]}, "type": "Feature", "properties": {"collection_times": [{"days": "Mon-Sat", "time": "3:30pm"}, {"days": "Sun", "time": "Closed"}], "id": "6655200001", "name": "USPS COLLECTION BOX - BLUE BOX", "address": {"city": "WHITING", "state": "KS", "street": "230 WHITING ST", "postcode": "66552"}}},
{"geometry": {"type": "Point", "coordinates": [-95.6123500913, 39.5882359168]}, "type": "Feature", "properties": {"collection_times": [{"days": "Mon-Fri", "time": "11:00am"}, {"days": "Sat", "time": "8:30am"}, {"days": "Sun", "time": "Closed"}], "id": "6655200002", "name": "USPS COLLECTION BOX - PO LOBBY", "address": {"city": "WHITING", "state": "KS", "street": "230 WHITING ST", "postcode": "66552"}}},
{"geometry": {"type": "Point", "coordinates": [-96.7669357105, 39.5012296375]}, "type": "Feature", "properties": {"collection_times": [{"days": "Mon-Sat", "time": "2:00pm"}, {"days": "Sun", "time": "Closed"}], "id": "6655400001", "name": "USPS COLLECTION BOX - BLUE BOX", "address": {"city": "RANDOLPH", "state": "KS", "street": "117 W RANDOLPH ST", "postcode": "66554"}}},
{"geometry": {"type": "Point", "coordinates": [-96.7669357105, 39.5012296375]}, "type": "Feature", "properties": {"collection_times": [{"days": "Mon-Fri", "time": "11:30am"}, {"days": "Sat", "time": "8:30am"}, {"days": "Sun", "time": "Closed"}], "id": "6655400002", "name": "USPS COLLECTION BOX - PO LOBBY", "address": {"city": "RANDOLPH", "state": "KS", "street": "117 W RANDOLPH ST", "postcode": "66554"}}}
]}
