{"type": "FeatureCollection", "features": [
{"geometry": {"type": "Point", "coordinates": [-95.6757361956, 39.0536039681]}, "type": "Feature", "properties": {"collection_times": [{"days": "Mon-Fri", "time": "5:00pm"}, {"days": "Sat", "time": "3:00pm"}, {"days": "Sun", "time": "Closed"}], "id": "6660300006", "name": "USPS COLLECTION BOX - BLUE BOX", "address": {"city": "TOPEKA", "state": "KS", "street": "424 S KANSAS AVE", "postcode": "66603"}}},
{"geometry": {"type": "Point", "coordinates": [-95.6762916275, 39.0556118897]}, "type": "Feature", "properties": {"collection_times": [{"days": "Mon-Fri", "time": "2:00pm"}, {"days": "Sat-Sun", "time": "Closed"}], "id": "6660300010", "name": "USPS COLLECTION BOX - BLUE BOX", "address": {"city": "TOPEKA", "state": "KS", "street": "335 SW HARRISON ST", "postcode": "66603"}}},
{"geometry": {"type": "Point", "coordinates": [-95.6762916275, 39.0556118897]}, "type": "Feature", "properties": {"collection_times": [{"days": "Mon-Fri", "time": "2:00pm"}, {"days": "Sat-Sun", "time": "Closed"}], "id": "6660300011", "name": "USPS COLLECTION BOX - BLUE BOX", "address": {"city": "TOPEKA", "state": "KS", "street": "335 SW HARRISON ST", "postcode": "66603"}}},
{"geometry": {"type": "Point", "coordinates": [-95.6729489677, 39.0517025352]}, "type": "Feature", "properties": {"collection_times": [{"days": "Mon-Fri", "time": "2:15pm"}, {"days": "Sat-Sun", "time": "Closed"}], "id": "6660300014", "name": "USPS COLLECTION BOX - BLUE BOX", "address": {"city": "TOPEKA", "state": "KS", "street": "120 SE 6TH AVE", "postcode": "66603"}}},
{"geometry": {"type": "Point", "coordinates": [-95.6738693785, 39.0502108245]}, "type": "Feature", "properties": {"collection_times": [{"days": "Mon-Fri", "time": "2:05pm"}, {"days": "Sat-Sun", "time": "Closed"}], "id": "6660300020", "name": "USPS COLLECTION BOX - BLUE BOX", "address": {"city": "TOPEKA", "state": "KS", "street": "700 S KANSAS AVE", "postcode": "66603"}}},
{"geometry": {"type": "Point", "coordinates": [-95.6757361956, 39.0536039681]}, "type": "Feature", "properties": {"collection_times": [{"days": "Mon-Fri", "time": "5:00pm"}, {"days": "Sat", "time": "3:00pm"}, {"days": "Sun", "time": "Closed"}], "id": "6660300063", "name": "USPS COLLECTION BOX - PO LOBBY", "address": {"city": "TOPEKA", "state": "KS", "street": "424 S KANSAS AVE", "postcode": "66603"}}},
{"geometry": {"type": "Point", "coordinates": [-95.6757361956, 39.0536039681]}, "type": "Feature", "properties": {"collection_times": [{"days": "Mon-Fri", "time": "5:00pm"}, {"days": "Sat", "time": "3:00pm"}, {"days": "Sun", "time": "Closed"}], "id": "6660300069", "name": "USPS COLLECTION BOX - PO LOBBY", "address": {"city": "TOPEKA", "state": "KS", "street": "424 S KANSAS AVE", "postcode": "66603"}}},
{"geometry": {"type": "Point", "coordinates": [-95.6757361956, 39.0536039681]}, "type": "Feature", "properties": {"collection_times": [{"days": "Mon-Fri", "time": "5:00pm"}, {"days": "Sat", "time": "3:00pm"}, {"days": "Sun", "time": "Closed"}], "id": "6660300070", "name": "USPS COLLECTION BOX - PO LOBBY", "address": {"city": "TOPEKA", "state": "KS", "street": "424 S KANSAS AVE", "postcode": "66603"}}},
{"geometry": {"type": "Point", "coordinates": [-95.7281666284, 39.041932718]}, "type": "Feature", "properties": {"collection_times": [{"days": "Mon-Fri", "time": "5:00pm"}, {"days": "Sat", "time": "4:00pm"}, {"days": "Sun", "time": "Closed"}], "id": "6660400001", "name": "USPS COLLECTION BOX - BLUE BOX", "address": {"city": "TOPEKA", "state": "KS", "street": "1430 SW WOODHULL ST", "postcode": "66604"}}},
{"geometry": {"type": "Point", "coordinates": [-95.7434114229, 39.0376053669]}, "type": "Feature", "properties": {"collection_times": [{"days": "Mon-Sat", "time": "3:25pm"}, {"days": "Sun", "time": "Closed"}], "id": "6660400012", "name": "USPS COLLECTION BOX - BLUE BOX", "address": {"city": "TOPEKA", "state": "KS", "street": "1635 SW FAIRLAWN RD", "postcode": "66604"}}},
{"geometry": {"type": "Point", "coordinates": [-95.7100682301, 39.0296337964]}, "type": "Feature", "properties": {"collection_times": [{"days": "Mon-Sat", "time": "3:00pm"}, {"days": "Sun", "time": "Closed"}], "id": "6660400027", "name": "USPS COLLECTION BOX - BLUE BOX", "address": {"city": "TOPEKA", "state": "KS", "street": "2621 SW 21ST ST", "postcode": "66604"}}},
{"geometry": {"type": "Point", "coordinates": [-95.7619160471, 39.0355181256]}, "type": "Feature", "properties": {"collection_times": [{"days": "Mon-Sat", "time": "3:35pm"}, {"days": "Sun", "time": "Closed"}], "id": "6660400053", "name": "USPS COLLECTION BOX - BLUE BOX", "address": {"city": "TOPEKA", "state": "KS", "street": "1740 SW WANAMAKER RD", "postcode": "66604"}}},
{"geometry": {"type": "Point", "coordinates": [-95.7619160471, 39.0355181256]}, "type": "Feature", "properties": {"collection_times": [{"days": "Mon-Sat", "time": "3:35pm"}, {"days": "Sun", "time": "Closed"}], "id": "6660400054", "name": "USPS COLLECTION BOX - BLUE BOX", "address": {"city": "TOPEKA", "state": "KS", "street": "1740 SW WANAMAKER RD", "postcode": "66604"}}},
{"geometry": {"type": "Point", "coordinates": [-95.7281666284, 39.041932718]}, "type": "Feature", "properties": {"collection_times": [{"days": "Mon-Fri", "time": "5:00pm"}, {"days": "Sat", "time": "4:00pm"}, {"days": "Sun", "time": "Closed"}], "id": "6660400055", "name": "USPS COLLECTION BOX - PO LOBBY", "address": {"city": "TOPEKA", "state": "KS", "street": "1430 SW WOODHULL ST", "postcode": "66604"}}},
{"geometry": {"type": "Point", "coordinates": [-95.7617055588, 39.046390449]}, "type": "Feature", "properties": {"collection_times": [{"days": "Mon-Sat", "time": "3:45pm"}, {"days": "Sun", "time": "Closed"}], "id": "6660400057", "name": "USPS COLLECTION BOX - BLUE BOX", "address": {"city": "TOPEKA", "state": "KS", "street": "1133 SW WANAMAKER RD", "postcode": "66604"}}},
{"geometry": {"type": "Point", "coordinates": [-95.7281666284, 39.041932718]}, "type": "Feature", "properties": {"collection_times": [{"days": "Mon-Fri", "time": "5:00pm"}, {"days": "Sat", "time": "4:00pm"}, {"days": "Sun", "time": "Closed"}], "id": "6660400059", "name": "USPS COLLECTION BOX - PO LOBBY", "address": {"city": "TOPEKA", "state": "KS", "street": "1430 SW WOODHULL ST", "postcode": "66604"}}},
{"geometry": {"type": "Point", "coordinates": [-95.7281666284, 39.041932718]}, "type": "Feature", "properties": {"collection_times": [{"days": "Mon-Fri", "time": "5:00pm"}, {"days": "Sat", "time": "4:00pm"}, {"days": "Sun", "time": "Closed"}], "id": "6660400060", "name": "USPS COLLECTION BOX - PO LOBBY", "address": {"city": "TOPEKA", "state": "KS", "street": "1430 SW WOODHULL ST", "postcode": "66604"}}},
{"geometry": {"type": "Point", "coordinates": [-95.6437395751, 39.0151419794]}, "type": "Feature", "properties": {"collection_times": [{"days": "Mon-Fri", "time": "5:00pm"}, {"days": "Sat", "time": "2:55pm"}, {"days": "Sun", "time": "Closed"}], "id": "6660500000", "name": "USPS COLLECTION BOX - BLUE BOX", "address": {"city": "TOPEKA", "state": "KS", "street": "2921 SE ADAMS ST", "postcode": "66605"}}},
{"geometry": {"type": "Point", "coordinates": [-95.6515459427, 39.015067972]}, "type": "Feature", "properties": {"collection_times": [{"days": "Mon-Fri", "time": "2:40pm"}, {"days": "Sat", "time": "2:48pm"}, {"days": "Sun", "time": "Closed"}], "id": "6660500003", "name": "USPS COLLECTION BOX - BLUE BOX", "address": {"city": "TOPEKA", "state": "KS", "street": "2009 SE 29TH ST", "postcode": "66605"}}},
{"geometry": {"type": "Point", "coordinates": [-95.6437395751, 39.0151419794]}, "type": "Feature", "properties": {"collection_times": [{"days": "Mon-Fri", "time": "5:00pm"}, {"days": "Sat", "time": "2:53pm"}, {"days": "Sun", "time": "Closed"}], "id": "6660500021", "name": "USPS COLLECTION BOX - PO LOBBY", "address": {"city": "TOPEKA", "state": "KS", "street": "2921 SE ADAMS ST", "postcode": "66605"}}},
{"geometry": {"type": "Point", "coordinates": [-95.6437395751, 39.0151419794]}, "type": "Feature", "properties": {"collection_times": [{"days": "Mon-Fri", "time": "5:00pm"}, {"days": "Sat", "time": "2:53pm"}, {"days": "Sun", "time": "Closed"}], "id": "6660500022", "name": "USPS COLLECTION BOX - PO LOBBY", "address": {"city": "TOPEKA", "state": "KS", "street": "2921 SE ADAMS ST", "postcode": "66605"}}},
{"geometry": {"type": "Point", "coordinates": [-95.698616833, 39.0533996175]}, "type": "Feature", "properties": {"collection_times": [{"days": "Mon-Fri", "time": "3:12pm"}, {"days": "Sat-Sun", "time": "Closed"}], "id": "6660600002", "name": "USPS COLLECTION BOX - BLUE BOX", "address": {"city": "TOPEKA", "state": "KS", "street": "900 SW MULVANE ST", "postcode": "66606"}}},
{"geometry": {"type": "Point", "coordinates": [-95.6630129556, 39.0877261201]}, "type": "Feature", "properties": {"collection_times": [{"days": "Mon-Fri", "time": "5:00pm"}, {"days": "Sat", "time": "2:00pm"}, {"days": "Sun", "time": "Closed"}], "id": "6660800014", "name": "USPS COLLECTION BOX - BLUE BOX", "address": {"city": "TOPEKA", "state": "KS", "street": "220 NW LYMAN RD", "postcode": "66608"}}},
{"geometry": {"type": "Point", "coordinates": [-95.6678978057, 39.07882238]}, "type": "Feature", "properties": {"collection_times": [{"days": "Mon-Fri", "time": "5:00pm"}, {"days": "Sat", "time": "4:00pm"}, {"days": "Sun", "time": "Closed"}], "id": "6660800018", "name": "USPS COLLECTION BOX - PO LOBBY", "address": {"city": "TOPEKA", "state": "KS", "street": "220 NW LYMAN RD", "postcode": "66608"}}},
{"geometry": {"type": "Point", "coordinates": [-95.6678978057, 39.07882238]}, "type": "Feature", "properties": {"collection_times": [{"days": "Mon-Fri", "time": "5:00pm"}, {"days": "Sat", "time": "4:00pm"}, {"days": "Sun", "time": "Closed"}], "id": "6660800019", "name": "USPS COLLECTION BOX - PO LOBBY", "address": {"city": "TOPEKA", "state": "KS", "street": "220 NW LYMAN RD", "postcode": "66608"}}},
{"geometry": {"type": "Point", "coordinates": [-95.6678978057, 39.07882238]}, "type": "Feature", "properties": {"collection_times": [{"days": "Mon-Fri", "time": "5:00pm"}, {"days": "Sat", "time": "4:00pm"}, {"days": "Sun", "time": "Closed"}], "id": "6660800020", "name": "USPS COLLECTION BOX - PO LOBBY", "address": {"city": "TOPEKA", "state": "KS", "street": "220 NW LYMAN RD", "postcode": "66608"}}},
{"geometry": {"type": "Point", "coordinates": [-95.6678978057, 39.07882238]}, "type": "Feature", "properties": {"collection_times": [{"days": "Mon-Fri", "time": "5:00pm"}, {"days": "Sat", "time": "4:00pm"}, {"days": "Sun", "time": "Closed"}], "id": "6660800021", "name": "USPS COLLECTION BOX - PO LOBBY", "address": {"city": "TOPEKA", "state": "KS", "street": "220 NW LYMAN RD", "postcode": "66608"}}},
{"geometry": {"type": "Point", "coordinates": [-95.7026478917, 38.9950674563]}, "type": "Feature", "properties": {"collection_times": [{"days": "Mon-Fri", "time": "3:30pm"}, {"days": "Sat-Sun", "time": "Closed"}], "id": "6660900002", "name": "USPS COLLECTION BOX - BLUE BOX", "address": {"city": "TOPEKA", "state": "KS", "street": "4101 SW SOUTHGATE DR", "postcode": "66609"}}},
{"geometry": {"type": "Point", "coordinates": [-95.7058076384, 39.0005692841]}, "type": "Feature", "properties": {"collection_times": [{"days": "Mon-Fri", "time": "3:20pm"}, {"days": "Sat", "time": "2:00pm"}, {"days": "Sun", "time": "Closed"}], "id": "6660900007", "name": "USPS COLLECTION BOX - BLUE BOX", "address": {"city": "TOPEKA", "state": "KS", "street": "3700 SW BURLINGAME RD", "postcode": "66609"}}},
{"geometry": {"type": "Point", "coordinates": [-95.687733201, 39.0151556668]}, "type": "Feature", "properties": {"collection_times": [{"days": "Mon-Fri", "time": "3:15pm"}, {"days": "Sat", "time": "2:30pm"}, {"days": "Sun", "time": "Closed"}], "id": "6661100007", "name": "USPS COLLECTION BOX - BLUE BOX", "address": {"city": "TOPEKA", "state": "KS", "street": "2901 SW TOPEKA BLVD", "postcode": "66611"}}},
{"geometry": {"type": "Point", "coordinates": [-95.694328763, 39.0005447094]}, "type": "Feature", "properties": {"collection_times": [{"days": "Mon-Fri", "time": "3:18pm"}, {"days": "Sat", "time": "2:20pm"}, {"days": "Sun", "time": "Closed"}], "id": "6661100010", "name": "USPS COLLECTION BOX - BLUE BOX", "address": {"city": "TOPEKA", "state": "KS", "street": "1301 SW 37TH ST", "postcode": "66611"}}},
{"geometry": {"type": "Point", "coordinates": [-95.6875115679, 39.0016595662]}, "type": "Feature", "properties": {"collection_times": [{"days": "Mon-Fri", "time": "3:17pm"}, {"days": "Sat", "time": "2:00pm"}, {"days": "Sun", "time": "Closed"}], "id": "6661100012", "name": "USPS COLLECTION BOX - BLUE BOX", "address": {"city": "TOPEKA", "state": "KS", "street": "3650 SW TOPEKA BLVD", "postcode": "66611"}}},
{"geometry": {"type": "Point", "coordinates": [-95.6875115679, 39.0016595662]}, "type": "Feature", "properties": {"collection_times": [{"days": "Mon-Fri", "time": "3:17pm"}, {"days": "Sat", "time": "2:00pm"}, {"days": "Sun", "time": "Closed"}], "id": "6661100013", "name": "USPS COLLECTION BOX - BLUE BOX", "address": {"city": "TOPEKA", "state": "KS", "street": "3650 SW TOPEKA BLVD", "postcode": "66611"}}},
{"geometry": {"type": "Point", "coordinates": [-95.6736464869, 39.046941983]}, "type": "Feature", "properties": {"collection_times": [{"days": "Mon-Fri", "time": "2:18pm"}, {"days": "Sat-Sun", "time": "Closed"}], "id": "6661200008", "name": "USPS COLLECTION BOX - BLUE BOX", "address": {"city": "TOPEKA", "state": "KS", "street": "900 SE QUINCY ST", "postcode": "66612"}}},
{"geometry": {"type": "Point", "coordinates": [-95.6795923637, 39.0482944971]}, "type": "Feature", "properties": {"collection_times": [{"days": "Mon-Fri", "time": "2:05pm"}, {"days": "Sat-Sun", "time": "Closed"}], "id": "6661200018", "name": "USPS COLLECTION BOX - BLUE BOX", "address": {"city": "TOPEKA", "state": "KS", "street": "915 SW HARRISON ST", "postcode": "66612"}}},
{"geometry": {"type": "Point", "coordinates": [-95.7452415056, 39.0291573954]}, "type": "Feature", "properties": {"collection_times": [{"days": "Mon-Fri", "time": "3:20pm"}, {"days": "Sat", "time": "2:10pm"}, {"days": "Sun", "time": "Closed"}], "id": "6661400001", "name": "USPS COLLECTION BOX - BLUE BOX", "address": {"city": "TOPEKA", "state": "KS", "street": "5325 SW 21ST ST", "postcode": "66614"}}},
{"geometry": {"type": "Point", "coordinates": [-95.7452415056, 39.0291573954]}, "type": "Feature", "properties": {"collection_times": [{"days": "Mon-Fri", "time": "3:20pm"}, {"days": "Sat", "time": "2:10pm"}, {"days": "Sun", "time": "Closed"}], "id": "6661400002", "name": "USPS COLLECTION BOX - BLUE BOX", "address": {"city": "TOPEKA", "state": "KS", "street": "5325 SW 21ST ST", "postcode": "66614"}}},
{"geometry": {"type": "Point", "coordinates": [-95.7259833773, 39.0148370511]}, "type": "Feature", "properties": {"collection_times": [{"days": "Mon-Fri", "time": "3:10pm"}, {"days": "Sat", "time": "1:55pm"}, {"days": "Sun", "time": "Closed"}], "id": "6661400004", "name": "USPS COLLECTION BOX - BLUE BOX", "address": {"city": "TOPEKA", "state": "KS", "street": "2900 SW GAGE BLVD", "postcode": "66614"}}},
{"geometry": {"type": "Point", "coordinates": [-95.7160238104, 39.0149898152]}, "type": "Feature", "properties": {"collection_times": [{"days": "Mon-Fri", "time": "3:12pm"}, {"days": "Sat", "time": "2:00pm"}, {"days": "Sun", "time": "Closed"}], "id": "6661400006", "name": "USPS COLLECTION BOX - BLUE BOX", "address": {"city": "TOPEKA", "state": "KS", "street": "2900 SW OAKLEY AVE", "postcode": "66614"}}},
{"geometry": {"type": "Point", "coordinates": [-95.7160238104, 39.0149898152]}, "type": "Feature", "properties": {"collection_times": [{"days": "Mon-Fri", "time": "3:12pm"}, {"days": "Sat", "time": "2:00pm"}, {"days": "Sun", "time": "Closed"}], "id": "6661400007", "name": "USPS COLLECTION BOX - BLUE BOX", "address": {"city": "TOPEKA", "state": "KS", "street": "2900 SW OAKLEY AVE", "postcode": "66614"}}},
{"geometry": {"type": "Point", "coordinates": [-95.7517144146, 39.0147217233]}, "type": "Feature", "properties": {"collection_times": [{"days": "Mon-Fri", "time": "3:05pm"}, {"days": "Sat", "time": "1:50pm"}, {"days": "Sun", "time": "Closed"}], "id": "6661400016", "name": "USPS COLLECTION BOX - BLUE BOX", "address": {"city": "TOPEKA", "state": "KS", "street": "5660 SW 29TH ST", "postcode": "66614"}}},
{"geometry": {"type": "Point", "coordinates": [-95.7654690217, 39.0146327285]}, "type": "Feature", "properties": {"collection_times": [{"days": "Mon-Fri", "time": "5:00pm"}, {"days": "Sat", "time": "1:30pm"}, {"days": "Sun", "time": "Closed"}], "id": "6661400020", "name": "USPS COLLECTION BOX - BLUE BOX", "address": {"city": "TOPEKA", "state": "KS", "street": "6120 SW 29TH ST", "postcode": "66614"}}},
{"geometry": {"type": "Point", "coordinates": [-95.7794002218, 39.0145078376]}, "type": "Feature", "properties": {"collection_times": [{"days": "Mon-Fri", "time": "2:40pm"}, {"days": "Sat-Sun", "time": "Closed"}], "id": "6661400023", "name": "USPS COLLECTION BOX - BLUE BOX", "address": {"city": "TOPEKA", "state": "KS", "street": "6730 SW 29TH ST", "postcode": "66614"}}},
{"geometry": {"type": "Point", "coordinates": [-95.6383310064, 39.066227261]}, "type": "Feature", "properties": {"collection_times": [{"days": "Mon-Sat", "time": "2:05pm"}, {"days": "Sun", "time": "Closed"}], "id": "6661600001", "name": "USPS COLLECTION BOX - BLUE BOX", "address": {"city": "TOPEKA", "state": "KS", "street": "2620 NE SARDOU AVE", "postcode": "66616"}}},
{"geometry": {"type": "Point", "coordinates": [-95.645214789, 39.0588267203]}, "type": "Feature", "properties": {"collection_times": [{"days": "Mon-Fri", "time": "2:01pm"}, {"days": "Sat-Sun", "time": "Closed"}], "id": "6661600002", "name": "USPS COLLECTION BOX - BLUE BOX", "address": {"city": "TOPEKA", "state": "KS", "street": "1905 NE SEWARD AVE", "postcode": "66616"}}},
{"geometry": {"type": "Point", "coordinates": [-95.7236218197, 39.0768519896]}, "type": "Feature", "properties": {"collection_times": [{"days": "Mon-Sat", "time": "6:30pm"}, {"days": "Sun", "time": "Closed"}], "id": "6661800000", "name": "USPS COLLECTION BOX - BLUE BOX", "address": {"city": "TOPEKA", "state": "KS", "street": "1410 NW GAGE BLVD", "postcode": "66618"}}},
{"geometry": {"type": "Point", "coordinates": [-95.7236218197, 39.0768519896]}, "type": "Feature", "properties": {"collection_times": [{"days": "Mon-Sat", "time": "6:30pm"}, {"days": "Sun", "time": "Closed"}], "id": "6661800001", "name": "USPS COLLECTION BOX - BLUE BOX", "address": {"city": "TOPEKA", "state": "KS", "street": "1410 NW GAGE BLVD", "postcode": "66618"}}},
{"geometry": {"type": "Point", "coordinates": [-95.7155986542, 39.1292847325]}, "type": "Feature", "properties": {"collection_times": [{"days": "Mon-Fri", "time": "3:30pm"}, {"days": "Sat", "time": "2:00pm"}, {"days": "Sun", "time": "Closed"}], "id": "6661800003", "name": "USPS COLLECTION BOX - BLUE BOX", "address": {"city": "TOPEKA", "state": "KS", "street": "3603 NW 46TH ST", "postcode": "66618"}}},
{"geometry": {"type": "Point", "coordinates": [-95.7236218197, 39.0768519896]}, "type": "Feature", "properties": {"collection_times": [{"days": "Mon-Sat", "time": "6:30pm"}, {"days": "Sun", "time": "Closed"}], "id": "6661800004", "name": "USPS COLLECTION BOX - PO LOBBY", "address": {"city": "TOPEKA", "state": "KS", "street": "1410 NW GAGE BLVD", "postcode": "66618"}}},
{"geometry": {"type": "Point", "coordinates": [-95.6870549815, 38.9616816039]}, "type": "Feature", "properties": {"collection_times": [{"days": "Mon-Fri", "time": "3:35pm"}, {"days": "Sat", "time": "2:00pm"}, {"days": "Sun", "time": "Closed"}], "id": "6661900000", "name": "USPS COLLECTION BOX - BLUE BOX", "address": {"city": "TOPEKA", "state": "KS", "street": "5826 SW TOPEKA BLVD", "postcode": "66619"}}},
{"geometry": {"type": "Point", "coordinates": [-95.687308893, 38.9373066328]}, "type": "Feature", "properties": {"collection_times": [{"days": "Mon-Fri", "time": "3:35pm"}, {"days": "Sat-Sun", "time": "Closed"}], "id": "6661900004", "name": "USPS COLLECTION BOX - BLUE BOX", "address": {"city": "TOPEKA", "state": "KS", "street": "7215 SW TOPEKA BLVD", "postcode": "66619"}}},
{"geometry": {"type": "Point", "coordinates": [-95.6721385311, 39.0541818538]}, "type": "Feature", "properties": {"collection_times": [{"days": "Mon-Fri", "time": "2:30pm"}, {"days": "Sat-Sun", "time": "Closed"}], "id": "6668300001", "name": "USPS COLLECTION BOX - BLUE BOX", "address": {"city": "TOPEKA", "state": "KS", "street": "444 SE QUINCY ST", "postcode": "66683"}}}
]}
