{"type": "FeatureCollection", "features": [
{"geometry": {"type": "Point", "coordinates": [-94.7073885849, 37.8406938442]}, "type": "Feature", "properties": {"collection_times": [{"days": "Mon-Sat", "time": "4:00pm"}, {"days": "Sun", "time": "Closed"}], "id": "6670100000", "name": "USPS COLLECTION BOX - BLUE BOX", "address": {"city": "FORT SCOTT", "state": "KS", "street": "120 S NATIONAL AVE", "postcode": "66701"}}},
{"geometry": {"type": "Point", "coordinates": [-94.6968735968, 37.8357526349]}, "type": "Feature", "properties": {"collection_times": [{"days": "Mon-Sat", "time": "2:00pm"}, {"days": "Sun", "time": "Closed"}], "id": "6670100004", "name": "USPS COLLECTION BOX - BLUE BOX", "address": {"city": "FORT SCOTT", "state": "KS", "street": "911 E 6TH ST", "postcode": "66701"}}},
{"geometry": {"type": "Point", "coordinates": [-94.7054453086, 37.8123597069]}, "type": "Feature", "properties": {"collection_times": [{"days": "Mon-Fri", "time": "4:10pm"}, {"days": "Sat", "time": "3:45pm"}, {"days": "Sun", "time": "Closed"}], "id": "6670100010", "name": "USPS COLLECTION BOX - BLUE BOX", "address": {"city": "FORT SCOTT", "state": "KS", "street": "2322 S MAIN ST", "postcode": "66701"}}},
{"geometry": {"type": "Point", "coordinates": [-94.7073885849, 37.8406938442]}, "type": "Feature", "properties": {"collection_times": [{"days": "Mon-Sat", "time": "4:00pm"}, {"days": "Sun", "time": "Closed"}], "id": "6670100011", "name": "USPS COLLECTION BOX - PO LOBBY", "address": {"city": "FORT SCOTT", "state": "KS", "street": "120 S NATIONAL AVE", "postcode": "66701"}}},
{"geometry": {"type": "Point", "coordinates": [-95.6622810258, 37.5231487279]}, "type": "Feature", "properties": {"collection_times": [{"days": "Mon-Sat", "time": "2:15pm"}, {"days": "Sun", "time": "Closed"}], "id": "6671000000", "name": "USPS COLLECTION BOX - BLUE BOX", "address": {"city": "ALTOONA", "state": "KS", "street": "732 MAIN ST", "postcode": "66710"}}},
{"geometry": {"type": "Point", "coordinates": [-95.6622810258, 37.5231487279]}, "type": "Feature", "properties": {"collection_times": [{"days": "Mon-Fri", "time": "12:15pm"}, {"days": "Sat", "time": "10:15am"}, {"days": "Sun", "time": "Closed"}], "id": "6671000001", "name": "USPS COLLECTION BOX - PO LOBBY", "address": {"city": "ALTOONA", "state": "KS", "street": "732 MAIN ST", "postcode": "66710"}}},
{"geometry": {"type": "Point", "coordinates": [-94.6243205726, 37.6431978135]}, "type": "Feature", "properties": {"collection_times": [{"days": "Mon-Sat", "time": "3:25pm"}, {"days": "Sun", "time": "Closed"}], "id": "6671100000", "name": "USPS COLLECTION BOX - BLUE BOX", "address": {"city": "ARCADIA", "state": "KS", "street": "209 E RACE ST", "postcode": "66711"}}},
{"geometry": {"type": "Point", "coordinates": [-94.6259328238, 37.6432496661]}, "type": "Feature", "properties": {"collection_times": [{"days": "Mon-Fri", "time": "11:45am"}, {"days": "Sat", "time": "8:15am"}, {"days": "Sun", "time": "Closed"}], "id": "6671100002", "name": "USPS COLLECTION BOX - PO LOBBY", "address": {"city": "ARCADIA", "state": "KS", "street": "209 E RACE ST", "postcode": "66711"}}},
{"geometry": {"type": "Point", "coordinates": [-94.6981363161, 37.5442339571]}, "type": "Feature", "properties": {"collection_times": [{"days": "Mon-Fri", "time": "1:55pm"}, {"days": "Sat", "time": "10:30am"}, {"days": "Sun", "time": "Closed"}], "id": "6671200002", "name": "USPS COLLECTION BOX - PO LOBBY", "address": {"city": "ARMA", "state": "KS", "street": "606 E WASHINGTON ST", "postcode": "66712"}}},
{"geometry": {"type": "Point", "coordinates": [-94.6981363161, 37.5442339571]}, "type": "Feature", "properties": {"collection_times": [{"days": "Mon-Fri", "time": "3:40pm"}, {"days": "Sat", "time": "2:10pm"}, {"days": "Sun", "time": "Closed"}], "id": "6671200003", "name": "USPS COLLECTION BOX - BLUE BOX", "address": {"city": "ARMA", "state": "KS", "street": "606 E WASHINGTON ST", "postcode": "66712"}}},
{"geometry": {"type": "Point", "coordinates": [-94.7366680248, 37.0245923874]}, "type": "Feature", "properties": {"collection_times": [{"days": "Mon-Fri", "time": "3:00pm"}, {"days": "Sat", "time": "11:00am"}, {"days": "Sun", "time": "Closed"}], "id": "6671300003", "name": "USPS COLLECTION BOX - PO LOBBY", "address": {"city": "BAXTER SPRINGS", "state": "KS", "street": "1115 PARK AVE", "postcode": "66713"}}},
{"geometry": {"type": "Point", "coordinates": [-94.7366680248, 37.0245923874]}, "type": "Feature", "properties": {"collection_times": [{"days": "Mon-Sat", "time": "3:00pm"}, {"days": "Sun", "time": "Closed"}], "id": "6671300005", "name": "USPS COLLECTION BOX - BLUE BOX", "address": {"city": "BAXTER SPRINGS", "state": "KS", "street": "1115 PARK AVE", "postcode": "66713"}}},
{"geometry": {"type": "Point", "coordinates": [-95.5887099569, 37.6458946873]}, "type": "Feature", "properties": {"collection_times": [{"days": "Mon-Sat", "time": "11:15am"}, {"days": "Sun", "time": "Closed"}], "id": "6671400000", "name": "USPS COLLECTION BOX - BLUE BOX", "address": {"city": "BENEDICT", "state": "KS", "street": "505 MAIN ST", "postcode": "66714"}}},
{"geometry": {"type": "Point", "coordinates": [-95.5887099569, 37.6458946873]}, "type": "Feature", "properties": {"collection_times": [{"days": "Mon-Sat", "time": "11:15am"}, {"days": "Sun", "time": "Closed"}], "id": "6671400001", "name": "USPS COLLECTION BOX - PO LOBBY", "address": {"city": "BENEDICT", "state": "KS", "street": "505 MAIN ST", "postcode": "66714"}}},
{"geometry": {"type": "Point", "coordinates": [-95.0722316605, 37.8946925425]}, "type": "Feature", "properties": {"collection_times": [{"days": "Mon-Sat", "time": "3:15pm"}, {"days": "Sun", "time": "Closed"}], "id": "6671600000", "name": "USPS COLLECTION BOX - BLUE BOX", "address": {"city": "BRONSON", "state": "KS", "street": "520 CLAY ST", "postcode": "66716"}}},
{"geometry": {"type": "Point", "coordinates": [-95.0722316605, 37.8946925425]}, "type": "Feature", "properties": {"collection_times": [{"days": "Mon-Fri", "time": "1:45pm"}, {"days": "Sat", "time": "8:45am"}, {"days": "Sun", "time": "Closed"}], "id": "6671600001", "name": "USPS COLLECTION BOX - PO LOBBY", "address": {"city": "BRONSON", "state": "KS", "street": "520 CLAY ST", "postcode": "66716"}}},
{"geometry": {"type": "Point", "coordinates": [-95.697530005, 37.7102374148]}, "type": "Feature", "properties": {"collection_times": [{"days": "Mon-Fri", "time": "2:00pm"}, {"days": "Sat", "time": "1:50pm"}, {"days": "Sun", "time": "Closed"}], "id": "6671700000", "name": "USPS COLLECTION BOX - BLUE BOX", "address": {"city": "BUFFALO", "state": "KS", "street": "308 N MAIN ST", "postcode": "66717"}}},
{"geometry": {"type": "Point", "coordinates": [-95.6975662888, 37.7100721694]}, "type": "Feature", "properties": {"collection_times": [{"days": "Mon-Fri", "time": "1:45pm"}, {"days": "Sat", "time": "10:15am"}, {"days": "Sun", "time": "Closed"}], "id": "6671700001", "name": "USPS COLLECTION BOX - PO LOBBY", "address": {"city": "BUFFALO", "state": "KS", "street": "312 N MAIN ST", "postcode": "66717"}}},
{"geometry": {"type": "Point", "coordinates": [-95.4525334426, 37.6535807264]}, "type": "Feature", "properties": {"collection_times": [{"days": "Mon-Sat", "time": "12:00pm"}, {"days": "Sun", "time": "Closed"}], "id": "6672000007", "name": "USPS COLLECTION BOX - BLUE BOX", "address": {"city": "CHANUTE", "state": "KS", "street": "2700 S SANTA FE AVE", "postcode": "66720"}}},
{"geometry": {"type": "Point", "coordinates": [-95.4517297475, 37.6827314614]}, "type": "Feature", "properties": {"collection_times": [{"days": "Mon-Fri", "time": "2:45pm"}, {"days": "Sat", "time": "2:25pm"}, {"days": "Sun", "time": "Closed"}], "id": "6672000011", "name": "USPS COLLECTION BOX - BLUE BOX", "address": {"city": "CHANUTE", "state": "KS", "street": "102 N LINCOLN AVE", "postcode": "66720"}}},
{"geometry": {"type": "Point", "coordinates": [-95.4517297475, 37.6827314614]}, "type": "Feature", "properties": {"collection_times": [{"days": "Mon-Fri", "time": "2:45pm"}, {"days": "Sat", "time": "2:25pm"}, {"days": "Sun", "time": "Closed"}], "id": "6672000013", "name": "USPS COLLECTION BOX - PO LOBBY", "address": {"city": "CHANUTE", "state": "KS", "street": "102 N LINCOLN AVE", "postcode": "66720"}}},
{"geometry": {"type": "Point", "coordinates": [-94.820894048, 37.3453902754]}, "type": "Feature", "properties": {"collection_times": [{"days": "Mon-Sat", "time": "3:00pm"}, {"days": "Sun", "time": "Closed"}], "id": "6672400000", "name": "USPS COLLECTION BOX - BLUE BOX", "address": {"city": "CHEROKEE", "state": "KS", "street": "108 S VINE ST", "postcode": "66724"}}},
{"geometry": {"type": "Point", "coordinates": [-94.820894048, 37.3453902754]}, "type": "Feature", "properties": {"collection_times": [{"days": "Mon-Fri", "time": "1:45pm"}, {"days": "Sat", "time": "8:45am"}, {"days": "Sun", "time": "Closed"}], "id": "6672400001", "name": "USPS COLLECTION BOX - PO LOBBY", "address": {"city": "CHEROKEE", "state": "KS", "street": "108 S VINE ST", "postcode": "66724"}}},
{"geometry": {"type": "Point", "coordinates": [-94.8438878996, 37.169678089]}, "type": "Feature", "properties": {"collection_times": [{"days": "Mon-Sat", "time": "2:45pm"}, {"days": "Sun", "time": "Closed"}], "id": "6672500000", "name": "USPS COLLECTION BOX - BLUE BOX", "address": {"city": "COLUMBUS", "state": "KS", "street": "223 S PENNSYLVANIA AVE", "postcode": "66725"}}},
{"geometry": {"type": "Point", "coordinates": [-94.8438878996, 37.169678089]}, "type": "Feature", "properties": {"collection_times": [{"days": "Mon-Fri", "time": "2:40pm"}, {"days": "Sat", "time": "10:15am"}, {"days": "Sun", "time": "Closed"}], "id": "6672500001", "name": "USPS COLLECTION BOX - PO LOBBY", "address": {"city": "COLUMBUS", "state": "KS", "street": "223 S PENNSYLVANIA AVE", "postcode": "66725"}}},
{"geometry": {"type": "Point", "coordinates": [-94.8438878996, 37.169678089]}, "type": "Feature", "properties": {"collection_times": [{"days": "Mon-Fri", "time": "2:40pm"}, {"days": "Sat", "time": "10:15am"}, {"days": "Sun", "time": "Closed"}], "id": "6672500004", "name": "USPS COLLECTION BOX - PO LOBBY", "address": {"city": "COLUMBUS", "state": "KS", "street": "223 S PENNSYLVANIA AVE", "postcode": "66725"}}},
{"geometry": {"type": "Point", "coordinates": [-94.7044431873, 37.1682092305]}, "type": "Feature", "properties": {"collection_times": [{"days": "Mon-Fri", "time": "2:30pm"}, {"days": "Sat", "time": "9:00am"}, {"days": "Sun", "time": "Closed"}], "id": "6672800000", "name": "USPS COLLECTION BOX - BLUE BOX", "address": {"city": "CRESTLINE", "state": "KS", "street": "653 SE HIGHWAY ALTERNATE 69", "postcode": "66728"}}},
{"geometry": {"type": "Point", "coordinates": [-94.704443187, 37.1682092304]}, "type": "Feature", "properties": {"collection_times": [{"days": "Mon-Sat", "time": "8:45am"}, {"days": "Sun", "time": "Closed"}], "id": "6672800001", "name": "USPS COLLECTION BOX - PO LOBBY", "address": {"city": "CRESTLINE", "state": "KS", "street": "653 SE HIGHWAY ALTERNATE 69", "postcode": "66728"}}},
{"geometry": {"type": "Point", "coordinates": [-95.243425569, 37.5672255264]}, "type": "Feature", "properties": {"collection_times": [{"days": "Mon-Sat", "time": "3:35pm"}, {"days": "Sun", "time": "Closed"}], "id": "6673300000", "name": "USPS COLLECTION BOX - BLUE BOX", "address": {"city": "ERIE", "state": "KS", "street": "115 W 2ND ST", "postcode": "66733"}}},
{"geometry": {"type": "Point", "coordinates": [-95.243425569, 37.5672255264]}, "type": "Feature", "properties": {"collection_times": [{"days": "Mon-Fri", "time": "3:00pm"}, {"days": "Sat", "time": "9:45am"}, {"days": "Sun", "time": "Closed"}], "id": "6673300003", "name": "USPS COLLECTION BOX - PO LOBBY", "address": {"city": "ERIE", "state": "KS", "street": "115 W 2ND ST", "postcode": "66733"}}},
{"geometry": {"type": "Point", "coordinates": [-95.8153541451, 37.5196831607]}, "type": "Feature", "properties": {"collection_times": [{"days": "Mon-Sat", "time": "12:30pm"}, {"days": "Sun", "time": "Closed"}], "id": "6673600003", "name": "USPS COLLECTION BOX - BLUE BOX", "address": {"city": "FREDONIA", "state": "KS", "street": "519 S 15TH ST", "postcode": "66736"}}},
{"geometry": {"type": "Point", "coordinates": [-95.8305563155, 37.5337633778]}, "type": "Feature", "properties": {"collection_times": [{"days": "Mon-Sat", "time": "2:00pm"}, {"days": "Sun", "time": "Closed"}], "id": "6673600004", "name": "USPS COLLECTION BOX - BLUE BOX", "address": {"city": "FREDONIA", "state": "KS", "street": "428 MADISON ST", "postcode": "66736"}}},
{"geometry": {"type": "Point", "coordinates": [-95.8306367812, 37.5338428153]}, "type": "Feature", "properties": {"collection_times": [{"days": "Mon-Fri", "time": "1:30pm"}, {"days": "Sat", "time": "10:30am"}, {"days": "Sun", "time": "Closed"}], "id": "6673600006", "name": "USPS COLLECTION BOX - PO LOBBY", "address": {"city": "FREDONIA", "state": "KS", "street": "428 MADISON ST", "postcode": "66736"}}},
{"geometry": {"type": "Point", "coordinates": [-95.8306367812, 37.5338428153]}, "type": "Feature", "properties": {"collection_times": [{"days": "Mon-Fri", "time": "1:30pm"}, {"days": "Sat", "time": "10:30am"}, {"days": "Sun", "time": "Closed"}], "id": "6673600008", "name": "USPS COLLECTION BOX - PO LOBBY", "address": {"city": "FREDONIA", "state": "KS", "street": "428 MADISON ST", "postcode": "66736"}}},
{"geometry": {"type": "Point", "coordinates": [-95.8121938665, 37.5297917316]}, "type": "Feature", "properties": {"collection_times": [{"days": "Mon-Sat", "time": "12:00pm"}, {"days": "Sun", "time": "Closed"}], "id": "6673600009", "name": "USPS COLLECTION BOX - BLUE BOX", "address": {"city": "FREDONIA", "state": "KS", "street": "1715 E WASHINGTON ST", "postcode": "66736"}}},
{"geometry": {"type": "Point", "coordinates": [-95.8306367812, 37.5338428153]}, "type": "Feature", "properties": {"collection_times": [{"days": "Mon-Fri", "time": "1:30pm"}, {"days": "Sat", "time": "10:30am"}, {"days": "Sun", "time": "Closed"}], "id": "6673600010", "name": "USPS COLLECTION BOX - PO LOBBY", "address": {"city": "FREDONIA", "state": "KS", "street": "428 MADISON ST", "postcode": "66736"}}},
{"geometry": {"type": "Point", "coordinates": [-94.6390003285, 37.0763988072]}, "type": "Feature", "properties": {"collection_times": [{"days": "Mon-Sat", "time": "3:30pm"}, {"days": "Sun", "time": "Closed"}], "id": "6673900000", "name": "USPS COLLECTION BOX - BLUE BOX", "address": {"city": "GALENA", "state": "KS", "street": "119 E 5TH ST", "postcode": "66739"}}},
{"geometry": {"type": "Point", "coordinates": [-94.6390003285, 37.0763988072]}, "type": "Feature", "properties": {"collection_times": [{"days": "Mon-Fri", "time": "2:00pm"}, {"days": "Sat", "time": "10:30am"}, {"days": "Sun", "time": "Closed"}], "id": "6673900003", "name": "USPS COLLECTION BOX - PO LOBBY", "address": {"city": "GALENA", "state": "KS", "street": "119 E 5TH ST", "postcode": "66739"}}},
{"geometry": {"type": "Point", "coordinates": [-95.3564441266, 37.4710374164]}, "type": "Feature", "properties": {"collection_times": [{"days": "Mon-Fri", "time": "12:45pm"}, {"days": "Sat", "time": "9:30am"}, {"days": "Sun", "time": "Closed"}], "id": "6674000001", "name": "USPS COLLECTION BOX - PO LOBBY", "address": {"city": "GALESBURG", "state": "KS", "street": "119 CENTER ST", "postcode": "66740"}}},
{"geometry": {"type": "Point", "coordinates": [-95.3423145245, 37.9220520736]}, "type": "Feature", "properties": {"collection_times": [{"days": "Mon-Sat", "time": "3:35pm"}, {"days": "Sun", "time": "Closed"}], "id": "6674200000", "name": "USPS COLLECTION BOX - BLUE BOX", "address": {"city": "GAS", "state": "KS", "street": "102 W 1ST ST", "postcode": "66742"}}},
{"geometry": {"type": "Point", "coordinates": [-95.3423145245, 37.9220520736]}, "type": "Feature", "properties": {"collection_times": [{"days": "Mon-Fri", "time": "11:45am"}, {"days": "Sat", "time": "8:30am"}, {"days": "Sun", "time": "Closed"}], "id": "6674200001", "name": "USPS COLLECTION BOX - PO LOBBY", "address": {"city": "GAS", "state": "KS", "street": "102 W 1ST ST", "postcode": "66742"}}},
{"geometry": {"type": "Point", "coordinates": [-94.843459219, 37.5097512879]}, "type": "Feature", "properties": {"collection_times": [{"days": "Mon-Sat", "time": "4:20pm"}, {"days": "Sun", "time": "Closed"}], "id": "6674300000", "name": "USPS COLLECTION BOX - BLUE BOX", "address": {"city": "GIRARD", "state": "KS", "street": "115 N SUMMIT ST", "postcode": "66743"}}},
{"geometry": {"type": "Point", "coordinates": [-94.843459219, 37.5097512879]}, "type": "Feature", "properties": {"collection_times": [{"days": "Mon-Fri", "time": "3:20pm"}, {"days": "Sat", "time": "10:30am"}, {"days": "Sun", "time": "Closed"}], "id": "6674300001", "name": "USPS COLLECTION BOX - PO LOBBY", "address": {"city": "GIRARD", "state": "KS", "street": "115 N SUMMIT ST", "postcode": "66743"}}},
{"geometry": {"type": "Point", "coordinates": [-94.843459219, 37.5097512879]}, "type": "Feature", "properties": {"collection_times": [{"days": "Mon-Fri", "time": "3:20pm"}, {"days": "Sat", "time": "10:30am"}, {"days": "Sun", "time": "Closed"}], "id": "6674300002", "name": "USPS COLLECTION BOX - PO LOBBY", "address": {"city": "GIRARD", "state": "KS", "street": "115 N SUMMIT ST", "postcode": "66743"}}},
{"geometry": {"type": "Point", "coordinates": [-94.9696227691, 37.6614504044]}, "type": "Feature", "properties": {"collection_times": [{"days": "Mon-Fri", "time": "12:45pm"}, {"days": "Sat", "time": "9:45am"}, {"days": "Sun", "time": "Closed"}], "id": "6674600000", "name": "USPS COLLECTION BOX - PO LOBBY", "address": {"city": "HEPLER", "state": "KS", "street": "213 N PRAIRIE AVE", "postcode": "66746"}}},
{"geometry": {"type": "Point", "coordinates": [-94.9696227691, 37.6614504044]}, "type": "Feature", "properties": {"collection_times": [{"days": "Mon-Sat", "time": "3:45pm"}, {"days": "Sun", "time": "Closed"}], "id": "6674600001", "name": "USPS COLLECTION BOX - BLUE BOX", "address": {"city": "HEPLER", "state": "KS", "street": "213 N PRAIRIE AVE", "postcode": "66746"}}},
{"geometry": {"type": "Point", "coordinates": [-95.436568204, 37.810245635]}, "type": "Feature", "properties": {"collection_times": [{"days": "Mon-Fri", "time": "3:00pm"}, {"days": "Sat", "time": "11:00am"}, {"days": "Sun", "time": "Closed"}], "id": "6674800001", "name": "USPS COLLECTION BOX - BLUE BOX", "address": {"city": "HUMBOLDT", "state": "KS", "street": "811 NEW YORK ST", "postcode": "66748"}}},
{"geometry": {"type": "Point", "coordinates": [-95.4366884848, 37.810199081]}, "type": "Feature", "properties": {"collection_times": [{"days": "Mon-Fri", "time": "3:05pm"}, {"days": "Sat", "time": "11:00am"}, {"days": "Sun", "time": "Closed"}], "id": "6674800003", "name": "USPS COLLECTION BOX - PO LOBBY", "address": {"city": "HUMBOLDT", "state": "KS", "street": "811 NEW YORK ST", "postcode": "66748"}}},
{"geometry": {"type": "Point", "coordinates": [-95.3908167164, 37.922228873]}, "type": "Feature", "properties": {"collection_times": [{"days": "Mon-Sat", "time": "2:00pm"}, {"days": "Sun", "time": "Closed"}], "id": "6674900003", "name": "USPS COLLECTION BOX - BLUE BOX", "address": {"city": "IOLA", "state": "KS", "street": "1206 EAST ST", "postcode": "66749"}}},
{"geometry": {"type": "Point", "coordinates": [-95.4043627886, 37.9239478307]}, "type": "Feature", "properties": {"collection_times": [{"days": "Mon-Sat", "time": "2:00pm"}, {"days": "Sun", "time": "Closed"}], "id": "6674900004", "name": "USPS COLLECTION BOX - BLUE BOX", "address": {"city": "IOLA", "state": "KS", "street": "217 NORTH ST", "postcode": "66749"}}},
{"geometry": {"type": "Point", "coordinates": [-95.40577152, 37.9223207529]}, "type": "Feature", "properties": {"collection_times": [{"days": "Mon-Fri", "time": "3:30pm"}, {"days": "Sat", "time": "3:00pm"}, {"days": "Sun", "time": "Closed"}], "id": "6674900007", "name": "USPS COLLECTION BOX - BLUE BOX", "address": {"city": "IOLA", "state": "KS", "street": "120 WEST ST", "postcode": "66749"}}},
{"geometry": {"type": "Point", "coordinates": [-95.40577152, 37.9223207529]}, "type": "Feature", "properties": {"collection_times": [{"days": "Mon-Fri", "time": "3:30pm"}, {"days": "Sat", "time": "3:00pm"}, {"days": "Sun", "time": "Closed"}], "id": "6674900011", "name": "USPS COLLECTION BOX - PO LOBBY", "address": {"city": "IOLA", "state": "KS", "street": "120 WEST ST", "postcode": "66749"}}},
{"geometry": {"type": "Point", "coordinates": [-95.4090508954, 37.9419436306]}, "type": "Feature", "properties": {"collection_times": [{"days": "Mon-Sat", "time": "10:00am"}, {"days": "Sun", "time": "Closed"}], "id": "6674900014", "name": "USPS COLLECTION BOX - BLUE BOX", "address": {"city": "IOLA", "state": "KS", "street": "2200 N STATE ST", "postcode": "66749"}}},
{"geometry": {"type": "Point", "coordinates": [-95.4033791552, 37.9213754733]}, "type": "Feature", "properties": {"collection_times": [{"days": "Mon-Sat", "time": "2:00pm"}, {"days": "Sun", "time": "Closed"}], "id": "6674900015", "name": "USPS COLLECTION BOX - BLUE BOX", "address": {"city": "IOLA", "state": "KS", "street": "101 E MADISON AVE", "postcode": "66749"}}},
{"geometry": {"type": "Point", "coordinates": [-95.2992108392, 37.9152532435]}, "type": "Feature", "properties": {"collection_times": [{"days": "Mon-Fri", "time": "11:45am"}, {"days": "Sat", "time": "9:00am"}, {"days": "Sun", "time": "Closed"}], "id": "6675100001", "name": "USPS COLLECTION BOX - PO LOBBY", "address": {"city": "LAHARPE", "state": "KS", "street": "802 S MAIN ST", "postcode": "66751"}}},
{"geometry": {"type": "Point", "coordinates": [-95.2992108392, 37.9152532435]}, "type": "Feature", "properties": {"collection_times": [{"days": "Mon-Sat", "time": "3:45pm"}, {"days": "Sun", "time": "Closed"}], "id": "6675100002", "name": "USPS COLLECTION BOX - BLUE BOX", "address": {"city": "LAHARPE", "state": "KS", "street": "802 S MAIN ST", "postcode": "66751"}}},
{"geometry": {"type": "Point", "coordinates": [-95.0184235645, 37.3532275353]}, "type": "Feature", "properties": {"collection_times": [{"days": "Mon-Sat", "time": "2:00pm"}, {"days": "Sun", "time": "Closed"}], "id": "6675300000", "name": "USPS COLLECTION BOX - BLUE BOX", "address": {"city": "MC CUNE", "state": "KS", "street": "601 MAIN ST", "postcode": "66753"}}},
{"geometry": {"type": "Point", "coordinates": [-95.0184235645, 37.3532275353]}, "type": "Feature", "properties": {"collection_times": [{"days": "Mon-Fri", "time": "12:15pm"}, {"days": "Sat", "time": "9:15am"}, {"days": "Sun", "time": "Closed"}], "id": "6675300001", "name": "USPS COLLECTION BOX - PO LOBBY", "address": {"city": "MC CUNE", "state": "KS", "street": "601 MAIN ST", "postcode": "66753"}}},
{"geometry": {"type": "Point", "coordinates": [-94.88495098, 38.0151789601]}, "type": "Feature", "properties": {"collection_times": [{"days": "Mon-Sat", "time": "10:30am"}, {"days": "Sun", "time": "Closed"}], "id": "6675400000", "name": "USPS COLLECTION BOX - PO LOBBY", "address": {"city": "MAPLETON", "state": "KS", "street": "108 W 6TH ST", "postcode": "66754"}}},
{"geometry": {"type": "Point", "coordinates": [-94.88495098, 38.0151789601]}, "type": "Feature", "properties": {"collection_times": [{"days": "Mon-Sat", "time": "10:30am"}, {"days": "Sun", "time": "Closed"}], "id": "6675400001", "name": "USPS COLLECTION BOX - BLUE BOX", "address": {"city": "MAPLETON", "state": "KS", "street": "108 W 6TH ST", "postcode": "66754"}}},
{"geometry": {"type": "Point", "coordinates": [-95.1701541273, 37.9152072289]}, "type": "Feature", "properties": {"collection_times": [{"days": "Mon-Sat", "time": "3:00pm"}, {"days": "Sun", "time": "Closed"}], "id": "6675500000", "name": "USPS COLLECTION BOX - BLUE BOX", "address": {"city": "MORAN", "state": "KS", "street": "226 N CEDAR ST", "postcode": "66755"}}},
{"geometry": {"type": "Point", "coordinates": [-95.1701541273, 37.9152072289]}, "type": "Feature", "properties": {"collection_times": [{"days": "Mon-Fri", "time": "2:15pm"}, {"days": "Sat", "time": "8:30am"}, {"days": "Sun", "time": "Closed"}], "id": "6675500001", "name": "USPS COLLECTION BOX - PO LOBBY", "address": {"city": "MORAN", "state": "KS", "street": "226 N CEDAR ST", "postcode": "66755"}}},
{"geometry": {"type": "Point", "coordinates": [-94.6213723553, 37.5551883084]}, "type": "Feature", "properties": {"collection_times": [{"days": "Mon-Sat", "time": "2:55pm"}, {"days": "Sun", "time": "Closed"}], "id": "6675600000", "name": "USPS COLLECTION BOX - BLUE BOX", "address": {"city": "MULBERRY", "state": "KS", "street": "306 S MILITARY AVE", "postcode": "66756"}}},
{"geometry": {"type": "Point", "coordinates": [-94.6213723553, 37.5551883084]}, "type": "Feature", "properties": {"collection_times": [{"days": "Mon-Fri", "time": "11:45am"}, {"days": "Sat", "time": "9:15am"}, {"days": "Sun", "time": "Closed"}], "id": "6675600001", "name": "USPS COLLECTION BOX - PO LOBBY", "address": {"city": "MULBERRY", "state": "KS", "street": "306 S MILITARY AVE", "postcode": "66756"}}},
{"geometry": {"type": "Point", "coordinates": [-95.6798808651, 37.4190509325]}, "type": "Feature", "properties": {"collection_times": [{"days": "Mon-Fri", "time": "1:35pm"}, {"days": "Sat", "time": "11:00am"}, {"days": "Sun", "time": "Closed"}], "id": "6675700001", "name": "USPS COLLECTION BOX - BLUE BOX", "address": {"city": "NEODESHA", "state": "KS", "street": "123 N 5TH ST", "postcode": "66757"}}},
{"geometry": {"type": "Point", "coordinates": [-95.6798808651, 37.4190509325]}, "type": "Feature", "properties": {"collection_times": [{"days": "Mon-Fri", "time": "12:15pm"}, {"days": "Sat", "time": "11:00am"}, {"days": "Sun", "time": "Closed"}], "id": "6675700003", "name": "USPS COLLECTION BOX - PO LOBBY", "address": {"city": "NEODESHA", "state": "KS", "street": "123 N 5TH ST", "postcode": "66757"}}},
{"geometry": {"type": "Point", "coordinates": [-95.5558668332, 38.0083190057]}, "type": "Feature", "properties": {"collection_times": [{"days": "Mon-Sat", "time": "10:30am"}, {"days": "Sun", "time": "Closed"}], "id": "6675800000", "name": "USPS COLLECTION BOX - BLUE BOX", "address": {"city": "NEOSHO FALLS", "state": "KS", "street": "1102 MAIN ST", "postcode": "66758"}}},
{"geometry": {"type": "Point", "coordinates": [-95.5558668332, 38.0083190057]}, "type": "Feature", "properties": {"collection_times": [{"days": "Mon-Sat", "time": "10:30am"}, {"days": "Sun", "time": "Closed"}], "id": "6675800001", "name": "USPS COLLECTION BOX - PO LOBBY", "address": {"city": "NEOSHO FALLS", "state": "KS", "street": "1102 MAIN ST", "postcode": "66758"}}},
{"geometry": {"type": "Point", "coordinates": [-94.6221698038, 37.3441128468]}, "type": "Feature", "properties": {"collection_times": [{"days": "Mon-Sat", "time": "1:55pm"}, {"days": "Sun", "time": "Closed"}], "id": "6676000000", "name": "USPS COLLECTION BOX - BLUE BOX", "address": {"city": "OPOLIS", "state": "KS", "street": "207 CENTER ST", "postcode": "66760"}}},
{"geometry": {"type": "Point", "coordinates": [-94.6221698038, 37.3441128468]}, "type": "Feature", "properties": {"collection_times": [{"days": "Mon-Fri", "time": "9:45am"}, {"days": "Sat", "time": "9:15am"}, {"days": "Sun", "time": "Closed"}], "id": "6676000001", "name": "USPS COLLECTION BOX - PO LOBBY", "address": {"city": "OPOLIS", "state": "KS", "street": "207 CENTER ST", "postcode": "66760"}}},
{"geometry": {"type": "Point", "coordinates": [-95.537341308, 37.9219821984]}, "type": "Feature", "properties": {"collection_times": [{"days": "Mon-Sat", "time": "3:00pm"}, {"days": "Sun", "time": "Closed"}], "id": "6676100000", "name": "USPS COLLECTION BOX - BLUE BOX", "address": {"city": "PIQUA", "state": "KS", "street": "108 W 2ND ST", "postcode": "66761"}}},
{"geometry": {"type": "Point", "coordinates": [-95.537341308, 37.9219821984]}, "type": "Feature", "properties": {"collection_times": [{"days": "Mon-Fri", "time": "2:15pm"}, {"days": "Sat", "time": "11:00am"}, {"days": "Sun", "time": "Closed"}], "id": "6676100001", "name": "USPS COLLECTION BOX - PO LOBBY", "address": {"city": "PIQUA", "state": "KS", "street": "108 W 2ND ST", "postcode": "66761"}}},
{"geometry": {"type": "Point", "coordinates": [-94.7048617955, 37.4323364397]}, "type": "Feature", "properties": {"collection_times": [{"days": "Mon-Sat", "time": "4:00pm"}, {"days": "Sun", "time": "Closed"}], "id": "6676200001", "name": "USPS COLLECTION BOX - BLUE BOX", "address": {"city": "PITTSBURG", "state": "KS", "street": "2624 N BROADWAY ST", "postcode": "66762"}}},
{"geometry": {"type": "Point", "coordinates": [-94.7032217409, 37.4141494018]}, "type": "Feature", "properties": {"collection_times": [{"days": "Mon-Sat", "time": "5:15pm"}, {"days": "Sun", "time": "Closed"}], "id": "6676200012", "name": "USPS COLLECTION BOX - BLUE BOX", "address": {"city": "PITTSBURG", "state": "KS", "street": "702 N LOCUST ST", "postcode": "66762"}}},
{"geometry": {"type": "Point", "coordinates": [-94.7032217409, 37.4141494018]}, "type": "Feature", "properties": {"collection_times": [{"days": "Mon-Sat", "time": "5:15pm"}, {"days": "Sun", "time": "Closed"}], "id": "6676200018", "name": "USPS COLLECTION BOX - PO LOBBY", "address": {"city": "PITTSBURG", "state": "KS", "street": "702 N LOCUST ST", "postcode": "66762"}}},
{"geometry": {"type": "Point", "coordinates": [-94.7032217409, 37.4141494018]}, "type": "Feature", "properties": {"collection_times": [{"days": "Mon-Sat", "time": "5:15pm"}, {"days": "Sun", "time": "Closed"}], "id": "6676200019", "name": "USPS COLLECTION BOX - PO LOBBY", "address": {"city": "PITTSBURG", "state": "KS", "street": "702 N LOCUST ST", "postcode": "66762"}}},
{"geometry": {"type": "Point", "coordinates": [-94.7026976057, 37.3817246428]}, "type": "Feature", "properties": {"collection_times": [{"days": "Mon-Sat", "time": "4:00pm"}, {"days": "Sun", "time": "Closed"}], "id": "6676200022", "name": "USPS COLLECTION BOX - BLUE BOX", "address": {"city": "PITTSBURG", "state": "KS", "street": "310 E CENTENNIAL DR", "postcode": "66762"}}},
{"geometry": {"type": "Point", "coordinates": [-94.686644561, 37.382944536]}, "type": "Feature", "properties": {"collection_times": [{"days": "Mon-Sat", "time": "4:00pm"}, {"days": "Sun", "time": "Closed"}], "id": "6676200025", "name": "USPS COLLECTION BOX - BLUE BOX", "address": {"city": "PITTSBURG", "state": "KS", "street": "2401 S ROUSE ST", "postcode": "66762"}}},
{"geometry": {"type": "Point", "coordinates": [-94.686482164, 37.4332185097]}, "type": "Feature", "properties": {"collection_times": [{"days": "Mon-Sat", "time": "4:00pm"}, {"days": "Sun", "time": "Closed"}], "id": "6676200027", "name": "USPS COLLECTION BOX - BLUE BOX", "address": {"city": "PITTSBURG", "state": "KS", "street": "1101 E 27TH TER", "postcode": "66762"}}},
{"geometry": {"type": "Point", "coordinates": [-94.6887289142, 37.4549918092]}, "type": "Feature", "properties": {"collection_times": [{"days": "Mon-Sat", "time": "4:00pm"}, {"days": "Sun", "time": "Closed"}], "id": "6676300000", "name": "USPS COLLECTION BOX - BLUE BOX", "address": {"city": "FRONTENAC", "state": "KS", "street": "204 E MCKAY ST", "postcode": "66763"}}},
{"geometry": {"type": "Point", "coordinates": [-94.6887289142, 37.4549918092]}, "type": "Feature", "properties": {"collection_times": [{"days": "Mon-Sat", "time": "4:00pm"}, {"days": "Sun", "time": "Closed"}], "id": "6676300001", "name": "USPS COLLECTION BOX - PO LOBBY", "address": {"city": "FRONTENAC", "state": "KS", "street": "204 E MCKAY ST", "postcode": "66763"}}},
{"geometry": {"type": "Point", "coordinates": [-94.6917209147, 38.0651450026]}, "type": "Feature", "properties": {"collection_times": [{"days": "Mon-Sat", "time": "2:40pm"}, {"days": "Sun", "time": "Closed"}], "id": "6676700000", "name": "USPS COLLECTION BOX - BLUE BOX", "address": {"city": "PRESCOTT", "state": "KS", "street": "317 MAIN ST", "postcode": "66767"}}},
{"geometry": {"type": "Point", "coordinates": [-94.6917209147, 38.0651450026]}, "type": "Feature", "properties": {"collection_times": [{"days": "Mon-Fri", "time": "10:45am"}, {"days": "Sat-Sun", "time": "Closed"}], "id": "6676700001", "name": "USPS COLLECTION BOX - PO LOBBY", "address": {"city": "PRESCOTT", "state": "KS", "street": "317 MAIN ST", "postcode": "66767"}}},
{"geometry": {"type": "Point", "coordinates": [-94.8815005963, 37.8358071404]}, "type": "Feature", "properties": {"collection_times": [{"days": "Mon-Sat", "time": "3:45pm"}, {"days": "Sun", "time": "Closed"}], "id": "6676900000", "name": "USPS COLLECTION BOX - BLUE BOX", "address": {"city": "REDFIELD", "state": "KS", "street": "205 N PINE ST", "postcode": "66769"}}},
{"geometry": {"type": "Point", "coordinates": [-94.8815005963, 37.8358071404]}, "type": "Feature", "properties": {"collection_times": [{"days": "Mon-Fri", "time": "11:45am"}, {"days": "Sat", "time": "8:45am"}, {"days": "Sun", "time": "Closed"}], "id": "6676900001", "name": "USPS COLLECTION BOX - PO LOBBY", "address": {"city": "REDFIELD", "state": "KS", "street": "205 N PINE ST", "postcode": "66769"}}},
{"geometry": {"type": "Point", "coordinates": [-94.7032818384, 37.0781103275]}, "type": "Feature", "properties": {"collection_times": [{"days": "Mon-Sat", "time": "2:40pm"}, {"days": "Sun", "time": "Closed"}], "id": "6677000000", "name": "USPS COLLECTION BOX - BLUE BOX", "address": {"city": "RIVERTON", "state": "KS", "street": "7018 SE NIGHTHAWK LN", "postcode": "66770"}}},
{"geometry": {"type": "Point", "coordinates": [-94.7032818384, 37.0781103275]}, "type": "Feature", "properties": {"collection_times": [{"days": "Mon-Fri", "time": "3:45pm"}, {"days": "Sat", "time": "8:45am"}, {"days": "Sun", "time": "Closed"}], "id": "6677000001", "name": "USPS COLLECTION BOX - PO LOBBY", "address": {"city": "RIVERTON", "state": "KS", "street": "7018 SE NIGHTHAWK LN", "postcode": "66770"}}},
{"geometry": {"type": "Point", "coordinates": [-95.1761132434, 37.5190618407]}, "type": "Feature", "properties": {"collection_times": [{"days": "Mon-Sat", "time": "2:55pm"}, {"days": "Sun", "time": "Closed"}], "id": "6677100000", "name": "USPS COLLECTION BOX - BLUE BOX", "address": {"city": "SAINT PAUL", "state": "KS", "street": "719 CENTRAL ST", "postcode": "66771"}}},
{"geometry": {"type": "Point", "coordinates": [-95.1761132434, 37.5190618407]}, "type": "Feature", "properties": {"collection_times": [{"days": "Mon-Fri", "time": "2:55pm"}, {"days": "Sat", "time": "9:30am"}, {"days": "Sun", "time": "Closed"}], "id": "6677100001", "name": "USPS COLLECTION BOX - PO LOBBY", "address": {"city": "SAINT PAUL", "state": "KS", "street": "719 CENTRAL ST", "postcode": "66771"}}},
{"geometry": {"type": "Point", "coordinates": [-94.8499631934, 37.2784774894]}, "type": "Feature", "properties": {"collection_times": [{"days": "Mon-Sat", "time": "2:30pm"}, {"days": "Sun", "time": "Closed"}], "id": "6677300000", "name": "USPS COLLECTION BOX - BLUE BOX", "address": {"city": "SCAMMON", "state": "KS", "street": "303 E 3RD ST", "postcode": "66773"}}},
{"geometry": {"type": "Point", "coordinates": [-94.8499631934, 37.2784774894]}, "type": "Feature", "properties": {"collection_times": [{"days": "Mon-Fri", "time": "12:45pm"}, {"days": "Sat", "time": "9:15am"}, {"days": "Sun", "time": "Closed"}], "id": "6677300001", "name": "USPS COLLECTION BOX - PO LOBBY", "address": {"city": "SCAMMON", "state": "KS", "street": "303 E 3RD ST", "postcode": "66773"}}},
{"geometry": {"type": "Point", "coordinates": [-95.143660771, 37.6899830627]}, "type": "Feature", "properties": {"collection_times": [{"days": "Mon-Fri", "time": "2:15pm"}, {"days": "Sat", "time": "9:15am"}, {"days": "Sun", "time": "Closed"}], "id": "6677500000", "name": "USPS COLLECTION BOX - BLUE BOX", "address": {"city": "STARK", "state": "KS", "street": "111 W MAIN ST", "postcode": "66775"}}},
{"geometry": {"type": "Point", "coordinates": [-95.143660771, 37.6899830627]}, "type": "Feature", "properties": {"collection_times": [{"days": "Mon-Fri", "time": "11:45am"}, {"days": "Sat", "time": "9:00am"}, {"days": "Sun", "time": "Closed"}], "id": "6677500001", "name": "USPS COLLECTION BOX - PO LOBBY", "address": {"city": "STARK", "state": "KS", "street": "111 W MAIN ST", "postcode": "66775"}}},
{"geometry": {"type": "Point", "coordinates": [-95.4695433969, 37.487903661]}, "type": "Feature", "properties": {"collection_times": [{"days": "Mon-Sat", "time": "2:00pm"}, {"days": "Sun", "time": "Closed"}], "id": "6677600000", "name": "USPS COLLECTION BOX - BLUE BOX", "address": {"city": "THAYER", "state": "KS", "street": "111 NEOSHO AVE", "postcode": "66776"}}},
{"geometry": {"type": "Point", "coordinates": [-95.4695433969, 37.487903661]}, "type": "Feature", "properties": {"collection_times": [{"days": "Mon-Fri", "time": "2:00pm"}, {"days": "Sat", "time": "9:00am"}, {"days": "Sun", "time": "Closed"}], "id": "6677600002", "name": "USPS COLLECTION BOX - PO LOBBY", "address": {"city": "THAYER", "state": "KS", "street": "111 NEOSHO AVE", "postcode": "66776"}}},
{"geometry": {"type": "Point", "coordinates": [-95.9502303301, 37.7982965525]}, "type": "Feature", "properties": {"collection_times": [{"days": "Mon-Fri", "time": "2:05pm"}, {"days": "Sat", "time": "8:45am"}, {"days": "Sun", "time": "Closed"}], "id": "6677700000", "name": "USPS COLLECTION BOX - BLUE BOX", "address": {"city": "TORONTO", "state": "KS", "street": "110 W MAIN ST", "postcode": "66777"}}},
{"geometry": {"type": "Point", "coordinates": [-95.9502303301, 37.7982965525]}, "type": "Feature", "properties": {"collection_times": [{"days": "Mon-Fri", "time": "12:15pm"}, {"days": "Sat", "time": "8:45am"}, {"days": "Sun", "time": "Closed"}], "id": "6677700001", "name": "USPS COLLECTION BOX - PO LOBBY", "address": {"city": "TORONTO", "state": "KS", "street": "110 W MAIN ST", "postcode": "66777"}}},
{"geometry": {"type": "Point", "coordinates": [-94.9787417361, 37.8458492003]}, "type": "Feature", "properties": {"collection_times": [{"days": "Mon-Sat", "time": "3:30pm"}, {"days": "Sun", "time": "Closed"}], "id": "6677900000", "name": "USPS COLLECTION BOX - BLUE BOX", "address": {"city": "UNIONTOWN", "state": "KS", "street": "106 2ND ST", "postcode": "66779"}}},
{"geometry": {"type": "Point", "coordinates": [-94.9787417361, 37.8458492003]}, "type": "Feature", "properties": {"collection_times": [{"days": "Mon-Fri", "time": "10:45am"}, {"days": "Sat", "time": "8:45am"}, {"days": "Sun", "time": "Closed"}], "id": "6677900001", "name": "USPS COLLECTION BOX - PO LOBBY", "address": {"city": "UNIONTOWN", "state": "KS", "street": "106 2ND ST", "postcode": "66779"}}},
{"geometry": {"type": "Point", "coordinates": [-95.0752855099, 37.6015345464]}, "type": "Feature", "properties": {"collection_times": [{"days": "Mon-Sat", "time": "3:30pm"}, {"days": "Sun", "time": "Closed"}], "id": "6678000000", "name": "USPS COLLECTION BOX - BLUE BOX", "address": {"city": "WALNUT", "state": "KS", "street": "119 S MAIN ST", "postcode": "66780"}}},
{"geometry": {"type": "Point", "coordinates": [-95.0752855099, 37.6015345464]}, "type": "Feature", "properties": {"collection_times": [{"days": "Mon-Fri", "time": "1:45pm"}, {"days": "Sat", "time": "8:45am"}, {"days": "Sun", "time": "Closed"}], "id": "6678000001", "name": "USPS COLLECTION BOX - PO LOBBY", "address": {"city": "WALNUT", "state": "KS", "street": "119 S MAIN ST", "postcode": "66780"}}},
{"geometry": {"type": "Point", "coordinates": [-94.770682781, 37.3101339307]}, "type": "Feature", "properties": {"collection_times": [{"days": "Mon-Sat", "time": "3:40pm"}, {"days": "Sun", "time": "Closed"}], "id": "6678100000", "name": "USPS COLLECTION BOX - BLUE BOX", "address": {"city": "WEIR", "state": "KS", "street": "201 E MAIN ST", "postcode": "66781"}}},
{"geometry": {"type": "Point", "coordinates": [-94.770682781, 37.3101339307]}, "type": "Feature", "properties": {"collection_times": [{"days": "Mon-Fri", "time": "11:45am"}, {"days": "Sat", "time": "8:45am"}, {"days": "Sun", "time": "Closed"}], "id": "6678100001", "name": "USPS COLLECTION BOX - PO LOBBY", "address": {"city": "WEIR", "state": "KS", "street": "201 E MAIN ST", "postcode": "66781"}}},
{"geometry": {"type": "Point", "coordinates": [-94.920618075, 37.2817386351]}, "type": "Feature", "properties": {"collection_times": [{"days": "Mon-Sat", "time": "2:10pm"}, {"days": "Sun", "time": "Closed"}], "id": "6678200000", "name": "USPS COLLECTION BOX - BLUE BOX", "address": {"city": "WEST MINERAL", "state": "KS", "street": "102 JOPLIN ST", "postcode": "66782"}}},
{"geometry": {"type": "Point", "coordinates": [-94.920618075, 37.2817386351]}, "type": "Feature", "properties": {"collection_times": [{"days": "Mon-Fri", "time": "11:45am"}, {"days": "Sat", "time": "8:45am"}, {"days": "Sun", "time": "Closed"}], "id": "6678200001", "name": "USPS COLLECTION BOX - PO LOBBY", "address": {"city": "WEST MINERAL", "state": "KS", "street": "102 JOPLIN ST", "postcode": "66782"}}},
{"geometry": {"type": "Point", "coordinates": [-95.7325368213, 37.8823302413]}, "type": "Feature", "properties": {"collection_times": [{"days": "Mon-Fri", "time": "3:45pm"}, {"days": "Sat", "time": "1:10pm"}, {"days": "Sun", "time": "Closed"}], "id": "6678300002", "name": "USPS COLLECTION BOX - BLUE BOX", "address": {"city": "YATES CENTER", "state": "KS", "street": "200 N MAIN ST", "postcode": "66783"}}},
{"geometry": {"type": "Point", "coordinates": [-95.7325368213, 37.8823302413]}, "type": "Feature", "properties": {"collection_times": [{"days": "Mon-Fri", "time": "1:10pm"}, {"days": "Sat", "time": "9:00am"}, {"days": "Sun", "time": "Closed"}], "id": "6678300004", "name": "USPS COLLECTION BOX - PO LOBBY", "address": {"city": "YATES CENTER", "state": "KS", "street": "200 N MAIN ST", "postcode": "66783"}}}
]}
