{"type": "FeatureCollection", "features": [
{"geometry": {"type": "Point", "coordinates": [-96.1814786212, 38.4052318439]}, "type": "Feature", "properties": {"collection_times": [{"days": "Mon-Sat", "time": "4:00pm"}, {"days": "Sun", "time": "Closed"}], "id": "6680100001", "name": "USPS COLLECTION BOX - BLUE BOX", "address": {"city": "EMPORIA", "state": "KS", "street": "625 MERCHANT ST", "postcode": "66801"}}},
{"geometry": {"type": "Point", "coordinates": [-96.217117061, 38.4253105731]}, "type": "Feature", "properties": {"collection_times": [{"days": "Mon-Sat", "time": "11:00am"}, {"days": "Sun", "time": "Closed"}], "id": "6680100005", "name": "USPS COLLECTION BOX - BLUE BOX", "address": {"city": "EMPORIA", "state": "KS", "street": "2301 INDUSTRIAL RD", "postcode": "66801"}}},
{"geometry": {"type": "Point", "coordinates": [-96.1963632965, 38.4121760119]}, "type": "Feature", "properties": {"collection_times": [{"days": "Mon-Fri", "time": "1:45pm"}, {"days": "Sat-Sun", "time": "Closed"}], "id": "6680100006", "name": "USPS COLLECTION BOX - BLUE BOX", "address": {"city": "EMPORIA", "state": "KS", "street": "1301 W 12TH AVE", "postcode": "66801"}}},
{"geometry": {"type": "Point", "coordinates": [-96.2168448044, 38.413685393]}, "type": "Feature", "properties": {"collection_times": [{"days": "Mon-Sat", "time": "2:00pm"}, {"days": "Sun", "time": "Closed"}], "id": "6680100010", "name": "USPS COLLECTION BOX - BLUE BOX", "address": {"city": "EMPORIA", "state": "KS", "street": "1312 INDUSTRIAL RD", "postcode": "66801"}}},
{"geometry": {"type": "Point", "coordinates": [-96.1802081531, 38.399026706]}, "type": "Feature", "properties": {"collection_times": [{"days": "Mon-Fri", "time": "2:00pm"}, {"days": "Sat-Sun", "time": "Closed"}], "id": "6680100015", "name": "USPS COLLECTION BOX - BLUE BOX", "address": {"city": "EMPORIA", "state": "KS", "street": "115 COMMERCIAL ST", "postcode": "66801"}}},
{"geometry": {"type": "Point", "coordinates": [-96.2397093865, 38.4122246595]}, "type": "Feature", "properties": {"collection_times": [{"days": "Mon-Sat", "time": "9:00am"}, {"days": "Sun", "time": "Closed"}], "id": "6680100016", "name": "USPS COLLECTION BOX - BLUE BOX", "address": {"city": "EMPORIA", "state": "KS", "street": "4215 W US HIGHWAY 50", "postcode": "66801"}}},
{"geometry": {"type": "Point", "coordinates": [-96.1814786212, 38.4052318439]}, "type": "Feature", "properties": {"collection_times": [{"days": "Mon-Sat", "time": "4:00pm"}, {"days": "Sun", "time": "Closed"}], "id": "6680100022", "name": "USPS COLLECTION BOX - PO LOBBY", "address": {"city": "EMPORIA", "state": "KS", "street": "625 MERCHANT ST", "postcode": "66801"}}},
{"geometry": {"type": "Point", "coordinates": [-96.1800980761, 38.4116772118]}, "type": "Feature", "properties": {"collection_times": [{"days": "Mon-Fri", "time": "2:00pm"}, {"days": "Sat-Sun", "time": "Closed"}], "id": "6680100025", "name": "USPS COLLECTION BOX - BLUE BOX", "address": {"city": "EMPORIA", "state": "KS", "street": "1200 COMMERCIAL ST", "postcode": "66801"}}},
{"geometry": {"type": "Point", "coordinates": [-96.1800651763, 38.4026071074]}, "type": "Feature", "properties": {"collection_times": [{"days": "Mon-Fri", "time": "1:45pm"}, {"days": "Sat-Sun", "time": "Closed"}], "id": "6680100026", "name": "USPS COLLECTION BOX - BLUE BOX", "address": {"city": "EMPORIA", "state": "KS", "street": "402 COMMERCIAL ST", "postcode": "66801"}}},
{"geometry": {"type": "Point", "coordinates": [-96.1044501646, 38.6398142357]}, "type": "Feature", "properties": {"collection_times": [{"days": "Mon-Sat", "time": "12:00pm"}, {"days": "Sun", "time": "Closed"}], "id": "6683000001", "name": "USPS COLLECTION BOX - BLUE BOX", "address": {"city": "ADMIRE", "state": "KS", "street": "107 W 5TH ST", "postcode": "66830"}}},
{"geometry": {"type": "Point", "coordinates": [-96.1044501646, 38.6398142357]}, "type": "Feature", "properties": {"collection_times": [{"days": "Mon-Sat", "time": "9:45am"}, {"days": "Sun", "time": "Closed"}], "id": "6683000002", "name": "USPS COLLECTION BOX - PO LOBBY", "address": {"city": "ADMIRE", "state": "KS", "street": "107 W 5TH ST", "postcode": "66830"}}},
{"geometry": {"type": "Point", "coordinates": [-96.1696648316, 38.6547825987]}, "type": "Feature", "properties": {"collection_times": [{"days": "Mon-Sat", "time": "2:45pm"}, {"days": "Sun", "time": "Closed"}], "id": "6683300001", "name": "USPS COLLECTION BOX - BLUE BOX", "address": {"city": "ALLEN", "state": "KS", "street": "402 MAIN ST", "postcode": "66833"}}},
{"geometry": {"type": "Point", "coordinates": [-96.1696648316, 38.6547825987]}, "type": "Feature", "properties": {"collection_times": [{"days": "Mon-Fri", "time": "11:45am"}, {"days": "Sat", "time": "9:45am"}, {"days": "Sun", "time": "Closed"}], "id": "6683300002", "name": "USPS COLLECTION BOX - PO LOBBY", "address": {"city": "ALLEN", "state": "KS", "street": "402 MAIN ST", "postcode": "66833"}}},
{"geometry": {"type": "Point", "coordinates": [-96.489578862, 38.8642973759]}, "type": "Feature", "properties": {"collection_times": [{"days": "Mon-Sat", "time": "1:30pm"}, {"days": "Sun", "time": "Closed"}], "id": "6683400001", "name": "USPS COLLECTION BOX - BLUE BOX", "address": {"city": "ALTA VISTA", "state": "KS", "street": "618 MAIN ST", "postcode": "66834"}}},
{"geometry": {"type": "Point", "coordinates": [-96.489578862, 38.8642973759]}, "type": "Feature", "properties": {"collection_times": [{"days": "Mon-Fri", "time": "12:15pm"}, {"days": "Sat", "time": "9:15am"}, {"days": "Sun", "time": "Closed"}], "id": "6683400002", "name": "USPS COLLECTION BOX - PO LOBBY", "address": {"city": "ALTA VISTA", "state": "KS", "street": "618 MAIN ST", "postcode": "66834"}}},
{"geometry": {"type": "Point", "coordinates": [-96.2622320506, 38.5059594768]}, "type": "Feature", "properties": {"collection_times": [{"days": "Mon-Sat", "time": "2:50pm"}, {"days": "Sun", "time": "Closed"}], "id": "6683500001", "name": "USPS COLLECTION BOX - BLUE BOX", "address": {"city": "AMERICUS", "state": "KS", "street": "611 MAIN ST", "postcode": "66835"}}},
{"geometry": {"type": "Point", "coordinates": [-96.2622320506, 38.5059594768]}, "type": "Feature", "properties": {"collection_times": [{"days": "Mon-Fri", "time": "11:45am"}, {"days": "Sat", "time": "8:45am"}, {"days": "Sun", "time": "Closed"}], "id": "6683500002", "name": "USPS COLLECTION BOX - PO LOBBY", "address": {"city": "AMERICUS", "state": "KS", "street": "611 MAIN ST", "postcode": "66835"}}},
{"geometry": {"type": "Point", "coordinates": [-96.8009848233, 38.5658941857]}, "type": "Feature", "properties": {"collection_times": [{"days": "Mon-Sat", "time": "1:15pm"}, {"days": "Sun", "time": "Closed"}], "id": "6683800001", "name": "USPS COLLECTION BOX - BLUE BOX", "address": {"city": "BURDICK", "state": "KS", "street": "402 MAIN ST", "postcode": "66838"}}},
{"geometry": {"type": "Point", "coordinates": [-96.8009848233, 38.5658941857]}, "type": "Feature", "properties": {"collection_times": [{"days": "Mon-Sat", "time": "12:45pm"}, {"days": "Sun", "time": "Closed"}], "id": "6683800002", "name": "USPS COLLECTION BOX - PO LOBBY", "address": {"city": "BURDICK", "state": "KS", "street": "402 MAIN ST", "postcode": "66838"}}},
{"geometry": {"type": "Point", "coordinates": [-95.7385236002, 38.262736459]}, "type": "Feature", "properties": {"collection_times": [{"days": "Mon-Sat", "time": "2:15pm"}, {"days": "Sun", "time": "Closed"}], "id": "6683900002", "name": "USPS COLLECTION BOX - BLUE BOX", "address": {"city": "BURLINGTON", "state": "KS", "street": "306 N MAIN ST", "postcode": "66839"}}},
{"geometry": {"type": "Point", "coordinates": [-95.7385251044, 38.1943706212]}, "type": "Feature", "properties": {"collection_times": [{"days": "Mon-Sat", "time": "2:00pm"}, {"days": "Sun", "time": "Closed"}], "id": "6683900003", "name": "USPS COLLECTION BOX - BLUE BOX", "address": {"city": "BURLINGTON", "state": "KS", "street": "118 S 4TH ST", "postcode": "66839"}}},
{"geometry": {"type": "Point", "coordinates": [-95.7385251044, 38.1943706212]}, "type": "Feature", "properties": {"collection_times": [{"days": "Mon-Fri", "time": "2:00pm"}, {"days": "Sat", "time": "9:30am"}, {"days": "Sun", "time": "Closed"}], "id": "6683900005", "name": "USPS COLLECTION BOX - PO LOBBY", "address": {"city": "BURLINGTON", "state": "KS", "street": "118 S 4TH ST", "postcode": "66839"}}},
{"geometry": {"type": "Point", "coordinates": [-96.8867095284, 38.0893675336]}, "type": "Feature", "properties": {"collection_times": [{"days": "Mon-Sat", "time": "1:00pm"}, {"days": "Sun", "time": "Closed"}], "id": "6684000001", "name": "USPS COLLECTION BOX - BLUE BOX", "address": {"city": "BURNS", "state": "KS", "street": "111 N WASHINGTON AVE", "postcode": "66840"}}},
{"geometry": {"type": "Point", "coordinates": [-96.8867095284, 38.0893675336]}, "type": "Feature", "properties": {"collection_times": [{"days": "Mon-Fri", "time": "1:00pm"}, {"days": "Sat", "time": "9:00am"}, {"days": "Sun", "time": "Closed"}], "id": "6684000002", "name": "USPS COLLECTION BOX - PO LOBBY", "address": {"city": "BURNS", "state": "KS", "street": "111 N WASHINGTON AVE", "postcode": "66840"}}},
{"geometry": {"type": "Point", "coordinates": [-96.6387490564, 38.04006891]}, "type": "Feature", "properties": {"collection_times": [{"days": "Mon-Sat", "time": "1:30pm"}, {"days": "Sun", "time": "Closed"}], "id": "6684200001", "name": "USPS COLLECTION BOX - BLUE BOX", "address": {"city": "CASSODAY", "state": "KS", "street": "308 E MAIN ST", "postcode": "66842"}}},
{"geometry": {"type": "Point", "coordinates": [-96.6387490564, 38.04006891]}, "type": "Feature", "properties": {"collection_times": [{"days": "Mon-Fri", "time": "12:00pm"}, {"days": "Sat", "time": "8:30am"}, {"days": "Sun", "time": "Closed"}], "id": "6684200002", "name": "USPS COLLECTION BOX - PO LOBBY", "address": {"city": "CASSODAY", "state": "KS", "street": "308 E MAIN ST", "postcode": "66842"}}},
{"geometry": {"type": "Point", "coordinates": [-96.8194139727, 38.2613993274]}, "type": "Feature", "properties": {"collection_times": [{"days": "Mon-Sat", "time": "1:00pm"}, {"days": "Sun", "time": "Closed"}], "id": "6684300001", "name": "USPS COLLECTION BOX - BLUE BOX", "address": {"city": "CEDAR POINT", "state": "KS", "street": "102 MAIN ST", "postcode": "66843"}}},
{"geometry": {"type": "Point", "coordinates": [-96.8194139727, 38.2613993274]}, "type": "Feature", "properties": {"collection_times": [{"days": "Mon-Fri", "time": "11:45am"}, {"days": "Sat", "time": "10:45am"}, {"days": "Sun", "time": "Closed"}], "id": "6684300002", "name": "USPS COLLECTION BOX - PO LOBBY", "address": {"city": "CEDAR POINT", "state": "KS", "street": "102 MAIN ST", "postcode": "66843"}}},
{"geometry": {"type": "Point", "coordinates": [-96.541541717, 38.3721245353]}, "type": "Feature", "properties": {"collection_times": [{"days": "Mon-Sat", "time": "2:30pm"}, {"days": "Sun", "time": "Closed"}], "id": "6684500001", "name": "USPS COLLECTION BOX - BLUE BOX", "address": {"city": "COTTONWOOD FALLS", "state": "KS", "street": "206 BROADWAY ST", "postcode": "66845"}}},
{"geometry": {"type": "Point", "coordinates": [-96.541541717, 38.3721245353]}, "type": "Feature", "properties": {"collection_times": [{"days": "Mon-Fri", "time": "2:30pm"}, {"days": "Sat", "time": "8:45am"}, {"days": "Sun", "time": "Closed"}], "id": "6684500002", "name": "USPS COLLECTION BOX - PO LOBBY", "address": {"city": "COTTONWOOD FALLS", "state": "KS", "street": "206 BROADWAY ST", "postcode": "66845"}}},
{"geometry": {"type": "Point", "coordinates": [-96.4932869682, 38.6602158944]}, "type": "Feature", "properties": {"collection_times": [{"days": "Mon-Sat", "time": "1:00pm"}, {"days": "Sun", "time": "Closed"}], "id": "6684600003", "name": "USPS COLLECTION BOX - BLUE BOX", "address": {"city": "COUNCIL GROVE", "state": "KS", "street": "501 W MAIN ST", "postcode": "66846"}}},
{"geometry": {"type": "Point", "coordinates": [-96.4855381531, 38.6616136954]}, "type": "Feature", "properties": {"collection_times": [{"days": "Mon-Sat", "time": "9:30am"}, {"days": "Sun", "time": "Closed"}], "id": "6684600005", "name": "USPS COLLECTION BOX - BLUE BOX", "address": {"city": "COUNCIL GROVE", "state": "KS", "street": "115 E MAIN ST", "postcode": "66846"}}},
{"geometry": {"type": "Point", "coordinates": [-96.4892554035, 38.6612653851]}, "type": "Feature", "properties": {"collection_times": [{"days": "Mon-Sat", "time": "2:00pm"}, {"days": "Sun", "time": "Closed"}], "id": "6684600008", "name": "USPS COLLECTION BOX - BLUE BOX", "address": {"city": "COUNCIL GROVE", "state": "KS", "street": "13 WOOD ST", "postcode": "66846"}}},
{"geometry": {"type": "Point", "coordinates": [-96.4887927196, 38.6614792667]}, "type": "Feature", "properties": {"collection_times": [{"days": "Mon-Fri", "time": "2:00pm"}, {"days": "Sat", "time": "10:00am"}, {"days": "Sun", "time": "Closed"}], "id": "6684600010", "name": "USPS COLLECTION BOX - PO LOBBY", "address": {"city": "COUNCIL GROVE", "state": "KS", "street": "103 W MAIN ST", "postcode": "66846"}}},
{"geometry": {"type": "Point", "coordinates": [-96.5926557785, 38.8431494253]}, "type": "Feature", "properties": {"collection_times": [{"days": "Mon-Sat", "time": "1:15pm"}, {"days": "Sun", "time": "Closed"}], "id": "6684900001", "name": "USPS COLLECTION BOX - BLUE BOX", "address": {"city": "DWIGHT", "state": "KS", "street": "608 E MAIN ST", "postcode": "66849"}}},
{"geometry": {"type": "Point", "coordinates": [-96.5926557785, 38.8431494253]}, "type": "Feature", "properties": {"collection_times": [{"days": "Mon-Fri", "time": "12:45pm"}, {"days": "Sat", "time": "12:15pm"}, {"days": "Sun", "time": "Closed"}], "id": "6684900002", "name": "USPS COLLECTION BOX - PO LOBBY", "address": {"city": "DWIGHT", "state": "KS", "street": "608 E MAIN ST", "postcode": "66849"}}},
{"geometry": {"type": "Point", "coordinates": [-96.6497395526, 38.3736050379]}, "type": "Feature", "properties": {"collection_times": [{"days": "Mon-Sat", "time": "2:30pm"}, {"days": "Sun", "time": "Closed"}], "id": "6685000001", "name": "USPS COLLECTION BOX - BLUE BOX", "address": {"city": "ELMDALE", "state": "KS", "street": "100 MAIN ST", "postcode": "66850"}}},
{"geometry": {"type": "Point", "coordinates": [-96.6469103423, 38.3734532604]}, "type": "Feature", "properties": {"collection_times": [{"days": "Mon-Fri", "time": "2:00pm"}, {"days": "Sat", "time": "1:30pm"}, {"days": "Sun", "time": "Closed"}], "id": "6685000002", "name": "USPS COLLECTION BOX - PO LOBBY", "address": {"city": "ELMDALE", "state": "KS", "street": "100 MAIN ST", "postcode": "66850"}}},
{"geometry": {"type": "Point", "coordinates": [-96.9263564838, 38.2403902182]}, "type": "Feature", "properties": {"collection_times": [{"days": "Mon-Sat", "time": "1:00pm"}, {"days": "Sun", "time": "Closed"}], "id": "6685100001", "name": "USPS COLLECTION BOX - BLUE BOX", "address": {"city": "FLORENCE", "state": "KS", "street": "302 MAIN ST", "postcode": "66851"}}},
{"geometry": {"type": "Point", "coordinates": [-96.9263564838, 38.2403902182]}, "type": "Feature", "properties": {"collection_times": [{"days": "Mon-Fri", "time": "1:00pm"}, {"days": "Sat", "time": "10:00am"}, {"days": "Sun", "time": "Closed"}], "id": "6685100002", "name": "USPS COLLECTION BOX - PO LOBBY", "address": {"city": "FLORENCE", "state": "KS", "street": "302 MAIN ST", "postcode": "66851"}}},
{"geometry": {"type": "Point", "coordinates": [-95.882899712, 38.0972109007]}, "type": "Feature", "properties": {"collection_times": [{"days": "Mon-Sat", "time": "1:30pm"}, {"days": "Sun", "time": "Closed"}], "id": "6685200001", "name": "USPS COLLECTION BOX - BLUE BOX", "address": {"city": "GRIDLEY", "state": "KS", "street": "423 MAIN ST", "postcode": "66852"}}},
{"geometry": {"type": "Point", "coordinates": [-95.882899712, 38.0972109007]}, "type": "Feature", "properties": {"collection_times": [{"days": "Mon-Fri", "time": "1:15pm"}, {"days": "Sat", "time": "9:45am"}, {"days": "Sun", "time": "Closed"}], "id": "6685200002", "name": "USPS COLLECTION BOX - PO LOBBY", "address": {"city": "GRIDLEY", "state": "KS", "street": "423 MAIN ST", "postcode": "66852"}}},
{"geometry": {"type": "Point", "coordinates": [-96.1644471791, 37.97994299]}, "type": "Feature", "properties": {"collection_times": [{"days": "Mon-Sat", "time": "2:30pm"}, {"days": "Sun", "time": "Closed"}], "id": "6685300001", "name": "USPS COLLECTION BOX - BLUE BOX", "address": {"city": "HAMILTON", "state": "KS", "street": "29 E MAIN ST", "postcode": "66853"}}},
{"geometry": {"type": "Point", "coordinates": [-96.1644471791, 37.97994299]}, "type": "Feature", "properties": {"collection_times": [{"days": "Mon-Fri", "time": "12:00pm"}, {"days": "Sat", "time": "9:00am"}, {"days": "Sun", "time": "Closed"}], "id": "6685300002", "name": "USPS COLLECTION BOX - PO LOBBY", "address": {"city": "HAMILTON", "state": "KS", "street": "29 E MAIN ST", "postcode": "66853"}}},
{"geometry": {"type": "Point", "coordinates": [-95.957505867, 38.3107422105]}, "type": "Feature", "properties": {"collection_times": [{"days": "Mon-Sat", "time": "2:45pm"}, {"days": "Sun", "time": "Closed"}], "id": "6685400001", "name": "USPS COLLECTION BOX - BLUE BOX", "address": {"city": "HARTFORD", "state": "KS", "street": "212 COMMERCIAL ST", "postcode": "66854"}}},
{"geometry": {"type": "Point", "coordinates": [-95.957505867, 38.3107422105]}, "type": "Feature", "properties": {"collection_times": [{"days": "Mon-Fri", "time": "11:45am"}, {"days": "Sat", "time": "8:45am"}, {"days": "Sun", "time": "Closed"}], "id": "6685400002", "name": "USPS COLLECTION BOX - PO LOBBY", "address": {"city": "HARTFORD", "state": "KS", "street": "212 COMMERCIAL ST", "postcode": "66854"}}},
{"geometry": {"type": "Point", "coordinates": [-95.8579038793, 38.4155772833]}, "type": "Feature", "properties": {"collection_times": [{"days": "Mon-Sat", "time": "3:15pm"}, {"days": "Sun", "time": "Closed"}], "id": "6685600001", "name": "USPS COLLECTION BOX - BLUE BOX", "address": {"city": "LEBO", "state": "KS", "street": "4 W BROADWAY ST", "postcode": "66856"}}},
{"geometry": {"type": "Point", "coordinates": [-95.8579038793, 38.4155772833]}, "type": "Feature", "properties": {"collection_times": [{"days": "Mon-Fri", "time": "3:15pm"}, {"days": "Sat", "time": "9:30am"}, {"days": "Sun", "time": "Closed"}], "id": "6685600003", "name": "USPS COLLECTION BOX - PO LOBBY", "address": {"city": "LEBO", "state": "KS", "street": "4 W BROADWAY ST", "postcode": "66856"}}},
{"geometry": {"type": "Point", "coordinates": [-95.633421879, 38.0822623042]}, "type": "Feature", "properties": {"collection_times": [{"days": "Mon-Sat", "time": "1:30pm"}, {"days": "Sun", "time": "Closed"}], "id": "6685700001", "name": "USPS COLLECTION BOX - BLUE BOX", "address": {"city": "LEROY", "state": "KS", "street": "418 E 6TH ST", "postcode": "66857"}}},
{"geometry": {"type": "Point", "coordinates": [-95.633421879, 38.0822623042]}, "type": "Feature", "properties": {"collection_times": [{"days": "Mon-Fri", "time": "11:00am"}, {"days": "Sat", "time": "8:45am"}, {"days": "Sun", "time": "Closed"}], "id": "6685700002", "name": "USPS COLLECTION BOX - PO LOBBY", "address": {"city": "LEROY", "state": "KS", "street": "418 E 6TH ST", "postcode": "66857"}}},
{"geometry": {"type": "Point", "coordinates": [-96.9612988481, 38.4910407057]}, "type": "Feature", "properties": {"collection_times": [{"days": "Mon-Sat", "time": "1:00pm"}, {"days": "Sun", "time": "Closed"}], "id": "6685800001", "name": "USPS COLLECTION BOX - BLUE BOX", "address": {"city": "LINCOLNVILLE", "state": "KS", "street": "319 ADAMS ST", "postcode": "66858"}}},
{"geometry": {"type": "Point", "coordinates": [-96.9612988481, 38.4910407057]}, "type": "Feature", "properties": {"collection_times": [{"days": "Mon-Fri", "time": "11:15am"}, {"days": "Sat", "time": "10:45am"}, {"days": "Sun", "time": "Closed"}], "id": "6685800002", "name": "USPS COLLECTION BOX - PO LOBBY", "address": {"city": "LINCOLNVILLE", "state": "KS", "street": "319 ADAMS ST", "postcode": "66858"}}},
{"geometry": {"type": "Point", "coordinates": [-96.9671913173, 38.566245698]}, "type": "Feature", "properties": {"collection_times": [{"days": "Mon-Sat", "time": "12:45pm"}, {"days": "Sun", "time": "Closed"}], "id": "6685900001", "name": "USPS COLLECTION BOX - BLUE BOX", "address": {"city": "LOST SPRINGS", "state": "KS", "street": "125 BERRY ST", "postcode": "66859"}}},
{"geometry": {"type": "Point", "coordinates": [-96.9671913173, 38.566245698]}, "type": "Feature", "properties": {"collection_times": [{"days": "Mon-Sat", "time": "12:45pm"}, {"days": "Sun", "time": "Closed"}], "id": "6685900002", "name": "USPS COLLECTION BOX - PO LOBBY", "address": {"city": "LOST SPRINGS", "state": "KS", "street": "125 BERRY ST", "postcode": "66859"}}},
{"geometry": {"type": "Point", "coordinates": [-96.1360844534, 38.1382974838]}, "type": "Feature", "properties": {"collection_times": [{"days": "Mon-Sat", "time": "3:00pm"}, {"days": "Sun", "time": "Closed"}], "id": "6686000001", "name": "USPS COLLECTION BOX - BLUE BOX", "address": {"city": "MADISON", "state": "KS", "street": "115 S 3RD ST", "postcode": "66860"}}},
{"geometry": {"type": "Point", "coordinates": [-96.1360844534, 38.1382974838]}, "type": "Feature", "properties": {"collection_times": [{"days": "Mon-Fri", "time": "2:30pm"}, {"days": "Sat", "time": "9:45am"}, {"days": "Sun", "time": "Closed"}], "id": "6686000002", "name": "USPS COLLECTION BOX - PO LOBBY", "address": {"city": "MADISON", "state": "KS", "street": "115 S 3RD ST", "postcode": "66860"}}},
{"geometry": {"type": "Point", "coordinates": [-97.0140196144, 38.3532934081]}, "type": "Feature", "properties": {"collection_times": [{"days": "Mon-Sat", "time": "1:45pm"}, {"days": "Sun", "time": "Closed"}], "id": "6686100001", "name": "USPS COLLECTION BOX - BLUE BOX", "address": {"city": "MARION", "state": "KS", "street": "423 E MAIN ST", "postcode": "66861"}}},
{"geometry": {"type": "Point", "coordinates": [-97.0189412495, 38.3481272125]}, "type": "Feature", "properties": {"collection_times": [{"days": "Mon-Fri", "time": "1:45pm"}, {"days": "Sat", "time": "9:45am"}, {"days": "Sun", "time": "Closed"}], "id": "6686100003", "name": "USPS COLLECTION BOX - PO LOBBY", "address": {"city": "MARION", "state": "KS", "street": "423 E MAIN ST", "postcode": "66861"}}},
{"geometry": {"type": "Point", "coordinates": [-96.5632270237, 38.1603354834]}, "type": "Feature", "properties": {"collection_times": [{"days": "Mon-Sat", "time": "1:45pm"}, {"days": "Sun", "time": "Closed"}], "id": "6686200001", "name": "USPS COLLECTION BOX - BLUE BOX", "address": {"city": "MATFIELD GREEN", "state": "KS", "street": "202 REED ST", "postcode": "66862"}}},
{"geometry": {"type": "Point", "coordinates": [-96.0806553466, 37.8373923537]}, "type": "Feature", "properties": {"collection_times": [{"days": "Mon-Sat", "time": "2:00pm"}, {"days": "Sun", "time": "Closed"}], "id": "6686300001", "name": "USPS COLLECTION BOX - BLUE BOX", "address": {"city": "NEAL", "state": "KS", "street": "1567 AA30 RD", "postcode": "66863"}}},
{"geometry": {"type": "Point", "coordinates": [-96.0806553466, 37.8373923537]}, "type": "Feature", "properties": {"collection_times": [{"days": "Mon-Sat", "time": "11:15am"}, {"days": "Sun", "time": "Closed"}], "id": "6686300002", "name": "USPS COLLECTION BOX - PO LOBBY", "address": {"city": "NEAL", "state": "KS", "street": "1567 AA30 RD", "postcode": "66863"}}},
{"geometry": {"type": "Point", "coordinates": [-95.9924841043, 38.371108783]}, "type": "Feature", "properties": {"collection_times": [{"days": "Mon-Sat", "time": "2:30pm"}, {"days": "Sun", "time": "Closed"}], "id": "6686400001", "name": "USPS COLLECTION BOX - BLUE BOX", "address": {"city": "NEOSHO RAPIDS", "state": "KS", "street": "516 MAIN ST", "postcode": "66864"}}},
{"geometry": {"type": "Point", "coordinates": [-95.9924841043, 38.371108783]}, "type": "Feature", "properties": {"collection_times": [{"days": "Mon-Fri", "time": "10:45am"}, {"days": "Sat", "time": "9:45am"}, {"days": "Sun", "time": "Closed"}], "id": "6686400002", "name": "USPS COLLECTION BOX - PO LOBBY", "address": {"city": "NEOSHO RAPIDS", "state": "KS", "street": "516 MAIN ST", "postcode": "66864"}}},
{"geometry": {"type": "Point", "coordinates": [-96.1685633538, 38.2606925866]}, "type": "Feature", "properties": {"collection_times": [{"days": "Mon-Sat", "time": "3:15pm"}, {"days": "Sun", "time": "Closed"}], "id": "6686500001", "name": "USPS COLLECTION BOX - BLUE BOX", "address": {"city": "OLPE", "state": "KS", "street": "118 WESTPHALIA ST", "postcode": "66865"}}},
{"geometry": {"type": "Point", "coordinates": [-96.1685633538, 38.2606925866]}, "type": "Feature", "properties": {"collection_times": [{"days": "Mon-Fri", "time": "11:45am"}, {"days": "Sat", "time": "8:15am"}, {"days": "Sun", "time": "Closed"}], "id": "6686500002", "name": "USPS COLLECTION BOX - PO LOBBY", "address": {"city": "OLPE", "state": "KS", "street": "118 WESTPHALIA ST", "postcode": "66865"}}},
{"geometry": {"type": "Point", "coordinates": [-97.1123602722, 38.1661134726]}, "type": "Feature", "properties": {"collection_times": [{"days": "Mon-Sat", "time": "1:15pm"}, {"days": "Sun", "time": "Closed"}], "id": "6686600001", "name": "USPS COLLECTION BOX - BLUE BOX", "address": {"city": "PEABODY", "state": "KS", "street": "105 W 2ND ST", "postcode": "66866"}}},
{"geometry": {"type": "Point", "coordinates": [-97.1123602722, 38.1661134726]}, "type": "Feature", "properties": {"collection_times": [{"days": "Mon-Fri", "time": "1:15pm"}, {"days": "Sat", "time": "9:45am"}, {"days": "Sun", "time": "Closed"}], "id": "6686600002", "name": "USPS COLLECTION BOX - PO LOBBY", "address": {"city": "PEABODY", "state": "KS", "street": "105 W 2ND ST", "postcode": "66866"}}},
{"geometry": {"type": "Point", "coordinates": [-95.9577513302, 38.5196928025]}, "type": "Feature", "properties": {"collection_times": [{"days": "Mon-Sat", "time": "3:30pm"}, {"days": "Sun", "time": "Closed"}], "id": "6686800001", "name": "USPS COLLECTION BOX - BLUE BOX", "address": {"city": "READING", "state": "KS", "street": "413 1ST ST", "postcode": "66868"}}},
{"geometry": {"type": "Point", "coordinates": [-95.9577513302, 38.5196928025]}, "type": "Feature", "properties": {"collection_times": [{"days": "Mon-Fri", "time": "1:15pm"}, {"days": "Sat", "time": "11:15am"}, {"days": "Sun", "time": "Closed"}], "id": "6686800002", "name": "USPS COLLECTION BOX - PO LOBBY", "address": {"city": "READING", "state": "KS", "street": "413 1ST ST", "postcode": "66868"}}},
{"geometry": {"type": "Point", "coordinates": [-96.5390814446, 38.3863525491]}, "type": "Feature", "properties": {"collection_times": [{"days": "Mon-Sat", "time": "2:45pm"}, {"days": "Sun", "time": "Closed"}], "id": "6686900001", "name": "USPS COLLECTION BOX - BLUE BOX", "address": {"city": "STRONG CITY", "state": "KS", "street": "309 COTTONWOOD ST", "postcode": "66869"}}},
{"geometry": {"type": "Point", "coordinates": [-96.5390814446, 38.3863525491]}, "type": "Feature", "properties": {"collection_times": [{"days": "Mon-Fri", "time": "11:45am"}, {"days": "Sat", "time": "8:45am"}, {"days": "Sun", "time": "Closed"}], "id": "6686900002", "name": "USPS COLLECTION BOX - PO LOBBY", "address": {"city": "STRONG CITY", "state": "KS", "street": "309 COTTONWOOD ST", "postcode": "66869"}}},
{"geometry": {"type": "Point", "coordinates": [-96.0092578271, 37.9846957828]}, "type": "Feature", "properties": {"collection_times": [{"days": "Mon-Sat", "time": "2:15pm"}, {"days": "Sun", "time": "Closed"}], "id": "6687000001", "name": "USPS COLLECTION BOX - BLUE BOX", "address": {"city": "VIRGIL", "state": "KS", "street": "206 S MAIN ST", "postcode": "66870"}}},
{"geometry": {"type": "Point", "coordinates": [-96.0092578271, 37.9846957828]}, "type": "Feature", "properties": {"collection_times": [{"days": "Mon-Sat", "time": "11:30am"}, {"days": "Sun", "time": "Closed"}], "id": "6687000002", "name": "USPS COLLECTION BOX - PO LOBBY", "address": {"city": "VIRGIL", "state": "KS", "street": "206 S MAIN ST", "postcode": "66870"}}},
{"geometry": {"type": "Point", "coordinates": [-95.600194504, 38.3950190674]}, "type": "Feature", "properties": {"collection_times": [{"days": "Mon-Sat", "time": "2:45pm"}, {"days": "Sun", "time": "Closed"}], "id": "6687100000", "name": "USPS COLLECTION BOX - BLUE BOX", "address": {"city": "WAVERLY", "state": "KS", "street": "402 PEARSON AVE", "postcode": "66871"}}},
{"geometry": {"type": "Point", "coordinates": [-95.600194504, 38.3950190674]}, "type": "Feature", "properties": {"collection_times": [{"days": "Mon-Fri", "time": "1:30pm"}, {"days": "Sat", "time": "9:15am"}, {"days": "Sun", "time": "Closed"}], "id": "6687100001", "name": "USPS COLLECTION BOX - PO LOBBY", "address": {"city": "WAVERLY", "state": "KS", "street": "402 PEARSON AVE", "postcode": "66871"}}},
{"geometry": {"type": "Point", "coordinates": [-96.7351179528, 38.7956460468]}, "type": "Feature", "properties": {"collection_times": [{"days": "Mon-Sat", "time": "1:00pm"}, {"days": "Sun", "time": "Closed"}], "id": "6687200001", "name": "USPS COLLECTION BOX - BLUE BOX", "address": {"city": "WHITE CITY", "state": "KS", "street": "113 W MACKENZIE ST", "postcode": "66872"}}},
{"geometry": {"type": "Point", "coordinates": [-96.7351179528, 38.7956460468]}, "type": "Feature", "properties": {"collection_times": [{"days": "Mon-Fri", "time": "12:45pm"}, {"days": "Sat", "time": "10:15am"}, {"days": "Sun", "time": "Closed"}], "id": "6687200002", "name": "USPS COLLECTION BOX - PO LOBBY", "address": {"city": "WHITE CITY", "state": "KS", "street": "113 W MACKENZIE ST", "postcode": "66872"}}}
]}
