{"type": "FeatureCollection", "features": [
{"geometry": {"type": "Point", "coordinates": [-97.6610103136, 39.5713546185]}, "type": "Feature", "properties": {"collection_times": [{"days": "Mon-Sat", "time": "2:25pm"}, {"days": "Sun", "time": "Closed"}], "id": "6690100001", "name": "USPS COLLECTION BOX - BLUE BOX", "address": {"city": "CONCORDIA", "state": "KS", "street": "622 WASHINGTON ST", "postcode": "66901"}}},
{"geometry": {"type": "Point", "coordinates": [-97.6656147476, 39.5542106912]}, "type": "Feature", "properties": {"collection_times": [{"days": "Mon-Sat", "time": "1:00pm"}, {"days": "Sun", "time": "Closed"}], "id": "6690100005", "name": "USPS COLLECTION BOX - BLUE BOX", "address": {"city": "CONCORDIA", "state": "KS", "street": "2221 CAMPUS DR", "postcode": "66901"}}},
{"geometry": {"type": "Point", "coordinates": [-97.6610103136, 39.5713546185]}, "type": "Feature", "properties": {"collection_times": [{"days": "Mon-Sat", "time": "2:25pm"}, {"days": "Sun", "time": "Closed"}], "id": "6690100006", "name": "USPS COLLECTION BOX - BLUE BOX", "address": {"city": "CONCORDIA", "state": "KS", "street": "622 WASHINGTON ST", "postcode": "66901"}}},
{"geometry": {"type": "Point", "coordinates": [-97.6610103136, 39.5713546185]}, "type": "Feature", "properties": {"collection_times": [{"days": "Mon-Sat", "time": "2:25pm"}, {"days": "Sun", "time": "Closed"}], "id": "6690100007", "name": "USPS COLLECTION BOX - PO LOBBY", "address": {"city": "CONCORDIA", "state": "KS", "street": "622 WASHINGTON ST", "postcode": "66901"}}},
{"geometry": {"type": "Point", "coordinates": [-97.6610103136, 39.5713546185]}, "type": "Feature", "properties": {"collection_times": [{"days": "Mon-Sat", "time": "2:25pm"}, {"days": "Sun", "time": "Closed"}], "id": "6690100008", "name": "USPS COLLECTION BOX - PO LOBBY", "address": {"city": "CONCORDIA", "state": "KS", "street": "622 WASHINGTON ST", "postcode": "66901"}}},
{"geometry": {"type": "Point", "coordinates": [-96.8727101361, 39.7122642486]}, "type": "Feature", "properties": {"collection_times": [{"days": "Mon-Sat", "time": "11:25am"}, {"days": "Sun", "time": "Closed"}], "id": "6693300001", "name": "USPS COLLECTION BOX - BLUE BOX", "address": {"city": "BARNES", "state": "KS", "street": "20 N CENTER ST", "postcode": "66933"}}},
{"geometry": {"type": "Point", "coordinates": [-96.8727101361, 39.7122642486]}, "type": "Feature", "properties": {"collection_times": [{"days": "Mon-Fri", "time": "11:15am"}, {"days": "Sat", "time": "9:30am"}, {"days": "Sun", "time": "Closed"}], "id": "6693300002", "name": "USPS COLLECTION BOX - PO LOBBY", "address": {"city": "BARNES", "state": "KS", "street": "20 N CENTER ST", "postcode": "66933"}}},
{"geometry": {"type": "Point", "coordinates": [-97.6315733141, 39.8238935633]}, "type": "Feature", "properties": {"collection_times": [{"days": "Mon-Fri", "time": "12:15pm"}, {"days": "Sat", "time": "1:10pm"}, {"days": "Sun", "time": "Closed"}], "id": "6693500001", "name": "USPS COLLECTION BOX - BLUE BOX", "address": {"city": "BELLEVILLE", "state": "KS", "street": "1119 18TH ST", "postcode": "66935"}}},
{"geometry": {"type": "Point", "coordinates": [-97.631135746, 39.8236571427]}, "type": "Feature", "properties": {"collection_times": [{"days": "Mon-Sat", "time": "12:15pm"}, {"days": "Sun", "time": "Closed"}], "id": "6693500002", "name": "USPS COLLECTION BOX - BLUE BOX", "address": {"city": "BELLEVILLE", "state": "KS", "street": "1821 M ST", "postcode": "66935"}}},
{"geometry": {"type": "Point", "coordinates": [-97.6315733141, 39.8238935633]}, "type": "Feature", "properties": {"collection_times": [{"days": "Mon-Fri", "time": "12:15pm"}, {"days": "Sat", "time": "1:10pm"}, {"days": "Sun", "time": "Closed"}], "id": "6693500003", "name": "USPS COLLECTION BOX - BLUE BOX", "address": {"city": "BELLEVILLE", "state": "KS", "street": "1119 18TH ST", "postcode": "66935"}}},
{"geometry": {"type": "Point", "coordinates": [-97.6315733141, 39.8238935633]}, "type": "Feature", "properties": {"collection_times": [{"days": "Mon-Fri", "time": "12:15pm"}, {"days": "Sat", "time": "10:15am"}, {"days": "Sun", "time": "Closed"}], "id": "6693500006", "name": "USPS COLLECTION BOX - PO LOBBY", "address": {"city": "BELLEVILLE", "state": "KS", "street": "1119 18TH ST", "postcode": "66935"}}},
{"geometry": {"type": "Point", "coordinates": [-97.6315733141, 39.8238935633]}, "type": "Feature", "properties": {"collection_times": [{"days": "Mon-Fri", "time": "12:15pm"}, {"days": "Sat", "time": "1:10pm"}, {"days": "Sun", "time": "Closed"}], "id": "6693500007", "name": "USPS COLLECTION BOX - BLUE BOX", "address": {"city": "BELLEVILLE", "state": "KS", "street": "1119 18TH ST", "postcode": "66935"}}},
{"geometry": {"type": "Point", "coordinates": [-98.3864445019, 39.9154666118]}, "type": "Feature", "properties": {"collection_times": [{"days": "Mon-Fri", "time": "11:15am"}, {"days": "Sat", "time": "11:30am"}, {"days": "Sun", "time": "Closed"}], "id": "6693600001", "name": "USPS COLLECTION BOX - BLUE BOX", "address": {"city": "BURR OAK", "state": "KS", "street": "117 S MAIN ST", "postcode": "66936"}}},
{"geometry": {"type": "Point", "coordinates": [-98.3864445019, 39.9154666118]}, "type": "Feature", "properties": {"collection_times": [{"days": "Mon-Fri", "time": "11:15am"}, {"days": "Sat", "time": "8:45am"}, {"days": "Sun", "time": "Closed"}], "id": "6693600002", "name": "USPS COLLECTION BOX - PO LOBBY", "address": {"city": "BURR OAK", "state": "KS", "street": "117 S MAIN ST", "postcode": "66936"}}},
{"geometry": {"type": "Point", "coordinates": [-97.2818966347, 39.5667750791]}, "type": "Feature", "properties": {"collection_times": [{"days": "Mon-Sat", "time": "1:18pm"}, {"days": "Sun", "time": "Closed"}], "id": "6693700001", "name": "USPS COLLECTION BOX - BLUE BOX", "address": {"city": "CLIFTON", "state": "KS", "street": "101 E PARALLEL ST", "postcode": "66937"}}},
{"geometry": {"type": "Point", "coordinates": [-97.2818966347, 39.5667750791]}, "type": "Feature", "properties": {"collection_times": [{"days": "Mon-Fri", "time": "11:45am"}, {"days": "Sat", "time": "9:15am"}, {"days": "Sun", "time": "Closed"}], "id": "6693700002", "name": "USPS COLLECTION BOX - PO LOBBY", "address": {"city": "CLIFTON", "state": "KS", "street": "101 E PARALLEL ST", "postcode": "66937"}}},
{"geometry": {"type": "Point", "coordinates": [-97.3970760075, 39.5912792051]}, "type": "Feature", "properties": {"collection_times": [{"days": "Mon-Sat", "time": "1:35pm"}, {"days": "Sun", "time": "Closed"}], "id": "6693800001", "name": "USPS COLLECTION BOX - BLUE BOX", "address": {"city": "CLYDE", "state": "KS", "street": "308 WASHINGTON ST", "postcode": "66938"}}},
{"geometry": {"type": "Point", "coordinates": [-97.3970760075, 39.5912792051]}, "type": "Feature", "properties": {"collection_times": [{"days": "Mon-Fri", "time": "1:35pm"}, {"days": "Sat", "time": "9:45am"}, {"days": "Sun", "time": "Closed"}], "id": "6693800002", "name": "USPS COLLECTION BOX - PO LOBBY", "address": {"city": "CLYDE", "state": "KS", "street": "308 WASHINGTON ST", "postcode": "66938"}}},
{"geometry": {"type": "Point", "coordinates": [-97.8949752851, 39.783195242]}, "type": "Feature", "properties": {"collection_times": [{"days": "Mon-Sat", "time": "12:10pm"}, {"days": "Sun", "time": "Closed"}], "id": "6693900001", "name": "USPS COLLECTION BOX - BLUE BOX", "address": {"city": "COURTLAND", "state": "KS", "street": "416 MAIN ST", "postcode": "66939"}}},
{"geometry": {"type": "Point", "coordinates": [-97.8949752851, 39.783195242]}, "type": "Feature", "properties": {"collection_times": [{"days": "Mon-Fri", "time": "11:45am"}, {"days": "Sat", "time": "8:45am"}, {"days": "Sun", "time": "Closed"}], "id": "6693900002", "name": "USPS COLLECTION BOX - PO LOBBY", "address": {"city": "COURTLAND", "state": "KS", "street": "416 MAIN ST", "postcode": "66939"}}},
{"geometry": {"type": "Point", "coordinates": [-97.4579062019, 39.8006839088]}, "type": "Feature", "properties": {"collection_times": [{"days": "Mon-Fri", "time": "11:45am"}, {"days": "Sat", "time": "12:45pm"}, {"days": "Sun", "time": "Closed"}], "id": "6694000001", "name": "USPS COLLECTION BOX - BLUE BOX", "address": {"city": "CUBA", "state": "KS", "street": "309 BAIRD ST", "postcode": "66940"}}},
{"geometry": {"type": "Point", "coordinates": [-97.4579062019, 39.8006839088]}, "type": "Feature", "properties": {"collection_times": [{"days": "Mon-Fri", "time": "11:45am"}, {"days": "Sat", "time": "8:45am"}, {"days": "Sun", "time": "Closed"}], "id": "6694000002", "name": "USPS COLLECTION BOX - PO LOBBY", "address": {"city": "CUBA", "state": "KS", "street": "309 BAIRD ST", "postcode": "66940"}}},
{"geometry": {"type": "Point", "coordinates": [-98.435897961, 39.8239528089]}, "type": "Feature", "properties": {"collection_times": [{"days": "Mon-Sat", "time": "11:10am"}, {"days": "Sun", "time": "Closed"}], "id": "6694100001", "name": "USPS COLLECTION BOX - BLUE BOX", "address": {"city": "ESBON", "state": "KS", "street": "315 GRAND AVE", "postcode": "66941"}}},
{"geometry": {"type": "Point", "coordinates": [-98.435897961, 39.8239528089]}, "type": "Feature", "properties": {"collection_times": [{"days": "Mon-Fri", "time": "10:50am"}, {"days": "Sat", "time": "8:45am"}, {"days": "Sun", "time": "Closed"}], "id": "6694100002", "name": "USPS COLLECTION BOX - PO LOBBY", "address": {"city": "ESBON", "state": "KS", "street": "315 GRAND AVE", "postcode": "66941"}}},
{"geometry": {"type": "Point", "coordinates": [-97.9932368293, 39.7805092049]}, "type": "Feature", "properties": {"collection_times": [{"days": "Mon-Fri", "time": "11:15am"}, {"days": "Sat", "time": "11:55am"}, {"days": "Sun", "time": "Closed"}], "id": "6694200001", "name": "USPS COLLECTION BOX - BLUE BOX", "address": {"city": "FORMOSO", "state": "KS", "street": "106 MAIN ST", "postcode": "66942"}}},
{"geometry": {"type": "Point", "coordinates": [-97.9932368293, 39.7805092049]}, "type": "Feature", "properties": {"collection_times": [{"days": "Mon-Fri", "time": "11:15am"}, {"days": "Sat", "time": "8:30am"}, {"days": "Sun", "time": "Closed"}], "id": "6694200002", "name": "USPS COLLECTION BOX - PO LOBBY", "address": {"city": "FORMOSO", "state": "KS", "street": "106 MAIN ST", "postcode": "66942"}}},
{"geometry": {"type": "Point", "coordinates": [-96.9768931443, 39.7271754059]}, "type": "Feature", "properties": {"collection_times": [{"days": "Mon-Sat", "time": "11:10am"}, {"days": "Sun", "time": "Closed"}], "id": "6694300001", "name": "USPS COLLECTION BOX - BLUE BOX", "address": {"city": "GREENLEAF", "state": "KS", "street": "418 COMMERCIAL ST", "postcode": "66943"}}},
{"geometry": {"type": "Point", "coordinates": [-96.9768378124, 39.7268931608]}, "type": "Feature", "properties": {"collection_times": [{"days": "Mon-Fri", "time": "11:10am"}, {"days": "Sat", "time": "9:45am"}, {"days": "Sun", "time": "Closed"}], "id": "6694300002", "name": "USPS COLLECTION BOX - PO LOBBY", "address": {"city": "GREENLEAF", "state": "KS", "street": "418 COMMERCIAL ST", "postcode": "66943"}}},
{"geometry": {"type": "Point", "coordinates": [-97.2997534542, 39.856746275]}, "type": "Feature", "properties": {"collection_times": [{"days": "Mon-Sat", "time": "11:55am"}, {"days": "Sun", "time": "Closed"}], "id": "6694400001", "name": "USPS COLLECTION BOX - BLUE BOX", "address": {"city": "HADDAM", "state": "KS", "street": "503 MAIN ST", "postcode": "66944"}}},
{"geometry": {"type": "Point", "coordinates": [-97.2997534542, 39.856746275]}, "type": "Feature", "properties": {"collection_times": [{"days": "Mon-Fri", "time": "11:45am"}, {"days": "Sat", "time": "9:00am"}, {"days": "Sun", "time": "Closed"}], "id": "6694400002", "name": "USPS COLLECTION BOX - PO LOBBY", "address": {"city": "HADDAM", "state": "KS", "street": "503 MAIN ST", "postcode": "66944"}}},
{"geometry": {"type": "Point", "coordinates": [-96.8762641031, 39.8928492294]}, "type": "Feature", "properties": {"collection_times": [{"days": "Mon-Fri", "time": "11:15am"}, {"days": "Sat", "time": "11:50am"}, {"days": "Sun", "time": "Closed"}], "id": "6694500001", "name": "USPS COLLECTION BOX - BLUE BOX", "address": {"city": "HANOVER", "state": "KS", "street": "101 E NORTH ST", "postcode": "66945"}}},
{"geometry": {"type": "Point", "coordinates": [-96.8762641031, 39.8928492294]}, "type": "Feature", "properties": {"collection_times": [{"days": "Mon-Fri", "time": "11:15am"}, {"days": "Sat", "time": "10:15am"}, {"days": "Sun", "time": "Closed"}], "id": "6694500002", "name": "USPS COLLECTION BOX - PO LOBBY", "address": {"city": "HANOVER", "state": "KS", "street": "101 E NORTH ST", "postcode": "66945"}}},
{"geometry": {"type": "Point", "coordinates": [-96.993333052, 39.9806286416]}, "type": "Feature", "properties": {"collection_times": [{"days": "Mon-Sat", "time": "12:00pm"}, {"days": "Sun", "time": "Closed"}], "id": "6694600001", "name": "USPS COLLECTION BOX - BLUE BOX", "address": {"city": "HOLLENBERG", "state": "KS", "street": "113 MAIN ST", "postcode": "66946"}}},
{"geometry": {"type": "Point", "coordinates": [-96.993333052, 39.9806286416]}, "type": "Feature", "properties": {"collection_times": [{"days": "Mon-Sat", "time": "9:45am"}, {"days": "Sun", "time": "Closed"}], "id": "6694600002", "name": "USPS COLLECTION BOX - PO LOBBY", "address": {"city": "HOLLENBERG", "state": "KS", "street": "113 MAIN ST", "postcode": "66946"}}},
{"geometry": {"type": "Point", "coordinates": [-97.8624151533, 39.6015741468]}, "type": "Feature", "properties": {"collection_times": [{"days": "Mon-Sat", "time": "12:50pm"}, {"days": "Sun", "time": "Closed"}], "id": "6694800001", "name": "USPS COLLECTION BOX - BLUE BOX", "address": {"city": "JAMESTOWN", "state": "KS", "street": "304 WALNUT ST", "postcode": "66948"}}},
{"geometry": {"type": "Point", "coordinates": [-97.8624151533, 39.6015741468]}, "type": "Feature", "properties": {"collection_times": [{"days": "Mon-Fri", "time": "12:50pm"}, {"days": "Sat", "time": "10:00am"}, {"days": "Sun", "time": "Closed"}], "id": "6694800002", "name": "USPS COLLECTION BOX - PO LOBBY", "address": {"city": "JAMESTOWN", "state": "KS", "street": "304 WALNUT ST", "postcode": "66948"}}},
{"geometry": {"type": "Point", "coordinates": [-98.067819255, 39.6971885688]}, "type": "Feature", "properties": {"collection_times": [{"days": "Mon-Sat", "time": "12:10pm"}, {"days": "Sun", "time": "Closed"}], "id": "6694900001", "name": "USPS COLLECTION BOX - BLUE BOX", "address": {"city": "JEWELL", "state": "KS", "street": "315 MAIN ST", "postcode": "66949"}}},
{"geometry": {"type": "Point", "coordinates": [-98.067819255, 39.6971885688]}, "type": "Feature", "properties": {"collection_times": [{"days": "Mon-Fri", "time": "11:45am"}, {"days": "Sat", "time": "8:45am"}, {"days": "Sun", "time": "Closed"}], "id": "6694900002", "name": "USPS COLLECTION BOX - PO LOBBY", "address": {"city": "JEWELL", "state": "KS", "street": "315 MAIN ST", "postcode": "66949"}}},
{"geometry": {"type": "Point", "coordinates": [-99.0316985768, 39.7654117136]}, "type": "Feature", "properties": {"collection_times": [{"days": "Mon-Sat", "time": "11:10am"}, {"days": "Sun", "time": "Closed"}], "id": "6695100001", "name": "USPS COLLECTION BOX - BLUE BOX", "address": {"city": "KENSINGTON", "state": "KS", "street": "201 S MAIN ST", "postcode": "66951"}}},
{"geometry": {"type": "Point", "coordinates": [-99.0316985768, 39.7654117136]}, "type": "Feature", "properties": {"collection_times": [{"days": "Mon-Fri", "time": "11:10am"}, {"days": "Sat", "time": "9:45am"}, {"days": "Sun", "time": "Closed"}], "id": "6695100002", "name": "USPS COLLECTION BOX - PO LOBBY", "address": {"city": "KENSINGTON", "state": "KS", "street": "201 S MAIN ST", "postcode": "66951"}}},
{"geometry": {"type": "Point", "coordinates": [-98.5553089666, 39.8096037253]}, "type": "Feature", "properties": {"collection_times": [{"days": "Mon-Fri", "time": "11:15am"}, {"days": "Sat", "time": "12:00pm"}, {"days": "Sun", "time": "Closed"}], "id": "6695200001", "name": "USPS COLLECTION BOX - BLUE BOX", "address": {"city": "LEBANON", "state": "KS", "street": "416 MAIN ST", "postcode": "66952"}}},
{"geometry": {"type": "Point", "coordinates": [-98.5553089666, 39.8096037253]}, "type": "Feature", "properties": {"collection_times": [{"days": "Mon-Fri", "time": "11:15am"}, {"days": "Sat", "time": "8:45am"}, {"days": "Sun", "time": "Closed"}], "id": "6695200002", "name": "USPS COLLECTION BOX - PO LOBBY", "address": {"city": "LEBANON", "state": "KS", "street": "416 MAIN ST", "postcode": "66952"}}},
{"geometry": {"type": "Point", "coordinates": [-97.0846343552, 39.6801139042]}, "type": "Feature", "properties": {"collection_times": [{"days": "Mon-Sat", "time": "12:41pm"}, {"days": "Sun", "time": "Closed"}], "id": "6695300001", "name": "USPS COLLECTION BOX - BLUE BOX", "address": {"city": "LINN", "state": "KS", "street": "501 S OAK ST", "postcode": "66953"}}},
{"geometry": {"type": "Point", "coordinates": [-97.0846343552, 39.6801139042]}, "type": "Feature", "properties": {"collection_times": [{"days": "Mon-Fri", "time": "11:15am"}, {"days": "Sat", "time": "9:15am"}, {"days": "Sun", "time": "Closed"}], "id": "6695300002", "name": "USPS COLLECTION BOX - PO LOBBY", "address": {"city": "LINN", "state": "KS", "street": "501 S OAK ST", "postcode": "66953"}}},
{"geometry": {"type": "Point", "coordinates": [-97.353717661, 39.9861874737]}, "type": "Feature", "properties": {"collection_times": [{"days": "Mon-Sat", "time": "11:40am"}, {"days": "Sun", "time": "Closed"}], "id": "6695500001", "name": "USPS COLLECTION BOX - BLUE BOX", "address": {"city": "MAHASKA", "state": "KS", "street": "212 N MAIN ST", "postcode": "66955"}}},
{"geometry": {"type": "Point", "coordinates": [-97.353717661, 39.9861874737]}, "type": "Feature", "properties": {"collection_times": [{"days": "Mon-Fri", "time": "11:30am"}, {"days": "Sat", "time": "8:45am"}, {"days": "Sun", "time": "Closed"}], "id": "6695500002", "name": "USPS COLLECTION BOX - PO LOBBY", "address": {"city": "MAHASKA", "state": "KS", "street": "212 N MAIN ST", "postcode": "66955"}}},
{"geometry": {"type": "Point", "coordinates": [-98.2100464495, 39.7856525612]}, "type": "Feature", "properties": {"collection_times": [{"days": "Mon-Fri", "time": "11:15am"}, {"days": "Sat", "time": "11:50am"}, {"days": "Sun", "time": "Closed"}], "id": "6695600001", "name": "USPS COLLECTION BOX - BLUE BOX", "address": {"city": "MANKATO", "state": "KS", "street": "109 S COMMERCIAL ST", "postcode": "66956"}}},
{"geometry": {"type": "Point", "coordinates": [-98.2100464495, 39.7856525612]}, "type": "Feature", "properties": {"collection_times": [{"days": "Mon-Fri", "time": "11:15am"}, {"days": "Sat", "time": "9:45am"}, {"days": "Sun", "time": "Closed"}], "id": "6695600002", "name": "USPS COLLECTION BOX - PO LOBBY", "address": {"city": "MANKATO", "state": "KS", "street": "109 S COMMERCIAL ST", "postcode": "66956"}}},
{"geometry": {"type": "Point", "coordinates": [-97.1720867908, 39.8473746377]}, "type": "Feature", "properties": {"collection_times": [{"days": "Mon-Sat", "time": "12:15pm"}, {"days": "Sun", "time": "Closed"}], "id": "6695800001", "name": "USPS COLLECTION BOX - BLUE BOX", "address": {"city": "MORROWVILLE", "state": "KS", "street": "116 S MAIN ST", "postcode": "66958"}}},
{"geometry": {"type": "Point", "coordinates": [-97.1720867908, 39.8473746377]}, "type": "Feature", "properties": {"collection_times": [{"days": "Mon-Fri", "time": "11:15am"}, {"days": "Sat", "time": "10:15am"}, {"days": "Sun", "time": "Closed"}], "id": "6695800002", "name": "USPS COLLECTION BOX - PO LOBBY", "address": {"city": "MORROWVILLE", "state": "KS", "street": "116 S MAIN ST", "postcode": "66958"}}},
{"geometry": {"type": "Point", "coordinates": [-97.5380731637, 39.9139042924]}, "type": "Feature", "properties": {"collection_times": [{"days": "Mon-Sat", "time": "11:10am"}, {"days": "Sun", "time": "Closed"}], "id": "6695900001", "name": "USPS COLLECTION BOX - BLUE BOX", "address": {"city": "MUNDEN", "state": "KS", "street": "106 S MAIN ST", "postcode": "66959"}}},
{"geometry": {"type": "Point", "coordinates": [-97.5380731637, 39.9139042924]}, "type": "Feature", "properties": {"collection_times": [{"days": "Mon-Fri", "time": "9:45am"}, {"days": "Sat", "time": "8:45am"}, {"days": "Sun", "time": "Closed"}], "id": "6695900002", "name": "USPS COLLECTION BOX - PO LOBBY", "address": {"city": "MUNDEN", "state": "KS", "street": "106 S MAIN ST", "postcode": "66959"}}},
{"geometry": {"type": "Point", "coordinates": [-97.4282810186, 39.9611962378]}, "type": "Feature", "properties": {"collection_times": [{"days": "Mon-Sat", "time": "11:25am"}, {"days": "Sun", "time": "Closed"}], "id": "6696000001", "name": "USPS COLLECTION BOX - BLUE BOX", "address": {"city": "NARKA", "state": "KS", "street": "100 MAIN ST", "postcode": "66960"}}},
{"geometry": {"type": "Point", "coordinates": [-97.4279342011, 39.9612103444]}, "type": "Feature", "properties": {"collection_times": [{"days": "Mon-Fri", "time": "9:45am"}, {"days": "Sat", "time": "8:45am"}, {"days": "Sun", "time": "Closed"}], "id": "6696000002", "name": "USPS COLLECTION BOX - PO LOBBY", "address": {"city": "NARKA", "state": "KS", "street": "100 MAIN ST", "postcode": "66960"}}},
{"geometry": {"type": "Point", "coordinates": [-97.1404034961, 39.6319180647]}, "type": "Feature", "properties": {"collection_times": [{"days": "Mon-Fri", "time": "11:45am"}, {"days": "Sat", "time": "12:53pm"}, {"days": "Sun", "time": "Closed"}], "id": "6696200001", "name": "USPS COLLECTION BOX - BLUE BOX", "address": {"city": "PALMER", "state": "KS", "street": "101 E 2ND ST", "postcode": "66962"}}},
{"geometry": {"type": "Point", "coordinates": [-97.1404034961, 39.6319180647]}, "type": "Feature", "properties": {"collection_times": [{"days": "Mon-Fri", "time": "11:45am"}, {"days": "Sat", "time": "9:00am"}, {"days": "Sun", "time": "Closed"}], "id": "6696200002", "name": "USPS COLLECTION BOX - PO LOBBY", "address": {"city": "PALMER", "state": "KS", "street": "101 E 2ND ST", "postcode": "66962"}}},
{"geometry": {"type": "Point", "coordinates": [-98.0439445154, 39.6377443977]}, "type": "Feature", "properties": {"collection_times": [{"days": "Mon-Sat", "time": "12:30pm"}, {"days": "Sun", "time": "Closed"}], "id": "6696300001", "name": "USPS COLLECTION BOX - BLUE BOX", "address": {"city": "RANDALL", "state": "KS", "street": "105 MAIN ST", "postcode": "66963"}}},
{"geometry": {"type": "Point", "coordinates": [-98.0439445154, 39.6377443977]}, "type": "Feature", "properties": {"collection_times": [{"days": "Mon-Fri", "time": "9:45am"}, {"days": "Sat", "time": "8:45am"}, {"days": "Sun", "time": "Closed"}], "id": "6696300002", "name": "USPS COLLECTION BOX - PO LOBBY", "address": {"city": "RANDALL", "state": "KS", "street": "105 MAIN ST", "postcode": "66963"}}},
{"geometry": {"type": "Point", "coordinates": [-97.8250388995, 39.9232542265]}, "type": "Feature", "properties": {"collection_times": [{"days": "Mon-Sat", "time": "11:10am"}, {"days": "Sun", "time": "Closed"}], "id": "6696400001", "name": "USPS COLLECTION BOX - BLUE BOX", "address": {"city": "REPUBLIC", "state": "KS", "street": "413 MAIN ST", "postcode": "66964"}}},
{"geometry": {"type": "Point", "coordinates": [-97.8250388995, 39.9232542265]}, "type": "Feature", "properties": {"collection_times": [{"days": "Mon-Fri", "time": "11:10am"}, {"days": "Sat", "time": "10:30am"}, {"days": "Sun", "time": "Closed"}], "id": "6696400002", "name": "USPS COLLECTION BOX - PO LOBBY", "address": {"city": "REPUBLIC", "state": "KS", "street": "413 MAIN ST", "postcode": "66964"}}},
{"geometry": {"type": "Point", "coordinates": [-97.7856060371, 39.7963456306]}, "type": "Feature", "properties": {"collection_times": [{"days": "Mon-Sat", "time": "12:20pm"}, {"days": "Sun", "time": "Closed"}], "id": "6696600001", "name": "USPS COLLECTION BOX - BLUE BOX", "address": {"city": "SCANDIA", "state": "KS", "street": "300 4TH ST", "postcode": "66966"}}},
{"geometry": {"type": "Point", "coordinates": [-97.7856060371, 39.7963456306]}, "type": "Feature", "properties": {"collection_times": [{"days": "Mon-Fri", "time": "11:45am"}, {"days": "Sat", "time": "8:45am"}, {"days": "Sun", "time": "Closed"}], "id": "6696600002", "name": "USPS COLLECTION BOX - PO LOBBY", "address": {"city": "SCANDIA", "state": "KS", "street": "300 4TH ST", "postcode": "66966"}}},
{"geometry": {"type": "Point", "coordinates": [-98.7854113461, 39.7767359238]}, "type": "Feature", "properties": {"collection_times": [{"days": "Mon-Fri", "time": "11:15am"}, {"days": "Sat", "time": "11:35am"}, {"days": "Sun", "time": "Closed"}], "id": "6696700001", "name": "USPS COLLECTION BOX - BLUE BOX", "address": {"city": "SMITH CENTER", "state": "KS", "street": "119 E COURT ST", "postcode": "66967"}}},
{"geometry": {"type": "Point", "coordinates": [-98.7854113461, 39.7767359238]}, "type": "Feature", "properties": {"collection_times": [{"days": "Mon-Fri", "time": "11:15am"}, {"days": "Sat", "time": "9:45am"}, {"days": "Sun", "time": "Closed"}], "id": "6696700005", "name": "USPS COLLECTION BOX - PO LOBBY", "address": {"city": "SMITH CENTER", "state": "KS", "street": "119 E COURT ST", "postcode": "66967"}}},
{"geometry": {"type": "Point", "coordinates": [-97.0511855479, 39.8172702346]}, "type": "Feature", "properties": {"collection_times": [{"days": "Mon-Sat", "time": "12:00pm"}, {"days": "Sun", "time": "Closed"}], "id": "6696800001", "name": "USPS COLLECTION BOX - BLUE BOX", "address": {"city": "WASHINGTON", "state": "KS", "street": "301 C ST", "postcode": "66968"}}},
{"geometry": {"type": "Point", "coordinates": [-97.0511806734, 39.8194605121]}, "type": "Feature", "properties": {"collection_times": [{"days": "Mon-Fri", "time": "12:00pm"}, {"days": "Sat", "time": "12:19pm"}, {"days": "Sun", "time": "Closed"}], "id": "6696800005", "name": "USPS COLLECTION BOX - BLUE BOX", "address": {"city": "WASHINGTON", "state": "KS", "street": "100 C ST", "postcode": "66968"}}},
{"geometry": {"type": "Point", "coordinates": [-97.0511806734, 39.8194605121]}, "type": "Feature", "properties": {"collection_times": [{"days": "Mon-Fri", "time": "12:00pm"}, {"days": "Sat", "time": "9:45am"}, {"days": "Sun", "time": "Closed"}], "id": "6696800008", "name": "USPS COLLECTION BOX - PO LOBBY", "address": {"city": "WASHINGTON", "state": "KS", "street": "100 C ST", "postcode": "66968"}}},
{"geometry": {"type": "Point", "coordinates": [-97.9877267622, 39.9147178581]}, "type": "Feature", "properties": {"collection_times": [{"days": "Mon-Sat", "time": "11:30am"}, {"days": "Sun", "time": "Closed"}], "id": "6697000001", "name": "USPS COLLECTION BOX - BLUE BOX", "address": {"city": "WEBBER", "state": "KS", "street": "202 LAMM ST", "postcode": "66970"}}},
{"geometry": {"type": "Point", "coordinates": [-97.9877267622, 39.9147178581]}, "type": "Feature", "properties": {"collection_times": [{"days": "Mon-Sat", "time": "9:15am"}, {"days": "Sun", "time": "Closed"}], "id": "6697000002", "name": "USPS COLLECTION BOX - PO LOBBY", "address": {"city": "WEBBER", "state": "KS", "street": "202 LAMM ST", "postcode": "66970"}}}
]}
