{"type": "FeatureCollection", "features": [
{"geometry": {"type": "Point", "coordinates": [-97.6301306231, 37.7911255785]}, "type": "Feature", "properties": {"collection_times": [{"days": "Mon-Sat", "time": "4:45pm"}, {"days": "Sun", "time": "Closed"}], "id": "6700100001", "name": "USPS COLLECTION BOX - BLUE BOX", "address": {"city": "ANDALE", "state": "KS", "street": "318 N MAIN ST", "postcode": "67001"}}},
{"geometry": {"type": "Point", "coordinates": [-97.6301306231, 37.7911255785]}, "type": "Feature", "properties": {"collection_times": [{"days": "Mon-Fri", "time": "2:15pm"}, {"days": "Sat", "time": "10:15am"}, {"days": "Sun", "time": "Closed"}], "id": "6700100002", "name": "USPS COLLECTION BOX - PO LOBBY", "address": {"city": "ANDALE", "state": "KS", "street": "318 N MAIN ST", "postcode": "67001"}}},
{"geometry": {"type": "Point", "coordinates": [-97.1351367716, 37.6945860821]}, "type": "Feature", "properties": {"collection_times": [{"days": "Mon-Sat", "time": "6:00pm"}, {"days": "Sun", "time": "Closed"}], "id": "6700200002", "name": "USPS COLLECTION BOX - BLUE BOX", "address": {"city": "ANDOVER", "state": "KS", "street": "530 N ANDOVER RD", "postcode": "67002"}}},
{"geometry": {"type": "Point", "coordinates": [-97.1353092307, 37.6887556962]}, "type": "Feature", "properties": {"collection_times": [{"days": "Mon-Sat", "time": "6:05pm"}, {"days": "Sun", "time": "Closed"}], "id": "6700200003", "name": "USPS COLLECTION BOX - BLUE BOX", "address": {"city": "ANDOVER", "state": "KS", "street": "211 N ANDOVER RD", "postcode": "67002"}}},
{"geometry": {"type": "Point", "coordinates": [-97.1353092307, 37.6887556962]}, "type": "Feature", "properties": {"collection_times": [{"days": "Mon-Fri", "time": "4:15pm"}, {"days": "Sat", "time": "11:45am"}, {"days": "Sun", "time": "Closed"}], "id": "6700200004", "name": "USPS COLLECTION BOX - PO LOBBY", "address": {"city": "ANDOVER", "state": "KS", "street": "211 N ANDOVER RD", "postcode": "67002"}}},
{"geometry": {"type": "Point", "coordinates": [-97.1352169177, 37.6819720129]}, "type": "Feature", "properties": {"collection_times": [{"days": "Mon-Fri", "time": "1:00pm"}, {"days": "Sat", "time": "12:00pm"}, {"days": "Sun", "time": "Closed"}], "id": "6700200006", "name": "USPS COLLECTION BOX - BLUE BOX", "address": {"city": "ANDOVER", "state": "KS", "street": "426 S ANDOVER RD", "postcode": "67002"}}},
{"geometry": {"type": "Point", "coordinates": [-97.1352854006, 37.6889310294]}, "type": "Feature", "properties": {"collection_times": [{"days": "Mon-Sat", "time": "6:05pm"}, {"days": "Sun", "time": "Closed"}], "id": "6700200007", "name": "USPS COLLECTION BOX - BLUE BOX", "address": {"city": "ANDOVER", "state": "KS", "street": "211 N ANDOVER RD", "postcode": "67002"}}},
{"geometry": {"type": "Point", "coordinates": [-98.0305054581, 37.153306045]}, "type": "Feature", "properties": {"collection_times": [{"days": "Mon-Sat", "time": "5:15pm"}, {"days": "Sun", "time": "Closed"}], "id": "6700300005", "name": "USPS COLLECTION BOX - BLUE BOX", "address": {"city": "ANTHONY", "state": "KS", "street": "121 W STEADMAN ST", "postcode": "67003"}}},
{"geometry": {"type": "Point", "coordinates": [-98.0304381914, 37.1532344868]}, "type": "Feature", "properties": {"collection_times": [{"days": "Mon-Fri", "time": "4:45pm"}, {"days": "Sat", "time": "10:45am"}, {"days": "Sun", "time": "Closed"}], "id": "6700300006", "name": "USPS COLLECTION BOX - PO LOBBY", "address": {"city": "ANTHONY", "state": "KS", "street": "121 W STEADMAN ST", "postcode": "67003"}}},
{"geometry": {"type": "Point", "coordinates": [-97.7655625288, 37.2630272428]}, "type": "Feature", "properties": {"collection_times": [{"days": "Mon-Sat", "time": "4:40pm"}, {"days": "Sun", "time": "Closed"}], "id": "6700400001", "name": "USPS COLLECTION BOX - BLUE BOX", "address": {"city": "ARGONIA", "state": "KS", "street": "111 S MAIN ST", "postcode": "67004"}}},
{"geometry": {"type": "Point", "coordinates": [-97.7655625288, 37.2630272428]}, "type": "Feature", "properties": {"collection_times": [{"days": "Mon-Fri", "time": "11:00am"}, {"days": "Sat", "time": "9:45am"}, {"days": "Sun", "time": "Closed"}], "id": "6700400002", "name": "USPS COLLECTION BOX - PO LOBBY", "address": {"city": "ARGONIA", "state": "KS", "street": "111 S MAIN ST", "postcode": "67004"}}},
{"geometry": {"type": "Point", "coordinates": [-97.0375632953, 37.0599925577]}, "type": "Feature", "properties": {"collection_times": [{"days": "Mon-Sat", "time": "4:30pm"}, {"days": "Sun", "time": "Closed"}], "id": "6700500006", "name": "USPS COLLECTION BOX - BLUE BOX", "address": {"city": "ARKANSAS CITY", "state": "KS", "street": "210 E WASHINGTON AVE", "postcode": "67005"}}},
{"geometry": {"type": "Point", "coordinates": [-97.0402154683, 37.0868194636]}, "type": "Feature", "properties": {"collection_times": [{"days": "Mon-Sat", "time": "11:00am"}, {"days": "Sun", "time": "Closed"}], "id": "6700500008", "name": "USPS COLLECTION BOX - BLUE BOX", "address": {"city": "ARKANSAS CITY", "state": "KS", "street": "2147 N SUMMIT ST", "postcode": "67005"}}},
{"geometry": {"type": "Point", "coordinates": [-97.0375632953, 37.0599925577]}, "type": "Feature", "properties": {"collection_times": [{"days": "Mon-Fri", "time": "4:30pm"}, {"days": "Sat", "time": "3:00pm"}, {"days": "Sun", "time": "Closed"}], "id": "6700500009", "name": "USPS COLLECTION BOX - PO LOBBY", "address": {"city": "ARKANSAS CITY", "state": "KS", "street": "210 E WASHINGTON AVE", "postcode": "67005"}}},
{"geometry": {"type": "Point", "coordinates": [-96.7694002494, 37.4358362068]}, "type": "Feature", "properties": {"collection_times": [{"days": "Mon-Sat", "time": "4:30pm"}, {"days": "Sun", "time": "Closed"}], "id": "6700800001", "name": "USPS COLLECTION BOX - BLUE BOX", "address": {"city": "ATLANTA", "state": "KS", "street": "401 S MAIN ST", "postcode": "67008"}}},
{"geometry": {"type": "Point", "coordinates": [-96.7694002494, 37.4358362068]}, "type": "Feature", "properties": {"collection_times": [{"days": "Mon-Fri", "time": "12:45pm"}, {"days": "Sat", "time": "9:30am"}, {"days": "Sun", "time": "Closed"}], "id": "6700800002", "name": "USPS COLLECTION BOX - PO LOBBY", "address": {"city": "ATLANTA", "state": "KS", "street": "401 S MAIN ST", "postcode": "67008"}}},
{"geometry": {"type": "Point", "coordinates": [-98.2258637676, 37.2403304567]}, "type": "Feature", "properties": {"collection_times": [{"days": "Mon-Fri", "time": "4:15pm"}, {"days": "Sat", "time": "5:15pm"}, {"days": "Sun", "time": "Closed"}], "id": "6700900001", "name": "USPS COLLECTION BOX - BLUE BOX", "address": {"city": "ATTICA", "state": "KS", "street": "136 N MAIN ST", "postcode": "67009"}}},
{"geometry": {"type": "Point", "coordinates": [-98.2258637676, 37.2403304567]}, "type": "Feature", "properties": {"collection_times": [{"days": "Mon-Fri", "time": "11:45am"}, {"days": "Sat", "time": "9:45am"}, {"days": "Sun", "time": "Closed"}], "id": "6700900002", "name": "USPS COLLECTION BOX - PO LOBBY", "address": {"city": "ATTICA", "state": "KS", "street": "136 N MAIN ST", "postcode": "67009"}}},
{"geometry": {"type": "Point", "coordinates": [-96.9713435841, 37.69043439]}, "type": "Feature", "properties": {"collection_times": [{"days": "Mon-Sat", "time": "3:00pm"}, {"days": "Sun", "time": "Closed"}], "id": "6701000004", "name": "USPS COLLECTION BOX - BLUE BOX", "address": {"city": "AUGUSTA", "state": "KS", "street": "1510 OHIO ST", "postcode": "67010"}}},
{"geometry": {"type": "Point", "coordinates": [-96.9787164277, 37.676153671]}, "type": "Feature", "properties": {"collection_times": [{"days": "Mon-Fri", "time": "4:15pm"}, {"days": "Sat", "time": "3:45pm"}, {"days": "Sun", "time": "Closed"}], "id": "6701000006", "name": "USPS COLLECTION BOX - PO LOBBY", "address": {"city": "AUGUSTA", "state": "KS", "street": "119 E 5TH AVE", "postcode": "67010"}}},
{"geometry": {"type": "Point", "coordinates": [-96.9787164277, 37.676153671]}, "type": "Feature", "properties": {"collection_times": [{"days": "Mon-Sat", "time": "5:40pm"}, {"days": "Sun", "time": "Closed"}], "id": "6701000008", "name": "USPS COLLECTION BOX - BLUE BOX", "address": {"city": "AUGUSTA", "state": "KS", "street": "119 E 5TH AVE", "postcode": "67010"}}},
{"geometry": {"type": "Point", "coordinates": [-97.2811024161, 37.3928491222]}, "type": "Feature", "properties": {"collection_times": [{"days": "Mon-Sat", "time": "6:00pm"}, {"days": "Sun", "time": "Closed"}], "id": "6701300001", "name": "USPS COLLECTION BOX - BLUE BOX", "address": {"city": "BELLE PLAINE", "state": "KS", "street": "434 N MERCHANT ST", "postcode": "67013"}}},
{"geometry": {"type": "Point", "coordinates": [-97.2811024161, 37.3928491222]}, "type": "Feature", "properties": {"collection_times": [{"days": "Mon-Fri", "time": "4:15pm"}, {"days": "Sat", "time": "9:15am"}, {"days": "Sun", "time": "Closed"}], "id": "6701300002", "name": "USPS COLLECTION BOX - PO LOBBY", "address": {"city": "BELLE PLAINE", "state": "KS", "street": "434 N MERCHANT ST", "postcode": "67013"}}},
{"geometry": {"type": "Point", "coordinates": [-97.5165677455, 37.8852843802]}, "type": "Feature", "properties": {"collection_times": [{"days": "Mon-Sat", "time": "6:00pm"}, {"days": "Sun", "time": "Closed"}], "id": "6701600001", "name": "USPS COLLECTION BOX - BLUE BOX", "address": {"city": "BENTLEY", "state": "KS", "street": "140 S WICHITA ST", "postcode": "67016"}}},
{"geometry": {"type": "Point", "coordinates": [-97.5165677455, 37.8852843802]}, "type": "Feature", "properties": {"collection_times": [{"days": "Mon-Fri", "time": "12:45pm"}, {"days": "Sat", "time": "9:15am"}, {"days": "Sun", "time": "Closed"}], "id": "6701600002", "name": "USPS COLLECTION BOX - PO LOBBY", "address": {"city": "BENTLEY", "state": "KS", "street": "140 S WICHITA ST", "postcode": "67016"}}},
{"geometry": {"type": "Point", "coordinates": [-97.1079959111, 37.7881298187]}, "type": "Feature", "properties": {"collection_times": [{"days": "Mon-Sat", "time": "6:10pm"}, {"days": "Sun", "time": "Closed"}], "id": "6701700001", "name": "USPS COLLECTION BOX - BLUE BOX", "address": {"city": "BENTON", "state": "KS", "street": "154 S MAIN ST", "postcode": "67017"}}},
{"geometry": {"type": "Point", "coordinates": [-97.1080650474, 37.78820126]}, "type": "Feature", "properties": {"collection_times": [{"days": "Mon-Fri", "time": "4:15pm"}, {"days": "Sat", "time": "9:45am"}, {"days": "Sun", "time": "Closed"}], "id": "6701700002", "name": "USPS COLLECTION BOX - PO LOBBY", "address": {"city": "BENTON", "state": "KS", "street": "135 S MAIN ST", "postcode": "67017"}}},
{"geometry": {"type": "Point", "coordinates": [-97.8706111466, 37.0763413384]}, "type": "Feature", "properties": {"collection_times": [{"days": "Mon-Sat", "time": "4:10pm"}, {"days": "Sun", "time": "Closed"}], "id": "6701800001", "name": "USPS COLLECTION BOX - BLUE BOX", "address": {"city": "BLUFF CITY", "state": "KS", "street": "621 CENTRAL AVE", "postcode": "67018"}}},
{"geometry": {"type": "Point", "coordinates": [-97.8706111466, 37.0763413384]}, "type": "Feature", "properties": {"collection_times": [{"days": "Mon-Sat", "time": "10:45am"}, {"days": "Sun", "time": "Closed"}], "id": "6701800002", "name": "USPS COLLECTION BOX - PO LOBBY", "address": {"city": "BLUFF CITY", "state": "KS", "street": "621 CENTRAL AVE", "postcode": "67018"}}},
{"geometry": {"type": "Point", "coordinates": [-96.7532729655, 37.3150492236]}, "type": "Feature", "properties": {"collection_times": [{"days": "Mon-Sat", "time": "4:45pm"}, {"days": "Sun", "time": "Closed"}], "id": "6701900001", "name": "USPS COLLECTION BOX - BLUE BOX", "address": {"city": "BURDEN", "state": "KS", "street": "417 N MAIN ST", "postcode": "67019"}}},
{"geometry": {"type": "Point", "coordinates": [-96.7532729655, 37.3150492236]}, "type": "Feature", "properties": {"collection_times": [{"days": "Mon-Fri", "time": "11:45am"}, {"days": "Sat", "time": "9:30am"}, {"days": "Sun", "time": "Closed"}], "id": "6701900002", "name": "USPS COLLECTION BOX - PO LOBBY", "address": {"city": "BURDEN", "state": "KS", "street": "417 N MAIN ST", "postcode": "67019"}}},
{"geometry": {"type": "Point", "coordinates": [-97.6714480844, 38.0252167612]}, "type": "Feature", "properties": {"collection_times": [{"days": "Mon-Sat", "time": "5:15pm"}, {"days": "Sun", "time": "Closed"}], "id": "6702000001", "name": "USPS COLLECTION BOX - BLUE BOX", "address": {"city": "BURRTON", "state": "KS", "street": "106 E ADAMS ST", "postcode": "67020"}}},
{"geometry": {"type": "Point", "coordinates": [-97.6714480844, 38.0252167612]}, "type": "Feature", "properties": {"collection_times": [{"days": "Mon-Fri", "time": "2:45pm"}, {"days": "Sat", "time": "10:45am"}, {"days": "Sun", "time": "Closed"}], "id": "6702000002", "name": "USPS COLLECTION BOX - PO LOBBY", "address": {"city": "BURRTON", "state": "KS", "street": "106 E ADAMS ST", "postcode": "67020"}}},
{"geometry": {"type": "Point", "coordinates": [-97.6069114078, 37.0326813312]}, "type": "Feature", "properties": {"collection_times": [{"days": "Mon-Sat", "time": "4:30pm"}, {"days": "Sun", "time": "Closed"}], "id": "6702200004", "name": "USPS COLLECTION BOX - BLUE BOX", "address": {"city": "CALDWELL", "state": "KS", "street": "14 N MAIN ST", "postcode": "67022"}}},
{"geometry": {"type": "Point", "coordinates": [-97.6069114078, 37.0326813312]}, "type": "Feature", "properties": {"collection_times": [{"days": "Mon-Fri", "time": "2:00pm"}, {"days": "Sat", "time": "10:15am"}, {"days": "Sun", "time": "Closed"}], "id": "6702200005", "name": "USPS COLLECTION BOX - PO LOBBY", "address": {"city": "CALDWELL", "state": "KS", "street": "14 N MAIN ST", "postcode": "67022"}}},
{"geometry": {"type": "Point", "coordinates": [-96.6663031677, 37.3172656469]}, "type": "Feature", "properties": {"collection_times": [{"days": "Mon-Sat", "time": "4:30pm"}, {"days": "Sun", "time": "Closed"}], "id": "6702300001", "name": "USPS COLLECTION BOX - BLUE BOX", "address": {"city": "CAMBRIDGE", "state": "KS", "street": "208 W MAIN ST", "postcode": "67023"}}},
{"geometry": {"type": "Point", "coordinates": [-96.6663031677, 37.3172656469]}, "type": "Feature", "properties": {"collection_times": [{"days": "Mon-Fri", "time": "9:45am"}, {"days": "Sat", "time": "9:00am"}, {"days": "Sun", "time": "Closed"}], "id": "6702300002", "name": "USPS COLLECTION BOX - PO LOBBY", "address": {"city": "CAMBRIDGE", "state": "KS", "street": "208 W MAIN ST", "postcode": "67023"}}},
{"geometry": {"type": "Point", "coordinates": [-96.4990658166, 37.1056381067]}, "type": "Feature", "properties": {"collection_times": [{"days": "Mon-Sat", "time": "3:40pm"}, {"days": "Sun", "time": "Closed"}], "id": "6702400001", "name": "USPS COLLECTION BOX - BLUE BOX", "address": {"city": "CEDAR VALE", "state": "KS", "street": "706 CEDAR ST", "postcode": "67024"}}},
{"geometry": {"type": "Point", "coordinates": [-96.4990658166, 37.1056381067]}, "type": "Feature", "properties": {"collection_times": [{"days": "Mon-Fri", "time": "2:45pm"}, {"days": "Sat", "time": "10:45am"}, {"days": "Sun", "time": "Closed"}], "id": "6702400002", "name": "USPS COLLECTION BOX - PO LOBBY", "address": {"city": "CEDAR VALE", "state": "KS", "street": "706 CEDAR ST", "postcode": "67024"}}},
{"geometry": {"type": "Point", "coordinates": [-97.7812264229, 37.6285361494]}, "type": "Feature", "properties": {"collection_times": [{"days": "Mon-Sat", "time": "4:55pm"}, {"days": "Sun", "time": "Closed"}], "id": "6702500001", "name": "USPS COLLECTION BOX - BLUE BOX", "address": {"city": "CHENEY", "state": "KS", "street": "215 N MAIN ST", "postcode": "67025"}}},
{"geometry": {"type": "Point", "coordinates": [-97.7812264229, 37.6285361494]}, "type": "Feature", "properties": {"collection_times": [{"days": "Mon-Fri", "time": "4:00pm"}, {"days": "Sat", "time": "9:45am"}, {"days": "Sun", "time": "Closed"}], "id": "6702500002", "name": "USPS COLLECTION BOX - PO LOBBY", "address": {"city": "CHENEY", "state": "KS", "street": "215 N MAIN ST", "postcode": "67025"}}},
{"geometry": {"type": "Point", "coordinates": [-97.4966100448, 37.5125931583]}, "type": "Feature", "properties": {"collection_times": [{"days": "Mon-Sat", "time": "5:25pm"}, {"days": "Sun", "time": "Closed"}], "id": "6702600001", "name": "USPS COLLECTION BOX - BLUE BOX", "address": {"city": "CLEARWATER", "state": "KS", "street": "640 N 4TH ST", "postcode": "67026"}}},
{"geometry": {"type": "Point", "coordinates": [-97.4966100448, 37.5125931583]}, "type": "Feature", "properties": {"collection_times": [{"days": "Mon-Fri", "time": "4:15pm"}, {"days": "Sat", "time": "10:15am"}, {"days": "Sun", "time": "Closed"}], "id": "6702600003", "name": "USPS COLLECTION BOX - PO LOBBY", "address": {"city": "CLEARWATER", "state": "KS", "street": "640 N 4TH ST", "postcode": "67026"}}},
{"geometry": {"type": "Point", "coordinates": [-99.3264616769, 37.2700144547]}, "type": "Feature", "properties": {"collection_times": [{"days": "Mon-Sat", "time": "3:05pm"}, {"days": "Sun", "time": "Closed"}], "id": "6702900001", "name": "USPS COLLECTION BOX - BLUE BOX", "address": {"city": "COLDWATER", "state": "KS", "street": "212 E MAIN ST", "postcode": "67029"}}},
{"geometry": {"type": "Point", "coordinates": [-99.3264616769, 37.2700144547]}, "type": "Feature", "properties": {"collection_times": [{"days": "Mon-Fri", "time": "3:05pm"}, {"days": "Sat", "time": "10:15am"}, {"days": "Sun", "time": "Closed"}], "id": "6702900002", "name": "USPS COLLECTION BOX - PO LOBBY", "address": {"city": "COLDWATER", "state": "KS", "street": "212 E MAIN ST", "postcode": "67029"}}},
{"geometry": {"type": "Point", "coordinates": [-97.5402340225, 37.7828306702]}, "type": "Feature", "properties": {"collection_times": [{"days": "Mon-Sat", "time": "6:25pm"}, {"days": "Sun", "time": "Closed"}], "id": "6703000001", "name": "USPS COLLECTION BOX - BLUE BOX", "address": {"city": "COLWICH", "state": "KS", "street": "417 W WICHITA AVE", "postcode": "67030"}}},
{"geometry": {"type": "Point", "coordinates": [-97.5402340225, 37.7828306702]}, "type": "Feature", "properties": {"collection_times": [{"days": "Mon-Fri", "time": "4:15pm"}, {"days": "Sat", "time": "10:15am"}, {"days": "Sun", "time": "Closed"}], "id": "6703000002", "name": "USPS COLLECTION BOX - PO LOBBY", "address": {"city": "COLWICH", "state": "KS", "street": "417 W WICHITA AVE", "postcode": "67030"}}},
{"geometry": {"type": "Point", "coordinates": [-97.6380266398, 37.3903835362]}, "type": "Feature", "properties": {"collection_times": [{"days": "Mon-Sat", "time": "5:00pm"}, {"days": "Sun", "time": "Closed"}], "id": "6703100001", "name": "USPS COLLECTION BOX - BLUE BOX", "address": {"city": "CONWAY SPRINGS", "state": "KS", "street": "212 W SPRING ST", "postcode": "67031"}}},
{"geometry": {"type": "Point", "coordinates": [-97.6380266398, 37.3903835362]}, "type": "Feature", "properties": {"collection_times": [{"days": "Mon-Fri", "time": "4:15pm"}, {"days": "Sat", "time": "10:45am"}, {"days": "Sun", "time": "Closed"}], "id": "6703100002", "name": "USPS COLLECTION BOX - PO LOBBY", "address": {"city": "CONWAY SPRINGS", "state": "KS", "street": "212 W SPRING ST", "postcode": "67031"}}},
{"geometry": {"type": "Point", "coordinates": [-98.4329373218, 37.6453697593]}, "type": "Feature", "properties": {"collection_times": [{"days": "Mon-Sat", "time": "5:50pm"}, {"days": "Sun", "time": "Closed"}], "id": "6703500001", "name": "USPS COLLECTION BOX - BLUE BOX", "address": {"city": "CUNNINGHAM", "state": "KS", "street": "107 N MAIN ST", "postcode": "67035"}}},
{"geometry": {"type": "Point", "coordinates": [-98.4329373218, 37.6453697593]}, "type": "Feature", "properties": {"collection_times": [{"days": "Mon-Fri", "time": "2:15pm"}, {"days": "Sat", "time": "9:45am"}, {"days": "Sun", "time": "Closed"}], "id": "6703500002", "name": "USPS COLLECTION BOX - PO LOBBY", "address": {"city": "CUNNINGHAM", "state": "KS", "street": "107 N MAIN ST", "postcode": "67035"}}},
{"geometry": {"type": "Point", "coordinates": [-97.8692858612, 37.2681718878]}, "type": "Feature", "properties": {"collection_times": [{"days": "Mon-Sat", "time": "4:40pm"}, {"days": "Sun", "time": "Closed"}], "id": "6703600001", "name": "USPS COLLECTION BOX - BLUE BOX", "address": {"city": "DANVILLE", "state": "KS", "street": "104 RYAN AVE", "postcode": "67036"}}},
{"geometry": {"type": "Point", "coordinates": [-97.8692858612, 37.2681718878]}, "type": "Feature", "properties": {"collection_times": [{"days": "Mon-Fri", "time": "12:30pm"}, {"days": "Sat", "time": "11:30am"}, {"days": "Sun", "time": "Closed"}], "id": "6703600002", "name": "USPS COLLECTION BOX - PO LOBBY", "address": {"city": "DANVILLE", "state": "KS", "street": "104 RYAN AVE", "postcode": "67036"}}},
{"geometry": {"type": "Point", "coordinates": [-97.2479952014, 37.5502476895]}, "type": "Feature", "properties": {"collection_times": [{"days": "Mon-Sat", "time": "10:00am"}, {"days": "Sun", "time": "Closed"}], "id": "6703700001", "name": "USPS COLLECTION BOX - BLUE BOX", "address": {"city": "DERBY", "state": "KS", "street": "1600 E WALNUT GROVE RD", "postcode": "67037"}}},
{"geometry": {"type": "Point", "coordinates": [-97.2714098276, 37.556964896]}, "type": "Feature", "properties": {"collection_times": [{"days": "Mon-Sat", "time": "6:00pm"}, {"days": "Sun", "time": "Closed"}], "id": "6703700008", "name": "USPS COLLECTION BOX - BLUE BOX", "address": {"city": "DERBY", "state": "KS", "street": "201 W GREENWAY ST", "postcode": "67037"}}},
{"geometry": {"type": "Point", "coordinates": [-97.2443570462, 37.5607730485]}, "type": "Feature", "properties": {"collection_times": [{"days": "Mon-Sat", "time": "6:00pm"}, {"days": "Sun", "time": "Closed"}], "id": "6703700009", "name": "USPS COLLECTION BOX - EXPRESS", "address": {"city": "DERBY", "state": "KS", "street": "201 W GREENWAY ST", "postcode": "67037"}}},
{"geometry": {"type": "Point", "coordinates": [-97.2714098276, 37.556964896]}, "type": "Feature", "properties": {"collection_times": [{"days": "Mon-Fri", "time": "5:00pm"}, {"days": "Sat", "time": "3:00pm"}, {"days": "Sun", "time": "Closed"}], "id": "6703700010", "name": "USPS COLLECTION BOX - PO LOBBY", "address": {"city": "DERBY", "state": "KS", "street": "201 W GREENWAY ST", "postcode": "67037"}}},
{"geometry": {"type": "Point", "coordinates": [-96.7168600301, 37.1794901099]}, "type": "Feature", "properties": {"collection_times": [{"days": "Mon-Sat", "time": "4:05pm"}, {"days": "Sun", "time": "Closed"}], "id": "6703800001", "name": "USPS COLLECTION BOX - BLUE BOX", "address": {"city": "DEXTER", "state": "KS", "street": "118 N MAIN ST", "postcode": "67038"}}},
{"geometry": {"type": "Point", "coordinates": [-96.7168600301, 37.1794901099]}, "type": "Feature", "properties": {"collection_times": [{"days": "Mon-Fri", "time": "11:45am"}, {"days": "Sat", "time": "9:00am"}, {"days": "Sun", "time": "Closed"}], "id": "6703800002", "name": "USPS COLLECTION BOX - PO LOBBY", "address": {"city": "DEXTER", "state": "KS", "street": "118 N MAIN ST", "postcode": "67038"}}},
{"geometry": {"type": "Point", "coordinates": [-97.0163466784, 37.5172281294]}, "type": "Feature", "properties": {"collection_times": [{"days": "Mon-Sat", "time": "5:10pm"}, {"days": "Sun", "time": "Closed"}], "id": "6703900001", "name": "USPS COLLECTION BOX - BLUE BOX", "address": {"city": "DOUGLASS", "state": "KS", "street": "315 S FORREST ST", "postcode": "67039"}}},
{"geometry": {"type": "Point", "coordinates": [-97.0163466784, 37.5172281294]}, "type": "Feature", "properties": {"collection_times": [{"days": "Mon-Fri", "time": "4:15pm"}, {"days": "Sat", "time": "9:15am"}, {"days": "Sun", "time": "Closed"}], "id": "6703900002", "name": "USPS COLLECTION BOX - PO LOBBY", "address": {"city": "DOUGLASS", "state": "KS", "street": "315 S FORREST ST", "postcode": "67039"}}},
{"geometry": {"type": "Point", "coordinates": [-97.1265392387, 38.0526981145]}, "type": "Feature", "properties": {"collection_times": [{"days": "Mon-Sat", "time": "5:00pm"}, {"days": "Sun", "time": "Closed"}], "id": "6704100001", "name": "USPS COLLECTION BOX - BLUE BOX", "address": {"city": "ELBING", "state": "KS", "street": "225 N MAIN ST", "postcode": "67041"}}},
{"geometry": {"type": "Point", "coordinates": [-97.1265392387, 38.0526981145]}, "type": "Feature", "properties": {"collection_times": [{"days": "Mon-Fri", "time": "11:45am"}, {"days": "Sat", "time": "9:15am"}, {"days": "Sun", "time": "Closed"}], "id": "6704100002", "name": "USPS COLLECTION BOX - PO LOBBY", "address": {"city": "ELBING", "state": "KS", "street": "225 N MAIN ST", "postcode": "67041"}}},
{"geometry": {"type": "Point", "coordinates": [-96.8818049773, 37.8175009133]}, "type": "Feature", "properties": {"collection_times": [{"days": "Mon-Fri", "time": "3:00pm"}, {"days": "Sat", "time": "11:00am"}, {"days": "Sun", "time": "Closed"}], "id": "6704200006", "name": "USPS COLLECTION BOX - BLUE BOX", "address": {"city": "EL DORADO", "state": "KS", "street": "2354 W CENTRAL AVE", "postcode": "67042"}}},
{"geometry": {"type": "Point", "coordinates": [-96.8515372449, 37.8175109757]}, "type": "Feature", "properties": {"collection_times": [{"days": "Mon-Fri", "time": "3:00pm"}, {"days": "Sat", "time": "2:00pm"}, {"days": "Sun", "time": "Closed"}], "id": "6704200009", "name": "USPS COLLECTION BOX - BLUE BOX", "address": {"city": "EL DORADO", "state": "KS", "street": "226 W CENTRAL AVE", "postcode": "67042"}}},
{"geometry": {"type": "Point", "coordinates": [-96.8489058045, 37.8173723465]}, "type": "Feature", "properties": {"collection_times": [{"days": "Mon-Sat", "time": "4:55pm"}, {"days": "Sun", "time": "Closed"}], "id": "6704200012", "name": "USPS COLLECTION BOX - BLUE BOX", "address": {"city": "EL DORADO", "state": "KS", "street": "131 E CENTRAL AVE", "postcode": "67042"}}},
{"geometry": {"type": "Point", "coordinates": [-96.8517380042, 37.8174716284]}, "type": "Feature", "properties": {"collection_times": [{"days": "Mon-Fri", "time": "3:10pm"}, {"days": "Sat", "time": "2:00pm"}, {"days": "Sun", "time": "Closed"}], "id": "6704200014", "name": "USPS COLLECTION BOX - BLUE BOX", "address": {"city": "EL DORADO", "state": "KS", "street": "700 N MAIN ST", "postcode": "67042"}}},
{"geometry": {"type": "Point", "coordinates": [-96.8489058045, 37.8173723465]}, "type": "Feature", "properties": {"collection_times": [{"days": "Mon-Fri", "time": "4:45pm"}, {"days": "Sat", "time": "3:00pm"}, {"days": "Sun", "time": "Closed"}], "id": "6704200017", "name": "USPS COLLECTION BOX - PO LOBBY", "address": {"city": "EL DORADO", "state": "KS", "street": "131 E CENTRAL AVE", "postcode": "67042"}}},
{"geometry": {"type": "Point", "coordinates": [-96.2955610804, 37.8212128433]}, "type": "Feature", "properties": {"collection_times": [{"days": "Mon-Sat", "time": "4:45pm"}, {"days": "Sun", "time": "Closed"}], "id": "6704500001", "name": "USPS COLLECTION BOX - BLUE BOX", "address": {"city": "EUREKA", "state": "KS", "street": "301 N OAK ST", "postcode": "67045"}}},
{"geometry": {"type": "Point", "coordinates": [-96.2955610804, 37.8212128433]}, "type": "Feature", "properties": {"collection_times": [{"days": "Mon-Fri", "time": "4:15pm"}, {"days": "Sat", "time": "9:45am"}, {"days": "Sun", "time": "Closed"}], "id": "6704500003", "name": "USPS COLLECTION BOX - PO LOBBY", "address": {"city": "EUREKA", "state": "KS", "street": "301 N OAK ST", "postcode": "67045"}}},
{"geometry": {"type": "Point", "coordinates": [-96.2954599851, 37.8247104075]}, "type": "Feature", "properties": {"collection_times": [{"days": "Mon-Sat", "time": "4:45pm"}, {"days": "Sun", "time": "Closed"}], "id": "6704500004", "name": "USPS COLLECTION BOX - BLUE BOX", "address": {"city": "EUREKA", "state": "KS", "street": "11406 SE WAIE ST", "postcode": "67045"}}},
{"geometry": {"type": "Point", "coordinates": [-96.0281110186, 37.6088598195]}, "type": "Feature", "properties": {"collection_times": [{"days": "Mon-Sat", "time": "3:40pm"}, {"days": "Sun", "time": "Closed"}], "id": "6704700001", "name": "USPS COLLECTION BOX - BLUE BOX", "address": {"city": "FALL RIVER", "state": "KS", "street": "412 MERCHANTS AVE", "postcode": "67047"}}},
{"geometry": {"type": "Point", "coordinates": [-96.0281110186, 37.6088598195]}, "type": "Feature", "properties": {"collection_times": [{"days": "Mon-Fri", "time": "11:30am"}, {"days": "Sat", "time": "9:15am"}, {"days": "Sun", "time": "Closed"}], "id": "6704700003", "name": "USPS COLLECTION BOX - PO LOBBY", "address": {"city": "FALL RIVER", "state": "KS", "street": "412 MERCHANTS AVE", "postcode": "67047"}}},
{"geometry": {"type": "Point", "coordinates": [-97.8608364528, 37.1805606008]}, "type": "Feature", "properties": {"collection_times": [{"days": "Mon-Sat", "time": "4:30pm"}, {"days": "Sun", "time": "Closed"}], "id": "6704900001", "name": "USPS COLLECTION BOX - BLUE BOX", "address": {"city": "FREEPORT", "state": "KS", "street": "102 W MAIN ST", "postcode": "67049"}}},
{"geometry": {"type": "Point", "coordinates": [-97.8608364528, 37.1805606008]}, "type": "Feature", "properties": {"collection_times": [{"days": "Mon-Sat", "time": "1:15pm"}, {"days": "Sun", "time": "Closed"}], "id": "6704900002", "name": "USPS COLLECTION BOX - PO LOBBY", "address": {"city": "FREEPORT", "state": "KS", "street": "102 W MAIN ST", "postcode": "67049"}}},
{"geometry": {"type": "Point", "coordinates": [-97.6838585041, 37.6568593758]}, "type": "Feature", "properties": {"collection_times": [{"days": "Mon-Sat", "time": "5:15pm"}, {"days": "Sun", "time": "Closed"}], "id": "6705000001", "name": "USPS COLLECTION BOX - BLUE BOX", "address": {"city": "GARDEN PLAIN", "state": "KS", "street": "412 N MAIN ST", "postcode": "67050"}}},
{"geometry": {"type": "Point", "coordinates": [-97.6838585041, 37.6568593758]}, "type": "Feature", "properties": {"collection_times": [{"days": "Mon-Fri", "time": "3:15pm"}, {"days": "Sat", "time": "11:30am"}, {"days": "Sun", "time": "Closed"}], "id": "6705000002", "name": "USPS COLLECTION BOX - PO LOBBY", "address": {"city": "GARDEN PLAIN", "state": "KS", "street": "412 N MAIN ST", "postcode": "67050"}}},
{"geometry": {"type": "Point", "coordinates": [-97.1490942861, 37.1138749589]}, "type": "Feature", "properties": {"collection_times": [{"days": "Mon-Sat", "time": "4:10pm"}, {"days": "Sun", "time": "Closed"}], "id": "6705100000", "name": "USPS COLLECTION BOX - BLUE BOX", "address": {"city": "GEUDA SPRINGS", "state": "KS", "street": "117 S 1ST ST", "postcode": "67051"}}},
{"geometry": {"type": "Point", "coordinates": [-97.1490942861, 37.1138749589]}, "type": "Feature", "properties": {"collection_times": [{"days": "Mon-Sat", "time": "3:30pm"}, {"days": "Sun", "time": "Closed"}], "id": "6705100001", "name": "USPS COLLECTION BOX - PO LOBBY", "address": {"city": "GEUDA SPRINGS", "state": "KS", "street": "117 S 1ST ST", "postcode": "67051"}}},
{"geometry": {"type": "Point", "coordinates": [-97.574929026, 37.6599579055]}, "type": "Feature", "properties": {"collection_times": [{"days": "Mon-Sat", "time": "5:40pm"}, {"days": "Sun", "time": "Closed"}], "id": "6705200002", "name": "USPS COLLECTION BOX - BLUE BOX", "address": {"city": "GODDARD", "state": "KS", "street": "328 N MAIN ST", "postcode": "67052"}}},
{"geometry": {"type": "Point", "coordinates": [-97.574929026, 37.6599579055]}, "type": "Feature", "properties": {"collection_times": [{"days": "Mon-Fri", "time": "4:15pm"}, {"days": "Sat", "time": "11:15am"}, {"days": "Sun", "time": "Closed"}], "id": "6705200003", "name": "USPS COLLECTION BOX - PO LOBBY", "address": {"city": "GODDARD", "state": "KS", "street": "328 N MAIN ST", "postcode": "67052"}}},
{"geometry": {"type": "Point", "coordinates": [-97.574929026, 37.6599579055]}, "type": "Feature", "properties": {"collection_times": [{"days": "Mon-Sat", "time": "5:40pm"}, {"days": "Sun", "time": "Closed"}], "id": "6705200004", "name": "USPS COLLECTION BOX - BLUE BOX", "address": {"city": "GODDARD", "state": "KS", "street": "328 N MAIN ST", "postcode": "67052"}}},
{"geometry": {"type": "Point", "coordinates": [-97.349341144, 38.2464795062]}, "type": "Feature", "properties": {"collection_times": [{"days": "Mon-Sat", "time": "5:05pm"}, {"days": "Sun", "time": "Closed"}], "id": "6705300001", "name": "USPS COLLECTION BOX - BLUE BOX", "address": {"city": "GOESSEL", "state": "KS", "street": "207 E MAIN ST", "postcode": "67053"}}},
{"geometry": {"type": "Point", "coordinates": [-97.349341144, 38.2464795062]}, "type": "Feature", "properties": {"collection_times": [{"days": "Mon-Fri", "time": "4:15pm"}, {"days": "Sat", "time": "8:45am"}, {"days": "Sun", "time": "Closed"}], "id": "6705300002", "name": "USPS COLLECTION BOX - PO LOBBY", "address": {"city": "GOESSEL", "state": "KS", "street": "207 E MAIN ST", "postcode": "67053"}}},
{"geometry": {"type": "Point", "coordinates": [-99.292952928, 37.606646504]}, "type": "Feature", "properties": {"collection_times": [{"days": "Mon-Sat", "time": "4:20pm"}, {"days": "Sun", "time": "Closed"}], "id": "6705400001", "name": "USPS COLLECTION BOX - BLUE BOX", "address": {"city": "GREENSBURG", "state": "KS", "street": "139 N MAIN ST", "postcode": "67054"}}},
{"geometry": {"type": "Point", "coordinates": [-99.292952928, 37.606646504]}, "type": "Feature", "properties": {"collection_times": [{"days": "Mon-Fri", "time": "3:45pm"}, {"days": "Sat", "time": "10:45am"}, {"days": "Sun", "time": "Closed"}], "id": "6705400005", "name": "USPS COLLECTION BOX - PO LOBBY", "address": {"city": "GREENSBURG", "state": "KS", "street": "139 N MAIN ST", "postcode": "67054"}}},
{"geometry": {"type": "Point", "coordinates": [-97.5061159584, 38.0027853327]}, "type": "Feature", "properties": {"collection_times": [{"days": "Mon-Sat", "time": "5:30pm"}, {"days": "Sun", "time": "Closed"}], "id": "6705600001", "name": "USPS COLLECTION BOX - BLUE BOX", "address": {"city": "HALSTEAD", "state": "KS", "street": "319 MAIN ST", "postcode": "67056"}}},
{"geometry": {"type": "Point", "coordinates": [-97.5061159584, 38.0027853327]}, "type": "Feature", "properties": {"collection_times": [{"days": "Mon-Fri", "time": "4:15pm"}, {"days": "Sat", "time": "10:45am"}, {"days": "Sun", "time": "Closed"}], "id": "6705600005", "name": "USPS COLLECTION BOX - PO LOBBY", "address": {"city": "HALSTEAD", "state": "KS", "street": "319 MAIN ST", "postcode": "67056"}}},
{"geometry": {"type": "Point", "coordinates": [-98.6494695647, 37.0137124326]}, "type": "Feature", "properties": {"collection_times": [{"days": "Mon-Sat", "time": "4:05pm"}, {"days": "Sun", "time": "Closed"}], "id": "6705700001", "name": "USPS COLLECTION BOX - BLUE BOX", "address": {"city": "HARDTNER", "state": "KS", "street": "109 S MAIN ST", "postcode": "67057"}}},
{"geometry": {"type": "Point", "coordinates": [-98.6494695647, 37.0137124326]}, "type": "Feature", "properties": {"collection_times": [{"days": "Mon-Fri", "time": "11:45am"}, {"days": "Sat", "time": "9:45am"}, {"days": "Sun", "time": "Closed"}], "id": "6705700002", "name": "USPS COLLECTION BOX - PO LOBBY", "address": {"city": "HARDTNER", "state": "KS", "street": "109 S MAIN ST", "postcode": "67057"}}},
{"geometry": {"type": "Point", "coordinates": [-98.0258580612, 37.2878166837]}, "type": "Feature", "properties": {"collection_times": [{"days": "Mon-Sat", "time": "5:45pm"}, {"days": "Sun", "time": "Closed"}], "id": "6705800002", "name": "USPS COLLECTION BOX - BLUE BOX", "address": {"city": "HARPER", "state": "KS", "street": "901 CENTRAL ST", "postcode": "67058"}}},
{"geometry": {"type": "Point", "coordinates": [-98.0258580612, 37.2878166837]}, "type": "Feature", "properties": {"collection_times": [{"days": "Mon-Fri", "time": "4:45pm"}, {"days": "Sat", "time": "10:15am"}, {"days": "Sun", "time": "Closed"}], "id": "6705800004", "name": "USPS COLLECTION BOX - PO LOBBY", "address": {"city": "HARPER", "state": "KS", "street": "901 CENTRAL ST", "postcode": "67058"}}},
{"geometry": {"type": "Point", "coordinates": [-99.1062718563, 37.6154993333]}, "type": "Feature", "properties": {"collection_times": [{"days": "Mon-Sat", "time": "4:45pm"}, {"days": "Sun", "time": "Closed"}], "id": "6705900001", "name": "USPS COLLECTION BOX - BLUE BOX", "address": {"city": "HAVILAND", "state": "KS", "street": "106 N MAIN ST", "postcode": "67059"}}},
{"geometry": {"type": "Point", "coordinates": [-99.1062723696, 37.6155164423]}, "type": "Feature", "properties": {"collection_times": [{"days": "Mon-Fri", "time": "1:45pm"}, {"days": "Sat", "time": "10:15am"}, {"days": "Sun", "time": "Closed"}], "id": "6705900002", "name": "USPS COLLECTION BOX - PO LOBBY", "address": {"city": "HAVILAND", "state": "KS", "street": "108 N MAIN ST", "postcode": "67059"}}},
{"geometry": {"type": "Point", "coordinates": [-97.3339437234, 37.563859051]}, "type": "Feature", "properties": {"collection_times": [{"days": "Mon-Sat", "time": "2:30pm"}, {"days": "Sun", "time": "Closed"}], "id": "6706000001", "name": "USPS COLLECTION BOX - BLUE BOX", "address": {"city": "HAYSVILLE", "state": "KS", "street": "7200 S BROADWAY ST", "postcode": "67060"}}},
{"geometry": {"type": "Point", "coordinates": [-97.3549045733, 37.5643464301]}, "type": "Feature", "properties": {"collection_times": [{"days": "Mon-Sat", "time": "6:00pm"}, {"days": "Sun", "time": "Closed"}], "id": "6706000002", "name": "USPS COLLECTION BOX - BLUE BOX", "address": {"city": "HAYSVILLE", "state": "KS", "street": "224 W GRAND AVE", "postcode": "67060"}}},
{"geometry": {"type": "Point", "coordinates": [-97.3549045733, 37.5643464301]}, "type": "Feature", "properties": {"collection_times": [{"days": "Mon-Fri", "time": "4:30pm"}, {"days": "Sat", "time": "2:30pm"}, {"days": "Sun", "time": "Closed"}], "id": "6706000003", "name": "USPS COLLECTION BOX - PO LOBBY", "address": {"city": "HAYSVILLE", "state": "KS", "street": "224 W GRAND AVE", "postcode": "67060"}}},
{"geometry": {"type": "Point", "coordinates": [-98.396281666, 37.0904165628]}, "type": "Feature", "properties": {"collection_times": [{"days": "Mon-Sat", "time": "4:35pm"}, {"days": "Sun", "time": "Closed"}], "id": "6706100001", "name": "USPS COLLECTION BOX - BLUE BOX", "address": {"city": "HAZELTON", "state": "KS", "street": "405 E MAIN ST", "postcode": "67061"}}},
{"geometry": {"type": "Point", "coordinates": [-97.4318971632, 38.1395923992]}, "type": "Feature", "properties": {"collection_times": [{"days": "Mon-Fri", "time": "4:15pm"}, {"days": "Sat", "time": "4:30pm"}, {"days": "Sun", "time": "Closed"}], "id": "6706200002", "name": "USPS COLLECTION BOX - BLUE BOX", "address": {"city": "HESSTON", "state": "KS", "street": "120 W KNOTT ST", "postcode": "67062"}}},
{"geometry": {"type": "Point", "coordinates": [-97.4318971632, 38.1395923992]}, "type": "Feature", "properties": {"collection_times": [{"days": "Mon-Fri", "time": "4:15pm"}, {"days": "Sat", "time": "10:15am"}, {"days": "Sun", "time": "Closed"}], "id": "6706200003", "name": "USPS COLLECTION BOX - PO LOBBY", "address": {"city": "HESSTON", "state": "KS", "street": "120 W KNOTT ST", "postcode": "67062"}}},
{"geometry": {"type": "Point", "coordinates": [-97.2047388303, 38.3533625588]}, "type": "Feature", "properties": {"collection_times": [{"days": "Mon-Fri", "time": "3:30pm"}, {"days": "Sat", "time": "12:00pm"}, {"days": "Sun", "time": "Closed"}], "id": "6706300008", "name": "USPS COLLECTION BOX - BLUE BOX", "address": {"city": "HILLSBORO", "state": "KS", "street": "101 N MAIN ST", "postcode": "67063"}}},
{"geometry": {"type": "Point", "coordinates": [-97.2047691211, 38.354660631]}, "type": "Feature", "properties": {"collection_times": [{"days": "Mon-Sat", "time": "4:20pm"}, {"days": "Sun", "time": "Closed"}], "id": "6706300010", "name": "USPS COLLECTION BOX - BLUE BOX", "address": {"city": "HILLSBORO", "state": "KS", "street": "201 N MAIN ST", "postcode": "67063"}}},
{"geometry": {"type": "Point", "coordinates": [-97.2047691211, 38.354660631]}, "type": "Feature", "properties": {"collection_times": [{"days": "Mon-Fri", "time": "4:20pm"}, {"days": "Sat", "time": "12:00pm"}, {"days": "Sun", "time": "Closed"}], "id": "6706300011", "name": "USPS COLLECTION BOX - PO LOBBY", "address": {"city": "HILLSBORO", "state": "KS", "street": "201 N MAIN ST", "postcode": "67063"}}},
{"geometry": {"type": "Point", "coordinates": [-98.5508963559, 37.4669467916]}, "type": "Feature", "properties": {"collection_times": [{"days": "Mon-Sat", "time": "4:40pm"}, {"days": "Sun", "time": "Closed"}], "id": "6706500001", "name": "USPS COLLECTION BOX - BLUE BOX", "address": {"city": "ISABEL", "state": "KS", "street": "122 N MAIN ST", "postcode": "67065"}}},
{"geometry": {"type": "Point", "coordinates": [-98.5508963559, 37.4669467916]}, "type": "Feature", "properties": {"collection_times": [{"days": "Mon-Fri", "time": "2:15pm"}, {"days": "Sat", "time": "11:15am"}, {"days": "Sun", "time": "Closed"}], "id": "6706500002", "name": "USPS COLLECTION BOX - PO LOBBY", "address": {"city": "ISABEL", "state": "KS", "street": "122 N MAIN ST", "postcode": "67065"}}},
{"geometry": {"type": "Point", "coordinates": [-98.7325330811, 37.7289037574]}, "type": "Feature", "properties": {"collection_times": [{"days": "Mon-Sat", "time": "2:45pm"}, {"days": "Sun", "time": "Closed"}], "id": "6706600001", "name": "USPS COLLECTION BOX - BLUE BOX", "address": {"city": "IUKA", "state": "KS", "street": "204 N MAIN ST", "postcode": "67066"}}},
{"geometry": {"type": "Point", "coordinates": [-98.7325330811, 37.7289037574]}, "type": "Feature", "properties": {"collection_times": [{"days": "Mon-Fri", "time": "11:45am"}, {"days": "Sat", "time": "9:45am"}, {"days": "Sun", "time": "Closed"}], "id": "6706600002", "name": "USPS COLLECTION BOX - PO LOBBY", "address": {"city": "IUKA", "state": "KS", "street": "204 N MAIN ST", "postcode": "67066"}}},
{"geometry": {"type": "Point", "coordinates": [-97.2775177637, 37.795865695]}, "type": "Feature", "properties": {"collection_times": [{"days": "Mon-Sat", "time": "6:45pm"}, {"days": "Sun", "time": "Closed"}], "id": "6706700001", "name": "USPS COLLECTION BOX - BLUE BOX", "address": {"city": "KECHI", "state": "KS", "street": "307 E KECHI RD", "postcode": "67067"}}},
{"geometry": {"type": "Point", "coordinates": [-97.2775177637, 37.795865695]}, "type": "Feature", "properties": {"collection_times": [{"days": "Mon-Fri", "time": "4:15pm"}, {"days": "Sat", "time": "10:15am"}, {"days": "Sun", "time": "Closed"}], "id": "6706700002", "name": "USPS COLLECTION BOX - PO LOBBY", "address": {"city": "KECHI", "state": "KS", "street": "307 E KECHI RD", "postcode": "67067"}}},
{"geometry": {"type": "Point", "coordinates": [-98.1116436939, 37.6424544526]}, "type": "Feature", "properties": {"collection_times": [{"days": "Mon-Fri", "time": "3:30pm"}, {"days": "Sat-Sun", "time": "Closed"}], "id": "6706800002", "name": "USPS COLLECTION BOX - BLUE BOX", "address": {"city": "KINGMAN", "state": "KS", "street": "128 N SPRUCE ST", "postcode": "67068"}}},
{"geometry": {"type": "Point", "coordinates": [-98.1132630283, 37.6455778417]}, "type": "Feature", "properties": {"collection_times": [{"days": "Mon-Sat", "time": "6:00pm"}, {"days": "Sun", "time": "Closed"}], "id": "6706800003", "name": "USPS COLLECTION BOX - BLUE BOX", "address": {"city": "KINGMAN", "state": "KS", "street": "425 N MAIN ST", "postcode": "67068"}}},
{"geometry": {"type": "Point", "coordinates": [-98.1132630283, 37.6455778417]}, "type": "Feature", "properties": {"collection_times": [{"days": "Mon-Sat", "time": "6:00pm"}, {"days": "Sun", "time": "Closed"}], "id": "6706800006", "name": "USPS COLLECTION BOX - BLUE BOX", "address": {"city": "KINGMAN", "state": "KS", "street": "425 N MAIN ST", "postcode": "67068"}}},
{"geometry": {"type": "Point", "coordinates": [-98.1132630283, 37.6455778417]}, "type": "Feature", "properties": {"collection_times": [{"days": "Mon-Fri", "time": "3:45pm"}, {"days": "Sat", "time": "10:00am"}, {"days": "Sun", "time": "Closed"}], "id": "6706800007", "name": "USPS COLLECTION BOX - PO LOBBY", "address": {"city": "KINGMAN", "state": "KS", "street": "425 N MAIN ST", "postcode": "67068"}}},
{"geometry": {"type": "Point", "coordinates": [-98.4865684042, 37.0170527525]}, "type": "Feature", "properties": {"collection_times": [{"days": "Mon-Sat", "time": "4:20pm"}, {"days": "Sun", "time": "Closed"}], "id": "6707000001", "name": "USPS COLLECTION BOX - BLUE BOX", "address": {"city": "KIOWA", "state": "KS", "street": "602 MAIN ST", "postcode": "67070"}}},
{"geometry": {"type": "Point", "coordinates": [-98.4865684042, 37.0170527525]}, "type": "Feature", "properties": {"collection_times": [{"days": "Mon-Sat", "time": "4:20pm"}, {"days": "Sun", "time": "Closed"}], "id": "6707000002", "name": "USPS COLLECTION BOX - BLUE BOX", "address": {"city": "KIOWA", "state": "KS", "street": "602 MAIN ST", "postcode": "67070"}}},
{"geometry": {"type": "Point", "coordinates": [-98.4865684042, 37.0170527525]}, "type": "Feature", "properties": {"collection_times": [{"days": "Mon-Fri", "time": "4:15pm"}, {"days": "Sat", "time": "9:45am"}, {"days": "Sun", "time": "Closed"}], "id": "6707000003", "name": "USPS COLLECTION BOX - PO LOBBY", "address": {"city": "KIOWA", "state": "KS", "street": "602 MAIN ST", "postcode": "67070"}}},
{"geometry": {"type": "Point", "coordinates": [-96.640788183, 37.5345837209]}, "type": "Feature", "properties": {"collection_times": [{"days": "Mon-Sat", "time": "1:00pm"}, {"days": "Sun", "time": "Closed"}], "id": "6707200001", "name": "USPS COLLECTION BOX - BLUE BOX", "address": {"city": "LATHAM", "state": "KS", "street": "209 W BLAINE ST", "postcode": "67072"}}},
{"geometry": {"type": "Point", "coordinates": [-96.640788183, 37.5345837209]}, "type": "Feature", "properties": {"collection_times": [{"days": "Mon-Sat", "time": "11:45am"}, {"days": "Sun", "time": "Closed"}], "id": "6707200002", "name": "USPS COLLECTION BOX - PO LOBBY", "address": {"city": "LATHAM", "state": "KS", "street": "209 W BLAINE ST", "postcode": "67072"}}},
{"geometry": {"type": "Point", "coordinates": [-97.3033499845, 38.372728979]}, "type": "Feature", "properties": {"collection_times": [{"days": "Mon-Sat", "time": "4:45pm"}, {"days": "Sun", "time": "Closed"}], "id": "6707300001", "name": "USPS COLLECTION BOX - BLUE BOX", "address": {"city": "LEHIGH", "state": "KS", "street": "112 W MAIN ST", "postcode": "67073"}}},
{"geometry": {"type": "Point", "coordinates": [-97.3033499845, 38.372728979]}, "type": "Feature", "properties": {"collection_times": [{"days": "Mon-Fri", "time": "3:15pm"}, {"days": "Sat", "time": "11:45am"}, {"days": "Sun", "time": "Closed"}], "id": "6707300002", "name": "USPS COLLECTION BOX - PO LOBBY", "address": {"city": "LEHIGH", "state": "KS", "street": "112 W MAIN ST", "postcode": "67073"}}},
{"geometry": {"type": "Point", "coordinates": [-96.781358962, 37.6881763152]}, "type": "Feature", "properties": {"collection_times": [{"days": "Mon-Sat", "time": "5:15pm"}, {"days": "Sun", "time": "Closed"}], "id": "6707400001", "name": "USPS COLLECTION BOX - BLUE BOX", "address": {"city": "LEON", "state": "KS", "street": "105 S MAIN ST", "postcode": "67074"}}},
{"geometry": {"type": "Point", "coordinates": [-96.781358962, 37.6881763152]}, "type": "Feature", "properties": {"collection_times": [{"days": "Mon-Fri", "time": "1:45pm"}, {"days": "Sat", "time": "8:45am"}, {"days": "Sun", "time": "Closed"}], "id": "6707400002", "name": "USPS COLLECTION BOX - PO LOBBY", "address": {"city": "LEON", "state": "KS", "street": "105 S MAIN ST", "postcode": "67074"}}}
]}
