{"type": "FeatureCollection", "features": [
{"geometry": {"type": "Point", "coordinates": [-97.4684363943, 37.7775681816]}, "type": "Feature", "properties": {"collection_times": [{"days": "Mon-Sat", "time": "6:30pm"}, {"days": "Sun", "time": "Closed"}], "id": "6710100001", "name": "USPS COLLECTION BOX - BLUE BOX", "address": {"city": "MAIZE", "state": "KS", "street": "115 E ALBERT ST", "postcode": "67101"}}},
{"geometry": {"type": "Point", "coordinates": [-97.4684363943, 37.7775681816]}, "type": "Feature", "properties": {"collection_times": [{"days": "Mon-Fri", "time": "4:15pm"}, {"days": "Sat", "time": "9:45am"}, {"days": "Sun", "time": "Closed"}], "id": "6710100002", "name": "USPS COLLECTION BOX - PO LOBBY", "address": {"city": "MAIZE", "state": "KS", "street": "115 E ALBERT ST", "postcode": "67101"}}},
{"geometry": {"type": "Point", "coordinates": [-97.5451239571, 37.2619960047]}, "type": "Feature", "properties": {"collection_times": [{"days": "Mon-Sat", "time": "5:05pm"}, {"days": "Sun", "time": "Closed"}], "id": "6710300001", "name": "USPS COLLECTION BOX - BLUE BOX", "address": {"city": "MAYFIELD", "state": "KS", "street": "116 N OSBORN ST", "postcode": "67103"}}},
{"geometry": {"type": "Point", "coordinates": [-97.5451239571, 37.2619960047]}, "type": "Feature", "properties": {"collection_times": [{"days": "Mon-Fri", "time": "3:30pm"}, {"days": "Sat", "time": "11:30am"}, {"days": "Sun", "time": "Closed"}], "id": "6710300002", "name": "USPS COLLECTION BOX - PO LOBBY", "address": {"city": "MAYFIELD", "state": "KS", "street": "116 N OSBORN ST", "postcode": "67103"}}},
{"geometry": {"type": "Point", "coordinates": [-98.579509304, 37.2806916544]}, "type": "Feature", "properties": {"collection_times": [{"days": "Mon-Sat", "time": "4:30pm"}, {"days": "Sun", "time": "Closed"}], "id": "6710400004", "name": "USPS COLLECTION BOX - BLUE BOX", "address": {"city": "MEDICINE LODGE", "state": "KS", "street": "108 W KANSAS AVE", "postcode": "67104"}}},
{"geometry": {"type": "Point", "coordinates": [-98.579509304, 37.2806916544]}, "type": "Feature", "properties": {"collection_times": [{"days": "Mon-Fri", "time": "4:15pm"}, {"days": "Sat", "time": "10:45am"}, {"days": "Sun", "time": "Closed"}], "id": "6710400005", "name": "USPS COLLECTION BOX - PO LOBBY", "address": {"city": "MEDICINE LODGE", "state": "KS", "street": "108 W KANSAS AVE", "postcode": "67104"}}},
{"geometry": {"type": "Point", "coordinates": [-97.7735898187, 37.4309050745]}, "type": "Feature", "properties": {"collection_times": [{"days": "Mon-Sat", "time": "4:45pm"}, {"days": "Sun", "time": "Closed"}], "id": "6710600001", "name": "USPS COLLECTION BOX - BLUE BOX", "address": {"city": "MILTON", "state": "KS", "street": "1211 N WALNUT ST", "postcode": "67106"}}},
{"geometry": {"type": "Point", "coordinates": [-97.7735898187, 37.4309050745]}, "type": "Feature", "properties": {"collection_times": [{"days": "Mon-Fri", "time": "10:55am"}, {"days": "Sat", "time": "9:45am"}, {"days": "Sun", "time": "Closed"}], "id": "6710600002", "name": "USPS COLLECTION BOX - PO LOBBY", "address": {"city": "MILTON", "state": "KS", "street": "1211 N WALNUT ST", "postcode": "67106"}}},
{"geometry": {"type": "Point", "coordinates": [-97.5191470198, 38.2029166608]}, "type": "Feature", "properties": {"collection_times": [{"days": "Mon-Sat", "time": "4:15pm"}, {"days": "Sun", "time": "Closed"}], "id": "6710700001", "name": "USPS COLLECTION BOX - BLUE BOX", "address": {"city": "MOUNDRIDGE", "state": "KS", "street": "111 S CHRISTIAN AVE", "postcode": "67107"}}},
{"geometry": {"type": "Point", "coordinates": [-97.5191470198, 38.2029166608]}, "type": "Feature", "properties": {"collection_times": [{"days": "Mon-Fri", "time": "4:15pm"}, {"days": "Sat", "time": "11:15am"}, {"days": "Sun", "time": "Closed"}], "id": "6710700002", "name": "USPS COLLECTION BOX - PO LOBBY", "address": {"city": "MOUNDRIDGE", "state": "KS", "street": "111 S CHRISTIAN AVE", "postcode": "67107"}}},
{"geometry": {"type": "Point", "coordinates": [-97.6656263312, 37.8686327361]}, "type": "Feature", "properties": {"collection_times": [{"days": "Mon-Sat", "time": "5:00pm"}, {"days": "Sun", "time": "Closed"}], "id": "6710800001", "name": "USPS COLLECTION BOX - BLUE BOX", "address": {"city": "MOUNT HOPE", "state": "KS", "street": "125 W MAIN ST", "postcode": "67108"}}},
{"geometry": {"type": "Point", "coordinates": [-97.6656263312, 37.8686327361]}, "type": "Feature", "properties": {"collection_times": [{"days": "Mon-Fri", "time": "11:45am"}, {"days": "Sat", "time": "10:45am"}, {"days": "Sun", "time": "Closed"}], "id": "6710800002", "name": "USPS COLLECTION BOX - PO LOBBY", "address": {"city": "MOUNT HOPE", "state": "KS", "street": "125 W MAIN ST", "postcode": "67108"}}},
{"geometry": {"type": "Point", "coordinates": [-99.475629319, 37.5860664409]}, "type": "Feature", "properties": {"collection_times": [{"days": "Mon-Sat", "time": "4:05pm"}, {"days": "Sun", "time": "Closed"}], "id": "6710900001", "name": "USPS COLLECTION BOX - BLUE BOX", "address": {"city": "MULLINVILLE", "state": "KS", "street": "117 S MAIN ST", "postcode": "67109"}}},
{"geometry": {"type": "Point", "coordinates": [-99.475629319, 37.5860664409]}, "type": "Feature", "properties": {"collection_times": [{"days": "Mon-Fri", "time": "11:45am"}, {"days": "Sat", "time": "9:15am"}, {"days": "Sun", "time": "Closed"}], "id": "6710900002", "name": "USPS COLLECTION BOX - PO LOBBY", "address": {"city": "MULLINVILLE", "state": "KS", "street": "117 S MAIN ST", "postcode": "67109"}}},
{"geometry": {"type": "Point", "coordinates": [-97.2440232369, 37.4748099117]}, "type": "Feature", "properties": {"collection_times": [{"days": "Mon-Sat", "time": "2:00pm"}, {"days": "Sun", "time": "Closed"}], "id": "6711000002", "name": "USPS COLLECTION BOX - BLUE BOX", "address": {"city": "MULVANE", "state": "KS", "street": "104 E MAIN ST", "postcode": "67110"}}},
{"geometry": {"type": "Point", "coordinates": [-97.2446149431, 37.4867466879]}, "type": "Feature", "properties": {"collection_times": [{"days": "Mon-Sat", "time": "2:00pm"}, {"days": "Sun", "time": "Closed"}], "id": "6711000003", "name": "USPS COLLECTION BOX - BLUE BOX", "address": {"city": "MULVANE", "state": "KS", "street": "1203 N 2ND AVE", "postcode": "67110"}}},
{"geometry": {"type": "Point", "coordinates": [-97.2405588546, 37.4748901451]}, "type": "Feature", "properties": {"collection_times": [{"days": "Mon-Sat", "time": "6:30pm"}, {"days": "Sun", "time": "Closed"}], "id": "6711000005", "name": "USPS COLLECTION BOX - BLUE BOX", "address": {"city": "MULVANE", "state": "KS", "street": "115 E PLAZA LN", "postcode": "67110"}}},
{"geometry": {"type": "Point", "coordinates": [-97.2405588546, 37.4748901451]}, "type": "Feature", "properties": {"collection_times": [{"days": "Mon-Fri", "time": "4:15pm"}, {"days": "Sat", "time": "11:45am"}, {"days": "Sun", "time": "Closed"}], "id": "6711000006", "name": "USPS COLLECTION BOX - PO LOBBY", "address": {"city": "MULVANE", "state": "KS", "street": "115 E PLAZA LN", "postcode": "67110"}}},
{"geometry": {"type": "Point", "coordinates": [-97.9303830133, 37.6100450565]}, "type": "Feature", "properties": {"collection_times": [{"days": "Mon-Sat", "time": "4:30pm"}, {"days": "Sun", "time": "Closed"}], "id": "6711100001", "name": "USPS COLLECTION BOX - BLUE BOX", "address": {"city": "MURDOCK", "state": "KS", "street": "2624 SE MURDOCK AVE", "postcode": "67111"}}},
{"geometry": {"type": "Point", "coordinates": [-97.9303830133, 37.6100450565]}, "type": "Feature", "properties": {"collection_times": [{"days": "Mon-Fri", "time": "11:45am"}, {"days": "Sat", "time": "10:45am"}, {"days": "Sun", "time": "Closed"}], "id": "6711100002", "name": "USPS COLLECTION BOX - PO LOBBY", "address": {"city": "MURDOCK", "state": "KS", "street": "2624 SE MURDOCK AVE", "postcode": "67111"}}},
{"geometry": {"type": "Point", "coordinates": [-98.4211233884, 37.4420380715]}, "type": "Feature", "properties": {"collection_times": [{"days": "Mon-Sat", "time": "5:00pm"}, {"days": "Sun", "time": "Closed"}], "id": "6711200001", "name": "USPS COLLECTION BOX - BLUE BOX", "address": {"city": "NASHVILLE", "state": "KS", "street": "118 S MAIN ST", "postcode": "67112"}}},
{"geometry": {"type": "Point", "coordinates": [-98.4211233884, 37.4420380715]}, "type": "Feature", "properties": {"collection_times": [{"days": "Mon-Fri", "time": "11:15am"}, {"days": "Sat", "time": "8:45am"}, {"days": "Sun", "time": "Closed"}], "id": "6711200002", "name": "USPS COLLECTION BOX - PO LOBBY", "address": {"city": "NASHVILLE", "state": "KS", "street": "118 S MAIN ST", "postcode": "67112"}}},
{"geometry": {"type": "Point", "coordinates": [-97.3203965778, 38.0433514947]}, "type": "Feature", "properties": {"collection_times": [{"days": "Mon-Sat", "time": "12:00pm"}, {"days": "Sun", "time": "Closed"}], "id": "6711400001", "name": "USPS COLLECTION BOX - BLUE BOX", "address": {"city": "NEWTON", "state": "KS", "street": "200 MANCHESTER AVE", "postcode": "67114"}}},
{"geometry": {"type": "Point", "coordinates": [-97.3388466822, 38.032471828]}, "type": "Feature", "properties": {"collection_times": [{"days": "Mon-Sat", "time": "2:00pm"}, {"days": "Sun", "time": "Closed"}], "id": "6711400002", "name": "USPS COLLECTION BOX - BLUE BOX", "address": {"city": "NEWTON", "state": "KS", "street": "1021 WASHINGTON RD", "postcode": "67114"}}},
{"geometry": {"type": "Point", "coordinates": [-97.3718838356, 38.0443807794]}, "type": "Feature", "properties": {"collection_times": [{"days": "Mon-Sat", "time": "2:00pm"}, {"days": "Sun", "time": "Closed"}], "id": "6711400003", "name": "USPS COLLECTION BOX - BLUE BOX", "address": {"city": "NEWTON", "state": "KS", "street": "216 N MERIDIAN RD", "postcode": "67114"}}},
{"geometry": {"type": "Point", "coordinates": [-97.3366046983, 38.0239927717]}, "type": "Feature", "properties": {"collection_times": [{"days": "Mon-Sat", "time": "2:00pm"}, {"days": "Sun", "time": "Closed"}], "id": "6711400004", "name": "USPS COLLECTION BOX - BLUE BOX", "address": {"city": "NEWTON", "state": "KS", "street": "1701 S KANSAS RD", "postcode": "67114"}}},
{"geometry": {"type": "Point", "coordinates": [-97.3447858168, 38.039038617]}, "type": "Feature", "properties": {"collection_times": [{"days": "Mon-Sat", "time": "2:00pm"}, {"days": "Sun", "time": "Closed"}], "id": "6711400009", "name": "USPS COLLECTION BOX - BLUE BOX", "address": {"city": "NEWTON", "state": "KS", "street": "411 WASHINGTON RD", "postcode": "67114"}}},
{"geometry": {"type": "Point", "coordinates": [-97.3365255418, 38.0230907591]}, "type": "Feature", "properties": {"collection_times": [{"days": "Mon-Sat", "time": "2:00pm"}, {"days": "Sun", "time": "Closed"}], "id": "6711400018", "name": "USPS COLLECTION BOX - BLUE BOX", "address": {"city": "NEWTON", "state": "KS", "street": "600 MEDICAL CENTER DR", "postcode": "67114"}}},
{"geometry": {"type": "Point", "coordinates": [-97.3470587255, 38.0463432757]}, "type": "Feature", "properties": {"collection_times": [{"days": "Mon-Fri", "time": "4:30pm"}, {"days": "Sat", "time": "3:00pm"}, {"days": "Sun", "time": "Closed"}], "id": "6711400019", "name": "USPS COLLECTION BOX - PO LOBBY", "address": {"city": "NEWTON", "state": "KS", "street": "400 N POPLAR ST", "postcode": "67114"}}},
{"geometry": {"type": "Point", "coordinates": [-97.3470587255, 38.0463432757]}, "type": "Feature", "properties": {"collection_times": [{"days": "Mon-Sat", "time": "5:55pm"}, {"days": "Sun", "time": "Closed"}], "id": "6711400022", "name": "USPS COLLECTION BOX - BLUE BOX", "address": {"city": "NEWTON", "state": "KS", "street": "400 N POPLAR ST", "postcode": "67114"}}},
{"geometry": {"type": "Point", "coordinates": [-97.3452936071, 38.0719057386]}, "type": "Feature", "properties": {"collection_times": [{"days": "Mon-Fri", "time": "4:15pm"}, {"days": "Sat", "time": "9:15am"}, {"days": "Sun", "time": "Closed"}], "id": "6711700002", "name": "USPS COLLECTION BOX - PO LOBBY", "address": {"city": "NORTH NEWTON", "state": "KS", "street": "2509 N MAIN ST", "postcode": "67117"}}},
{"geometry": {"type": "Point", "coordinates": [-97.3452521647, 38.071997049]}, "type": "Feature", "properties": {"collection_times": [{"days": "Mon-Sat", "time": "5:30pm"}, {"days": "Sun", "time": "Closed"}], "id": "6711700003", "name": "USPS COLLECTION BOX - BLUE BOX", "address": {"city": "NORTH NEWTON", "state": "KS", "street": "2509 N MAIN ST", "postcode": "67117"}}},
{"geometry": {"type": "Point", "coordinates": [-97.8492250376, 37.457216193]}, "type": "Feature", "properties": {"collection_times": [{"days": "Mon-Sat", "time": "4:35pm"}, {"days": "Sun", "time": "Closed"}], "id": "6711800001", "name": "USPS COLLECTION BOX - BLUE BOX", "address": {"city": "NORWICH", "state": "KS", "street": "307 S MAIN ST", "postcode": "67118"}}},
{"geometry": {"type": "Point", "coordinates": [-97.1689527411, 37.2745210565]}, "type": "Feature", "properties": {"collection_times": [{"days": "Mon-Sat", "time": "5:45pm"}, {"days": "Sun", "time": "Closed"}], "id": "6711900001", "name": "USPS COLLECTION BOX - BLUE BOX", "address": {"city": "OXFORD", "state": "KS", "street": "120 N SUMNER ST", "postcode": "67119"}}},
{"geometry": {"type": "Point", "coordinates": [-97.1689527411, 37.2745210565]}, "type": "Feature", "properties": {"collection_times": [{"days": "Mon-Fri", "time": "3:45pm"}, {"days": "Sat", "time": "9:45am"}, {"days": "Sun", "time": "Closed"}], "id": "6711900002", "name": "USPS COLLECTION BOX - PO LOBBY", "address": {"city": "OXFORD", "state": "KS", "street": "120 N SUMNER ST", "postcode": "67119"}}},
{"geometry": {"type": "Point", "coordinates": [-97.3721062995, 37.4703907979]}, "type": "Feature", "properties": {"collection_times": [{"days": "Mon-Sat", "time": "6:25pm"}, {"days": "Sun", "time": "Closed"}], "id": "6712000001", "name": "USPS COLLECTION BOX - BLUE BOX", "address": {"city": "PECK", "state": "KS", "street": "328 W 7TH ST", "postcode": "67120"}}},
{"geometry": {"type": "Point", "coordinates": [-97.3721062995, 37.4703907979]}, "type": "Feature", "properties": {"collection_times": [{"days": "Mon-Fri", "time": "10:45am"}, {"days": "Sat", "time": "10:15am"}, {"days": "Sun", "time": "Closed"}], "id": "6712000002", "name": "USPS COLLECTION BOX - PO LOBBY", "address": {"city": "PECK", "state": "KS", "street": "328 W 7TH ST", "postcode": "67120"}}},
{"geometry": {"type": "Point", "coordinates": [-96.4123319247, 37.6371881168]}, "type": "Feature", "properties": {"collection_times": [{"days": "Mon-Sat", "time": "4:25pm"}, {"days": "Sun", "time": "Closed"}], "id": "6712200001", "name": "USPS COLLECTION BOX - BLUE BOX", "address": {"city": "PIEDMONT", "state": "KS", "street": "107 J80 RD", "postcode": "67122"}}},
{"geometry": {"type": "Point", "coordinates": [-96.4123319247, 37.6371881168]}, "type": "Feature", "properties": {"collection_times": [{"days": "Mon-Sat", "time": "10:45am"}, {"days": "Sun", "time": "Closed"}], "id": "6712200002", "name": "USPS COLLECTION BOX - PO LOBBY", "address": {"city": "PIEDMONT", "state": "KS", "street": "107 J80 RD", "postcode": "67122"}}},
{"geometry": {"type": "Point", "coordinates": [-97.0199850471, 37.9383702099]}, "type": "Feature", "properties": {"collection_times": [{"days": "Mon-Fri", "time": "4:15pm"}, {"days": "Sat", "time": "4:30pm"}, {"days": "Sun", "time": "Closed"}], "id": "6712300001", "name": "USPS COLLECTION BOX - BLUE BOX", "address": {"city": "POTWIN", "state": "KS", "street": "103 E MARSHALL AVE", "postcode": "67123"}}},
{"geometry": {"type": "Point", "coordinates": [-97.0199850471, 37.9383702099]}, "type": "Feature", "properties": {"collection_times": [{"days": "Mon-Fri", "time": "12:45pm"}, {"days": "Sat", "time": "9:45am"}, {"days": "Sun", "time": "Closed"}], "id": "6712300002", "name": "USPS COLLECTION BOX - PO LOBBY", "address": {"city": "POTWIN", "state": "KS", "street": "103 E MARSHALL AVE", "postcode": "67123"}}},
{"geometry": {"type": "Point", "coordinates": [-98.7155989629, 37.6456455643]}, "type": "Feature", "properties": {"collection_times": [{"days": "Mon-Sat", "time": "3:00pm"}, {"days": "Sun", "time": "Closed"}], "id": "6712400003", "name": "USPS COLLECTION BOX - BLUE BOX", "address": {"city": "PRATT", "state": "KS", "street": "2003 E 1ST ST", "postcode": "67124"}}},
{"geometry": {"type": "Point", "coordinates": [-98.7380758639, 37.6439803228]}, "type": "Feature", "properties": {"collection_times": [{"days": "Mon-Fri", "time": "4:30pm"}, {"days": "Sat", "time": "11:00am"}, {"days": "Sun", "time": "Closed"}], "id": "6712400008", "name": "USPS COLLECTION BOX - PO LOBBY", "address": {"city": "PRATT", "state": "KS", "street": "202 E 3RD ST", "postcode": "67124"}}},
{"geometry": {"type": "Point", "coordinates": [-98.7268531385, 37.6459583577]}, "type": "Feature", "properties": {"collection_times": [{"days": "Mon-Sat", "time": "5:20pm"}, {"days": "Sun", "time": "Closed"}], "id": "6712400011", "name": "USPS COLLECTION BOX - BLUE BOX", "address": {"city": "PRATT", "state": "KS", "street": "1108 E 1ST ST", "postcode": "67124"}}},
{"geometry": {"type": "Point", "coordinates": [-98.7410681326, 37.6439520093]}, "type": "Feature", "properties": {"collection_times": [{"days": "Mon-Sat", "time": "3:00pm"}, {"days": "Sun", "time": "Closed"}], "id": "6712400012", "name": "USPS COLLECTION BOX - BLUE BOX", "address": {"city": "PRATT", "state": "KS", "street": "210 W 3RD ST", "postcode": "67124"}}},
{"geometry": {"type": "Point", "coordinates": [-98.7279681931, 37.6459531294]}, "type": "Feature", "properties": {"collection_times": [{"days": "Mon-Sat", "time": "5:20pm"}, {"days": "Sun", "time": "Closed"}], "id": "6712400013", "name": "USPS COLLECTION BOX - BLUE BOX", "address": {"city": "PRATT", "state": "KS", "street": "1108 E 1ST ST", "postcode": "67124"}}},
{"geometry": {"type": "Point", "coordinates": [-99.4842558871, 37.2028822216]}, "type": "Feature", "properties": {"collection_times": [{"days": "Mon-Sat", "time": "2:40pm"}, {"days": "Sun", "time": "Closed"}], "id": "6712700001", "name": "USPS COLLECTION BOX - BLUE BOX", "address": {"city": "PROTECTION", "state": "KS", "street": "107 W WALNUT ST", "postcode": "67127"}}},
{"geometry": {"type": "Point", "coordinates": [-99.4842558871, 37.2028822216]}, "type": "Feature", "properties": {"collection_times": [{"days": "Mon-Fri", "time": "2:40pm"}, {"days": "Sat", "time": "10:45am"}, {"days": "Sun", "time": "Closed"}], "id": "6712700002", "name": "USPS COLLECTION BOX - PO LOBBY", "address": {"city": "PROTECTION", "state": "KS", "street": "107 W WALNUT ST", "postcode": "67127"}}},
{"geometry": {"type": "Point", "coordinates": [-96.9329800133, 37.4398396578]}, "type": "Feature", "properties": {"collection_times": [{"days": "Mon-Sat", "time": "5:00pm"}, {"days": "Sun", "time": "Closed"}], "id": "6713100001", "name": "USPS COLLECTION BOX - BLUE BOX", "address": {"city": "ROCK", "state": "KS", "street": "333 E WILLIAMS ST", "postcode": "67131"}}},
{"geometry": {"type": "Point", "coordinates": [-96.9329800133, 37.4398396578]}, "type": "Feature", "properties": {"collection_times": [{"days": "Mon-Sat", "time": "9:45am"}, {"days": "Sun", "time": "Closed"}], "id": "6713100002", "name": "USPS COLLECTION BOX - PO LOBBY", "address": {"city": "ROCK", "state": "KS", "street": "333 E WILLIAMS ST", "postcode": "67131"}}},
{"geometry": {"type": "Point", "coordinates": [-96.6199677585, 37.8166016093]}, "type": "Feature", "properties": {"collection_times": [{"days": "Mon-Sat", "time": "5:15pm"}, {"days": "Sun", "time": "Closed"}], "id": "6713200001", "name": "USPS COLLECTION BOX - BLUE BOX", "address": {"city": "ROSALIA", "state": "KS", "street": "616 SE ROSALIA RD", "postcode": "67132"}}},
{"geometry": {"type": "Point", "coordinates": [-96.6199677585, 37.8166016093]}, "type": "Feature", "properties": {"collection_times": [{"days": "Mon-Fri", "time": "9:45am"}, {"days": "Sat", "time": "9:15am"}, {"days": "Sun", "time": "Closed"}], "id": "6713200002", "name": "USPS COLLECTION BOX - PO LOBBY", "address": {"city": "ROSALIA", "state": "KS", "street": "616 SE ROSALIA RD", "postcode": "67132"}}},
{"geometry": {"type": "Point", "coordinates": [-97.1351046045, 37.563896007]}, "type": "Feature", "properties": {"collection_times": [{"days": "Mon-Sat", "time": "5:30pm"}, {"days": "Sun", "time": "Closed"}], "id": "6713300001", "name": "USPS COLLECTION BOX - BLUE BOX", "address": {"city": "ROSE HILL", "state": "KS", "street": "401 N ROSE HILL RD", "postcode": "67133"}}},
{"geometry": {"type": "Point", "coordinates": [-97.1350541553, 37.5695982839]}, "type": "Feature", "properties": {"collection_times": [{"days": "Mon-Sat", "time": "2:00pm"}, {"days": "Sun", "time": "Closed"}], "id": "6713300002", "name": "USPS COLLECTION BOX - BLUE BOX", "address": {"city": "ROSE HILL", "state": "KS", "street": "1060 N ROSE HILL RD", "postcode": "67133"}}},
{"geometry": {"type": "Point", "coordinates": [-97.1351046045, 37.563896007]}, "type": "Feature", "properties": {"collection_times": [{"days": "Mon-Fri", "time": "4:15pm"}, {"days": "Sat", "time": "10:45am"}, {"days": "Sun", "time": "Closed"}], "id": "6713300004", "name": "USPS COLLECTION BOX - PO LOBBY", "address": {"city": "ROSE HILL", "state": "KS", "street": "401 N ROSE HILL RD", "postcode": "67133"}}},
{"geometry": {"type": "Point", "coordinates": [-98.6837303023, 37.4984097735]}, "type": "Feature", "properties": {"collection_times": [{"days": "Mon-Sat", "time": "4:20pm"}, {"days": "Sun", "time": "Closed"}], "id": "6713400001", "name": "USPS COLLECTION BOX - BLUE BOX", "address": {"city": "SAWYER", "state": "KS", "street": "200 S MAIN ST", "postcode": "67134"}}},
{"geometry": {"type": "Point", "coordinates": [-98.6837303023, 37.4984097735]}, "type": "Feature", "properties": {"collection_times": [{"days": "Mon-Fri", "time": "11:15am"}, {"days": "Sat", "time": "10:45am"}, {"days": "Sun", "time": "Closed"}], "id": "6713400002", "name": "USPS COLLECTION BOX - PO LOBBY", "address": {"city": "SAWYER", "state": "KS", "street": "200 S MAIN ST", "postcode": "67134"}}},
{"geometry": {"type": "Point", "coordinates": [-97.4245985192, 37.9159758785]}, "type": "Feature", "properties": {"collection_times": [{"days": "Mon-Sat", "time": "5:05pm"}, {"days": "Sun", "time": "Closed"}], "id": "6713500001", "name": "USPS COLLECTION BOX - BLUE BOX", "address": {"city": "SEDGWICK", "state": "KS", "street": "415 N COMMERCIAL AVE", "postcode": "67135"}}},
{"geometry": {"type": "Point", "coordinates": [-97.4245985192, 37.9159758785]}, "type": "Feature", "properties": {"collection_times": [{"days": "Mon-Fri", "time": "4:15pm"}, {"days": "Sat", "time": "10:15am"}, {"days": "Sun", "time": "Closed"}], "id": "6713500002", "name": "USPS COLLECTION BOX - PO LOBBY", "address": {"city": "SEDGWICK", "state": "KS", "street": "415 N COMMERCIAL AVE", "postcode": "67135"}}},
{"geometry": {"type": "Point", "coordinates": [-96.2285081143, 37.6209873245]}, "type": "Feature", "properties": {"collection_times": [{"days": "Mon-Sat", "time": "4:10pm"}, {"days": "Sun", "time": "Closed"}], "id": "6713700001", "name": "USPS COLLECTION BOX - BLUE BOX", "address": {"city": "SEVERY", "state": "KS", "street": "115 W MAIN ST", "postcode": "67137"}}},
{"geometry": {"type": "Point", "coordinates": [-96.2285081143, 37.6209873245]}, "type": "Feature", "properties": {"collection_times": [{"days": "Mon-Fri", "time": "11:15am"}, {"days": "Sat", "time": "8:45am"}, {"days": "Sun", "time": "Closed"}], "id": "6713700002", "name": "USPS COLLECTION BOX - PO LOBBY", "address": {"city": "SEVERY", "state": "KS", "street": "115 W MAIN ST", "postcode": "67137"}}},
{"geometry": {"type": "Point", "coordinates": [-98.4201321661, 37.2474681496]}, "type": "Feature", "properties": {"collection_times": [{"days": "Mon-Sat", "time": "4:50pm"}, {"days": "Sun", "time": "Closed"}], "id": "6713800001", "name": "USPS COLLECTION BOX - BLUE BOX", "address": {"city": "SHARON", "state": "KS", "street": "108 S BROADWAY ST", "postcode": "67138"}}},
{"geometry": {"type": "Point", "coordinates": [-98.4201321661, 37.2474681496]}, "type": "Feature", "properties": {"collection_times": [{"days": "Mon-Fri", "time": "11:45am"}, {"days": "Sat", "time": "9:15am"}, {"days": "Sun", "time": "Closed"}], "id": "6713800002", "name": "USPS COLLECTION BOX - PO LOBBY", "address": {"city": "SHARON", "state": "KS", "street": "108 S BROADWAY ST", "postcode": "67138"}}},
{"geometry": {"type": "Point", "coordinates": [-97.4184978271, 37.0050870385]}, "type": "Feature", "properties": {"collection_times": [{"days": "Mon-Sat", "time": "4:55pm"}, {"days": "Sun", "time": "Closed"}], "id": "6714000001", "name": "USPS COLLECTION BOX - BLUE BOX", "address": {"city": "SOUTH HAVEN", "state": "KS", "street": "114 N MAIN ST", "postcode": "67140"}}},
{"geometry": {"type": "Point", "coordinates": [-97.4184978271, 37.0050870385]}, "type": "Feature", "properties": {"collection_times": [{"days": "Mon-Fri", "time": "12:30pm"}, {"days": "Sat", "time": "9:15am"}, {"days": "Sun", "time": "Closed"}], "id": "6714000003", "name": "USPS COLLECTION BOX - PO LOBBY", "address": {"city": "SOUTH HAVEN", "state": "KS", "street": "114 N MAIN ST", "postcode": "67140"}}},
{"geometry": {"type": "Point", "coordinates": [-98.1637364324, 37.4456557664]}, "type": "Feature", "properties": {"collection_times": [{"days": "Mon-Sat", "time": "5:20pm"}, {"days": "Sun", "time": "Closed"}], "id": "6714200001", "name": "USPS COLLECTION BOX - BLUE BOX", "address": {"city": "SPIVEY", "state": "KS", "street": "125 W STANLEY ST", "postcode": "67142"}}},
{"geometry": {"type": "Point", "coordinates": [-98.1637364324, 37.4456557664]}, "type": "Feature", "properties": {"collection_times": [{"days": "Mon-Fri", "time": "11:00am"}, {"days": "Sat", "time": "8:45am"}, {"days": "Sun", "time": "Closed"}], "id": "6714200002", "name": "USPS COLLECTION BOX - PO LOBBY", "address": {"city": "SPIVEY", "state": "KS", "street": "125 W STANLEY ST", "postcode": "67142"}}},
{"geometry": {"type": "Point", "coordinates": [-98.3801698511, 38.4847267593]}, "type": "Feature", "properties": {"collection_times": [{"days": "Mon-Fri", "time": "11:45am"}, {"days": "Sat", "time": "10:00am"}, {"days": "Sun", "time": "Closed"}], "id": "6714300001", "name": "USPS COLLECTION BOX - BLUE BOX", "address": {"city": "SUN CITY", "state": "KS", "street": "108 E MAIN ST", "postcode": "67143"}}},
{"geometry": {"type": "Point", "coordinates": [-98.9179311291, 37.3794396641]}, "type": "Feature", "properties": {"collection_times": [{"days": "Mon-Fri", "time": "10:15am"}, {"days": "Sat", "time": "10:00am"}, {"days": "Sun", "time": "Closed"}], "id": "6714300002", "name": "USPS COLLECTION BOX - PO LOBBY", "address": {"city": "SUN CITY", "state": "KS", "street": "108 E MAIN ST", "postcode": "67143"}}},
{"geometry": {"type": "Point", "coordinates": [-96.9993651882, 37.7960024086]}, "type": "Feature", "properties": {"collection_times": [{"days": "Mon-Sat", "time": "5:50pm"}, {"days": "Sun", "time": "Closed"}], "id": "6714400001", "name": "USPS COLLECTION BOX - BLUE BOX", "address": {"city": "TOWANDA", "state": "KS", "street": "550 MAIN ST", "postcode": "67144"}}},
{"geometry": {"type": "Point", "coordinates": [-96.9993651882, 37.7960024086]}, "type": "Feature", "properties": {"collection_times": [{"days": "Mon-Fri", "time": "3:15pm"}, {"days": "Sat", "time": "9:45am"}, {"days": "Sun", "time": "Closed"}], "id": "6714400002", "name": "USPS COLLECTION BOX - PO LOBBY", "address": {"city": "TOWANDA", "state": "KS", "street": "550 MAIN ST", "postcode": "67144"}}},
{"geometry": {"type": "Point", "coordinates": [-97.1170442058, 37.3873752259]}, "type": "Feature", "properties": {"collection_times": [{"days": "Mon-Sat", "time": "6:10pm"}, {"days": "Sun", "time": "Closed"}], "id": "6714600001", "name": "USPS COLLECTION BOX - BLUE BOX", "address": {"city": "UDALL", "state": "KS", "street": "115 E 1ST ST", "postcode": "67146"}}},
{"geometry": {"type": "Point", "coordinates": [-97.3703670299, 37.8322913675]}, "type": "Feature", "properties": {"collection_times": [{"days": "Mon-Sat", "time": "5:30pm"}, {"days": "Sun", "time": "Closed"}], "id": "6714700001", "name": "USPS COLLECTION BOX - BLUE BOX", "address": {"city": "VALLEY CENTER", "state": "KS", "street": "205 E MAIN ST", "postcode": "67147"}}},
{"geometry": {"type": "Point", "coordinates": [-97.3703670299, 37.8322913675]}, "type": "Feature", "properties": {"collection_times": [{"days": "Mon-Fri", "time": "4:45pm"}, {"days": "Sat", "time": "10:45am"}, {"days": "Sun", "time": "Closed"}], "id": "6714700010", "name": "USPS COLLECTION BOX - PO LOBBY", "address": {"city": "VALLEY CENTER", "state": "KS", "street": "205 E MAIN ST", "postcode": "67147"}}},
{"geometry": {"type": "Point", "coordinates": [-97.3720757242, 37.8431927911]}, "type": "Feature", "properties": {"collection_times": [{"days": "Mon-Sat", "time": "12:00pm"}, {"days": "Sun", "time": "Closed"}], "id": "6714700011", "name": "USPS COLLECTION BOX - BLUE BOX", "address": {"city": "VALLEY CENTER", "state": "KS", "street": "801 S MERIDIAN AVE", "postcode": "67147"}}},
{"geometry": {"type": "Point", "coordinates": [-97.6442551532, 37.4833090091]}, "type": "Feature", "properties": {"collection_times": [{"days": "Mon-Sat", "time": "5:15pm"}, {"days": "Sun", "time": "Closed"}], "id": "6714900001", "name": "USPS COLLECTION BOX - BLUE BOX", "address": {"city": "VIOLA", "state": "KS", "street": "205 S MAIN ST", "postcode": "67149"}}},
{"geometry": {"type": "Point", "coordinates": [-97.6442551532, 37.4833090091]}, "type": "Feature", "properties": {"collection_times": [{"days": "Mon-Fri", "time": "11:45am"}, {"days": "Sat", "time": "9:15am"}, {"days": "Sun", "time": "Closed"}], "id": "6714900002", "name": "USPS COLLECTION BOX - PO LOBBY", "address": {"city": "VIOLA", "state": "KS", "street": "205 S MAIN ST", "postcode": "67149"}}},
{"geometry": {"type": "Point", "coordinates": [-97.2581008887, 38.1175529732]}, "type": "Feature", "properties": {"collection_times": [{"days": "Mon-Sat", "time": "5:25pm"}, {"days": "Sun", "time": "Closed"}], "id": "6715100001", "name": "USPS COLLECTION BOX - BLUE BOX", "address": {"city": "WALTON", "state": "KS", "street": "301 S 2ND AVE", "postcode": "67151"}}},
{"geometry": {"type": "Point", "coordinates": [-97.2581008887, 38.1175529732]}, "type": "Feature", "properties": {"collection_times": [{"days": "Mon-Fri", "time": "4:45pm"}, {"days": "Sat", "time": "1:45pm"}, {"days": "Sun", "time": "Closed"}], "id": "6715100002", "name": "USPS COLLECTION BOX - PO LOBBY", "address": {"city": "WALTON", "state": "KS", "street": "301 S 2ND AVE", "postcode": "67151"}}},
{"geometry": {"type": "Point", "coordinates": [-97.3980604527, 37.2698200851]}, "type": "Feature", "properties": {"collection_times": [{"days": "Mon-Fri", "time": "3:30pm"}, {"days": "Sat-Sun", "time": "Closed"}], "id": "6715200001", "name": "USPS COLLECTION BOX - BLUE BOX", "address": {"city": "WELLINGTON", "state": "KS", "street": "501 N WASHINGTON AVE", "postcode": "67152"}}},
{"geometry": {"type": "Point", "coordinates": [-97.3991708291, 37.2658175478]}, "type": "Feature", "properties": {"collection_times": [{"days": "Mon-Sat", "time": "5:25pm"}, {"days": "Sun", "time": "Closed"}], "id": "6715200006", "name": "USPS COLLECTION BOX - BLUE BOX", "address": {"city": "WELLINGTON", "state": "KS", "street": "221 W HARVEY AVE", "postcode": "67152"}}},
{"geometry": {"type": "Point", "coordinates": [-97.411371183, 37.2673582837]}, "type": "Feature", "properties": {"collection_times": [{"days": "Mon-Sat", "time": "12:00pm"}, {"days": "Sun", "time": "Closed"}], "id": "6715200008", "name": "USPS COLLECTION BOX - BLUE BOX", "address": {"city": "WELLINGTON", "state": "KS", "street": "1111 W 8TH ST", "postcode": "67152"}}},
{"geometry": {"type": "Point", "coordinates": [-97.3991708291, 37.2658175478]}, "type": "Feature", "properties": {"collection_times": [{"days": "Mon-Sat", "time": "3:30pm"}, {"days": "Sun", "time": "Closed"}], "id": "6715200012", "name": "USPS COLLECTION BOX - PO LOBBY", "address": {"city": "WELLINGTON", "state": "KS", "street": "221 W HARVEY AVE", "postcode": "67152"}}},
{"geometry": {"type": "Point", "coordinates": [-97.1495371325, 37.9636215094]}, "type": "Feature", "properties": {"collection_times": [{"days": "Mon-Sat", "time": "4:45pm"}, {"days": "Sun", "time": "Closed"}], "id": "6715400001", "name": "USPS COLLECTION BOX - BLUE BOX", "address": {"city": "WHITEWATER", "state": "KS", "street": "117 S MAIN ST", "postcode": "67154"}}},
{"geometry": {"type": "Point", "coordinates": [-97.1495371325, 37.9636215094]}, "type": "Feature", "properties": {"collection_times": [{"days": "Mon-Fri", "time": "1:45pm"}, {"days": "Sat", "time": "9:45am"}, {"days": "Sun", "time": "Closed"}], "id": "6715400002", "name": "USPS COLLECTION BOX - PO LOBBY", "address": {"city": "WHITEWATER", "state": "KS", "street": "117 S MAIN ST", "postcode": "67154"}}},
{"geometry": {"type": "Point", "coordinates": [-99.2090085595, 37.3348656363]}, "type": "Feature", "properties": {"collection_times": [{"days": "Mon-Sat", "time": "3:30pm"}, {"days": "Sun", "time": "Closed"}], "id": "6715500001", "name": "USPS COLLECTION BOX - BLUE BOX", "address": {"city": "WILMORE", "state": "KS", "street": "102 S MAIN ST", "postcode": "67155"}}},
{"geometry": {"type": "Point", "coordinates": [-99.2090085595, 37.3348656363]}, "type": "Feature", "properties": {"collection_times": [{"days": "Mon-Fri", "time": "9:45am"}, {"days": "Sat", "time": "8:45am"}, {"days": "Sun", "time": "Closed"}], "id": "6715500002", "name": "USPS COLLECTION BOX - PO LOBBY", "address": {"city": "WILMORE", "state": "KS", "street": "102 S MAIN ST", "postcode": "67155"}}},
{"geometry": {"type": "Point", "coordinates": [-96.9972753191, 37.2411179758]}, "type": "Feature", "properties": {"collection_times": [{"days": "Mon-Fri", "time": "3:00pm"}, {"days": "Sat", "time": "2:00pm"}, {"days": "Sun", "time": "Closed"}], "id": "6715600002", "name": "USPS COLLECTION BOX - BLUE BOX", "address": {"city": "WINFIELD", "state": "KS", "street": "823 MAIN ST", "postcode": "67156"}}},
{"geometry": {"type": "Point", "coordinates": [-96.9745544012, 37.240929281]}, "type": "Feature", "properties": {"collection_times": [{"days": "Mon-Sat", "time": "12:00pm"}, {"days": "Sun", "time": "Closed"}], "id": "6715600003", "name": "USPS COLLECTION BOX - BLUE BOX", "address": {"city": "WINFIELD", "state": "KS", "street": "1906 E 9TH AVE", "postcode": "67156"}}},
{"geometry": {"type": "Point", "coordinates": [-96.9819508092, 37.2446070435]}, "type": "Feature", "properties": {"collection_times": [{"days": "Mon-Sat", "time": "12:00pm"}, {"days": "Sun", "time": "Closed"}], "id": "6715600004", "name": "USPS COLLECTION BOX - BLUE BOX", "address": {"city": "WINFIELD", "state": "KS", "street": "1301 E 5TH AVE", "postcode": "67156"}}},
{"geometry": {"type": "Point", "coordinates": [-96.9955314665, 37.2393439405]}, "type": "Feature", "properties": {"collection_times": [{"days": "Mon-Sat", "time": "5:20pm"}, {"days": "Sun", "time": "Closed"}], "id": "6715600006", "name": "USPS COLLECTION BOX - BLUE BOX", "address": {"city": "WINFIELD", "state": "KS", "street": "218 E 10TH AVE", "postcode": "67156"}}},
{"geometry": {"type": "Point", "coordinates": [-96.9955314665, 37.2393439405]}, "type": "Feature", "properties": {"collection_times": [{"days": "Mon-Fri", "time": "4:15pm"}, {"days": "Sat", "time": "3:30pm"}, {"days": "Sun", "time": "Closed"}], "id": "6715600008", "name": "USPS COLLECTION BOX - PO LOBBY", "address": {"city": "WINFIELD", "state": "KS", "street": "218 E 10TH AVE", "postcode": "67156"}}},
{"geometry": {"type": "Point", "coordinates": [-97.0266556144, 37.1689348071]}, "type": "Feature", "properties": {"collection_times": [{"days": "Mon-Sat", "time": "5:00pm"}, {"days": "Sun", "time": "Closed"}], "id": "6715600011", "name": "USPS COLLECTION BOX - BLUE BOX", "address": {"city": "WINFIELD", "state": "KS", "street": "22214 D ST", "postcode": "67156"}}},
{"geometry": {"type": "Point", "coordinates": [-98.2818236695, 37.4435186551]}, "type": "Feature", "properties": {"collection_times": [{"days": "Mon-Sat", "time": "5:10pm"}, {"days": "Sun", "time": "Closed"}], "id": "6715900001", "name": "USPS COLLECTION BOX - BLUE BOX", "address": {"city": "ZENDA", "state": "KS", "street": "210 N MAIN ST", "postcode": "67159"}}},
{"geometry": {"type": "Point", "coordinates": [-98.2818236695, 37.4435186551]}, "type": "Feature", "properties": {"collection_times": [{"days": "Mon-Sat", "time": "11:15am"}, {"days": "Sun", "time": "Closed"}], "id": "6715900002", "name": "USPS COLLECTION BOX - PO LOBBY", "address": {"city": "ZENDA", "state": "KS", "street": "210 N MAIN ST", "postcode": "67159"}}}
]}
