{"type": "FeatureCollection", "features": [
{"geometry": {"type": "Point", "coordinates": [-97.3355065716, 37.6870736683]}, "type": "Feature", "properties": {"collection_times": [{"days": "Mon-Fri", "time": "5:50pm"}, {"days": "Sat", "time": "5:05pm"}, {"days": "Sun", "time": "Closed"}], "id": "6720200000", "name": "USPS COLLECTION BOX - EXPRESS", "address": {"city": "WICHITA", "state": "KS", "street": "330 W 2ND ST N", "postcode": "67202"}}},
{"geometry": {"type": "Point", "coordinates": [-97.3413561443, 37.6897554588]}, "type": "Feature", "properties": {"collection_times": [{"days": "Mon-Fri", "time": "5:55pm"}, {"days": "Sat", "time": "5:05pm"}, {"days": "Sun", "time": "Closed"}], "id": "6720200001", "name": "USPS COLLECTION BOX - BLUE BOX", "address": {"city": "WICHITA", "state": "KS", "street": "330 W 2ND ST N", "postcode": "67202"}}},
{"geometry": {"type": "Point", "coordinates": [-97.3395414852, 37.6894526213]}, "type": "Feature", "properties": {"collection_times": [{"days": "Mon-Fri", "time": "4:00pm"}, {"days": "Sat-Sun", "time": "Closed"}], "id": "6720200004", "name": "USPS COLLECTION BOX - BLUE BOX", "address": {"city": "WICHITA", "state": "KS", "street": "250 N WATER ST", "postcode": "67202"}}},
{"geometry": {"type": "Point", "coordinates": [-97.3343487463, 37.6863524632]}, "type": "Feature", "properties": {"collection_times": [{"days": "Mon-Fri", "time": "5:00pm"}, {"days": "Sat-Sun", "time": "Closed"}], "id": "6720200010", "name": "USPS COLLECTION BOX - BLUE BOX", "address": {"city": "WICHITA", "state": "KS", "street": "100 N BROADWAY ST", "postcode": "67202"}}},
{"geometry": {"type": "Point", "coordinates": [-97.3343045259, 37.6928985808]}, "type": "Feature", "properties": {"collection_times": [{"days": "Mon-Fri", "time": "5:00pm"}, {"days": "Sat-Sun", "time": "Closed"}], "id": "6720200013", "name": "USPS COLLECTION BOX - BLUE BOX", "address": {"city": "WICHITA", "state": "KS", "street": "440 N TOPEKA ST", "postcode": "67202"}}},
{"geometry": {"type": "Point", "coordinates": [-97.3368857423, 37.6901482012]}, "type": "Feature", "properties": {"collection_times": [{"days": "Mon-Fri", "time": "5:00pm"}, {"days": "Sat-Sun", "time": "Closed"}], "id": "6720200029", "name": "USPS COLLECTION BOX - BLUE BOX", "address": {"city": "WICHITA", "state": "KS", "street": "309 S MARKET ST", "postcode": "67202"}}},
{"geometry": {"type": "Point", "coordinates": [-97.3381017, 37.6861724393]}, "type": "Feature", "properties": {"collection_times": [{"days": "Mon-Fri", "time": "5:00pm"}, {"days": "Sat-Sun", "time": "Closed"}], "id": "6720200041", "name": "USPS COLLECTION BOX - BLUE BOX", "address": {"city": "WICHITA", "state": "KS", "street": "106 N MAIN ST", "postcode": "67202"}}},
{"geometry": {"type": "Point", "coordinates": [-97.3355065716, 37.6870736683]}, "type": "Feature", "properties": {"collection_times": [{"days": "Mon-Fri", "time": "5:00pm"}, {"days": "Sat-Sun", "time": "Closed"}], "id": "6720200046", "name": "USPS COLLECTION BOX - BLUE BOX", "address": {"city": "WICHITA", "state": "KS", "street": "301 N MAIN ST", "postcode": "67202"}}},
{"geometry": {"type": "Point", "coordinates": [-97.3329571356, 37.6886695025]}, "type": "Feature", "properties": {"collection_times": [{"days": "Mon-Fri", "time": "4:55pm"}, {"days": "Sat-Sun", "time": "Closed"}], "id": "6720200047", "name": "USPS COLLECTION BOX - BLUE BOX", "address": {"city": "WICHITA", "state": "KS", "street": "223 N EMPORIA ST", "postcode": "67202"}}},
{"geometry": {"type": "Point", "coordinates": [-97.3339673826, 37.6860386018]}, "type": "Feature", "properties": {"collection_times": [{"days": "Mon-Sat", "time": "10:00am"}, {"days": "Sun", "time": "Closed"}], "id": "6720200049", "name": "USPS COLLECTION BOX - BLUE BOX", "address": {"city": "WICHITA", "state": "KS", "street": "401 E DOUGLAS AVE", "postcode": "67202"}}},
{"geometry": {"type": "Point", "coordinates": [-97.3414129263, 37.6859072933]}, "type": "Feature", "properties": {"collection_times": [{"days": "Mon-Fri", "time": "4:55pm"}, {"days": "Sat-Sun", "time": "Closed"}], "id": "6720200050", "name": "USPS COLLECTION BOX - BLUE BOX", "address": {"city": "WICHITA", "state": "KS", "street": "350 W DOUGLAS AVE", "postcode": "67202"}}},
{"geometry": {"type": "Point", "coordinates": [-97.34091, 37.68599]}, "type": "Feature", "properties": {"collection_times": [{"days": "Mon-Fri", "time": "4:55pm"}, {"days": "Sat-Sun", "time": "Closed"}], "id": "6720200052", "name": "USPS COLLECTION BOX - BLUE BOX", "address": {"city": "WICHITA", "state": "KS", "street": "300 W DOUGLAS AVE", "postcode": "67202"}}},
{"geometry": {"type": "Point", "coordinates": [-97.3356101751, 37.688940591]}, "type": "Feature", "properties": {"collection_times": [{"days": "Mon-Fri", "time": "4:20pm"}, {"days": "Sat-Sun", "time": "Closed"}], "id": "6720200064", "name": "USPS COLLECTION BOX - BLUE BOX", "address": {"city": "WICHITA", "state": "KS", "street": "255 N BROADWAY AVE", "postcode": "67202"}}},
{"geometry": {"type": "Point", "coordinates": [-97.3356053646, 37.6857696112]}, "type": "Feature", "properties": {"collection_times": [{"days": "Mon-Fri", "time": "4:20pm"}, {"days": "Sat-Sun", "time": "Closed"}], "id": "6720200067", "name": "USPS COLLECTION BOX - BLUE BOX", "address": {"city": "WICHITA", "state": "KS", "street": "105 S BROADWAY AVE", "postcode": "67202"}}},
{"geometry": {"type": "Point", "coordinates": [-97.3365119273, 37.6879301531]}, "type": "Feature", "properties": {"collection_times": [{"days": "Mon-Fri", "time": "4:55pm"}, {"days": "Sat-Sun", "time": "Closed"}], "id": "6720200070", "name": "USPS COLLECTION BOX - BLUE BOX", "address": {"city": "WICHITA", "state": "KS", "street": "200 E 1ST ST N", "postcode": "67202"}}},
{"geometry": {"type": "Point", "coordinates": [-97.3395213749, 37.6881986848]}, "type": "Feature", "properties": {"collection_times": [{"days": "Mon-Fri", "time": "3:20pm"}, {"days": "Sat-Sun", "time": "Closed"}], "id": "6720200073", "name": "USPS COLLECTION BOX - BLUE BOX", "address": {"city": "WICHITA", "state": "KS", "street": "201 N WATER ST", "postcode": "67202"}}},
{"geometry": {"type": "Point", "coordinates": [-97.342026882, 37.6893355084]}, "type": "Feature", "properties": {"collection_times": [{"days": "Mon-Fri", "time": "3:50pm"}, {"days": "Sat-Sun", "time": "Closed"}], "id": "6720200086", "name": "USPS COLLECTION BOX - BLUE BOX", "address": {"city": "WICHITA", "state": "KS", "street": "245 N WACO ST", "postcode": "67202"}}},
{"geometry": {"type": "Point", "coordinates": [-97.3381704358, 37.6857038244]}, "type": "Feature", "properties": {"collection_times": [{"days": "Mon-Fri", "time": "4:15pm"}, {"days": "Sat-Sun", "time": "Closed"}], "id": "6720200090", "name": "USPS COLLECTION BOX - BLUE BOX", "address": {"city": "WICHITA", "state": "KS", "street": "100 S MAIN ST", "postcode": "67202"}}},
{"geometry": {"type": "Point", "coordinates": [-97.3368455217, 37.6851572973]}, "type": "Feature", "properties": {"collection_times": [{"days": "Mon-Fri", "time": "4:05pm"}, {"days": "Sat-Sun", "time": "Closed"}], "id": "6720200104", "name": "USPS COLLECTION BOX - BLUE BOX", "address": {"city": "WICHITA", "state": "KS", "street": "130 S MARKET ST", "postcode": "67202"}}},
{"geometry": {"type": "Point", "coordinates": [-97.3413561443, 37.6897554588]}, "type": "Feature", "properties": {"collection_times": [{"days": "Mon-Fri", "time": "5:35pm"}, {"days": "Sat", "time": "4:30pm"}, {"days": "Sun", "time": "Closed"}], "id": "6720200108", "name": "USPS COLLECTION BOX - PO LOBBY", "address": {"city": "WICHITA", "state": "KS", "street": "330 W 2ND ST N", "postcode": "67202"}}},
{"geometry": {"type": "Point", "coordinates": [-97.3355803544, 37.6847313772]}, "type": "Feature", "properties": {"collection_times": [{"days": "Mon-Sat", "time": "10:00am"}, {"days": "Sun", "time": "Closed"}], "id": "6720200110", "name": "USPS COLLECTION BOX - BLUE BOX", "address": {"city": "WICHITA", "state": "KS", "street": "219 S BROADWAY AVE", "postcode": "67202"}}},
{"geometry": {"type": "Point", "coordinates": [-97.3282776575, 37.6901908399]}, "type": "Feature", "properties": {"collection_times": [{"days": "Mon-Fri", "time": "5:00pm"}, {"days": "Sat-Sun", "time": "Closed"}], "id": "6720200114", "name": "USPS COLLECTION BOX - BLUE BOX", "address": {"city": "WICHITA", "state": "KS", "street": "319 N ROCK ISLAND ST", "postcode": "67202"}}},
{"geometry": {"type": "Point", "coordinates": [-97.3413561443, 37.6897554588]}, "type": "Feature", "properties": {"collection_times": [{"days": "Mon-Fri", "time": "5:35pm"}, {"days": "Sat", "time": "4:30pm"}, {"days": "Sun", "time": "Closed"}], "id": "6720200116", "name": "USPS COLLECTION BOX - APC", "address": {"city": "WICHITA", "state": "KS", "street": "330 W 2ND ST N", "postcode": "67202"}}},
{"geometry": {"type": "Point", "coordinates": [-97.3355065716, 37.6870736683]}, "type": "Feature", "properties": {"collection_times": [{"days": "Mon-Fri", "time": "5:00pm"}, {"days": "Sat-Sun", "time": "Closed"}], "id": "6720200117", "name": "USPS COLLECTION BOX - BLUE BOX", "address": {"city": "WICHITA", "state": "KS", "street": "301 N MAIN ST", "postcode": "67202"}}},
{"geometry": {"type": "Point", "coordinates": [-97.3355065716, 37.6870736683]}, "type": "Feature", "properties": {"collection_times": [{"days": "Mon-Fri", "time": "5:00pm"}, {"days": "Sat-Sun", "time": "Closed"}], "id": "6720200118", "name": "USPS COLLECTION BOX - BLUE BOX", "address": {"city": "WICHITA", "state": "KS", "street": "301 N MAIN ST", "postcode": "67202"}}},
{"geometry": {"type": "Point", "coordinates": [-97.389477732, 37.6942270437]}, "type": "Feature", "properties": {"collection_times": [{"days": "Mon-Fri", "time": "4:00pm"}, {"days": "Sat", "time": "12:40pm"}, {"days": "Sun", "time": "Closed"}], "id": "6720300002", "name": "USPS COLLECTION BOX - BLUE BOX", "address": {"city": "WICHITA", "state": "KS", "street": "640 N WEST ST", "postcode": "67203"}}},
{"geometry": {"type": "Point", "coordinates": [-97.3896634566, 37.7073212165]}, "type": "Feature", "properties": {"collection_times": [{"days": "Mon-Fri", "time": "1:05pm"}, {"days": "Sat-Sun", "time": "Closed"}], "id": "6720300005", "name": "USPS COLLECTION BOX - BLUE BOX", "address": {"city": "WICHITA", "state": "KS", "street": "1315 N WEST ST", "postcode": "67203"}}},
{"geometry": {"type": "Point", "coordinates": [-97.3898406543, 37.7210839549]}, "type": "Feature", "properties": {"collection_times": [{"days": "Mon-Fri", "time": "12:50pm"}, {"days": "Sat-Sun", "time": "Closed"}], "id": "6720300006", "name": "USPS COLLECTION BOX - BLUE BOX", "address": {"city": "WICHITA", "state": "KS", "street": "2075 N WEST ST", "postcode": "67203"}}},
{"geometry": {"type": "Point", "coordinates": [-97.3830093124, 37.6839648747]}, "type": "Feature", "properties": {"collection_times": [{"days": "Mon-Fri", "time": "3:55pm"}, {"days": "Sat-Sun", "time": "Closed"}], "id": "6720300017", "name": "USPS COLLECTION BOX - BLUE BOX", "address": {"city": "WICHITA", "state": "KS", "street": "3330 W DOUGLAS AVE", "postcode": "67203"}}},
{"geometry": {"type": "Point", "coordinates": [-97.372814572, 37.6948977814]}, "type": "Feature", "properties": {"collection_times": [{"days": "Mon-Fri", "time": "1:30pm"}, {"days": "Sat", "time": "11:40am"}, {"days": "Sun", "time": "Closed"}], "id": "6720300019", "name": "USPS COLLECTION BOX - BLUE BOX", "address": {"city": "WICHITA", "state": "KS", "street": "2622 W CENTRAL AVE", "postcode": "67203"}}},
{"geometry": {"type": "Point", "coordinates": [-97.3630527946, 37.7191803801]}, "type": "Feature", "properties": {"collection_times": [{"days": "Mon-Fri", "time": "5:00pm"}, {"days": "Sat-Sun", "time": "Closed"}], "id": "6720300022", "name": "USPS COLLECTION BOX - BLUE BOX", "address": {"city": "WICHITA", "state": "KS", "street": "1999 N AMIDON AVE", "postcode": "67203"}}},
{"geometry": {"type": "Point", "coordinates": [-97.3600795976, 37.7226185571]}, "type": "Feature", "properties": {"collection_times": [{"days": "Mon-Fri", "time": "12:55pm"}, {"days": "Sat", "time": "11:25am"}, {"days": "Sun", "time": "Closed"}], "id": "6720300025", "name": "USPS COLLECTION BOX - BLUE BOX", "address": {"city": "WICHITA", "state": "KS", "street": "1801 W 21ST ST N", "postcode": "67203"}}},
{"geometry": {"type": "Point", "coordinates": [-97.3884485577, 37.7087869027]}, "type": "Feature", "properties": {"collection_times": [{"days": "Mon-Fri", "time": "5:00pm"}, {"days": "Sat", "time": "3:15pm"}, {"days": "Sun", "time": "Closed"}], "id": "6720300027", "name": "USPS COLLECTION BOX - BLUE BOX", "address": {"city": "WICHITA", "state": "KS", "street": "3932 W 13TH ST N", "postcode": "67203"}}},
{"geometry": {"type": "Point", "coordinates": [-97.3714073773, 37.7087313208]}, "type": "Feature", "properties": {"collection_times": [{"days": "Mon-Fri", "time": "4:05pm"}, {"days": "Sat", "time": "3:30pm"}, {"days": "Sun", "time": "Closed"}], "id": "6720300030", "name": "USPS COLLECTION BOX - BLUE BOX", "address": {"city": "WICHITA", "state": "KS", "street": "2499 W 13TH ST N", "postcode": "67203"}}},
{"geometry": {"type": "Point", "coordinates": [-97.3447760786, 37.7252749847]}, "type": "Feature", "properties": {"collection_times": [{"days": "Mon-Sat", "time": "5:00pm"}, {"days": "Sun", "time": "Closed"}], "id": "6720400001", "name": "USPS COLLECTION BOX - BLUE BOX", "address": {"city": "WICHITA", "state": "KS", "street": "2325 N ARKANSAS AVE", "postcode": "67204"}}},
{"geometry": {"type": "Point", "coordinates": [-97.3718954129, 37.7818488142]}, "type": "Feature", "properties": {"collection_times": [{"days": "Mon-Fri", "time": "5:00pm"}, {"days": "Sat", "time": "1:40pm"}, {"days": "Sun", "time": "Closed"}], "id": "6720400004", "name": "USPS COLLECTION BOX - BLUE BOX", "address": {"city": "WICHITA", "state": "KS", "street": "5475 N MERIDIAN AVE", "postcode": "67204"}}},
{"geometry": {"type": "Point", "coordinates": [-97.363105014, 37.7238154034]}, "type": "Feature", "properties": {"collection_times": [{"days": "Mon-Fri", "time": "5:00pm"}, {"days": "Sat", "time": "4:40pm"}, {"days": "Sun", "time": "Closed"}], "id": "6720400005", "name": "USPS COLLECTION BOX - BLUE BOX", "address": {"city": "WICHITA", "state": "KS", "street": "2323 N AMIDON AVE", "postcode": "67204"}}},
{"geometry": {"type": "Point", "coordinates": [-97.344910936, 37.7515425885]}, "type": "Feature", "properties": {"collection_times": [{"days": "Mon-Fri", "time": "5:00pm"}, {"days": "Sat-Sun", "time": "Closed"}], "id": "6720400008", "name": "USPS COLLECTION BOX - BLUE BOX", "address": {"city": "WICHITA", "state": "KS", "street": "3733 N ARKANSAS AVE", "postcode": "67204"}}},
{"geometry": {"type": "Point", "coordinates": [-97.3447760786, 37.7252749847]}, "type": "Feature", "properties": {"collection_times": [{"days": "Mon-Fri", "time": "4:35pm"}, {"days": "Sat", "time": "3:15pm"}, {"days": "Sun", "time": "Closed"}], "id": "6720400009", "name": "USPS COLLECTION BOX - PO LOBBY", "address": {"city": "WICHITA", "state": "KS", "street": "2325 N ARKANSAS AVE", "postcode": "67204"}}},
{"geometry": {"type": "Point", "coordinates": [-97.4306281426, 37.7231361949]}, "type": "Feature", "properties": {"collection_times": [{"days": "Mon-Fri", "time": "4:40pm"}, {"days": "Sat-Sun", "time": "Closed"}], "id": "6720500001", "name": "USPS COLLECTION BOX - BLUE BOX", "address": {"city": "WICHITA", "state": "KS", "street": "7570 W 21ST ST N", "postcode": "67205"}}},
{"geometry": {"type": "Point", "coordinates": [-97.461021186, 37.72276789]}, "type": "Feature", "properties": {"collection_times": [{"days": "Mon-Fri", "time": "5:00pm"}, {"days": "Sat", "time": "4:30pm"}, {"days": "Sun", "time": "Closed"}], "id": "6720500003", "name": "USPS COLLECTION BOX - BLUE BOX", "address": {"city": "WICHITA", "state": "KS", "street": "10222 W 21ST ST N", "postcode": "67205"}}},
{"geometry": {"type": "Point", "coordinates": [-97.4273205893, 37.7231977088]}, "type": "Feature", "properties": {"collection_times": [{"days": "Mon-Fri", "time": "4:40pm"}, {"days": "Sat-Sun", "time": "Closed"}], "id": "6720500004", "name": "USPS COLLECTION BOX - BLUE BOX", "address": {"city": "WICHITA", "state": "KS", "street": "7340 W 21ST ST N", "postcode": "67205"}}},
{"geometry": {"type": "Point", "coordinates": [-97.461021186, 37.72276789]}, "type": "Feature", "properties": {"collection_times": [{"days": "Mon-Fri", "time": "5:00pm"}, {"days": "Sat", "time": "4:30pm"}, {"days": "Sun", "time": "Closed"}], "id": "6720500007", "name": "USPS COLLECTION BOX - BLUE BOX", "address": {"city": "WICHITA", "state": "KS", "street": "10222 W 21ST ST N", "postcode": "67205"}}},
{"geometry": {"type": "Point", "coordinates": [-97.4453805697, 37.7230132216]}, "type": "Feature", "properties": {"collection_times": [{"days": "Mon-Fri", "time": "5:00pm"}, {"days": "Sat", "time": "2:15pm"}, {"days": "Sun", "time": "Closed"}], "id": "6720500009", "name": "USPS COLLECTION BOX - BLUE BOX", "address": {"city": "WICHITA", "state": "KS", "street": "8821 W 21ST ST N", "postcode": "67205"}}},
{"geometry": {"type": "Point", "coordinates": [-97.2446010089, 37.7213661843]}, "type": "Feature", "properties": {"collection_times": [{"days": "Mon-Fri", "time": "5:00pm"}, {"days": "Sat", "time": "2:35pm"}, {"days": "Sun", "time": "Closed"}], "id": "6720600013", "name": "USPS COLLECTION BOX - BLUE BOX", "address": {"city": "WICHITA", "state": "KS", "street": "2101 N ROCK RD", "postcode": "67206"}}},
{"geometry": {"type": "Point", "coordinates": [-97.2063272932, 37.6939123766]}, "type": "Feature", "properties": {"collection_times": [{"days": "Mon-Fri", "time": "5:00pm"}, {"days": "Sat-Sun", "time": "Closed"}], "id": "6720600014", "name": "USPS COLLECTION BOX - BLUE BOX", "address": {"city": "WICHITA", "state": "KS", "street": "11333 E CENTRAL AVE", "postcode": "67206"}}},
{"geometry": {"type": "Point", "coordinates": [-97.2606972702, 37.6938201058]}, "type": "Feature", "properties": {"collection_times": [{"days": "Mon-Fri", "time": "5:00pm"}, {"days": "Sat", "time": "2:10pm"}, {"days": "Sun", "time": "Closed"}], "id": "6720600016", "name": "USPS COLLECTION BOX - BLUE BOX", "address": {"city": "WICHITA", "state": "KS", "street": "6420 E CENTRAL AVE", "postcode": "67206"}}},
{"geometry": {"type": "Point", "coordinates": [-97.2606972702, 37.6938201058]}, "type": "Feature", "properties": {"collection_times": [{"days": "Mon-Fri", "time": "5:00pm"}, {"days": "Sat", "time": "2:10pm"}, {"days": "Sun", "time": "Closed"}], "id": "6720600017", "name": "USPS COLLECTION BOX - BLUE BOX", "address": {"city": "WICHITA", "state": "KS", "street": "6420 E CENTRAL AVE", "postcode": "67206"}}},
{"geometry": {"type": "Point", "coordinates": [-97.2446291386, 37.7169256603]}, "type": "Feature", "properties": {"collection_times": [{"days": "Mon-Fri", "time": "5:00pm"}, {"days": "Sat-Sun", "time": "Closed"}], "id": "6720600022", "name": "USPS COLLECTION BOX - BLUE BOX", "address": {"city": "WICHITA", "state": "KS", "street": "1861 N ROCK RD", "postcode": "67206"}}},
{"geometry": {"type": "Point", "coordinates": [-97.2445037449, 37.6897519099]}, "type": "Feature", "properties": {"collection_times": [{"days": "Mon-Fri", "time": "5:00pm"}, {"days": "Sat-Sun", "time": "Closed"}], "id": "6720600027", "name": "USPS COLLECTION BOX - BLUE BOX", "address": {"city": "WICHITA", "state": "KS", "street": "260 N ROCK RD", "postcode": "67206"}}},
{"geometry": {"type": "Point", "coordinates": [-97.2391212816, 37.7229989717]}, "type": "Feature", "properties": {"collection_times": [{"days": "Mon-Fri", "time": "5:00pm"}, {"days": "Sat-Sun", "time": "Closed"}], "id": "6720600030", "name": "USPS COLLECTION BOX - BLUE BOX", "address": {"city": "WICHITA", "state": "KS", "street": "8301 E 21ST ST N", "postcode": "67206"}}},
{"geometry": {"type": "Point", "coordinates": [-97.2465822038, 37.6938236547]}, "type": "Feature", "properties": {"collection_times": [{"days": "Mon-Fri", "time": "5:00pm"}, {"days": "Sat", "time": "2:05pm"}, {"days": "Sun", "time": "Closed"}], "id": "6720600032", "name": "USPS COLLECTION BOX - BLUE BOX", "address": {"city": "WICHITA", "state": "KS", "street": "7707 E CENTRAL AVE", "postcode": "67206"}}},
{"geometry": {"type": "Point", "coordinates": [-97.2391212816, 37.7229989717]}, "type": "Feature", "properties": {"collection_times": [{"days": "Mon-Fri", "time": "5:00pm"}, {"days": "Sat-Sun", "time": "Closed"}], "id": "6720600033", "name": "USPS COLLECTION BOX - BLUE BOX", "address": {"city": "WICHITA", "state": "KS", "street": "8301 E 21ST ST N", "postcode": "67206"}}},
{"geometry": {"type": "Point", "coordinates": [-97.2434816684, 37.6938354843]}, "type": "Feature", "properties": {"collection_times": [{"days": "Mon-Fri", "time": "5:00pm"}, {"days": "Sat-Sun", "time": "Closed"}], "id": "6720600034", "name": "USPS COLLECTION BOX - BLUE BOX", "address": {"city": "WICHITA", "state": "KS", "street": "8020 E CENTRAL AVE", "postcode": "67206"}}},
{"geometry": {"type": "Point", "coordinates": [-97.2446374193, 37.7058271393]}, "type": "Feature", "properties": {"collection_times": [{"days": "Mon-Fri", "time": "5:00pm"}, {"days": "Sat-Sun", "time": "Closed"}], "id": "6720600035", "name": "USPS COLLECTION BOX - BLUE BOX", "address": {"city": "WICHITA", "state": "KS", "street": "1223 N ROCK RD", "postcode": "67206"}}},
{"geometry": {"type": "Point", "coordinates": [-97.2212811048, 37.7125428432]}, "type": "Feature", "properties": {"collection_times": [{"days": "Mon-Fri", "time": "5:00pm"}, {"days": "Sat-Sun", "time": "Closed"}], "id": "6720600037", "name": "USPS COLLECTION BOX - BLUE BOX", "address": {"city": "WICHITA", "state": "KS", "street": "1625 N WATERFRONT PKWY", "postcode": "67206"}}},
{"geometry": {"type": "Point", "coordinates": [-97.2288437341, 37.6819029772]}, "type": "Feature", "properties": {"collection_times": [{"days": "Mon-Sat", "time": "5:40pm"}, {"days": "Sun", "time": "Closed"}], "id": "6720700002", "name": "USPS COLLECTION BOX - BLUE BOX", "address": {"city": "WICHITA", "state": "KS", "street": "9350 E CORPORATE HILLS DR", "postcode": "67207"}}},
{"geometry": {"type": "Point", "coordinates": [-97.2445138767, 37.6636660594]}, "type": "Feature", "properties": {"collection_times": [{"days": "Mon-Sat", "time": "12:00pm"}, {"days": "Sun", "time": "Closed"}], "id": "6720700007", "name": "USPS COLLECTION BOX - BLUE BOX", "address": {"city": "WICHITA", "state": "KS", "street": "1645 S ROCK RD", "postcode": "67207"}}},
{"geometry": {"type": "Point", "coordinates": [-97.2479118156, 37.6798349685]}, "type": "Feature", "properties": {"collection_times": [{"days": "Mon-Sat", "time": "1:00pm"}, {"days": "Sun", "time": "Closed"}], "id": "6720700015", "name": "USPS COLLECTION BOX - BLUE BOX", "address": {"city": "WICHITA", "state": "KS", "street": "7700 E KELLOGG DR", "postcode": "67207"}}},
{"geometry": {"type": "Point", "coordinates": [-97.2273248148, 37.6646554355]}, "type": "Feature", "properties": {"collection_times": [{"days": "Mon-Fri", "time": "5:00pm"}, {"days": "Sat", "time": "4:00pm"}, {"days": "Sun", "time": "Closed"}], "id": "6720700039", "name": "USPS COLLECTION BOX - BLUE BOX", "address": {"city": "WICHITA", "state": "KS", "street": "9450 E HARRY ST", "postcode": "67207"}}},
{"geometry": {"type": "Point", "coordinates": [-97.2288437341, 37.6819029772]}, "type": "Feature", "properties": {"collection_times": [{"days": "Mon-Fri", "time": "5:30pm"}, {"days": "Sat", "time": "5:40pm"}, {"days": "Sun", "time": "Closed"}], "id": "6720700041", "name": "USPS COLLECTION BOX - PO LOBBY", "address": {"city": "WICHITA", "state": "KS", "street": "9350 E CORPORATE HILLS DR", "postcode": "67207"}}},
{"geometry": {"type": "Point", "coordinates": [-97.2288437341, 37.6819029772]}, "type": "Feature", "properties": {"collection_times": [{"days": "Mon-Fri", "time": "5:30pm"}, {"days": "Sat", "time": "5:40pm"}, {"days": "Sun", "time": "Closed"}], "id": "6720700042", "name": "USPS COLLECTION BOX - PO LOBBY", "address": {"city": "WICHITA", "state": "KS", "street": "9350 E CORPORATE HILLS DR", "postcode": "67207"}}},
{"geometry": {"type": "Point", "coordinates": [-97.2528850092, 37.6851572973]}, "type": "Feature", "properties": {"collection_times": [{"days": "Mon-Fri", "time": "5:00pm"}, {"days": "Sat-Sun", "time": "Closed"}], "id": "6720700043", "name": "USPS COLLECTION BOX - BLUE BOX", "address": {"city": "WICHITA", "state": "KS", "street": "121 S WHITTIER ST", "postcode": "67207"}}},
{"geometry": {"type": "Point", "coordinates": [-97.2046013561, 37.6789940811]}, "type": "Feature", "properties": {"collection_times": [{"days": "Mon-Fri", "time": "4:55pm"}, {"days": "Sat-Sun", "time": "Closed"}], "id": "6720700045", "name": "USPS COLLECTION BOX - BLUE BOX", "address": {"city": "WICHITA", "state": "KS", "street": "11411 E KELLOGG DR", "postcode": "67207"}}},
{"geometry": {"type": "Point", "coordinates": [-97.2325203706, 37.6846852967]}, "type": "Feature", "properties": {"collection_times": [{"days": "Mon-Fri", "time": "4:40pm"}, {"days": "Sat-Sun", "time": "Closed"}], "id": "6720700046", "name": "USPS COLLECTION BOX - BLUE BOX", "address": {"city": "WICHITA", "state": "KS", "street": "9111 E DOUGLAS AVE", "postcode": "67207"}}},
{"geometry": {"type": "Point", "coordinates": [-97.2265894985, 37.6672874473]}, "type": "Feature", "properties": {"collection_times": [{"days": "Mon-Fri", "time": "5:30pm"}, {"days": "Sat", "time": "5:40pm"}, {"days": "Sun", "time": "Closed"}], "id": "6720700047", "name": "USPS COLLECTION BOX - APC", "address": {"city": "WICHITA", "state": "KS", "street": "9350 E CORPORATE HILLS DR", "postcode": "67207"}}},
{"geometry": {"type": "Point", "coordinates": [-97.2203474544, 37.7085020623]}, "type": "Feature", "properties": {"collection_times": [{"days": "Mon-Fri", "time": "5:00pm"}, {"days": "Sat-Sun", "time": "Closed"}], "id": "6720700048", "name": "USPS COLLECTION BOX - BLUE BOX", "address": {"city": "WICHITA", "state": "KS", "street": "10096 E 13TH ST N", "postcode": "67207"}}},
{"geometry": {"type": "Point", "coordinates": [-98.3801698511, 38.4847267593]}, "type": "Feature", "properties": {"collection_times": [{"days": "Mon-Fri", "time": "5:00pm"}, {"days": "Sat", "time": "4:00pm"}, {"days": "Sun", "time": "Closed"}], "id": "6720700050", "name": "USPS COLLECTION BOX - BLUE BOX", "address": {"city": "WICHITA", "state": "KS", "street": "9450 E HARRY ST", "postcode": "67207"}}},
{"geometry": {"type": "Point", "coordinates": [-97.2783784393, 37.703432614]}, "type": "Feature", "properties": {"collection_times": [{"days": "Mon-Fri", "time": "5:25pm"}, {"days": "Sat", "time": "5:30pm"}, {"days": "Sun", "time": "Closed"}], "id": "6720800001", "name": "USPS COLLECTION BOX - BLUE BOX", "address": {"city": "WICHITA", "state": "KS", "street": "1314 N OLIVER AVE", "postcode": "67208"}}},
{"geometry": {"type": "Point", "coordinates": [-97.296743772, 37.716206205]}, "type": "Feature", "properties": {"collection_times": [{"days": "Mon-Fri", "time": "4:05pm"}, {"days": "Sat", "time": "1:00pm"}, {"days": "Sun", "time": "Closed"}], "id": "6720800006", "name": "USPS COLLECTION BOX - BLUE BOX", "address": {"city": "WICHITA", "state": "KS", "street": "1845 FAIRMOUNT ST", "postcode": "67208"}}},
{"geometry": {"type": "Point", "coordinates": [-97.2621771519, 37.6927601746]}, "type": "Feature", "properties": {"collection_times": [{"days": "Mon-Fri", "time": "5:00pm"}, {"days": "Sat-Sun", "time": "Closed"}], "id": "6720800012", "name": "USPS COLLECTION BOX - BLUE BOX", "address": {"city": "WICHITA", "state": "KS", "street": "400 N WOODLAWN ST", "postcode": "67208"}}},
{"geometry": {"type": "Point", "coordinates": [-97.262164695, 37.708365378]}, "type": "Feature", "properties": {"collection_times": [{"days": "Mon-Fri", "time": "5:00pm"}, {"days": "Sat", "time": "4:10pm"}, {"days": "Sun", "time": "Closed"}], "id": "6720800036", "name": "USPS COLLECTION BOX - BLUE BOX", "address": {"city": "WICHITA", "state": "KS", "street": "6209 E 13TH ST N", "postcode": "67208"}}},
{"geometry": {"type": "Point", "coordinates": [-97.2783784393, 37.703432614]}, "type": "Feature", "properties": {"collection_times": [{"days": "Mon-Fri", "time": "5:20pm"}, {"days": "Sat", "time": "5:15pm"}, {"days": "Sun", "time": "Closed"}], "id": "6720800039", "name": "USPS COLLECTION BOX - PO LOBBY", "address": {"city": "WICHITA", "state": "KS", "street": "1314 N OLIVER AVE", "postcode": "67208"}}},
{"geometry": {"type": "Point", "coordinates": [-97.2783784393, 37.703432614]}, "type": "Feature", "properties": {"collection_times": [{"days": "Mon-Fri", "time": "5:20pm"}, {"days": "Sat", "time": "5:15pm"}, {"days": "Sun", "time": "Closed"}], "id": "6720800040", "name": "USPS COLLECTION BOX - PO LOBBY", "address": {"city": "WICHITA", "state": "KS", "street": "1314 N OLIVER AVE", "postcode": "67208"}}},
{"geometry": {"type": "Point", "coordinates": [-97.2622649341, 37.7216126147]}, "type": "Feature", "properties": {"collection_times": [{"days": "Mon-Fri", "time": "5:00pm"}, {"days": "Sat", "time": "2:25pm"}, {"days": "Sun", "time": "Closed"}], "id": "6720800041", "name": "USPS COLLECTION BOX - BLUE BOX", "address": {"city": "WICHITA", "state": "KS", "street": "2100 N WOODLAWN ST", "postcode": "67208"}}},
{"geometry": {"type": "Point", "coordinates": [-97.4440295739, 37.6734945963]}, "type": "Feature", "properties": {"collection_times": [{"days": "Mon-Fri", "time": "5:30pm"}, {"days": "Sat", "time": "5:20pm"}, {"days": "Sun", "time": "Closed"}], "id": "6720900000", "name": "USPS COLLECTION BOX - BLUE BOX", "address": {"city": "WICHITA", "state": "KS", "street": "626 S TYLER RD", "postcode": "67209"}}},
{"geometry": {"type": "Point", "coordinates": [-97.4440295739, 37.6734945963]}, "type": "Feature", "properties": {"collection_times": [{"days": "Mon-Fri", "time": "5:30pm"}, {"days": "Sat", "time": "5:20pm"}, {"days": "Sun", "time": "Closed"}], "id": "6720900001", "name": "USPS COLLECTION BOX - BLUE BOX", "address": {"city": "WICHITA", "state": "KS", "street": "626 S TYLER RD", "postcode": "67209"}}},
{"geometry": {"type": "Point", "coordinates": [-97.4152804329, 37.6731041284]}, "type": "Feature", "properties": {"collection_times": [{"days": "Mon-Fri", "time": "3:35pm"}, {"days": "Sat-Sun", "time": "Closed"}], "id": "6720900012", "name": "USPS COLLECTION BOX - BLUE BOX", "address": {"city": "WICHITA", "state": "KS", "street": "6200 W KELLOGG DR", "postcode": "67209"}}},
{"geometry": {"type": "Point", "coordinates": [-97.4200205495, 37.6729609904]}, "type": "Feature", "properties": {"collection_times": [{"days": "Mon-Sat", "time": "10:00am"}, {"days": "Sun", "time": "Closed"}], "id": "6720900013", "name": "USPS COLLECTION BOX - BLUE BOX", "address": {"city": "WICHITA", "state": "KS", "street": "6730 W KELLOGG DR", "postcode": "67209"}}},
{"geometry": {"type": "Point", "coordinates": [-97.4442014137, 37.6799984133]}, "type": "Feature", "properties": {"collection_times": [{"days": "Mon-Sat", "time": "2:35pm"}, {"days": "Sun", "time": "Closed"}], "id": "6720900018", "name": "USPS COLLECTION BOX - BLUE BOX", "address": {"city": "WICHITA", "state": "KS", "street": "242 S TYLER RD", "postcode": "67209"}}},
{"geometry": {"type": "Point", "coordinates": [-97.3955506198, 37.673717409]}, "type": "Feature", "properties": {"collection_times": [{"days": "Mon-Sat", "time": "2:00pm"}, {"days": "Sun", "time": "Closed"}], "id": "6720900024", "name": "USPS COLLECTION BOX - BLUE BOX", "address": {"city": "WICHITA", "state": "KS", "street": "4600 W KELLOGG DR", "postcode": "67209"}}},
{"geometry": {"type": "Point", "coordinates": [-97.4440295739, 37.6734945963]}, "type": "Feature", "properties": {"collection_times": [{"days": "Mon-Fri", "time": "5:30pm"}, {"days": "Sat", "time": "4:20pm"}, {"days": "Sun", "time": "Closed"}], "id": "6720900028", "name": "USPS COLLECTION BOX - PO LOBBY", "address": {"city": "WICHITA", "state": "KS", "street": "626 S TYLER RD", "postcode": "67209"}}},
{"geometry": {"type": "Point", "coordinates": [-97.4621673378, 37.6664629704]}, "type": "Feature", "properties": {"collection_times": [{"days": "Mon-Fri", "time": "5:00pm"}, {"days": "Sat-Sun", "time": "Closed"}], "id": "6720900032", "name": "USPS COLLECTION BOX - BLUE BOX", "address": {"city": "WICHITA", "state": "KS", "street": "1500 S MAIZE RD", "postcode": "67209"}}},
{"geometry": {"type": "Point", "coordinates": [-97.244644517, 37.7348770626]}, "type": "Feature", "properties": {"collection_times": [{"days": "Mon-Sat", "time": "1:00pm"}, {"days": "Sun", "time": "Closed"}], "id": "6721000005", "name": "USPS COLLECTION BOX - BLUE BOX", "address": {"city": "WICHITA", "state": "KS", "street": "2801 S ROCK RD", "postcode": "67210"}}},
{"geometry": {"type": "Point", "coordinates": [-97.3315097756, 37.6497027475]}, "type": "Feature", "properties": {"collection_times": [{"days": "Mon-Sat", "time": "10:00am"}, {"days": "Sun", "time": "Closed"}], "id": "6721100003", "name": "USPS COLLECTION BOX - BLUE BOX", "address": {"city": "WICHITA", "state": "KS", "street": "593 E PAWNEE ST", "postcode": "67211"}}},
{"geometry": {"type": "Point", "coordinates": [-97.3146879187, 37.649843534]}, "type": "Feature", "properties": {"collection_times": [{"days": "Mon-Fri", "time": "5:00pm"}, {"days": "Sat", "time": "4:25pm"}, {"days": "Sun", "time": "Closed"}], "id": "6721100005", "name": "USPS COLLECTION BOX - BLUE BOX", "address": {"city": "WICHITA", "state": "KS", "street": "1919 E PAWNEE ST", "postcode": "67211"}}},
{"geometry": {"type": "Point", "coordinates": [-97.3184381026, 37.6717069951]}, "type": "Feature", "properties": {"collection_times": [{"days": "Mon-Sat", "time": "12:05pm"}, {"days": "Sun", "time": "Closed"}], "id": "6721100012", "name": "USPS COLLECTION BOX - BLUE BOX", "address": {"city": "WICHITA", "state": "KS", "street": "1607 E LINCOLN ST", "postcode": "67211"}}},
{"geometry": {"type": "Point", "coordinates": [-97.2988311354, 37.6667421751]}, "type": "Feature", "properties": {"collection_times": [{"days": "Mon-Fri", "time": "5:00pm"}, {"days": "Sat-Sun", "time": "Closed"}], "id": "6721100014", "name": "USPS COLLECTION BOX - BLUE BOX", "address": {"city": "WICHITA", "state": "KS", "street": "1148 S HILLSIDE ST", "postcode": "67211"}}},
{"geometry": {"type": "Point", "coordinates": [-97.335484431, 37.6639067064]}, "type": "Feature", "properties": {"collection_times": [{"days": "Mon-Fri", "time": "12:50pm"}, {"days": "Sat-Sun", "time": "Closed"}], "id": "6721100023", "name": "USPS COLLECTION BOX - BLUE BOX", "address": {"city": "WICHITA", "state": "KS", "street": "1620 S BROADWAY ST", "postcode": "67211"}}},
{"geometry": {"type": "Point", "coordinates": [-97.2999734994, 37.6718593663]}, "type": "Feature", "properties": {"collection_times": [{"days": "Mon-Fri", "time": "5:00pm"}, {"days": "Sat-Sun", "time": "Closed"}], "id": "6721100024", "name": "USPS COLLECTION BOX - BLUE BOX", "address": {"city": "WICHITA", "state": "KS", "street": "3100 E LINCOLN ST", "postcode": "67211"}}},
{"geometry": {"type": "Point", "coordinates": [-97.3172647365, 37.6807306036]}, "type": "Feature", "properties": {"collection_times": [{"days": "Mon-Fri", "time": "5:00pm"}, {"days": "Sat-Sun", "time": "Closed"}], "id": "6721100027", "name": "USPS COLLECTION BOX - BLUE BOX", "address": {"city": "WICHITA", "state": "KS", "street": "403 S HYDRAULIC ST", "postcode": "67211"}}},
{"geometry": {"type": "Point", "coordinates": [-97.3052346243, 37.6709524812]}, "type": "Feature", "properties": {"collection_times": [{"days": "Mon-Fri", "time": "5:00pm"}, {"days": "Sat-Sun", "time": "Closed"}], "id": "6721100029", "name": "USPS COLLECTION BOX - BLUE BOX", "address": {"city": "WICHITA", "state": "KS", "street": "2747 E BOULEVARD PLZ", "postcode": "67211"}}},
{"geometry": {"type": "Point", "coordinates": [-97.4468074723, 37.6940484169]}, "type": "Feature", "properties": {"collection_times": [{"days": "Mon-Fri", "time": "5:00pm"}, {"days": "Sat", "time": "10:55am"}, {"days": "Sun", "time": "Closed"}], "id": "6721200004", "name": "USPS COLLECTION BOX - BLUE BOX", "address": {"city": "WICHITA", "state": "KS", "street": "8977 W CENTRAL AVE", "postcode": "67212"}}},
{"geometry": {"type": "Point", "coordinates": [-97.4271999275, 37.6944305127]}, "type": "Feature", "properties": {"collection_times": [{"days": "Mon-Fri", "time": "5:00pm"}, {"days": "Sat", "time": "12:35pm"}, {"days": "Sun", "time": "Closed"}], "id": "6721200005", "name": "USPS COLLECTION BOX - BLUE BOX", "address": {"city": "WICHITA", "state": "KS", "street": "7310 W CENTRAL AVE", "postcode": "67212"}}},
{"geometry": {"type": "Point", "coordinates": [-97.451389334, 37.6940302791]}, "type": "Feature", "properties": {"collection_times": [{"days": "Mon-Sat", "time": "11:00am"}, {"days": "Sun", "time": "Closed"}], "id": "6721200007", "name": "USPS COLLECTION BOX - BLUE BOX", "address": {"city": "WICHITA", "state": "KS", "street": "9430 W CENTRAL AVE", "postcode": "67212"}}},
{"geometry": {"type": "Point", "coordinates": [-97.4641626633, 37.6937242862]}, "type": "Feature", "properties": {"collection_times": [{"days": "Mon-Fri", "time": "5:00pm"}, {"days": "Sat", "time": "4:45pm"}, {"days": "Sun", "time": "Closed"}], "id": "6721200010", "name": "USPS COLLECTION BOX - BLUE BOX", "address": {"city": "WICHITA", "state": "KS", "street": "10515 W CENTRAL AVE", "postcode": "67212"}}},
{"geometry": {"type": "Point", "coordinates": [-97.4454600821, 37.7087573287]}, "type": "Feature", "properties": {"collection_times": [{"days": "Mon-Fri", "time": "5:00pm"}, {"days": "Sat", "time": "4:15pm"}, {"days": "Sun", "time": "Closed"}], "id": "6721200013", "name": "USPS COLLECTION BOX - BLUE BOX", "address": {"city": "WICHITA", "state": "KS", "street": "8828 W 13TH ST N", "postcode": "67212"}}},
{"geometry": {"type": "Point", "coordinates": [-97.4468074723, 37.6940484169]}, "type": "Feature", "properties": {"collection_times": [{"days": "Mon-Fri", "time": "5:00pm"}, {"days": "Sat", "time": "10:55am"}, {"days": "Sun", "time": "Closed"}], "id": "6721200014", "name": "USPS COLLECTION BOX - BLUE BOX", "address": {"city": "WICHITA", "state": "KS", "street": "8977 W CENTRAL AVE", "postcode": "67212"}}},
{"geometry": {"type": "Point", "coordinates": [-97.4641626633, 37.6937242862]}, "type": "Feature", "properties": {"collection_times": [{"days": "Mon-Fri", "time": "5:00pm"}, {"days": "Sat", "time": "4:45pm"}, {"days": "Sun", "time": "Closed"}], "id": "6721200020", "name": "USPS COLLECTION BOX - BLUE BOX", "address": {"city": "WICHITA", "state": "KS", "street": "10515 W CENTRAL AVE", "postcode": "67212"}}},
{"geometry": {"type": "Point", "coordinates": [-97.4635313122, 37.7082628615]}, "type": "Feature", "properties": {"collection_times": [{"days": "Mon-Fri", "time": "5:00pm"}, {"days": "Sat-Sun", "time": "Closed"}], "id": "6721200021", "name": "USPS COLLECTION BOX - BLUE BOX", "address": {"city": "WICHITA", "state": "KS", "street": "10405 W 13TH ST N", "postcode": "67212"}}},
{"geometry": {"type": "Point", "coordinates": [-97.3687518967, 37.6513530916]}, "type": "Feature", "properties": {"collection_times": [{"days": "Mon-Sat", "time": "10:00am"}, {"days": "Sun", "time": "Closed"}], "id": "6721300007", "name": "USPS COLLECTION BOX - BLUE BOX", "address": {"city": "WICHITA", "state": "KS", "street": "2301 W PAWNEE ST", "postcode": "67213"}}},
{"geometry": {"type": "Point", "coordinates": [-97.3482531421, 37.6839648571]}, "type": "Feature", "properties": {"collection_times": [{"days": "Mon-Fri", "time": "5:00pm"}, {"days": "Sat-Sun", "time": "Closed"}], "id": "6721300016", "name": "USPS COLLECTION BOX - BLUE BOX", "address": {"city": "WICHITA", "state": "KS", "street": "701 W DOUGLAS AVE", "postcode": "67213"}}},
{"geometry": {"type": "Point", "coordinates": [-97.3718788515, 37.6838524936]}, "type": "Feature", "properties": {"collection_times": [{"days": "Mon-Fri", "time": "5:00pm"}, {"days": "Sat", "time": "3:00pm"}, {"days": "Sun", "time": "Closed"}], "id": "6721300028", "name": "USPS COLLECTION BOX - BLUE BOX", "address": {"city": "WICHITA", "state": "KS", "street": "2525 W DOUGLAS AVE", "postcode": "67213"}}},
{"geometry": {"type": "Point", "coordinates": [-97.3892364084, 37.6654030656]}, "type": "Feature", "properties": {"collection_times": [{"days": "Mon-Fri", "time": "5:00pm"}, {"days": "Sat-Sun", "time": "Closed"}], "id": "6721300030", "name": "USPS COLLECTION BOX - BLUE BOX", "address": {"city": "WICHITA", "state": "KS", "street": "1622 S WEST ST", "postcode": "67213"}}},
{"geometry": {"type": "Point", "coordinates": [-97.3886931444, 37.6803610721]}, "type": "Feature", "properties": {"collection_times": [{"days": "Mon-Fri", "time": "3:40pm"}, {"days": "Sat-Sun", "time": "Closed"}], "id": "6721300031", "name": "USPS COLLECTION BOX - BLUE BOX", "address": {"city": "WICHITA", "state": "KS", "street": "240 S WEST ST", "postcode": "67213"}}},
{"geometry": {"type": "Point", "coordinates": [-97.3003095688, 37.6983191116]}, "type": "Feature", "properties": {"collection_times": [{"days": "Mon-Fri", "time": "4:45pm"}, {"days": "Sat-Sun", "time": "Closed"}], "id": "6721400008", "name": "USPS COLLECTION BOX - BLUE BOX", "address": {"city": "WICHITA", "state": "KS", "street": "850 N LORRAINE AVE", "postcode": "67214"}}},
{"geometry": {"type": "Point", "coordinates": [-97.2990499828, 37.6961233269]}, "type": "Feature", "properties": {"collection_times": [{"days": "Mon-Fri", "time": "4:40pm"}, {"days": "Sat-Sun", "time": "Closed"}], "id": "6721400013", "name": "USPS COLLECTION BOX - BLUE BOX", "address": {"city": "WICHITA", "state": "KS", "street": "551 N HILLSIDE ST", "postcode": "67214"}}},
{"geometry": {"type": "Point", "coordinates": [-97.3329259299, 37.6980617113]}, "type": "Feature", "properties": {"collection_times": [{"days": "Mon-Fri", "time": "3:35pm"}, {"days": "Sat-Sun", "time": "Closed"}], "id": "6721400015", "name": "USPS COLLECTION BOX - BLUE BOX", "address": {"city": "WICHITA", "state": "KS", "street": "818 N EMPORIA ST", "postcode": "67214"}}},
{"geometry": {"type": "Point", "coordinates": [-97.3005109371, 37.6862882061]}, "type": "Feature", "properties": {"collection_times": [{"days": "Mon-Fri", "time": "5:00pm"}, {"days": "Sat", "time": "1:30pm"}, {"days": "Sun", "time": "Closed"}], "id": "6721400034", "name": "USPS COLLECTION BOX - BLUE BOX", "address": {"city": "WICHITA", "state": "KS", "street": "3020 E DOUGLAS AVE", "postcode": "67214"}}},
{"geometry": {"type": "Point", "coordinates": [-97.3099485606, 37.7227454559]}, "type": "Feature", "properties": {"collection_times": [{"days": "Mon-Sat", "time": "10:00am"}, {"days": "Sun", "time": "Closed"}], "id": "6721400041", "name": "USPS COLLECTION BOX - BLUE BOX", "address": {"city": "WICHITA", "state": "KS", "street": "2408 E 21ST ST N", "postcode": "67214"}}},
{"geometry": {"type": "Point", "coordinates": [-97.3329630504, 37.7016974296]}, "type": "Feature", "properties": {"collection_times": [{"days": "Mon-Fri", "time": "3:45pm"}, {"days": "Sat-Sun", "time": "Closed"}], "id": "6721400051", "name": "USPS COLLECTION BOX - BLUE BOX", "address": {"city": "WICHITA", "state": "KS", "street": "1035 N EMPORIA ST", "postcode": "67214"}}},
{"geometry": {"type": "Point", "coordinates": [-97.3329259299, 37.6980617113]}, "type": "Feature", "properties": {"collection_times": [{"days": "Mon-Fri", "time": "3:35pm"}, {"days": "Sat-Sun", "time": "Closed"}], "id": "6721400052", "name": "USPS COLLECTION BOX - BLUE BOX", "address": {"city": "WICHITA", "state": "KS", "street": "818 N EMPORIA ST", "postcode": "67214"}}},
{"geometry": {"type": "Point", "coordinates": [-97.3171090344, 37.6343302824]}, "type": "Feature", "properties": {"collection_times": [{"days": "Mon-Fri", "time": "5:30pm"}, {"days": "Sat", "time": "5:15pm"}, {"days": "Sun", "time": "Closed"}], "id": "6721600001", "name": "USPS COLLECTION BOX - BLUE BOX", "address": {"city": "WICHITA", "state": "KS", "street": "3241 S HYDRAULIC ST", "postcode": "67216"}}},
{"geometry": {"type": "Point", "coordinates": [-97.2962602978, 37.6032365885]}, "type": "Feature", "properties": {"collection_times": [{"days": "Mon-Fri", "time": "2:15pm"}, {"days": "Sat-Sun", "time": "Closed"}], "id": "6721600004", "name": "USPS COLLECTION BOX - BLUE BOX", "address": {"city": "WICHITA", "state": "KS", "street": "3346 E OAKLAWN DR", "postcode": "67216"}}},
{"geometry": {"type": "Point", "coordinates": [-97.3158326216, 37.6076510089]}, "type": "Feature", "properties": {"collection_times": [{"days": "Mon-Fri", "time": "2:00pm"}, {"days": "Sat-Sun", "time": "Closed"}], "id": "6721600008", "name": "USPS COLLECTION BOX - BLUE BOX", "address": {"city": "WICHITA", "state": "KS", "street": "4808 S HYDRAULIC ST", "postcode": "67216"}}},
{"geometry": {"type": "Point", "coordinates": [-97.3348408185, 37.6079742261]}, "type": "Feature", "properties": {"collection_times": [{"days": "Mon-Fri", "time": "5:00pm"}, {"days": "Sat", "time": "3:45pm"}, {"days": "Sun", "time": "Closed"}], "id": "6721600011", "name": "USPS COLLECTION BOX - BLUE BOX", "address": {"city": "WICHITA", "state": "KS", "street": "245 E 47TH ST S", "postcode": "67216"}}},
{"geometry": {"type": "Point", "coordinates": [-97.3171090344, 37.6343302824]}, "type": "Feature", "properties": {"collection_times": [{"days": "Mon-Fri", "time": "4:55pm"}, {"days": "Sat", "time": "3:20pm"}, {"days": "Sun", "time": "Closed"}], "id": "6721600013", "name": "USPS COLLECTION BOX - PO LOBBY", "address": {"city": "WICHITA", "state": "KS", "street": "3241 S HYDRAULIC ST", "postcode": "67216"}}},
{"geometry": {"type": "Point", "coordinates": [-97.3171090344, 37.6343302824]}, "type": "Feature", "properties": {"collection_times": [{"days": "Mon-Fri", "time": "4:55pm"}, {"days": "Sat", "time": "3:20pm"}, {"days": "Sun", "time": "Closed"}], "id": "6721600014", "name": "USPS COLLECTION BOX - PO LOBBY", "address": {"city": "WICHITA", "state": "KS", "street": "3241 S HYDRAULIC ST", "postcode": "67216"}}},
{"geometry": {"type": "Point", "coordinates": [-97.3572025026, 37.6504376186]}, "type": "Feature", "properties": {"collection_times": [{"days": "Mon-Fri", "time": "5:00pm"}, {"days": "Sat", "time": "4:20pm"}, {"days": "Sun", "time": "Closed"}], "id": "6721700002", "name": "USPS COLLECTION BOX - BLUE BOX", "address": {"city": "WICHITA", "state": "KS", "street": "2510 S ELIZABETH AVE", "postcode": "67217"}}},
{"geometry": {"type": "Point", "coordinates": [-97.3526001692, 37.6360585855]}, "type": "Feature", "properties": {"collection_times": [{"days": "Mon-Fri", "time": "2:40pm"}, {"days": "Sat-Sun", "time": "Closed"}], "id": "6721700005", "name": "USPS COLLECTION BOX - BLUE BOX", "address": {"city": "WICHITA", "state": "KS", "street": "3211 S SENECA ST", "postcode": "67217"}}},
{"geometry": {"type": "Point", "coordinates": [-97.3355757742, 37.6869821149]}, "type": "Feature", "properties": {"collection_times": [{"days": "Mon-Fri", "time": "2:25pm"}, {"days": "Sat-Sun", "time": "Closed"}], "id": "6721700008", "name": "USPS COLLECTION BOX - BLUE BOX", "address": {"city": "WICHITA", "state": "KS", "street": "3945 S MERIDIAN AVE", "postcode": "67217"}}},
{"geometry": {"type": "Point", "coordinates": [-97.3572025026, 37.6504376186]}, "type": "Feature", "properties": {"collection_times": [{"days": "Mon-Fri", "time": "5:00pm"}, {"days": "Sat", "time": "4:20pm"}, {"days": "Sun", "time": "Closed"}], "id": "6721700018", "name": "USPS COLLECTION BOX - BLUE BOX", "address": {"city": "WICHITA", "state": "KS", "street": "2510 S ELIZABETH AVE", "postcode": "67217"}}},
{"geometry": {"type": "Point", "coordinates": [-97.3571516743, 37.6504423476]}, "type": "Feature", "properties": {"collection_times": [{"days": "Mon-Fri", "time": "5:00pm"}, {"days": "Sat", "time": "3:30pm"}, {"days": "Sun", "time": "Closed"}], "id": "6721700026", "name": "USPS COLLECTION BOX - BLUE BOX", "address": {"city": "WICHITA", "state": "KS", "street": "2510 S ELIZABETH AVE", "postcode": "67217"}}},
{"geometry": {"type": "Point", "coordinates": [-97.2824288269, 37.6864616822]}, "type": "Feature", "properties": {"collection_times": [{"days": "Mon-Fri", "time": "4:20pm"}, {"days": "Sat", "time": "1:35pm"}, {"days": "Sun", "time": "Closed"}], "id": "6721800002", "name": "USPS COLLECTION BOX - BLUE BOX", "address": {"city": "WICHITA", "state": "KS", "street": "100 S PERSHING ST", "postcode": "67218"}}},
{"geometry": {"type": "Point", "coordinates": [-97.2722240224, 37.664669631]}, "type": "Feature", "properties": {"collection_times": [{"days": "Mon-Fri", "time": "5:00pm"}, {"days": "Sat", "time": "4:35pm"}, {"days": "Sun", "time": "Closed"}], "id": "6721800004", "name": "USPS COLLECTION BOX - BLUE BOX", "address": {"city": "WICHITA", "state": "KS", "street": "5500 E HARRY ST", "postcode": "67218"}}},
{"geometry": {"type": "Point", "coordinates": [-97.2805579683, 37.700848065]}, "type": "Feature", "properties": {"collection_times": [{"days": "Mon-Fri", "time": "5:00pm"}, {"days": "Sat", "time": "1:45pm"}, {"days": "Sun", "time": "Closed"}], "id": "6721800006", "name": "USPS COLLECTION BOX - BLUE BOX", "address": {"city": "WICHITA", "state": "KS", "street": "952 S OLIVER ST", "postcode": "67218"}}},
{"geometry": {"type": "Point", "coordinates": [-97.2889592763, 37.6645846166]}, "type": "Feature", "properties": {"collection_times": [{"days": "Mon-Fri", "time": "5:00pm"}, {"days": "Sat", "time": "1:50pm"}, {"days": "Sun", "time": "Closed"}], "id": "6721800010", "name": "USPS COLLECTION BOX - BLUE BOX", "address": {"city": "WICHITA", "state": "KS", "street": "4055 E HARRY ST", "postcode": "67218"}}},
{"geometry": {"type": "Point", "coordinates": [-97.2621310165, 37.6657437578]}, "type": "Feature", "properties": {"collection_times": [{"days": "Mon-Fri", "time": "1:15pm"}, {"days": "Sat-Sun", "time": "Closed"}], "id": "6721800013", "name": "USPS COLLECTION BOX - BLUE BOX", "address": {"city": "WICHITA", "state": "KS", "street": "1212 S WOODLAWN BLVD", "postcode": "67218"}}},
{"geometry": {"type": "Point", "coordinates": [-97.2943015505, 37.6652389755]}, "type": "Feature", "properties": {"collection_times": [{"days": "Mon-Fri", "time": "5:00pm"}, {"days": "Sat-Sun", "time": "Closed"}], "id": "6721800020", "name": "USPS COLLECTION BOX - BLUE BOX", "address": {"city": "WICHITA", "state": "KS", "street": "1515 S CLIFTON AVE", "postcode": "67218"}}},
{"geometry": {"type": "Point", "coordinates": [-97.2621999858, 37.6791034609]}, "type": "Feature", "properties": {"collection_times": [{"days": "Mon-Fri", "time": "5:00pm"}, {"days": "Sat-Sun", "time": "Closed"}], "id": "6721800022", "name": "USPS COLLECTION BOX - BLUE BOX", "address": {"city": "WICHITA", "state": "KS", "street": "501 S WOODLAWN BLVD", "postcode": "67218"}}},
{"geometry": {"type": "Point", "coordinates": [-97.2620648651, 37.6735657294]}, "type": "Feature", "properties": {"collection_times": [{"days": "Mon-Fri", "time": "1:15pm"}, {"days": "Sat-Sun", "time": "Closed"}], "id": "6721800027", "name": "USPS COLLECTION BOX - BLUE BOX", "address": {"city": "WICHITA", "state": "KS", "street": "806 S WOODLAWN BLVD", "postcode": "67218"}}},
{"geometry": {"type": "Point", "coordinates": [-97.3359251797, 37.7963447934]}, "type": "Feature", "properties": {"collection_times": [{"days": "Mon-Fri", "time": "5:00pm"}, {"days": "Sat", "time": "3:50pm"}, {"days": "Sun", "time": "Closed"}], "id": "6721900003", "name": "USPS COLLECTION BOX - BLUE BOX", "address": {"city": "PARK CITY", "state": "KS", "street": "6223 N BROADWAY ST", "postcode": "67219"}}},
{"geometry": {"type": "Point", "coordinates": [-97.3359656492, 37.7357701336]}, "type": "Feature", "properties": {"collection_times": [{"days": "Mon-Fri", "time": "2:10pm"}, {"days": "Sat", "time": "1:15pm"}, {"days": "Sun", "time": "Closed"}], "id": "6721900005", "name": "USPS COLLECTION BOX - BLUE BOX", "address": {"city": "PARK CITY", "state": "KS", "street": "2901 N BROADWAY AVE", "postcode": "67219"}}},
{"geometry": {"type": "Point", "coordinates": [-97.3170106528, 37.7959276046]}, "type": "Feature", "properties": {"collection_times": [{"days": "Mon-Fri", "time": "5:00pm"}, {"days": "Sat-Sun", "time": "Closed"}], "id": "6721900008", "name": "USPS COLLECTION BOX - BLUE BOX", "address": {"city": "PARK CITY", "state": "KS", "street": "1704 E 61ST ST N", "postcode": "67219"}}},
{"geometry": {"type": "Point", "coordinates": [-97.2623889015, 37.7529029913]}, "type": "Feature", "properties": {"collection_times": [{"days": "Mon-Fri", "time": "5:00pm"}, {"days": "Sat", "time": "3:15pm"}, {"days": "Sun", "time": "Closed"}], "id": "6722000001", "name": "USPS COLLECTION BOX - BLUE BOX", "address": {"city": "WICHITA", "state": "KS", "street": "3813 N WOODLAWN BLVD", "postcode": "67220"}}},
{"geometry": {"type": "Point", "coordinates": [-97.244719071, 37.7367527924]}, "type": "Feature", "properties": {"collection_times": [{"days": "Mon-Fri", "time": "5:00pm"}, {"days": "Sat", "time": "3:05pm"}, {"days": "Sun", "time": "Closed"}], "id": "6722600000", "name": "USPS COLLECTION BOX - BLUE BOX", "address": {"city": "WICHITA", "state": "KS", "street": "2945 N ROCK RD", "postcode": "67226"}}},
{"geometry": {"type": "Point", "coordinates": [-97.2430865601, 37.7253081076]}, "type": "Feature", "properties": {"collection_times": [{"days": "Mon-Fri", "time": "5:00pm"}, {"days": "Sat", "time": "2:50pm"}, {"days": "Sun", "time": "Closed"}], "id": "6722600003", "name": "USPS COLLECTION BOX - BLUE BOX", "address": {"city": "WICHITA", "state": "KS", "street": "8100 E 22ND ST N", "postcode": "67226"}}},
{"geometry": {"type": "Point", "coordinates": [-97.2446861909, 37.752652583]}, "type": "Feature", "properties": {"collection_times": [{"days": "Mon-Fri", "time": "5:00pm"}, {"days": "Sat", "time": "3:10pm"}, {"days": "Sun", "time": "Closed"}], "id": "6722600007", "name": "USPS COLLECTION BOX - BLUE BOX", "address": {"city": "WICHITA", "state": "KS", "street": "3820 N ROCK RD", "postcode": "67226"}}},
{"geometry": {"type": "Point", "coordinates": [-97.2446610989, 37.7368063819]}, "type": "Feature", "properties": {"collection_times": [{"days": "Mon-Fri", "time": "5:00pm"}, {"days": "Sat", "time": "3:05pm"}, {"days": "Sun", "time": "Closed"}], "id": "6722600009", "name": "USPS COLLECTION BOX - BLUE BOX", "address": {"city": "WICHITA", "state": "KS", "street": "2963 N ROCK RD", "postcode": "67226"}}},
{"geometry": {"type": "Point", "coordinates": [-97.2446800058, 37.7468332289]}, "type": "Feature", "properties": {"collection_times": [{"days": "Mon-Fri", "time": "2:55pm"}, {"days": "Sat-Sun", "time": "Closed"}], "id": "6722600013", "name": "USPS COLLECTION BOX - BLUE BOX", "address": {"city": "WICHITA", "state": "KS", "street": "3450 N ROCK RD", "postcode": "67226"}}},
{"geometry": {"type": "Point", "coordinates": [-97.2415475305, 37.7428608527]}, "type": "Feature", "properties": {"collection_times": [{"days": "Mon-Fri", "time": "2:45pm"}, {"days": "Sat-Sun", "time": "Closed"}], "id": "6722600014", "name": "USPS COLLECTION BOX - BLUE BOX", "address": {"city": "WICHITA", "state": "KS", "street": "8200 E 32ND ST N", "postcode": "67226"}}},
{"geometry": {"type": "Point", "coordinates": [-97.2430865601, 37.7253081076]}, "type": "Feature", "properties": {"collection_times": [{"days": "Mon-Fri", "time": "5:00pm"}, {"days": "Sat", "time": "2:50pm"}, {"days": "Sun", "time": "Closed"}], "id": "6722600017", "name": "USPS COLLECTION BOX - BLUE BOX", "address": {"city": "WICHITA", "state": "KS", "street": "8100 E 22ND ST N", "postcode": "67226"}}},
{"geometry": {"type": "Point", "coordinates": [-97.2293413754, 37.7493179813]}, "type": "Feature", "properties": {"collection_times": [{"days": "Mon-Fri", "time": "3:00pm"}, {"days": "Sat-Sun", "time": "Closed"}], "id": "6722600018", "name": "USPS COLLECTION BOX - BLUE BOX", "address": {"city": "WICHITA", "state": "KS", "street": "9350 E 35TH ST N", "postcode": "67226"}}},
{"geometry": {"type": "Point", "coordinates": [-97.2427979181, 37.7541853189]}, "type": "Feature", "properties": {"collection_times": [{"days": "Mon-Fri", "time": "3:10pm"}, {"days": "Sat-Sun", "time": "Closed"}], "id": "6722600027", "name": "USPS COLLECTION BOX - BLUE BOX", "address": {"city": "WICHITA", "state": "KS", "street": "8200 E THORN DR", "postcode": "67226"}}},
{"geometry": {"type": "Point", "coordinates": [-97.495891004, 37.67867892]}, "type": "Feature", "properties": {"collection_times": [{"days": "Mon-Fri", "time": "5:00pm"}, {"days": "Sat", "time": "4:50pm"}, {"days": "Sun", "time": "Closed"}], "id": "6723500000", "name": "USPS COLLECTION BOX - BLUE BOX", "address": {"city": "WICHITA", "state": "KS", "street": "13415 W MAPLE ST", "postcode": "67235"}}},
{"geometry": {"type": "Point", "coordinates": [-97.4242812481, 37.6653288747]}, "type": "Feature", "properties": {"collection_times": [{"days": "Mon-Sat", "time": "8:00pm"}, {"days": "Sun", "time": "Closed"}], "id": "6727600000", "name": "USPS COLLECTION BOX - PO LOBBY", "address": {"city": "WICHITA", "state": "KS", "street": "7117 W HARRY ST", "postcode": "67276"}}},
{"geometry": {"type": "Point", "coordinates": [-97.424296759, 37.6653008458]}, "type": "Feature", "properties": {"collection_times": [{"days": "Mon-Sat", "time": "8:00pm"}, {"days": "Sun", "time": "Closed"}], "id": "6727600001", "name": "USPS COLLECTION BOX - EXPRESS", "address": {"city": "WICHITA", "state": "KS", "street": "7117 W HARRY ST", "postcode": "67276"}}},
{"geometry": {"type": "Point", "coordinates": [-97.4242812481, 37.6653288747]}, "type": "Feature", "properties": {"collection_times": [{"days": "Mon-Sat", "time": "8:00pm"}, {"days": "Sun", "time": "Closed"}], "id": "6727600002", "name": "USPS COLLECTION BOX - BLUE BOX", "address": {"city": "WICHITA", "state": "KS", "street": "7117 W HARRY ST", "postcode": "67276"}}},
{"geometry": {"type": "Point", "coordinates": [-97.4242812481, 37.6653288747]}, "type": "Feature", "properties": {"collection_times": [{"days": "Mon-Sat", "time": "8:00pm"}, {"days": "Sun", "time": "Closed"}], "id": "6727600003", "name": "USPS COLLECTION BOX - BLUE BOX", "address": {"city": "WICHITA", "state": "KS", "street": "7117 W HARRY ST", "postcode": "67276"}}},
{"geometry": {"type": "Point", "coordinates": [-97.4242812481, 37.6653288747]}, "type": "Feature", "properties": {"collection_times": [{"days": "Mon-Sat", "time": "8:00pm"}, {"days": "Sun", "time": "Closed"}], "id": "6727600005", "name": "USPS COLLECTION BOX - APC", "address": {"city": "WICHITA", "state": "KS", "street": "7117 W HARRY ST", "postcode": "67276"}}}
]}
