{"type": "FeatureCollection", "features": [
{"geometry": {"type": "Point", "coordinates": [-95.7063957481, 37.2255374749]}, "type": "Feature", "properties": {"collection_times": [{"days": "Mon-Sat", "time": "4:50pm"}, {"days": "Sun", "time": "Closed"}], "id": "6730100004", "name": "USPS COLLECTION BOX - BLUE BOX", "address": {"city": "INDEPENDENCE", "state": "KS", "street": "116 E LAUREL ST", "postcode": "67301"}}},
{"geometry": {"type": "Point", "coordinates": [-95.7063957481, 37.2255374749]}, "type": "Feature", "properties": {"collection_times": [{"days": "Mon-Sat", "time": "4:50pm"}, {"days": "Sun", "time": "Closed"}], "id": "6730100005", "name": "USPS COLLECTION BOX - BLUE BOX", "address": {"city": "INDEPENDENCE", "state": "KS", "street": "116 E LAUREL ST", "postcode": "67301"}}},
{"geometry": {"type": "Point", "coordinates": [-95.7101164955, 37.2248021035]}, "type": "Feature", "properties": {"collection_times": [{"days": "Mon-Fri", "time": "4:20pm"}, {"days": "Sat", "time": "2:30pm"}, {"days": "Sun", "time": "Closed"}], "id": "6730100006", "name": "USPS COLLECTION BOX - BLUE BOX", "address": {"city": "INDEPENDENCE", "state": "KS", "street": "200 ARCO PL", "postcode": "67301"}}},
{"geometry": {"type": "Point", "coordinates": [-95.7063957481, 37.2255374749]}, "type": "Feature", "properties": {"collection_times": [{"days": "Mon-Sat", "time": "4:50pm"}, {"days": "Sun", "time": "Closed"}], "id": "6730100008", "name": "USPS COLLECTION BOX - PO LOBBY", "address": {"city": "INDEPENDENCE", "state": "KS", "street": "116 E LAUREL ST", "postcode": "67301"}}},
{"geometry": {"type": "Point", "coordinates": [-95.7425801662, 37.2257622463]}, "type": "Feature", "properties": {"collection_times": [{"days": "Mon-Sat", "time": "3:00pm"}, {"days": "Sun", "time": "Closed"}], "id": "6730100009", "name": "USPS COLLECTION BOX - BLUE BOX", "address": {"city": "INDEPENDENCE", "state": "KS", "street": "121 PETER PAN RD", "postcode": "67301"}}},
{"geometry": {"type": "Point", "coordinates": [-95.7063957481, 37.2255374749]}, "type": "Feature", "properties": {"collection_times": [{"days": "Mon-Sat", "time": "4:50pm"}, {"days": "Sun", "time": "Closed"}], "id": "6730100010", "name": "USPS COLLECTION BOX - PO LOBBY", "address": {"city": "INDEPENDENCE", "state": "KS", "street": "116 E LAUREL ST", "postcode": "67301"}}},
{"geometry": {"type": "Point", "coordinates": [-95.2971672055, 37.1928853499]}, "type": "Feature", "properties": {"collection_times": [{"days": "Mon-Sat", "time": "2:40pm"}, {"days": "Sun", "time": "Closed"}], "id": "6733000001", "name": "USPS COLLECTION BOX - BLUE BOX", "address": {"city": "ALTAMONT", "state": "KS", "street": "410 S HUSTON ST", "postcode": "67330"}}},
{"geometry": {"type": "Point", "coordinates": [-95.2971672055, 37.1928853499]}, "type": "Feature", "properties": {"collection_times": [{"days": "Mon-Fri", "time": "2:40pm"}, {"days": "Sat", "time": "10:15am"}, {"days": "Sun", "time": "Closed"}], "id": "6733000002", "name": "USPS COLLECTION BOX - PO LOBBY", "address": {"city": "ALTAMONT", "state": "KS", "street": "410 S HUSTON ST", "postcode": "67330"}}},
{"geometry": {"type": "Point", "coordinates": [-95.2971672055, 37.1928853499]}, "type": "Feature", "properties": {"collection_times": [{"days": "Mon-Fri", "time": "2:40pm"}, {"days": "Sat", "time": "10:15am"}, {"days": "Sun", "time": "Closed"}], "id": "6733000003", "name": "USPS COLLECTION BOX - PO LOBBY", "address": {"city": "ALTAMONT", "state": "KS", "street": "410 S HUSTON ST", "postcode": "67330"}}},
{"geometry": {"type": "Point", "coordinates": [-95.2110288731, 37.0540862654]}, "type": "Feature", "properties": {"collection_times": [{"days": "Mon-Sat", "time": "10:30am"}, {"days": "Sun", "time": "Closed"}], "id": "6733200001", "name": "USPS COLLECTION BOX - BLUE BOX", "address": {"city": "BARTLETT", "state": "KS", "street": "502 MAIN ST", "postcode": "67332"}}},
{"geometry": {"type": "Point", "coordinates": [-95.9362898401, 37.0104865346]}, "type": "Feature", "properties": {"collection_times": [{"days": "Mon-Fri", "time": "3:05pm"}, {"days": "Sat", "time": "3:20pm"}, {"days": "Sun", "time": "Closed"}], "id": "6733300005", "name": "USPS COLLECTION BOX - BLUE BOX", "address": {"city": "CANEY", "state": "KS", "street": "201 W 5TH AVE", "postcode": "67333"}}},
{"geometry": {"type": "Point", "coordinates": [-95.9362898401, 37.0104865346]}, "type": "Feature", "properties": {"collection_times": [{"days": "Mon-Fri", "time": "3:05pm"}, {"days": "Sat", "time": "10:15am"}, {"days": "Sun", "time": "Closed"}], "id": "6733300006", "name": "USPS COLLECTION BOX - PO LOBBY", "address": {"city": "CANEY", "state": "KS", "street": "201 W 5TH AVE", "postcode": "67333"}}},
{"geometry": {"type": "Point", "coordinates": [-96.1790844907, 37.0244703178]}, "type": "Feature", "properties": {"collection_times": [{"days": "Mon-Sat", "time": "11:00am"}, {"days": "Sun", "time": "Closed"}], "id": "6733400001", "name": "USPS COLLECTION BOX - BLUE BOX", "address": {"city": "CHAUTAUQUA", "state": "KS", "street": "100 E LAUREL ST", "postcode": "67334"}}},
{"geometry": {"type": "Point", "coordinates": [-96.1790844907, 37.0244703178]}, "type": "Feature", "properties": {"collection_times": [{"days": "Mon-Sat", "time": "11:00am"}, {"days": "Sun", "time": "Closed"}], "id": "6733400002", "name": "USPS COLLECTION BOX - PO LOBBY", "address": {"city": "CHAUTAUQUA", "state": "KS", "street": "100 E LAUREL ST", "postcode": "67334"}}},
{"geometry": {"type": "Point", "coordinates": [-95.5528295005, 37.2699457091]}, "type": "Feature", "properties": {"collection_times": [{"days": "Mon-Sat", "time": "3:25pm"}, {"days": "Sun", "time": "Closed"}], "id": "6733500002", "name": "USPS COLLECTION BOX - BLUE BOX", "address": {"city": "CHERRYVALE", "state": "KS", "street": "205 N NEOSHO ST", "postcode": "67335"}}},
{"geometry": {"type": "Point", "coordinates": [-95.5528295005, 37.2699457091]}, "type": "Feature", "properties": {"collection_times": [{"days": "Mon-Fri", "time": "3:25pm"}, {"days": "Sat-Sun", "time": "Closed"}], "id": "6733500004", "name": "USPS COLLECTION BOX - PO LOBBY", "address": {"city": "CHERRYVALE", "state": "KS", "street": "205 N NEOSHO ST", "postcode": "67335"}}},
{"geometry": {"type": "Point", "coordinates": [-95.0897405672, 37.0369753717]}, "type": "Feature", "properties": {"collection_times": [{"days": "Mon-Fri", "time": "2:10pm"}, {"days": "Sat", "time": "2:05pm"}, {"days": "Sun", "time": "Closed"}], "id": "6733600001", "name": "USPS COLLECTION BOX - BLUE BOX", "address": {"city": "CHETOPA", "state": "KS", "street": "519 MAPLE ST", "postcode": "67336"}}},
{"geometry": {"type": "Point", "coordinates": [-95.0897405672, 37.0369753717]}, "type": "Feature", "properties": {"collection_times": [{"days": "Mon-Fri", "time": "2:05pm"}, {"days": "Sat", "time": "9:15am"}, {"days": "Sun", "time": "Closed"}], "id": "6733600002", "name": "USPS COLLECTION BOX - PO LOBBY", "address": {"city": "CHETOPA", "state": "KS", "street": "519 MAPLE ST", "postcode": "67336"}}},
{"geometry": {"type": "Point", "coordinates": [-95.6157968872, 37.0372048218]}, "type": "Feature", "properties": {"collection_times": [{"days": "Mon-Sat", "time": "3:20pm"}, {"days": "Sun", "time": "Closed"}], "id": "6733700001", "name": "USPS COLLECTION BOX - BLUE BOX", "address": {"city": "COFFEYVILLE", "state": "KS", "street": "102 W 7TH ST", "postcode": "67337"}}},
{"geometry": {"type": "Point", "coordinates": [-95.6399769413, 37.035231357]}, "type": "Feature", "properties": {"collection_times": [{"days": "Mon-Sat", "time": "3:20pm"}, {"days": "Sun", "time": "Closed"}], "id": "6733700018", "name": "USPS COLLECTION BOX - BLUE BOX", "address": {"city": "COFFEYVILLE", "state": "KS", "street": "900 HALL ST", "postcode": "67337"}}},
{"geometry": {"type": "Point", "coordinates": [-95.617957773, 37.0361670967]}, "type": "Feature", "properties": {"collection_times": [{"days": "Mon-Fri", "time": "3:30pm"}, {"days": "Sat", "time": "3:20pm"}, {"days": "Sun", "time": "Closed"}], "id": "6733700022", "name": "USPS COLLECTION BOX - BLUE BOX", "address": {"city": "COFFEYVILLE", "state": "KS", "street": "232 W 8TH ST", "postcode": "67337"}}},
{"geometry": {"type": "Point", "coordinates": [-95.617957773, 37.0361670967]}, "type": "Feature", "properties": {"collection_times": [{"days": "Mon-Sat", "time": "3:20pm"}, {"days": "Sun", "time": "Closed"}], "id": "6733700023", "name": "USPS COLLECTION BOX - PO LOBBY", "address": {"city": "COFFEYVILLE", "state": "KS", "street": "232 W 8TH ST", "postcode": "67337"}}},
{"geometry": {"type": "Point", "coordinates": [-95.6399769413, 37.035231357]}, "type": "Feature", "properties": {"collection_times": [{"days": "Mon-Sat", "time": "3:20pm"}, {"days": "Sun", "time": "Closed"}], "id": "6733700024", "name": "USPS COLLECTION BOX - BLUE BOX", "address": {"city": "COFFEYVILLE", "state": "KS", "street": "900 HALL ST", "postcode": "67337"}}},
{"geometry": {"type": "Point", "coordinates": [-95.617957773, 37.0361670967]}, "type": "Feature", "properties": {"collection_times": [{"days": "Mon-Fri", "time": "3:30pm"}, {"days": "Sat", "time": "3:20pm"}, {"days": "Sun", "time": "Closed"}], "id": "6733700026", "name": "USPS COLLECTION BOX - BLUE BOX", "address": {"city": "COFFEYVILLE", "state": "KS", "street": "232 W 8TH ST", "postcode": "67337"}}},
{"geometry": {"type": "Point", "coordinates": [-95.6157968872, 37.0372048218]}, "type": "Feature", "properties": {"collection_times": [{"days": "Mon-Sat", "time": "3:20pm"}, {"days": "Sun", "time": "Closed"}], "id": "6733700027", "name": "USPS COLLECTION BOX - BLUE BOX", "address": {"city": "COFFEYVILLE", "state": "KS", "street": "102 W 7TH ST", "postcode": "67337"}}},
{"geometry": {"type": "Point", "coordinates": [-95.7104594359, 37.0560351467]}, "type": "Feature", "properties": {"collection_times": [{"days": "Mon-Sat", "time": "3:40pm"}, {"days": "Sun", "time": "Closed"}], "id": "6734000001", "name": "USPS COLLECTION BOX - BLUE BOX", "address": {"city": "DEARING", "state": "KS", "street": "312 S INDEPENDENCE ST", "postcode": "67340"}}},
{"geometry": {"type": "Point", "coordinates": [-95.7104594359, 37.0560351467]}, "type": "Feature", "properties": {"collection_times": [{"days": "Mon-Fri", "time": "11:45am"}, {"days": "Sat", "time": "9:30am"}, {"days": "Sun", "time": "Closed"}], "id": "6734000002", "name": "USPS COLLECTION BOX - PO LOBBY", "address": {"city": "DEARING", "state": "KS", "street": "312 S INDEPENDENCE ST", "postcode": "67340"}}},
{"geometry": {"type": "Point", "coordinates": [-95.4199405884, 37.3190501991]}, "type": "Feature", "properties": {"collection_times": [{"days": "Mon-Fri", "time": "2:40pm"}, {"days": "Sat", "time": "2:35pm"}, {"days": "Sun", "time": "Closed"}], "id": "6734100001", "name": "USPS COLLECTION BOX - BLUE BOX", "address": {"city": "DENNIS", "state": "KS", "street": "103 S MAIN ST", "postcode": "67341"}}},
{"geometry": {"type": "Point", "coordinates": [-95.3591778775, 37.0571055277]}, "type": "Feature", "properties": {"collection_times": [{"days": "Mon-Fri", "time": "2:40pm"}, {"days": "Sat", "time": "2:35pm"}, {"days": "Sun", "time": "Closed"}], "id": "6734200001", "name": "USPS COLLECTION BOX - BLUE BOX", "address": {"city": "EDNA", "state": "KS", "street": "109 N DELAWARE ST", "postcode": "67342"}}},
{"geometry": {"type": "Point", "coordinates": [-95.3591778775, 37.0571055277]}, "type": "Feature", "properties": {"collection_times": [{"days": "Mon-Fri", "time": "1:45pm"}, {"days": "Sat", "time": "10:45am"}, {"days": "Sun", "time": "Closed"}], "id": "6734200002", "name": "USPS COLLECTION BOX - PO LOBBY", "address": {"city": "EDNA", "state": "KS", "street": "109 N DELAWARE ST", "postcode": "67342"}}},
{"geometry": {"type": "Point", "coordinates": [-95.9106620285, 37.2916486044]}, "type": "Feature", "properties": {"collection_times": [{"days": "Mon-Sat", "time": "3:40pm"}, {"days": "Sun", "time": "Closed"}], "id": "6734400001", "name": "USPS COLLECTION BOX - BLUE BOX", "address": {"city": "ELK CITY", "state": "KS", "street": "123 E HICKORY ST", "postcode": "67344"}}},
{"geometry": {"type": "Point", "coordinates": [-95.9106620285, 37.2916486044]}, "type": "Feature", "properties": {"collection_times": [{"days": "Mon-Fri", "time": "11:10am"}, {"days": "Sat", "time": "9:15am"}, {"days": "Sun", "time": "Closed"}], "id": "6734400002", "name": "USPS COLLECTION BOX - PO LOBBY", "address": {"city": "ELK CITY", "state": "KS", "street": "123 E HICKORY ST", "postcode": "67344"}}},
{"geometry": {"type": "Point", "coordinates": [-96.213051198, 37.3585508641]}, "type": "Feature", "properties": {"collection_times": [{"days": "Mon-Fri", "time": "3:15pm"}, {"days": "Sat", "time": "3:10pm"}, {"days": "Sun", "time": "Closed"}], "id": "6734500001", "name": "USPS COLLECTION BOX - BLUE BOX", "address": {"city": "ELK FALLS", "state": "KS", "street": "712 7TH ST", "postcode": "67345"}}},
{"geometry": {"type": "Point", "coordinates": [-96.213051198, 37.3585508641]}, "type": "Feature", "properties": {"collection_times": [{"days": "Mon-Sat", "time": "10:45am"}, {"days": "Sun", "time": "Closed"}], "id": "6734500002", "name": "USPS COLLECTION BOX - PO LOBBY", "address": {"city": "ELK FALLS", "state": "KS", "street": "712 7TH ST", "postcode": "67345"}}},
{"geometry": {"type": "Point", "coordinates": [-96.4494227313, 37.3475208019]}, "type": "Feature", "properties": {"collection_times": [{"days": "Mon-Sat", "time": "2:10pm"}, {"days": "Sun", "time": "Closed"}], "id": "6734600001", "name": "USPS COLLECTION BOX - BLUE BOX", "address": {"city": "GRENOLA", "state": "KS", "street": "115 S MAIN ST", "postcode": "67346"}}},
{"geometry": {"type": "Point", "coordinates": [-96.4494227313, 37.3475208019]}, "type": "Feature", "properties": {"collection_times": [{"days": "Mon-Fri", "time": "11:45am"}, {"days": "Sat", "time": "11:00am"}, {"days": "Sun", "time": "Closed"}], "id": "6734600002", "name": "USPS COLLECTION BOX - PO LOBBY", "address": {"city": "GRENOLA", "state": "KS", "street": "115 S MAIN ST", "postcode": "67346"}}},
{"geometry": {"type": "Point", "coordinates": [-95.9411573046, 37.0916797624]}, "type": "Feature", "properties": {"collection_times": [{"days": "Mon-Sat", "time": "2:50pm"}, {"days": "Sun", "time": "Closed"}], "id": "6734700001", "name": "USPS COLLECTION BOX - BLUE BOX", "address": {"city": "HAVANA", "state": "KS", "street": "505 E MARY ST", "postcode": "67347"}}},
{"geometry": {"type": "Point", "coordinates": [-95.9411573046, 37.0916797624]}, "type": "Feature", "properties": {"collection_times": [{"days": "Mon-Sat", "time": "9:45am"}, {"days": "Sun", "time": "Closed"}], "id": "6734700002", "name": "USPS COLLECTION BOX - PO LOBBY", "address": {"city": "HAVANA", "state": "KS", "street": "505 E MARY ST", "postcode": "67347"}}},
{"geometry": {"type": "Point", "coordinates": [-96.2627212946, 37.4689475276]}, "type": "Feature", "properties": {"collection_times": [{"days": "Mon-Sat", "time": "2:40pm"}, {"days": "Sun", "time": "Closed"}], "id": "6734900001", "name": "USPS COLLECTION BOX - BLUE BOX", "address": {"city": "HOWARD", "state": "KS", "street": "135 E RANDOLPH ST", "postcode": "67349"}}},
{"geometry": {"type": "Point", "coordinates": [-96.2627212946, 37.4689475276]}, "type": "Feature", "properties": {"collection_times": [{"days": "Mon-Fri", "time": "2:40pm"}, {"days": "Sat", "time": "9:30am"}, {"days": "Sun", "time": "Closed"}], "id": "6734900002", "name": "USPS COLLECTION BOX - PO LOBBY", "address": {"city": "HOWARD", "state": "KS", "street": "135 E RANDOLPH ST", "postcode": "67349"}}},
{"geometry": {"type": "Point", "coordinates": [-95.5961978623, 37.1555843536]}, "type": "Feature", "properties": {"collection_times": [{"days": "Mon-Sat", "time": "3:10pm"}, {"days": "Sun", "time": "Closed"}], "id": "6735100001", "name": "USPS COLLECTION BOX - BLUE BOX", "address": {"city": "LIBERTY", "state": "KS", "street": "204 MAIN ST", "postcode": "67351"}}},
{"geometry": {"type": "Point", "coordinates": [-95.5961978623, 37.1555843536]}, "type": "Feature", "properties": {"collection_times": [{"days": "Mon-Sat", "time": "9:45am"}, {"days": "Sun", "time": "Closed"}], "id": "6735100002", "name": "USPS COLLECTION BOX - PO LOBBY", "address": {"city": "LIBERTY", "state": "KS", "street": "204 MAIN ST", "postcode": "67351"}}},
{"geometry": {"type": "Point", "coordinates": [-96.0806417532, 37.3792204847]}, "type": "Feature", "properties": {"collection_times": [{"days": "Mon-Sat", "time": "3:20pm"}, {"days": "Sun", "time": "Closed"}], "id": "6735200001", "name": "USPS COLLECTION BOX - BLUE BOX", "address": {"city": "LONGTON", "state": "KS", "street": "416 KANSAS", "postcode": "67352"}}},
{"geometry": {"type": "Point", "coordinates": [-96.0806417532, 37.3792204847]}, "type": "Feature", "properties": {"collection_times": [{"days": "Mon-Fri", "time": "11:15am"}, {"days": "Sat", "time": "8:45am"}, {"days": "Sun", "time": "Closed"}], "id": "6735200002", "name": "USPS COLLECTION BOX - PO LOBBY", "address": {"city": "LONGTON", "state": "KS", "street": "416 KANSAS", "postcode": "67352"}}},
{"geometry": {"type": "Point", "coordinates": [-96.3027844321, 37.3644048718]}, "type": "Feature", "properties": {"collection_times": [{"days": "Mon-Sat", "time": "2:20pm"}, {"days": "Sun", "time": "Closed"}], "id": "6735300001", "name": "USPS COLLECTION BOX - BLUE BOX", "address": {"city": "MOLINE", "state": "KS", "street": "112 N MAIN ST", "postcode": "67353"}}},
{"geometry": {"type": "Point", "coordinates": [-96.3027844321, 37.3644048718]}, "type": "Feature", "properties": {"collection_times": [{"days": "Mon-Fri", "time": "11:45am"}, {"days": "Sat", "time": "9:00am"}, {"days": "Sun", "time": "Closed"}], "id": "6735300002", "name": "USPS COLLECTION BOX - PO LOBBY", "address": {"city": "MOLINE", "state": "KS", "street": "112 N MAIN ST", "postcode": "67353"}}},
{"geometry": {"type": "Point", "coordinates": [-95.4050003961, 37.2081712234]}, "type": "Feature", "properties": {"collection_times": [{"days": "Mon-Sat", "time": "2:55pm"}, {"days": "Sun", "time": "Closed"}], "id": "6735400001", "name": "USPS COLLECTION BOX - BLUE BOX", "address": {"city": "MOUND VALLEY", "state": "KS", "street": "413 HICKORY ST", "postcode": "67354"}}},
{"geometry": {"type": "Point", "coordinates": [-95.4050003961, 37.2081712234]}, "type": "Feature", "properties": {"collection_times": [{"days": "Mon-Fri", "time": "11:15am"}, {"days": "Sat", "time": "8:45am"}, {"days": "Sun", "time": "Closed"}], "id": "6735400002", "name": "USPS COLLECTION BOX - PO LOBBY", "address": {"city": "MOUND VALLEY", "state": "KS", "street": "413 HICKORY ST", "postcode": "67354"}}},
{"geometry": {"type": "Point", "coordinates": [-96.0178874277, 37.0677790126]}, "type": "Feature", "properties": {"collection_times": [{"days": "Mon-Sat", "time": "2:50pm"}, {"days": "Sun", "time": "Closed"}], "id": "6735500001", "name": "USPS COLLECTION BOX - BLUE BOX", "address": {"city": "NIOTAZE", "state": "KS", "street": "102 E NORTH 2ND ST", "postcode": "67355"}}},
{"geometry": {"type": "Point", "coordinates": [-96.0178874277, 37.0677790126]}, "type": "Feature", "properties": {"collection_times": [{"days": "Mon-Sat", "time": "9:45am"}, {"days": "Sun", "time": "Closed"}], "id": "6735500002", "name": "USPS COLLECTION BOX - PO LOBBY", "address": {"city": "NIOTAZE", "state": "KS", "street": "102 E NORTH 2ND ST", "postcode": "67355"}}},
{"geometry": {"type": "Point", "coordinates": [-95.1074956491, 37.165993014]}, "type": "Feature", "properties": {"collection_times": [{"days": "Mon-Fri", "time": "12:00pm"}, {"days": "Sat-Sun", "time": "Closed"}], "id": "6735600001", "name": "USPS COLLECTION BOX - BLUE BOX", "address": {"city": "OSWEGO", "state": "KS", "street": "501 MERCHANT ST", "postcode": "67356"}}},
{"geometry": {"type": "Point", "coordinates": [-95.1215177086, 37.1748714307]}, "type": "Feature", "properties": {"collection_times": [{"days": "Mon-Sat", "time": "2:20pm"}, {"days": "Sun", "time": "Closed"}], "id": "6735600003", "name": "USPS COLLECTION BOX - BLUE BOX", "address": {"city": "OSWEGO", "state": "KS", "street": "819 4TH ST", "postcode": "67356"}}},
{"geometry": {"type": "Point", "coordinates": [-95.1094872881, 37.167074013]}, "type": "Feature", "properties": {"collection_times": [{"days": "Mon-Fri", "time": "2:20pm"}, {"days": "Sat", "time": "10:00am"}, {"days": "Sun", "time": "Closed"}], "id": "6735600005", "name": "USPS COLLECTION BOX - PO LOBBY", "address": {"city": "OSWEGO", "state": "KS", "street": "819 4TH ST", "postcode": "67356"}}},
{"geometry": {"type": "Point", "coordinates": [-95.2608526786, 37.3405775851]}, "type": "Feature", "properties": {"collection_times": [{"days": "Mon-Sat", "time": "2:20pm"}, {"days": "Sun", "time": "Closed"}], "id": "6735700001", "name": "USPS COLLECTION BOX - BLUE BOX", "address": {"city": "PARSONS", "state": "KS", "street": "1700 MAIN ST", "postcode": "67357"}}},
{"geometry": {"type": "Point", "coordinates": [-95.2608526786, 37.3405775851]}, "type": "Feature", "properties": {"collection_times": [{"days": "Mon-Fri", "time": "2:20pm"}, {"days": "Sat", "time": "12:00pm"}, {"days": "Sun", "time": "Closed"}], "id": "6735700011", "name": "USPS COLLECTION BOX - PO LOBBY", "address": {"city": "PARSONS", "state": "KS", "street": "1700 MAIN ST", "postcode": "67357"}}},
{"geometry": {"type": "Point", "coordinates": [-95.2608526786, 37.3405775851]}, "type": "Feature", "properties": {"collection_times": [{"days": "Mon-Sat", "time": "2:20pm"}, {"days": "Sun", "time": "Closed"}], "id": "6735700012", "name": "USPS COLLECTION BOX - BLUE BOX", "address": {"city": "PARSONS", "state": "KS", "street": "1700 MAIN ST", "postcode": "67357"}}},
{"geometry": {"type": "Point", "coordinates": [-96.0956798211, 37.0851524351]}, "type": "Feature", "properties": {"collection_times": [{"days": "Mon-Sat", "time": "2:25pm"}, {"days": "Sun", "time": "Closed"}], "id": "6736000001", "name": "USPS COLLECTION BOX - BLUE BOX", "address": {"city": "PERU", "state": "KS", "street": "101 E 6TH ST", "postcode": "67360"}}},
{"geometry": {"type": "Point", "coordinates": [-96.0956798211, 37.0851524351]}, "type": "Feature", "properties": {"collection_times": [{"days": "Mon-Fri", "time": "2:15pm"}, {"days": "Sat", "time": "11:15am"}, {"days": "Sun", "time": "Closed"}], "id": "6736000002", "name": "USPS COLLECTION BOX - PO LOBBY", "address": {"city": "PERU", "state": "KS", "street": "101 E 6TH ST", "postcode": "67360"}}},
{"geometry": {"type": "Point", "coordinates": [-96.1882526783, 37.1267516455]}, "type": "Feature", "properties": {"collection_times": [{"days": "Mon-Sat", "time": "2:10pm"}, {"days": "Sun", "time": "Closed"}], "id": "6736100001", "name": "USPS COLLECTION BOX - BLUE BOX", "address": {"city": "SEDAN", "state": "KS", "street": "109 S MONTGOMERY ST", "postcode": "67361"}}},
{"geometry": {"type": "Point", "coordinates": [-96.1882742557, 37.1268117896]}, "type": "Feature", "properties": {"collection_times": [{"days": "Mon-Fri", "time": "2:10pm"}, {"days": "Sat", "time": "9:00am"}, {"days": "Sun", "time": "Closed"}], "id": "6736100002", "name": "USPS COLLECTION BOX - PO LOBBY", "address": {"city": "SEDAN", "state": "KS", "street": "205 W MAIN ST", "postcode": "67361"}}},
{"geometry": {"type": "Point", "coordinates": [-95.7108406365, 37.326948343]}, "type": "Feature", "properties": {"collection_times": [{"days": "Mon-Sat", "time": "3:20pm"}, {"days": "Sun", "time": "Closed"}], "id": "6736300001", "name": "USPS COLLECTION BOX - BLUE BOX", "address": {"city": "SYCAMORE", "state": "KS", "street": "102 E MAIN", "postcode": "67363"}}},
{"geometry": {"type": "Point", "coordinates": [-95.7108406365, 37.326948343]}, "type": "Feature", "properties": {"collection_times": [{"days": "Mon-Sat", "time": "9:45am"}, {"days": "Sun", "time": "Closed"}], "id": "6736300002", "name": "USPS COLLECTION BOX - PO LOBBY", "address": {"city": "SYCAMORE", "state": "KS", "street": "102 E MAIN", "postcode": "67363"}}},
{"geometry": {"type": "Point", "coordinates": [-95.8204343093, 37.0362003188]}, "type": "Feature", "properties": {"collection_times": [{"days": "Mon-Sat", "time": "3:25pm"}, {"days": "Sun", "time": "Closed"}], "id": "6736400001", "name": "USPS COLLECTION BOX - BLUE BOX", "address": {"city": "TYRO", "state": "KS", "street": "202 W MAIN ST", "postcode": "67364"}}},
{"geometry": {"type": "Point", "coordinates": [-95.8204343093, 37.0362003188]}, "type": "Feature", "properties": {"collection_times": [{"days": "Mon-Fri", "time": "12:15pm"}, {"days": "Sat", "time": "9:15am"}, {"days": "Sun", "time": "Closed"}], "id": "6736400002", "name": "USPS COLLECTION BOX - PO LOBBY", "address": {"city": "TYRO", "state": "KS", "street": "202 W MAIN ST", "postcode": "67364"}}}
]}
