{"type": "FeatureCollection", "features": [
{"geometry": {"type": "Point", "coordinates": [-97.6095868819, 38.8341915124]}, "type": "Feature", "properties": {"collection_times": [{"days": "Mon-Fri", "time": "4:05pm"}, {"days": "Sat-Sun", "time": "Closed"}], "id": "6740100002", "name": "USPS COLLECTION BOX - BLUE BOX", "address": {"city": "SALINA", "state": "KS", "street": "400 S SANTA FE AVE", "postcode": "67401"}}},
{"geometry": {"type": "Point", "coordinates": [-97.5943686854, 38.8082013946]}, "type": "Feature", "properties": {"collection_times": [{"days": "Mon-Fri", "time": "3:35pm"}, {"days": "Sat", "time": "3:10pm"}, {"days": "Sun", "time": "Closed"}], "id": "6740100007", "name": "USPS COLLECTION BOX - BLUE BOX", "address": {"city": "SALINA", "state": "KS", "street": "2024 S OHIO ST", "postcode": "67401"}}},
{"geometry": {"type": "Point", "coordinates": [-97.6095645201, 38.8374817904]}, "type": "Feature", "properties": {"collection_times": [{"days": "Mon-Fri", "time": "4:05pm"}, {"days": "Sat-Sun", "time": "Closed"}], "id": "6740100030", "name": "USPS COLLECTION BOX - BLUE BOX", "address": {"city": "SALINA", "state": "KS", "street": "228 S SANTA FE AVE", "postcode": "67401"}}},
{"geometry": {"type": "Point", "coordinates": [-97.6118186451, 38.8428850711]}, "type": "Feature", "properties": {"collection_times": [{"days": "Mon-Fri", "time": "2:55pm"}, {"days": "Sat-Sun", "time": "Closed"}], "id": "6740100035", "name": "USPS COLLECTION BOX - BLUE BOX", "address": {"city": "SALINA", "state": "KS", "street": "300 W ASH ST", "postcode": "67401"}}},
{"geometry": {"type": "Point", "coordinates": [-97.6124353291, 38.8723304082]}, "type": "Feature", "properties": {"collection_times": [{"days": "Mon-Sat", "time": "2:10pm"}, {"days": "Sun", "time": "Closed"}], "id": "6740100039", "name": "USPS COLLECTION BOX - BLUE BOX", "address": {"city": "SALINA", "state": "KS", "street": "2125 N 9TH ST", "postcode": "67401"}}},
{"geometry": {"type": "Point", "coordinates": [-97.6319008743, 38.7835296567]}, "type": "Feature", "properties": {"collection_times": [{"days": "Mon-Fri", "time": "3:35pm"}, {"days": "Sat-Sun", "time": "Closed"}], "id": "6740100042", "name": "USPS COLLECTION BOX - BLUE BOX", "address": {"city": "SALINA", "state": "KS", "street": "1605 W SCHILLING RD", "postcode": "67401"}}},
{"geometry": {"type": "Point", "coordinates": [-97.6023950467, 38.8271639878]}, "type": "Feature", "properties": {"collection_times": [{"days": "Mon-Fri", "time": "3:50pm"}, {"days": "Sat-Sun", "time": "Closed"}], "id": "6740100044", "name": "USPS COLLECTION BOX - BLUE BOX", "address": {"city": "SALINA", "state": "KS", "street": "645 E CRAWFORD ST", "postcode": "67401"}}},
{"geometry": {"type": "Point", "coordinates": [-97.6125800837, 38.8025001127]}, "type": "Feature", "properties": {"collection_times": [{"days": "Mon-Fri", "time": "4:05pm"}, {"days": "Sat", "time": "3:20pm"}, {"days": "Sun", "time": "Closed"}], "id": "6740100049", "name": "USPS COLLECTION BOX - BLUE BOX", "address": {"city": "SALINA", "state": "KS", "street": "2259 S 9TH ST", "postcode": "67401"}}},
{"geometry": {"type": "Point", "coordinates": [-97.6125800837, 38.8025001127]}, "type": "Feature", "properties": {"collection_times": [{"days": "Mon-Fri", "time": "4:05pm"}, {"days": "Sat", "time": "3:20pm"}, {"days": "Sun", "time": "Closed"}], "id": "6740100050", "name": "USPS COLLECTION BOX - BLUE BOX", "address": {"city": "SALINA", "state": "KS", "street": "2259 S 9TH ST", "postcode": "67401"}}},
{"geometry": {"type": "Point", "coordinates": [-97.6125800837, 38.8025001127]}, "type": "Feature", "properties": {"collection_times": [{"days": "Mon-Fri", "time": "4:05pm"}, {"days": "Sat", "time": "3:20pm"}, {"days": "Sun", "time": "Closed"}], "id": "6740100051", "name": "USPS COLLECTION BOX - BLUE BOX", "address": {"city": "SALINA", "state": "KS", "street": "2259 S 9TH ST", "postcode": "67401"}}},
{"geometry": {"type": "Point", "coordinates": [-97.6107370315, 38.8401989744]}, "type": "Feature", "properties": {"collection_times": [{"days": "Mon-Fri", "time": "4:05pm"}, {"days": "Sat", "time": "3:40pm"}, {"days": "Sun", "time": "Closed"}], "id": "6740100053", "name": "USPS COLLECTION BOX - BLUE BOX", "address": {"city": "SALINA", "state": "KS", "street": "110 S 7TH ST", "postcode": "67401"}}},
{"geometry": {"type": "Point", "coordinates": [-97.6107370315, 38.8401989744]}, "type": "Feature", "properties": {"collection_times": [{"days": "Mon-Fri", "time": "4:05pm"}, {"days": "Sat", "time": "3:40pm"}, {"days": "Sun", "time": "Closed"}], "id": "6740100055", "name": "USPS COLLECTION BOX - BLUE BOX", "address": {"city": "SALINA", "state": "KS", "street": "110 S 7TH ST", "postcode": "67401"}}},
{"geometry": {"type": "Point", "coordinates": [-97.5854922113, 38.8403493201]}, "type": "Feature", "properties": {"collection_times": [{"days": "Mon-Fri", "time": "3:20pm"}, {"days": "Sat-Sun", "time": "Closed"}], "id": "6740100056", "name": "USPS COLLECTION BOX - BLUE BOX", "address": {"city": "SALINA", "state": "KS", "street": "1700 E IRON AVE", "postcode": "67401"}}},
{"geometry": {"type": "Point", "coordinates": [-97.5854922113, 38.8403493201]}, "type": "Feature", "properties": {"collection_times": [{"days": "Mon-Fri", "time": "3:20pm"}, {"days": "Sat-Sun", "time": "Closed"}], "id": "6740100057", "name": "USPS COLLECTION BOX - BLUE BOX", "address": {"city": "SALINA", "state": "KS", "street": "1700 E IRON AVE", "postcode": "67401"}}},
{"geometry": {"type": "Point", "coordinates": [-97.6077689612, 38.8259039549]}, "type": "Feature", "properties": {"collection_times": [{"days": "Mon-Sat", "time": "5:00pm"}, {"days": "Sun", "time": "Closed"}], "id": "6740100059", "name": "USPS COLLECTION BOX - EXPRESS", "address": {"city": "SALINA", "state": "KS", "street": "211 E ASH ST", "postcode": "67401"}}},
{"geometry": {"type": "Point", "coordinates": [-97.6079589881, 38.842879374]}, "type": "Feature", "properties": {"collection_times": [{"days": "Mon-Sat", "time": "5:00pm"}, {"days": "Sun", "time": "Closed"}], "id": "6740100061", "name": "USPS COLLECTION BOX - BLUE BOX", "address": {"city": "SALINA", "state": "KS", "street": "211 E ASH ST", "postcode": "67401"}}},
{"geometry": {"type": "Point", "coordinates": [-97.6079589881, 38.842879374]}, "type": "Feature", "properties": {"collection_times": [{"days": "Mon-Sat", "time": "5:00pm"}, {"days": "Sun", "time": "Closed"}], "id": "6740100062", "name": "USPS COLLECTION BOX - BLUE BOX", "address": {"city": "SALINA", "state": "KS", "street": "211 E ASH ST", "postcode": "67401"}}},
{"geometry": {"type": "Point", "coordinates": [-97.6079589881, 38.842879374]}, "type": "Feature", "properties": {"collection_times": [{"days": "Mon-Sat", "time": "5:00pm"}, {"days": "Sun", "time": "Closed"}], "id": "6740100063", "name": "USPS COLLECTION BOX - BLUE BOX", "address": {"city": "SALINA", "state": "KS", "street": "211 E ASH ST", "postcode": "67401"}}},
{"geometry": {"type": "Point", "coordinates": [-97.6079589881, 38.842879374]}, "type": "Feature", "properties": {"collection_times": [{"days": "Mon-Sat", "time": "5:00pm"}, {"days": "Sun", "time": "Closed"}], "id": "6740100064", "name": "USPS COLLECTION BOX - BLUE BOX", "address": {"city": "SALINA", "state": "KS", "street": "211 E ASH ST", "postcode": "67401"}}},
{"geometry": {"type": "Point", "coordinates": [-97.5942289136, 38.8122867167]}, "type": "Feature", "properties": {"collection_times": [{"days": "Mon-Fri", "time": "3:40pm"}, {"days": "Sat-Sun", "time": "Closed"}], "id": "6740100068", "name": "USPS COLLECTION BOX - BLUE BOX", "address": {"city": "SALINA", "state": "KS", "street": "1813 S OHIO ST", "postcode": "67401"}}},
{"geometry": {"type": "Point", "coordinates": [-97.6258024684, 38.8271357588]}, "type": "Feature", "properties": {"collection_times": [{"days": "Mon-Fri", "time": "4:25pm"}, {"days": "Sat", "time": "3:30pm"}, {"days": "Sun", "time": "Closed"}], "id": "6740100075", "name": "USPS COLLECTION BOX - BLUE BOX", "address": {"city": "SALINA", "state": "KS", "street": "1201 W CRAWFORD ST", "postcode": "67401"}}},
{"geometry": {"type": "Point", "coordinates": [-97.5943686854, 38.8082013946]}, "type": "Feature", "properties": {"collection_times": [{"days": "Mon-Fri", "time": "3:35pm"}, {"days": "Sat", "time": "3:10pm"}, {"days": "Sun", "time": "Closed"}], "id": "6740100076", "name": "USPS COLLECTION BOX - BLUE BOX", "address": {"city": "SALINA", "state": "KS", "street": "2024 S OHIO ST", "postcode": "67401"}}},
{"geometry": {"type": "Point", "coordinates": [-97.6094609491, 38.8322622474]}, "type": "Feature", "properties": {"collection_times": [{"days": "Mon-Fri", "time": "4:00pm"}, {"days": "Sat-Sun", "time": "Closed"}], "id": "6740100078", "name": "USPS COLLECTION BOX - BLUE BOX", "address": {"city": "SALINA", "state": "KS", "street": "501 S SANTA FE AVE", "postcode": "67401"}}},
{"geometry": {"type": "Point", "coordinates": [-97.6079589881, 38.842879374]}, "type": "Feature", "properties": {"collection_times": [{"days": "Mon-Sat", "time": "5:30pm"}, {"days": "Sun", "time": "Closed"}], "id": "6740100086", "name": "USPS COLLECTION BOX - PO LOBBY", "address": {"city": "SALINA", "state": "KS", "street": "211 E ASH ST", "postcode": "67401"}}},
{"geometry": {"type": "Point", "coordinates": [-97.6079589881, 38.842879374]}, "type": "Feature", "properties": {"collection_times": [{"days": "Mon-Sat", "time": "5:30pm"}, {"days": "Sun", "time": "Closed"}], "id": "6740100087", "name": "USPS COLLECTION BOX - PO LOBBY", "address": {"city": "SALINA", "state": "KS", "street": "211 E ASH ST", "postcode": "67401"}}},
{"geometry": {"type": "Point", "coordinates": [-97.6077689612, 38.8259039549]}, "type": "Feature", "properties": {"collection_times": [{"days": "Mon-Fri", "time": "3:25pm"}, {"days": "Sat", "time": "3:15pm"}, {"days": "Sun", "time": "Closed"}], "id": "6740100098", "name": "USPS COLLECTION BOX - BLUE BOX", "address": {"city": "SALINA", "state": "KS", "street": "2900 S 9TH ST", "postcode": "67401"}}},
{"geometry": {"type": "Point", "coordinates": [-97.6023950467, 38.8271639878]}, "type": "Feature", "properties": {"collection_times": [{"days": "Mon-Fri", "time": "3:50pm"}, {"days": "Sat-Sun", "time": "Closed"}], "id": "6740100099", "name": "USPS COLLECTION BOX - BLUE BOX", "address": {"city": "SALINA", "state": "KS", "street": "645 E CRAWFORD ST", "postcode": "67401"}}},
{"geometry": {"type": "Point", "coordinates": [-97.6013105796, 38.7813378137]}, "type": "Feature", "properties": {"collection_times": [{"days": "Mon-Fri", "time": "3:45pm"}, {"days": "Sat-Sun", "time": "Closed"}], "id": "6740100101", "name": "USPS COLLECTION BOX - BLUE BOX", "address": {"city": "SALINA", "state": "KS", "street": "3030 CORTLAND CIR", "postcode": "67401"}}},
{"geometry": {"type": "Point", "coordinates": [-97.6132248198, 38.798951572]}, "type": "Feature", "properties": {"collection_times": [{"days": "Mon-Fri", "time": "3:15pm"}, {"days": "Sat", "time": "3:25pm"}, {"days": "Sun", "time": "Closed"}], "id": "6740100103", "name": "USPS COLLECTION BOX - BLUE BOX", "address": {"city": "SALINA", "state": "KS", "street": "2350 PLANET AVE", "postcode": "67401"}}},
{"geometry": {"type": "Point", "coordinates": [-97.6129045269, 38.8063703511]}, "type": "Feature", "properties": {"collection_times": [{"days": "Mon-Fri", "time": "3:00pm"}, {"days": "Sat-Sun", "time": "Closed"}], "id": "6740100105", "name": "USPS COLLECTION BOX - BLUE BOX", "address": {"city": "SALINA", "state": "KS", "street": "2106 S 9TH ST", "postcode": "67401"}}},
{"geometry": {"type": "Point", "coordinates": [-97.6095418949, 38.8404193616]}, "type": "Feature", "properties": {"collection_times": [{"days": "Mon-Fri", "time": "4:05pm"}, {"days": "Sat-Sun", "time": "Closed"}], "id": "6740100106", "name": "USPS COLLECTION BOX - BLUE BOX", "address": {"city": "SALINA", "state": "KS", "street": "100 S SANTA FE AVE", "postcode": "67401"}}},
{"geometry": {"type": "Point", "coordinates": [-97.6096046649, 38.8318771819]}, "type": "Feature", "properties": {"collection_times": [{"days": "Mon-Fri", "time": "3:55pm"}, {"days": "Sat-Sun", "time": "Closed"}], "id": "6740100108", "name": "USPS COLLECTION BOX - BLUE BOX", "address": {"city": "SALINA", "state": "KS", "street": "520 S SANTA FE AVE", "postcode": "67401"}}},
{"geometry": {"type": "Point", "coordinates": [-97.2164639017, 38.9174341729]}, "type": "Feature", "properties": {"collection_times": [{"days": "Mon-Sat", "time": "1:30pm"}, {"days": "Sun", "time": "Closed"}], "id": "6741000002", "name": "USPS COLLECTION BOX - BLUE BOX", "address": {"city": "ABILENE", "state": "KS", "street": "301 N CEDAR ST", "postcode": "67410"}}},
{"geometry": {"type": "Point", "coordinates": [-97.2186780637, 38.933451531]}, "type": "Feature", "properties": {"collection_times": [{"days": "Mon-Sat", "time": "1:50pm"}, {"days": "Sun", "time": "Closed"}], "id": "6741000008", "name": "USPS COLLECTION BOX - BLUE BOX", "address": {"city": "ABILENE", "state": "KS", "street": "217 N BUCKEYE AVE", "postcode": "67410"}}},
{"geometry": {"type": "Point", "coordinates": [-97.2186780637, 38.933451531]}, "type": "Feature", "properties": {"collection_times": [{"days": "Mon-Sat", "time": "1:50pm"}, {"days": "Sun", "time": "Closed"}], "id": "6741000009", "name": "USPS COLLECTION BOX - BLUE BOX", "address": {"city": "ABILENE", "state": "KS", "street": "217 N BUCKEYE AVE", "postcode": "67410"}}},
{"geometry": {"type": "Point", "coordinates": [-97.2186780637, 38.933451531]}, "type": "Feature", "properties": {"collection_times": [{"days": "Mon-Sat", "time": "1:50pm"}, {"days": "Sun", "time": "Closed"}], "id": "6741000011", "name": "USPS COLLECTION BOX - PO LOBBY", "address": {"city": "ABILENE", "state": "KS", "street": "217 N BUCKEYE AVE", "postcode": "67410"}}},
{"geometry": {"type": "Point", "coordinates": [-97.2140315751, 38.9310856638]}, "type": "Feature", "properties": {"collection_times": [{"days": "Mon-Sat", "time": "1:30pm"}, {"days": "Sun", "time": "Closed"}], "id": "6741000012", "name": "USPS COLLECTION BOX - BLUE BOX", "address": {"city": "ABILENE", "state": "KS", "street": "1500 N BUCKEYE AVE", "postcode": "67410"}}},
{"geometry": {"type": "Point", "coordinates": [-97.2186780637, 38.933451531]}, "type": "Feature", "properties": {"collection_times": [{"days": "Mon-Sat", "time": "1:50pm"}, {"days": "Sun", "time": "Closed"}], "id": "6741000013", "name": "USPS COLLECTION BOX - PO LOBBY", "address": {"city": "ABILENE", "state": "KS", "street": "217 N BUCKEYE AVE", "postcode": "67410"}}},
{"geometry": {"type": "Point", "coordinates": [-97.604515614, 38.679717417]}, "type": "Feature", "properties": {"collection_times": [{"days": "Mon-Sat", "time": "2:10pm"}, {"days": "Sun", "time": "Closed"}], "id": "6741600001", "name": "USPS COLLECTION BOX - BLUE BOX", "address": {"city": "ASSARIA", "state": "KS", "street": "116 S CENTER ST", "postcode": "67416"}}},
{"geometry": {"type": "Point", "coordinates": [-97.604515614, 38.679717417]}, "type": "Feature", "properties": {"collection_times": [{"days": "Mon-Fri", "time": "11:15am"}, {"days": "Sat", "time": "8:15am"}, {"days": "Sun", "time": "Closed"}], "id": "6741600002", "name": "USPS COLLECTION BOX - PO LOBBY", "address": {"city": "ASSARIA", "state": "KS", "street": "116 S CENTER ST", "postcode": "67416"}}},
{"geometry": {"type": "Point", "coordinates": [-97.5339449737, 39.4520962112]}, "type": "Feature", "properties": {"collection_times": [{"days": "Mon-Fri", "time": "11:45am"}, {"days": "Sat", "time": "12:10pm"}, {"days": "Sun", "time": "Closed"}], "id": "6741700001", "name": "USPS COLLECTION BOX - BLUE BOX", "address": {"city": "AURORA", "state": "KS", "street": "301 MAIN ST", "postcode": "67417"}}},
{"geometry": {"type": "Point", "coordinates": [-97.5339449737, 39.4520962112]}, "type": "Feature", "properties": {"collection_times": [{"days": "Mon-Fri", "time": "10:15am"}, {"days": "Sat", "time": "9:15am"}, {"days": "Sun", "time": "Closed"}], "id": "6741700002", "name": "USPS COLLECTION BOX - PO LOBBY", "address": {"city": "AURORA", "state": "KS", "street": "301 MAIN ST", "postcode": "67417"}}},
{"geometry": {"type": "Point", "coordinates": [-98.0452716894, 39.1894163861]}, "type": "Feature", "properties": {"collection_times": [{"days": "Mon-Sat", "time": "12:55pm"}, {"days": "Sun", "time": "Closed"}], "id": "6741800001", "name": "USPS COLLECTION BOX - BLUE BOX", "address": {"city": "BARNARD", "state": "KS", "street": "316 MAIN ST", "postcode": "67418"}}},
{"geometry": {"type": "Point", "coordinates": [-98.0452716894, 39.1894163861]}, "type": "Feature", "properties": {"collection_times": [{"days": "Mon-Fri", "time": "11:45am"}, {"days": "Sat", "time": "9:00am"}, {"days": "Sun", "time": "Closed"}], "id": "6741800002", "name": "USPS COLLECTION BOX - PO LOBBY", "address": {"city": "BARNARD", "state": "KS", "street": "316 MAIN ST", "postcode": "67418"}}},
{"geometry": {"type": "Point", "coordinates": [-98.1090052703, 39.4591148217]}, "type": "Feature", "properties": {"collection_times": [{"days": "Mon-Sat", "time": "2:30pm"}, {"days": "Sun", "time": "Closed"}], "id": "6742000013", "name": "USPS COLLECTION BOX - BLUE BOX", "address": {"city": "BELOIT", "state": "KS", "street": "201 E MAIN ST", "postcode": "67420"}}},
{"geometry": {"type": "Point", "coordinates": [-98.1090052703, 39.4591148217]}, "type": "Feature", "properties": {"collection_times": [{"days": "Mon-Fri", "time": "2:30pm"}, {"days": "Sat", "time": "9:45am"}, {"days": "Sun", "time": "Closed"}], "id": "6742000015", "name": "USPS COLLECTION BOX - PO LOBBY", "address": {"city": "BELOIT", "state": "KS", "street": "201 E MAIN ST", "postcode": "67420"}}},
{"geometry": {"type": "Point", "coordinates": [-98.1090052703, 39.4591148217]}, "type": "Feature", "properties": {"collection_times": [{"days": "Mon-Sat", "time": "2:30pm"}, {"days": "Sun", "time": "Closed"}], "id": "6742000016", "name": "USPS COLLECTION BOX - BLUE BOX", "address": {"city": "BELOIT", "state": "KS", "street": "201 E MAIN ST", "postcode": "67420"}}},
{"geometry": {"type": "Point", "coordinates": [-97.5935128665, 39.0306752488]}, "type": "Feature", "properties": {"collection_times": [{"days": "Mon-Sat", "time": "1:50pm"}, {"days": "Sun", "time": "Closed"}], "id": "6742200001", "name": "USPS COLLECTION BOX - BLUE BOX", "address": {"city": "BENNINGTON", "state": "KS", "street": "116 N NELSON ST", "postcode": "67422"}}},
{"geometry": {"type": "Point", "coordinates": [-97.5935128665, 39.0306752488]}, "type": "Feature", "properties": {"collection_times": [{"days": "Mon-Fri", "time": "11:15am"}, {"days": "Sat", "time": "8:45am"}, {"days": "Sun", "time": "Closed"}], "id": "6742200002", "name": "USPS COLLECTION BOX - PO LOBBY", "address": {"city": "BENNINGTON", "state": "KS", "street": "116 N NELSON ST", "postcode": "67422"}}},
{"geometry": {"type": "Point", "coordinates": [-97.9749190404, 39.0145248254]}, "type": "Feature", "properties": {"collection_times": [{"days": "Mon-Sat", "time": "1:00pm"}, {"days": "Sun", "time": "Closed"}], "id": "6742300001", "name": "USPS COLLECTION BOX - BLUE BOX", "address": {"city": "BEVERLY", "state": "KS", "street": "108 N MAIN ST", "postcode": "67423"}}},
{"geometry": {"type": "Point", "coordinates": [-97.9749190404, 39.0145248254]}, "type": "Feature", "properties": {"collection_times": [{"days": "Mon-Fri", "time": "11:45am"}, {"days": "Sat", "time": "8:30am"}, {"days": "Sun", "time": "Closed"}], "id": "6742300002", "name": "USPS COLLECTION BOX - PO LOBBY", "address": {"city": "BEVERLY", "state": "KS", "street": "108 N MAIN ST", "postcode": "67423"}}},
{"geometry": {"type": "Point", "coordinates": [-97.866989142, 38.772842845]}, "type": "Feature", "properties": {"collection_times": [{"days": "Mon-Sat", "time": "1:30pm"}, {"days": "Sun", "time": "Closed"}], "id": "6742500001", "name": "USPS COLLECTION BOX - BLUE BOX", "address": {"city": "BROOKVILLE", "state": "KS", "street": "112 E ANDERSON ST", "postcode": "67425"}}},
{"geometry": {"type": "Point", "coordinates": [-97.866989142, 38.772842845]}, "type": "Feature", "properties": {"collection_times": [{"days": "Mon-Fri", "time": "11:15am"}, {"days": "Sat", "time": "8:30am"}, {"days": "Sun", "time": "Closed"}], "id": "6742500002", "name": "USPS COLLECTION BOX - PO LOBBY", "address": {"city": "BROOKVILLE", "state": "KS", "street": "112 E ANDERSON ST", "postcode": "67425"}}},
{"geometry": {"type": "Point", "coordinates": [-98.397177543, 38.5132443992]}, "type": "Feature", "properties": {"collection_times": [{"days": "Mon-Sat", "time": "12:30pm"}, {"days": "Sun", "time": "Closed"}], "id": "6742700001", "name": "USPS COLLECTION BOX - BLUE BOX", "address": {"city": "BUSHTON", "state": "KS", "street": "204 S MAIN ST", "postcode": "67427"}}},
{"geometry": {"type": "Point", "coordinates": [-98.397177543, 38.5132443992]}, "type": "Feature", "properties": {"collection_times": [{"days": "Mon-Fri", "time": "11:45am"}, {"days": "Sat", "time": "9:15am"}, {"days": "Sun", "time": "Closed"}], "id": "6742700002", "name": "USPS COLLECTION BOX - PO LOBBY", "address": {"city": "BUSHTON", "state": "KS", "street": "204 S MAIN ST", "postcode": "67427"}}},
{"geometry": {"type": "Point", "coordinates": [-97.4271149343, 38.3844654919]}, "type": "Feature", "properties": {"collection_times": [{"days": "Mon-Sat", "time": "1:25pm"}, {"days": "Sun", "time": "Closed"}], "id": "6742800001", "name": "USPS COLLECTION BOX - BLUE BOX", "address": {"city": "CANTON", "state": "KS", "street": "120 S MAIN ST", "postcode": "67428"}}},
{"geometry": {"type": "Point", "coordinates": [-97.4271149343, 38.3844654919]}, "type": "Feature", "properties": {"collection_times": [{"days": "Mon-Fri", "time": "1:25pm"}, {"days": "Sat", "time": "9:15am"}, {"days": "Sun", "time": "Closed"}], "id": "6742800002", "name": "USPS COLLECTION BOX - PO LOBBY", "address": {"city": "CANTON", "state": "KS", "street": "120 S MAIN ST", "postcode": "67428"}}},
{"geometry": {"type": "Point", "coordinates": [-98.4345044853, 39.5094869267]}, "type": "Feature", "properties": {"collection_times": [{"days": "Mon-Sat", "time": "1:50pm"}, {"days": "Sun", "time": "Closed"}], "id": "6743000001", "name": "USPS COLLECTION BOX - BLUE BOX", "address": {"city": "CAWKER CITY", "state": "KS", "street": "702 WISCONSIN ST", "postcode": "67430"}}},
{"geometry": {"type": "Point", "coordinates": [-98.4345044853, 39.5094869267]}, "type": "Feature", "properties": {"collection_times": [{"days": "Mon-Fri", "time": "1:30pm"}, {"days": "Sat", "time": "8:45am"}, {"days": "Sun", "time": "Closed"}], "id": "6743000002", "name": "USPS COLLECTION BOX - PO LOBBY", "address": {"city": "CAWKER CITY", "state": "KS", "street": "702 WISCONSIN ST", "postcode": "67430"}}},
{"geometry": {"type": "Point", "coordinates": [-97.0196123035, 38.9715120077]}, "type": "Feature", "properties": {"collection_times": [{"days": "Mon-Sat", "time": "1:20pm"}, {"days": "Sun", "time": "Closed"}], "id": "6743100002", "name": "USPS COLLECTION BOX - BLUE BOX", "address": {"city": "CHAPMAN", "state": "KS", "street": "102 E 5TH ST", "postcode": "67431"}}},
{"geometry": {"type": "Point", "coordinates": [-97.0196123035, 38.9715120077]}, "type": "Feature", "properties": {"collection_times": [{"days": "Mon-Fri", "time": "1:00pm"}, {"days": "Sat", "time": "9:30am"}, {"days": "Sun", "time": "Closed"}], "id": "6743100004", "name": "USPS COLLECTION BOX - PO LOBBY", "address": {"city": "CHAPMAN", "state": "KS", "street": "102 E 5TH ST", "postcode": "67431"}}},
{"geometry": {"type": "Point", "coordinates": [-97.1263767908, 39.3773577372]}, "type": "Feature", "properties": {"collection_times": [{"days": "Mon-Sat", "time": "12:45pm"}, {"days": "Sun", "time": "Closed"}], "id": "6743200001", "name": "USPS COLLECTION BOX - BLUE BOX", "address": {"city": "CLAY CENTER", "state": "KS", "street": "500 LINCOLN AVE", "postcode": "67432"}}},
{"geometry": {"type": "Point", "coordinates": [-97.1263883848, 39.3763623399]}, "type": "Feature", "properties": {"collection_times": [{"days": "Mon-Sat", "time": "12:45pm"}, {"days": "Sun", "time": "Closed"}], "id": "6743200002", "name": "USPS COLLECTION BOX - BLUE BOX", "address": {"city": "CLAY CENTER", "state": "KS", "street": "500 LINCOLN AVE", "postcode": "67432"}}},
{"geometry": {"type": "Point", "coordinates": [-97.1244990095, 39.3773557847]}, "type": "Feature", "properties": {"collection_times": [{"days": "Mon-Sat", "time": "1:05pm"}, {"days": "Sun", "time": "Closed"}], "id": "6743200003", "name": "USPS COLLECTION BOX - BLUE BOX", "address": {"city": "CLAY CENTER", "state": "KS", "street": "806 6TH ST", "postcode": "67432"}}},
{"geometry": {"type": "Point", "coordinates": [-97.1244990095, 39.3773557847]}, "type": "Feature", "properties": {"collection_times": [{"days": "Mon-Sat", "time": "1:05pm"}, {"days": "Sun", "time": "Closed"}], "id": "6743200004", "name": "USPS COLLECTION BOX - BLUE BOX", "address": {"city": "CLAY CENTER", "state": "KS", "street": "806 6TH ST", "postcode": "67432"}}},
{"geometry": {"type": "Point", "coordinates": [-97.1244990095, 39.3773557847]}, "type": "Feature", "properties": {"collection_times": [{"days": "Mon-Fri", "time": "12:45pm"}, {"days": "Sat", "time": "11:45am"}, {"days": "Sun", "time": "Closed"}], "id": "6743200008", "name": "USPS COLLECTION BOX - PO LOBBY", "address": {"city": "CLAY CENTER", "state": "KS", "street": "806 6TH ST", "postcode": "67432"}}},
{"geometry": {"type": "Point", "coordinates": [-97.1442208313, 39.3794184916]}, "type": "Feature", "properties": {"collection_times": [{"days": "Mon-Sat", "time": "12:30pm"}, {"days": "Sun", "time": "Closed"}], "id": "6743200010", "name": "USPS COLLECTION BOX - BLUE BOX", "address": {"city": "CLAY CENTER", "state": "KS", "street": "722 W CRAWFORD ST", "postcode": "67432"}}},
{"geometry": {"type": "Point", "coordinates": [-97.7657240839, 39.2733519245]}, "type": "Feature", "properties": {"collection_times": [{"days": "Mon-Sat", "time": "1:15pm"}, {"days": "Sun", "time": "Closed"}], "id": "6743600001", "name": "USPS COLLECTION BOX - BLUE BOX", "address": {"city": "DELPHOS", "state": "KS", "street": "120 N MAIN ST", "postcode": "67436"}}},
{"geometry": {"type": "Point", "coordinates": [-97.7657240839, 39.2733519245]}, "type": "Feature", "properties": {"collection_times": [{"days": "Mon-Fri", "time": "11:45am"}, {"days": "Sat", "time": "8:45am"}, {"days": "Sun", "time": "Closed"}], "id": "6743600002", "name": "USPS COLLECTION BOX - PO LOBBY", "address": {"city": "DELPHOS", "state": "KS", "street": "120 N MAIN ST", "postcode": "67436"}}},
{"geometry": {"type": "Point", "coordinates": [-98.5445058402, 39.5028804679]}, "type": "Feature", "properties": {"collection_times": [{"days": "Mon-Sat", "time": "1:35pm"}, {"days": "Sun", "time": "Closed"}], "id": "6743700001", "name": "USPS COLLECTION BOX - BLUE BOX", "address": {"city": "DOWNS", "state": "KS", "street": "808 MORGAN AVE", "postcode": "67437"}}},
{"geometry": {"type": "Point", "coordinates": [-98.5445058402, 39.5028804679]}, "type": "Feature", "properties": {"collection_times": [{"days": "Mon-Fri", "time": "1:45pm"}, {"days": "Sat", "time": "8:45am"}, {"days": "Sun", "time": "Closed"}], "id": "6743700002", "name": "USPS COLLECTION BOX - PO LOBBY", "address": {"city": "DOWNS", "state": "KS", "street": "808 MORGAN AVE", "postcode": "67437"}}},
{"geometry": {"type": "Point", "coordinates": [-97.2279571296, 38.485836153]}, "type": "Feature", "properties": {"collection_times": [{"days": "Mon-Sat", "time": "11:40am"}, {"days": "Sun", "time": "Closed"}], "id": "6743800001", "name": "USPS COLLECTION BOX - BLUE BOX", "address": {"city": "DURHAM", "state": "KS", "street": "508 DOUGLAS", "postcode": "67438"}}},
{"geometry": {"type": "Point", "coordinates": [-97.2279571296, 38.485836153]}, "type": "Feature", "properties": {"collection_times": [{"days": "Mon-Fri", "time": "11:15am"}, {"days": "Sat", "time": "9:15am"}, {"days": "Sun", "time": "Closed"}], "id": "6743800002", "name": "USPS COLLECTION BOX - PO LOBBY", "address": {"city": "DURHAM", "state": "KS", "street": "508 DOUGLAS", "postcode": "67438"}}},
{"geometry": {"type": "Point", "coordinates": [-98.2302479527, 38.7306347927]}, "type": "Feature", "properties": {"collection_times": [{"days": "Mon-Sat", "time": "12:45pm"}, {"days": "Sun", "time": "Closed"}], "id": "6743900002", "name": "USPS COLLECTION BOX - BLUE BOX", "address": {"city": "ELLSWORTH", "state": "KS", "street": "123 W 2ND ST", "postcode": "67439"}}},
{"geometry": {"type": "Point", "coordinates": [-98.2302479527, 38.7306347927]}, "type": "Feature", "properties": {"collection_times": [{"days": "Mon-Fri", "time": "12:15pm"}, {"days": "Sat", "time": "10:15am"}, {"days": "Sun", "time": "Closed"}], "id": "6743900004", "name": "USPS COLLECTION BOX - PO LOBBY", "address": {"city": "ELLSWORTH", "state": "KS", "street": "123 W 2ND ST", "postcode": "67439"}}},
{"geometry": {"type": "Point", "coordinates": [-97.1174400754, 38.9053027363]}, "type": "Feature", "properties": {"collection_times": [{"days": "Mon-Sat", "time": "1:15pm"}, {"days": "Sun", "time": "Closed"}], "id": "6744100001", "name": "USPS COLLECTION BOX - BLUE BOX", "address": {"city": "ENTERPRISE", "state": "KS", "street": "113 S FACTORY", "postcode": "67441"}}},
{"geometry": {"type": "Point", "coordinates": [-97.1174400754, 38.9053027363]}, "type": "Feature", "properties": {"collection_times": [{"days": "Mon-Fri", "time": "12:15pm"}, {"days": "Sat", "time": "9:15am"}, {"days": "Sun", "time": "Closed"}], "id": "6744100002", "name": "USPS COLLECTION BOX - PO LOBBY", "address": {"city": "ENTERPRISE", "state": "KS", "street": "113 S FACTORY", "postcode": "67441"}}},
{"geometry": {"type": "Point", "coordinates": [-97.7599690463, 38.6693612649]}, "type": "Feature", "properties": {"collection_times": [{"days": "Mon-Sat", "time": "1:50pm"}, {"days": "Sun", "time": "Closed"}], "id": "6744200001", "name": "USPS COLLECTION BOX - BLUE BOX", "address": {"city": "FALUN", "state": "KS", "street": "209 S MAIN ST", "postcode": "67442"}}},
{"geometry": {"type": "Point", "coordinates": [-97.7599690463, 38.6693612649]}, "type": "Feature", "properties": {"collection_times": [{"days": "Mon-Fri", "time": "11:15am"}, {"days": "Sat", "time": "9:00am"}, {"days": "Sun", "time": "Closed"}], "id": "6744200002", "name": "USPS COLLECTION BOX - PO LOBBY", "address": {"city": "FALUN", "state": "KS", "street": "209 S MAIN ST", "postcode": "67442"}}},
{"geometry": {"type": "Point", "coordinates": [-97.5377125268, 38.3836944873]}, "type": "Feature", "properties": {"collection_times": [{"days": "Mon-Sat", "time": "1:10pm"}, {"days": "Sun", "time": "Closed"}], "id": "6744300001", "name": "USPS COLLECTION BOX - BLUE BOX", "address": {"city": "GALVA", "state": "KS", "street": "216 S MAIN ST", "postcode": "67443"}}},
{"geometry": {"type": "Point", "coordinates": [-97.5377125268, 38.3836944873]}, "type": "Feature", "properties": {"collection_times": [{"days": "Mon-Fri", "time": "1:10pm"}, {"days": "Sat", "time": "9:45am"}, {"days": "Sun", "time": "Closed"}], "id": "6744300002", "name": "USPS COLLECTION BOX - PO LOBBY", "address": {"city": "GALVA", "state": "KS", "street": "216 S MAIN ST", "postcode": "67443"}}},
{"geometry": {"type": "Point", "coordinates": [-98.1563857184, 38.51407935]}, "type": "Feature", "properties": {"collection_times": [{"days": "Mon-Sat", "time": "12:55pm"}, {"days": "Sun", "time": "Closed"}], "id": "6744400001", "name": "USPS COLLECTION BOX - BLUE BOX", "address": {"city": "GENESEO", "state": "KS", "street": "715 MAIN ST", "postcode": "67444"}}},
{"geometry": {"type": "Point", "coordinates": [-98.1563857184, 38.51407935]}, "type": "Feature", "properties": {"collection_times": [{"days": "Mon-Fri", "time": "11:15am"}, {"days": "Sat", "time": "8:45am"}, {"days": "Sun", "time": "Closed"}], "id": "6744400002", "name": "USPS COLLECTION BOX - PO LOBBY", "address": {"city": "GENESEO", "state": "KS", "street": "715 MAIN ST", "postcode": "67444"}}},
{"geometry": {"type": "Point", "coordinates": [-97.8404423427, 39.361110978]}, "type": "Feature", "properties": {"collection_times": [{"days": "Mon-Sat", "time": "12:45pm"}, {"days": "Sun", "time": "Closed"}], "id": "6744500001", "name": "USPS COLLECTION BOX - BLUE BOX", "address": {"city": "GLASCO", "state": "KS", "street": "101 E MAIN ST", "postcode": "67445"}}},
{"geometry": {"type": "Point", "coordinates": [-97.8404423427, 39.361110978]}, "type": "Feature", "properties": {"collection_times": [{"days": "Mon-Fri", "time": "11:45am"}, {"days": "Sat", "time": "9:15am"}, {"days": "Sun", "time": "Closed"}], "id": "6744500002", "name": "USPS COLLECTION BOX - PO LOBBY", "address": {"city": "GLASCO", "state": "KS", "street": "101 E MAIN ST", "postcode": "67445"}}},
{"geometry": {"type": "Point", "coordinates": [-98.3100051157, 39.4991039496]}, "type": "Feature", "properties": {"collection_times": [{"days": "Mon-Sat", "time": "2:10pm"}, {"days": "Sun", "time": "Closed"}], "id": "6744600001", "name": "USPS COLLECTION BOX - BLUE BOX", "address": {"city": "GLEN ELDER", "state": "KS", "street": "228 W MAIN ST", "postcode": "67446"}}},
{"geometry": {"type": "Point", "coordinates": [-98.3100051157, 39.4991039496]}, "type": "Feature", "properties": {"collection_times": [{"days": "Mon-Fri", "time": "11:45am"}, {"days": "Sat", "time": "8:45am"}, {"days": "Sun", "time": "Closed"}], "id": "6744600002", "name": "USPS COLLECTION BOX - PO LOBBY", "address": {"city": "GLEN ELDER", "state": "KS", "street": "228 W MAIN ST", "postcode": "67446"}}},
{"geometry": {"type": "Point", "coordinates": [-96.9983029706, 39.4306052185]}, "type": "Feature", "properties": {"collection_times": [{"days": "Mon-Sat", "time": "12:10pm"}, {"days": "Sun", "time": "Closed"}], "id": "6744700001", "name": "USPS COLLECTION BOX - BLUE BOX", "address": {"city": "GREEN", "state": "KS", "street": "110 DIXON AVE", "postcode": "67447"}}},
{"geometry": {"type": "Point", "coordinates": [-96.9983029706, 39.4306052185]}, "type": "Feature", "properties": {"collection_times": [{"days": "Mon-Fri", "time": "10:45am"}, {"days": "Sat", "time": "9:45am"}, {"days": "Sun", "time": "Closed"}], "id": "6744700002", "name": "USPS COLLECTION BOX - PO LOBBY", "address": {"city": "GREEN", "state": "KS", "street": "110 DIXON AVE", "postcode": "67447"}}},
{"geometry": {"type": "Point", "coordinates": [-97.4275475175, 38.7060911096]}, "type": "Feature", "properties": {"collection_times": [{"days": "Mon-Sat", "time": "1:35pm"}, {"days": "Sun", "time": "Closed"}], "id": "6744800001", "name": "USPS COLLECTION BOX - BLUE BOX", "address": {"city": "GYPSUM", "state": "KS", "street": "520 MAPLE ST", "postcode": "67448"}}},
{"geometry": {"type": "Point", "coordinates": [-97.4275475175, 38.7060911096]}, "type": "Feature", "properties": {"collection_times": [{"days": "Mon-Fri", "time": "1:20pm"}, {"days": "Sat", "time": "8:30am"}, {"days": "Sun", "time": "Closed"}], "id": "6744800002", "name": "USPS COLLECTION BOX - PO LOBBY", "address": {"city": "GYPSUM", "state": "KS", "street": "520 MAPLE ST", "postcode": "67448"}}},
{"geometry": {"type": "Point", "coordinates": [-96.9433635388, 38.6714031263]}, "type": "Feature", "properties": {"collection_times": [{"days": "Mon-Sat", "time": "12:45pm"}, {"days": "Sun", "time": "Closed"}], "id": "6744900001", "name": "USPS COLLECTION BOX - BLUE BOX", "address": {"city": "HERINGTON", "state": "KS", "street": "17 E MAIN ST", "postcode": "67449"}}},
{"geometry": {"type": "Point", "coordinates": [-96.9433635388, 38.6714031263]}, "type": "Feature", "properties": {"collection_times": [{"days": "Mon-Fri", "time": "11:45am"}, {"days": "Sat", "time": "9:45am"}, {"days": "Sun", "time": "Closed"}], "id": "6744900006", "name": "USPS COLLECTION BOX - PO LOBBY", "address": {"city": "HERINGTON", "state": "KS", "street": "17 E MAIN ST", "postcode": "67449"}}},
{"geometry": {"type": "Point", "coordinates": [-96.9433635388, 38.6714031263]}, "type": "Feature", "properties": {"collection_times": [{"days": "Mon-Fri", "time": "11:45am"}, {"days": "Sat", "time": "9:45am"}, {"days": "Sun", "time": "Closed"}], "id": "6744900007", "name": "USPS COLLECTION BOX - PO LOBBY", "address": {"city": "HERINGTON", "state": "KS", "street": "17 E MAIN ST", "postcode": "67449"}}},
{"geometry": {"type": "Point", "coordinates": [-98.4113542355, 38.5868140414]}, "type": "Feature", "properties": {"collection_times": [{"days": "Mon-Sat", "time": "12:15pm"}, {"days": "Sun", "time": "Closed"}], "id": "6745000001", "name": "USPS COLLECTION BOX - BLUE BOX", "address": {"city": "HOLYROOD", "state": "KS", "street": "111 W SANTA FE AVE", "postcode": "67450"}}},
{"geometry": {"type": "Point", "coordinates": [-98.4113542355, 38.5868140414]}, "type": "Feature", "properties": {"collection_times": [{"days": "Mon-Fri", "time": "11:45am"}, {"days": "Sat", "time": "9:15am"}, {"days": "Sun", "time": "Closed"}], "id": "6745000002", "name": "USPS COLLECTION BOX - PO LOBBY", "address": {"city": "HOLYROOD", "state": "KS", "street": "111 W SANTA FE AVE", "postcode": "67450"}}},
{"geometry": {"type": "Point", "coordinates": [-97.0776576634, 38.6891949784]}, "type": "Feature", "properties": {"collection_times": [{"days": "Mon-Sat", "time": "1:00pm"}, {"days": "Sun", "time": "Closed"}], "id": "6745100001", "name": "USPS COLLECTION BOX - BLUE BOX", "address": {"city": "HOPE", "state": "KS", "street": "109 N MAIN ST", "postcode": "67451"}}},
{"geometry": {"type": "Point", "coordinates": [-97.0776576634, 38.6891949784]}, "type": "Feature", "properties": {"collection_times": [{"days": "Mon-Fri", "time": "11:45am"}, {"days": "Sat", "time": "9:15am"}, {"days": "Sun", "time": "Closed"}], "id": "6745100002", "name": "USPS COLLECTION BOX - PO LOBBY", "address": {"city": "HOPE", "state": "KS", "street": "109 N MAIN ST", "postcode": "67451"}}},
{"geometry": {"type": "Point", "coordinates": [-98.3922398937, 39.2339598173]}, "type": "Feature", "properties": {"collection_times": [{"days": "Mon-Sat", "time": "12:55pm"}, {"days": "Sun", "time": "Closed"}], "id": "6745200001", "name": "USPS COLLECTION BOX - BLUE BOX", "address": {"city": "HUNTER", "state": "KS", "street": "201 E 1ST ST", "postcode": "67452"}}},
{"geometry": {"type": "Point", "coordinates": [-98.3922398937, 39.2339598173]}, "type": "Feature", "properties": {"collection_times": [{"days": "Mon-Fri", "time": "10:45am"}, {"days": "Sat", "time": "12:15pm"}, {"days": "Sun", "time": "Closed"}], "id": "6745200002", "name": "USPS COLLECTION BOX - PO LOBBY", "address": {"city": "HUNTER", "state": "KS", "street": "201 E 1ST ST", "postcode": "67452"}}},
{"geometry": {"type": "Point", "coordinates": [-98.1578804945, 38.7102735752]}, "type": "Feature", "properties": {"collection_times": [{"days": "Mon-Sat", "time": "1:00pm"}, {"days": "Sun", "time": "Closed"}], "id": "6745400001", "name": "USPS COLLECTION BOX - BLUE BOX", "address": {"city": "KANOPOLIS", "state": "KS", "street": "101 N KANSAS ST", "postcode": "67454"}}},
{"geometry": {"type": "Point", "coordinates": [-98.1578804945, 38.7102735752]}, "type": "Feature", "properties": {"collection_times": [{"days": "Mon-Fri", "time": "12:45pm"}, {"days": "Sat", "time": "12:15pm"}, {"days": "Sun", "time": "Closed"}], "id": "6745400002", "name": "USPS COLLECTION BOX - PO LOBBY", "address": {"city": "KANOPOLIS", "state": "KS", "street": "101 N KANSAS ST", "postcode": "67454"}}},
{"geometry": {"type": "Point", "coordinates": [-98.1459805003, 39.0400594447]}, "type": "Feature", "properties": {"collection_times": [{"days": "Mon-Sat", "time": "12:40pm"}, {"days": "Sun", "time": "Closed"}], "id": "6745500004", "name": "USPS COLLECTION BOX - BLUE BOX", "address": {"city": "LINCOLN", "state": "KS", "street": "114 S 3RD ST", "postcode": "67455"}}},
{"geometry": {"type": "Point", "coordinates": [-98.1459805003, 39.0400594447]}, "type": "Feature", "properties": {"collection_times": [{"days": "Mon-Fri", "time": "11:45am"}, {"days": "Sat", "time": "9:45am"}, {"days": "Sun", "time": "Closed"}], "id": "6745500005", "name": "USPS COLLECTION BOX - PO LOBBY", "address": {"city": "LINCOLN", "state": "KS", "street": "114 S 3RD ST", "postcode": "67455"}}},
{"geometry": {"type": "Point", "coordinates": [-97.6755401917, 38.5735411236]}, "type": "Feature", "properties": {"collection_times": [{"days": "Mon-Sat", "time": "2:15pm"}, {"days": "Sun", "time": "Closed"}], "id": "6745600003", "name": "USPS COLLECTION BOX - BLUE BOX", "address": {"city": "LINDSBORG", "state": "KS", "street": "125 E LINCOLN ST", "postcode": "67456"}}},
{"geometry": {"type": "Point", "coordinates": [-97.6746811938, 38.573488231]}, "type": "Feature", "properties": {"collection_times": [{"days": "Mon-Fri", "time": "2:15pm"}, {"days": "Sat", "time": "9:45am"}, {"days": "Sun", "time": "Closed"}], "id": "6745600004", "name": "USPS COLLECTION BOX - PO LOBBY", "address": {"city": "LINDSBORG", "state": "KS", "street": "125 E LINCOLN ST", "postcode": "67456"}}},
{"geometry": {"type": "Point", "coordinates": [-97.6746811938, 38.573488231]}, "type": "Feature", "properties": {"collection_times": [{"days": "Mon-Fri", "time": "2:15pm"}, {"days": "Sat", "time": "9:45am"}, {"days": "Sun", "time": "Closed"}], "id": "6745600005", "name": "USPS COLLECTION BOX - PO LOBBY", "address": {"city": "LINDSBORG", "state": "KS", "street": "125 E LINCOLN ST", "postcode": "67456"}}},
{"geometry": {"type": "Point", "coordinates": [-98.0112995442, 38.3990617967]}, "type": "Feature", "properties": {"collection_times": [{"days": "Mon-Sat", "time": "12:25pm"}, {"days": "Sun", "time": "Closed"}], "id": "6745700001", "name": "USPS COLLECTION BOX - BLUE BOX", "address": {"city": "LITTLE RIVER", "state": "KS", "street": "280 MAIN ST", "postcode": "67457"}}},
{"geometry": {"type": "Point", "coordinates": [-98.0112995442, 38.3990617967]}, "type": "Feature", "properties": {"collection_times": [{"days": "Mon-Fri", "time": "11:45am"}, {"days": "Sat-Sun", "time": "Closed"}], "id": "6745700002", "name": "USPS COLLECTION BOX - PO LOBBY", "address": {"city": "LITTLE RIVER", "state": "KS", "street": "280 MAIN ST", "postcode": "67457"}}},
{"geometry": {"type": "Point", "coordinates": [-97.3308748714, 39.1711661056]}, "type": "Feature", "properties": {"collection_times": [{"days": "Mon-Sat", "time": "1:45pm"}, {"days": "Sun", "time": "Closed"}], "id": "6745800001", "name": "USPS COLLECTION BOX - BLUE BOX", "address": {"city": "LONGFORD", "state": "KS", "street": "115 WEDA ST", "postcode": "67458"}}},
{"geometry": {"type": "Point", "coordinates": [-97.3308748714, 39.1711661056]}, "type": "Feature", "properties": {"collection_times": [{"days": "Mon-Fri", "time": "9:45am"}, {"days": "Sat", "time": "8:30am"}, {"days": "Sun", "time": "Closed"}], "id": "6745800002", "name": "USPS COLLECTION BOX - PO LOBBY", "address": {"city": "LONGFORD", "state": "KS", "street": "115 WEDA ST", "postcode": "67458"}}},
{"geometry": {"type": "Point", "coordinates": [-97.6667761038, 38.3857561387]}, "type": "Feature", "properties": {"collection_times": [{"days": "Mon-Sat", "time": "10:30am"}, {"days": "Sun", "time": "Closed"}], "id": "6746000003", "name": "USPS COLLECTION BOX - BLUE BOX", "address": {"city": "MCPHERSON", "state": "KS", "street": "1300 N MAIN ST", "postcode": "67460"}}},
{"geometry": {"type": "Point", "coordinates": [-97.6670730987, 38.3629761911]}, "type": "Feature", "properties": {"collection_times": [{"days": "Mon-Sat", "time": "10:30am"}, {"days": "Sun", "time": "Closed"}], "id": "6746000020", "name": "USPS COLLECTION BOX - BLUE BOX", "address": {"city": "MCPHERSON", "state": "KS", "street": "707 S MAIN ST", "postcode": "67460"}}},
{"geometry": {"type": "Point", "coordinates": [-97.6666642743, 38.3694049797]}, "type": "Feature", "properties": {"collection_times": [{"days": "Mon-Fri", "time": "1:35pm"}, {"days": "Sat", "time": "11:15am"}, {"days": "Sun", "time": "Closed"}], "id": "6746000021", "name": "USPS COLLECTION BOX - PO LOBBY", "address": {"city": "MCPHERSON", "state": "KS", "street": "115 E KANSAS AVE", "postcode": "67460"}}},
{"geometry": {"type": "Point", "coordinates": [-97.6666642743, 38.3694049797]}, "type": "Feature", "properties": {"collection_times": [{"days": "Mon-Fri", "time": "1:35pm"}, {"days": "Sat", "time": "11:15am"}, {"days": "Sun", "time": "Closed"}], "id": "6746000022", "name": "USPS COLLECTION BOX - PO LOBBY", "address": {"city": "MCPHERSON", "state": "KS", "street": "115 E KANSAS AVE", "postcode": "67460"}}},
{"geometry": {"type": "Point", "coordinates": [-97.6299533637, 38.3694427921]}, "type": "Feature", "properties": {"collection_times": [{"days": "Mon-Sat", "time": "11:00am"}, {"days": "Sun", "time": "Closed"}], "id": "6746000024", "name": "USPS COLLECTION BOX - BLUE BOX", "address": {"city": "MCPHERSON", "state": "KS", "street": "205 S CENTENNIAL DR", "postcode": "67460"}}},
{"geometry": {"type": "Point", "coordinates": [-97.6654564459, 38.3695470474]}, "type": "Feature", "properties": {"collection_times": [{"days": "Mon-Sat", "time": "1:35pm"}, {"days": "Sun", "time": "Closed"}], "id": "6746000025", "name": "USPS COLLECTION BOX - BLUE BOX", "address": {"city": "MCPHERSON", "state": "KS", "street": "115 E KANSAS AVE", "postcode": "67460"}}},
{"geometry": {"type": "Point", "coordinates": [-97.8337399722, 38.5537446537]}, "type": "Feature", "properties": {"collection_times": [{"days": "Mon-Sat", "time": "1:30pm"}, {"days": "Sun", "time": "Closed"}], "id": "6746400002", "name": "USPS COLLECTION BOX - BLUE BOX", "address": {"city": "MARQUETTE", "state": "KS", "street": "212 N WASHINGTON", "postcode": "67464"}}},
{"geometry": {"type": "Point", "coordinates": [-97.8337399722, 38.5537446537]}, "type": "Feature", "properties": {"collection_times": [{"days": "Mon-Fri", "time": "1:30pm"}, {"days": "Sat", "time": "8:45am"}, {"days": "Sun", "time": "Closed"}], "id": "6746400003", "name": "USPS COLLECTION BOX - PO LOBBY", "address": {"city": "MARQUETTE", "state": "KS", "street": "212 N WASHINGTON", "postcode": "67464"}}},
{"geometry": {"type": "Point", "coordinates": [-97.4484417506, 39.3492145161]}, "type": "Feature", "properties": {"collection_times": [{"days": "Mon-Sat", "time": "12:30pm"}, {"days": "Sun", "time": "Closed"}], "id": "6746600001", "name": "USPS COLLECTION BOX - BLUE BOX", "address": {"city": "MILTONVALE", "state": "KS", "street": "123 STARR", "postcode": "67466"}}},
{"geometry": {"type": "Point", "coordinates": [-97.4484417506, 39.3492145161]}, "type": "Feature", "properties": {"collection_times": [{"days": "Mon-Fri", "time": "12:00pm"}, {"days": "Sat", "time": "8:45am"}, {"days": "Sun", "time": "Closed"}], "id": "6746600002", "name": "USPS COLLECTION BOX - PO LOBBY", "address": {"city": "MILTONVALE", "state": "KS", "street": "123 STARR", "postcode": "67466"}}},
{"geometry": {"type": "Point", "coordinates": [-97.7061171638, 39.1224022501]}, "type": "Feature", "properties": {"collection_times": [{"days": "Mon-Sat", "time": "1:50pm"}, {"days": "Sun", "time": "Closed"}], "id": "6746700003", "name": "USPS COLLECTION BOX - BLUE BOX", "address": {"city": "MINNEAPOLIS", "state": "KS", "street": "112 W 2ND ST", "postcode": "67467"}}},
{"geometry": {"type": "Point", "coordinates": [-97.7061171638, 39.1224022501]}, "type": "Feature", "properties": {"collection_times": [{"days": "Mon-Fri", "time": "12:45pm"}, {"days": "Sat", "time": "10:45am"}, {"days": "Sun", "time": "Closed"}], "id": "6746700004", "name": "USPS COLLECTION BOX - PO LOBBY", "address": {"city": "MINNEAPOLIS", "state": "KS", "street": "112 W 2ND ST", "postcode": "67467"}}},
{"geometry": {"type": "Point", "coordinates": [-97.2014701931, 39.4664991786]}, "type": "Feature", "properties": {"collection_times": [{"days": "Mon-Sat", "time": "11:45am"}, {"days": "Sun", "time": "Closed"}], "id": "6746800001", "name": "USPS COLLECTION BOX - BLUE BOX", "address": {"city": "MORGANVILLE", "state": "KS", "street": "201 MAIN ST", "postcode": "67468"}}},
{"geometry": {"type": "Point", "coordinates": [-97.2014701931, 39.4664991786]}, "type": "Feature", "properties": {"collection_times": [{"days": "Mon-Fri", "time": "10:45am"}, {"days": "Sat", "time": "9:30am"}, {"days": "Sun", "time": "Closed"}], "id": "6746800002", "name": "USPS COLLECTION BOX - PO LOBBY", "address": {"city": "MORGANVILLE", "state": "KS", "street": "201 MAIN ST", "postcode": "67468"}}},
{"geometry": {"type": "Point", "coordinates": [-97.5063781997, 38.8779240242]}, "type": "Feature", "properties": {"collection_times": [{"days": "Mon-Sat", "time": "2:30pm"}, {"days": "Sun", "time": "Closed"}], "id": "6747000001", "name": "USPS COLLECTION BOX - BLUE BOX", "address": {"city": "NEW CAMBRIA", "state": "KS", "street": "101 S CENTER ST", "postcode": "67470"}}},
{"geometry": {"type": "Point", "coordinates": [-97.5063781997, 38.8779240242]}, "type": "Feature", "properties": {"collection_times": [{"days": "Mon-Fri", "time": "10:00am"}, {"days": "Sat", "time": "9:00am"}, {"days": "Sun", "time": "Closed"}], "id": "6747000002", "name": "USPS COLLECTION BOX - PO LOBBY", "address": {"city": "NEW CAMBRIA", "state": "KS", "street": "101 S CENTER ST", "postcode": "67470"}}},
{"geometry": {"type": "Point", "coordinates": [-98.6971960311, 39.4381345083]}, "type": "Feature", "properties": {"collection_times": [{"days": "Mon-Sat", "time": "1:10pm"}, {"days": "Sun", "time": "Closed"}], "id": "6747300001", "name": "USPS COLLECTION BOX - BLUE BOX", "address": {"city": "OSBORNE", "state": "KS", "street": "233 W MAIN ST", "postcode": "67473"}}},
{"geometry": {"type": "Point", "coordinates": [-98.6971960311, 39.4381345083]}, "type": "Feature", "properties": {"collection_times": [{"days": "Mon-Fri", "time": "12:15pm"}, {"days": "Sat-Sun", "time": "Closed"}], "id": "6747300002", "name": "USPS COLLECTION BOX - PO LOBBY", "address": {"city": "OSBORNE", "state": "KS", "street": "233 W MAIN ST", "postcode": "67473"}}},
{"geometry": {"type": "Point", "coordinates": [-98.6919637036, 39.5618239887]}, "type": "Feature", "properties": {"collection_times": [{"days": "Mon-Sat", "time": "12:50pm"}, {"days": "Sun", "time": "Closed"}], "id": "6747400001", "name": "USPS COLLECTION BOX - BLUE BOX", "address": {"city": "PORTIS", "state": "KS", "street": "411 MARKET ST", "postcode": "67474"}}},
{"geometry": {"type": "Point", "coordinates": [-98.6919637036, 39.5618239887]}, "type": "Feature", "properties": {"collection_times": [{"days": "Mon-Fri", "time": "11:45am"}, {"days": "Sat", "time": "11:15am"}, {"days": "Sun", "time": "Closed"}], "id": "6747400002", "name": "USPS COLLECTION BOX - PO LOBBY", "address": {"city": "PORTIS", "state": "KS", "street": "411 MARKET ST", "postcode": "67474"}}},
{"geometry": {"type": "Point", "coordinates": [-97.0619688415, 38.5962362628]}, "type": "Feature", "properties": {"collection_times": [{"days": "Mon-Fri", "time": "11:45am"}, {"days": "Sat", "time": "12:15pm"}, {"days": "Sun", "time": "Closed"}], "id": "6747500001", "name": "USPS COLLECTION BOX - BLUE BOX", "address": {"city": "RAMONA", "state": "KS", "street": "215 N D ST", "postcode": "67475"}}},
{"geometry": {"type": "Point", "coordinates": [-97.0619688415, 38.5962362628]}, "type": "Feature", "properties": {"collection_times": [{"days": "Mon-Fri", "time": "11:45am"}, {"days": "Sat", "time": "8:30am"}, {"days": "Sun", "time": "Closed"}], "id": "6747500002", "name": "USPS COLLECTION BOX - PO LOBBY", "address": {"city": "RAMONA", "state": "KS", "street": "215 N D ST", "postcode": "67475"}}},
{"geometry": {"type": "Point", "coordinates": [-97.0572418705, 38.5817316762]}, "type": "Feature", "properties": {"collection_times": [{"days": "Mon-Sat", "time": "12:00pm"}, {"days": "Sun", "time": "Closed"}], "id": "6747500003", "name": "USPS COLLECTION BOX - BLUE BOX", "address": {"city": "RAMONA", "state": "KS", "street": "305 N MAIN ST", "postcode": "67475"}}},
{"geometry": {"type": "Point", "coordinates": [-97.4582968015, 38.4665401106]}, "type": "Feature", "properties": {"collection_times": [{"days": "Mon-Sat", "time": "1:50pm"}, {"days": "Sun", "time": "Closed"}], "id": "6747600001", "name": "USPS COLLECTION BOX - BLUE BOX", "address": {"city": "ROXBURY", "state": "KS", "street": "104 S MAIN ST", "postcode": "67476"}}},
{"geometry": {"type": "Point", "coordinates": [-97.4582968015, 38.4665401106]}, "type": "Feature", "properties": {"collection_times": [{"days": "Mon-Fri", "time": "9:45am"}, {"days": "Sat", "time": "9:30am"}, {"days": "Sun", "time": "Closed"}], "id": "6747600002", "name": "USPS COLLECTION BOX - PO LOBBY", "address": {"city": "ROXBURY", "state": "KS", "street": "104 S MAIN ST", "postcode": "67476"}}},
{"geometry": {"type": "Point", "coordinates": [-97.9342155631, 39.3846502679]}, "type": "Feature", "properties": {"collection_times": [{"days": "Mon-Sat", "time": "12:30pm"}, {"days": "Sun", "time": "Closed"}], "id": "6747800001", "name": "USPS COLLECTION BOX - BLUE BOX", "address": {"city": "SIMPSON", "state": "KS", "street": "307 E FRONT ST", "postcode": "67478"}}},
{"geometry": {"type": "Point", "coordinates": [-97.9342155631, 39.3846502679]}, "type": "Feature", "properties": {"collection_times": [{"days": "Mon-Fri", "time": "11:45am"}, {"days": "Sat", "time": "10:45am"}, {"days": "Sun", "time": "Closed"}], "id": "6747800002", "name": "USPS COLLECTION BOX - PO LOBBY", "address": {"city": "SIMPSON", "state": "KS", "street": "307 E FRONT ST", "postcode": "67478"}}},
{"geometry": {"type": "Point", "coordinates": [-97.3712288903, 38.9160901332]}, "type": "Feature", "properties": {"collection_times": [{"days": "Mon-Sat", "time": "2:10pm"}, {"days": "Sun", "time": "Closed"}], "id": "6748000001", "name": "USPS COLLECTION BOX - BLUE BOX", "address": {"city": "SOLOMON", "state": "KS", "street": "122 W MAIN ST", "postcode": "67480"}}},
{"geometry": {"type": "Point", "coordinates": [-97.3712288903, 38.9160901332]}, "type": "Feature", "properties": {"collection_times": [{"days": "Mon-Fri", "time": "1:45pm"}, {"days": "Sat", "time": "8:50am"}, {"days": "Sun", "time": "Closed"}], "id": "6748000002", "name": "USPS COLLECTION BOX - PO LOBBY", "address": {"city": "SOLOMON", "state": "KS", "street": "122 W MAIN ST", "postcode": "67480"}}},
{"geometry": {"type": "Point", "coordinates": [-98.3932159504, 39.0109012945]}, "type": "Feature", "properties": {"collection_times": [{"days": "Mon-Sat", "time": "12:10pm"}, {"days": "Sun", "time": "Closed"}], "id": "6748100001", "name": "USPS COLLECTION BOX - BLUE BOX", "address": {"city": "SYLVAN GROVE", "state": "KS", "street": "103 S MAIN ST", "postcode": "67481"}}},
{"geometry": {"type": "Point", "coordinates": [-98.3932159504, 39.0109012945]}, "type": "Feature", "properties": {"collection_times": [{"days": "Mon-Fri", "time": "11:15am"}, {"days": "Sat", "time": "8:30am"}, {"days": "Sun", "time": "Closed"}], "id": "6748100002", "name": "USPS COLLECTION BOX - PO LOBBY", "address": {"city": "SYLVAN GROVE", "state": "KS", "street": "103 S MAIN ST", "postcode": "67481"}}},
{"geometry": {"type": "Point", "coordinates": [-97.259848963, 39.0272712559]}, "type": "Feature", "properties": {"collection_times": [{"days": "Mon-Sat", "time": "2:10pm"}, {"days": "Sun", "time": "Closed"}], "id": "6748200001", "name": "USPS COLLECTION BOX - BLUE BOX", "address": {"city": "TALMAGE", "state": "KS", "street": "2970 MAIN ST", "postcode": "67482"}}},
{"geometry": {"type": "Point", "coordinates": [-97.259848963, 39.0272712559]}, "type": "Feature", "properties": {"collection_times": [{"days": "Mon-Fri", "time": "9:45am"}, {"days": "Sat", "time": "8:30am"}, {"days": "Sun", "time": "Closed"}], "id": "6748200002", "name": "USPS COLLECTION BOX - PO LOBBY", "address": {"city": "TALMAGE", "state": "KS", "street": "2970 MAIN ST", "postcode": "67482"}}},
{"geometry": {"type": "Point", "coordinates": [-97.8758042603, 39.0102210635]}, "type": "Feature", "properties": {"collection_times": [{"days": "Mon-Sat", "time": "1:25pm"}, {"days": "Sun", "time": "Closed"}], "id": "6748400001", "name": "USPS COLLECTION BOX - BLUE BOX", "address": {"city": "TESCOTT", "state": "KS", "street": "101 S MAIN ST", "postcode": "67484"}}},
{"geometry": {"type": "Point", "coordinates": [-97.8758042603, 39.0102210635]}, "type": "Feature", "properties": {"collection_times": [{"days": "Mon-Fri", "time": "11:45am"}, {"days": "Sat", "time": "9:15am"}, {"days": "Sun", "time": "Closed"}], "id": "6748400003", "name": "USPS COLLECTION BOX - PO LOBBY", "address": {"city": "TESCOTT", "state": "KS", "street": "101 S MAIN ST", "postcode": "67484"}}},
{"geometry": {"type": "Point", "coordinates": [-98.4707424231, 39.3399273713]}, "type": "Feature", "properties": {"collection_times": [{"days": "Mon-Fri", "time": "1:10pm"}, {"days": "Sat", "time": "1:05pm"}, {"days": "Sun", "time": "Closed"}], "id": "6748500001", "name": "USPS COLLECTION BOX - BLUE BOX", "address": {"city": "TIPTON", "state": "KS", "street": "506 MAIN ST", "postcode": "67485"}}},
{"geometry": {"type": "Point", "coordinates": [-98.4707424231, 39.3399273713]}, "type": "Feature", "properties": {"collection_times": [{"days": "Mon-Fri", "time": "1:10pm"}, {"days": "Sat", "time": "9:30am"}, {"days": "Sun", "time": "Closed"}], "id": "6748500002", "name": "USPS COLLECTION BOX - PO LOBBY", "address": {"city": "TIPTON", "state": "KS", "street": "506 MAIN ST", "postcode": "67485"}}},
{"geometry": {"type": "Point", "coordinates": [-97.0150981716, 39.217767852]}, "type": "Feature", "properties": {"collection_times": [{"days": "Mon-Sat", "time": "12:50pm"}, {"days": "Sun", "time": "Closed"}], "id": "6748700001", "name": "USPS COLLECTION BOX - BLUE BOX", "address": {"city": "WAKEFIELD", "state": "KS", "street": "713 ELM ST", "postcode": "67487"}}},
{"geometry": {"type": "Point", "coordinates": [-97.0150981716, 39.217767852]}, "type": "Feature", "properties": {"collection_times": [{"days": "Mon-Fri", "time": "11:45am"}, {"days": "Sat", "time": "9:45am"}, {"days": "Sun", "time": "Closed"}], "id": "6748700002", "name": "USPS COLLECTION BOX - PO LOBBY", "address": {"city": "WAKEFIELD", "state": "KS", "street": "713 ELM ST", "postcode": "67487"}}},
{"geometry": {"type": "Point", "coordinates": [-98.4735578026, 38.827209506]}, "type": "Feature", "properties": {"collection_times": [{"days": "Mon-Sat", "time": "12:10pm"}, {"days": "Sun", "time": "Closed"}], "id": "6749000001", "name": "USPS COLLECTION BOX - BLUE BOX", "address": {"city": "WILSON", "state": "KS", "street": "2404 AVENUE E", "postcode": "67490"}}},
{"geometry": {"type": "Point", "coordinates": [-98.4735578026, 38.827209506]}, "type": "Feature", "properties": {"collection_times": [{"days": "Mon-Fri", "time": "11:45am"}, {"days": "Sat", "time": "9:45am"}, {"days": "Sun", "time": "Closed"}], "id": "6749000002", "name": "USPS COLLECTION BOX - PO LOBBY", "address": {"city": "WILSON", "state": "KS", "street": "2404 AVENUE E", "postcode": "67490"}}},
{"geometry": {"type": "Point", "coordinates": [-97.9104436259, 38.3807247538]}, "type": "Feature", "properties": {"collection_times": [{"days": "Mon-Sat", "time": "12:50pm"}, {"days": "Sun", "time": "Closed"}], "id": "6749100001", "name": "USPS COLLECTION BOX - BLUE BOX", "address": {"city": "WINDOM", "state": "KS", "street": "701 MAIN ST", "postcode": "67491"}}},
{"geometry": {"type": "Point", "coordinates": [-97.9104436259, 38.3807247538]}, "type": "Feature", "properties": {"collection_times": [{"days": "Mon-Fri", "time": "11:50am"}, {"days": "Sat", "time": "9:00am"}, {"days": "Sun", "time": "Closed"}], "id": "6749100002", "name": "USPS COLLECTION BOX - PO LOBBY", "address": {"city": "WINDOM", "state": "KS", "street": "701 MAIN ST", "postcode": "67491"}}},
{"geometry": {"type": "Point", "coordinates": [-96.9573598361, 38.79589037]}, "type": "Feature", "properties": {"collection_times": [{"days": "Mon-Sat", "time": "12:50pm"}, {"days": "Sun", "time": "Closed"}], "id": "6749200001", "name": "USPS COLLECTION BOX - BLUE BOX", "address": {"city": "WOODBINE", "state": "KS", "street": "3 N BROADWAY", "postcode": "67492"}}},
{"geometry": {"type": "Point", "coordinates": [-96.9573598361, 38.79589037]}, "type": "Feature", "properties": {"collection_times": [{"days": "Mon-Fri", "time": "11:45am"}, {"days": "Sat", "time": "10:45am"}, {"days": "Sun", "time": "Closed"}], "id": "6749200002", "name": "USPS COLLECTION BOX - PO LOBBY", "address": {"city": "WOODBINE", "state": "KS", "street": "3 N BROADWAY", "postcode": "67492"}}}
]}
