{"type": "FeatureCollection", "features": [
{"geometry": {"type": "Point", "coordinates": [-97.935640294, 38.058478539]}, "type": "Feature", "properties": {"collection_times": [{"days": "Mon-Sat", "time": "3:00pm"}, {"days": "Sun", "time": "Closed"}], "id": "6750100004", "name": "USPS COLLECTION BOX - BLUE BOX", "address": {"city": "HUTCHINSON", "state": "KS", "street": "206 W 5TH AVE", "postcode": "67501"}}},
{"geometry": {"type": "Point", "coordinates": [-97.933939023, 38.0562309302]}, "type": "Feature", "properties": {"collection_times": [{"days": "Mon-Sat", "time": "3:00pm"}, {"days": "Sun", "time": "Closed"}], "id": "6750100005", "name": "USPS COLLECTION BOX - BLUE BOX", "address": {"city": "HUTCHINSON", "state": "KS", "street": "335 N WASHINGTON ST", "postcode": "67501"}}},
{"geometry": {"type": "Point", "coordinates": [-97.9318555151, 38.0645000028]}, "type": "Feature", "properties": {"collection_times": [{"days": "Mon-Sat", "time": "3:00pm"}, {"days": "Sun", "time": "Closed"}], "id": "6750100007", "name": "USPS COLLECTION BOX - BLUE BOX", "address": {"city": "HUTCHINSON", "state": "KS", "street": "1020 N MAIN ST", "postcode": "67501"}}},
{"geometry": {"type": "Point", "coordinates": [-97.9297090425, 38.0534278544]}, "type": "Feature", "properties": {"collection_times": [{"days": "Mon-Sat", "time": "6:45pm"}, {"days": "Sun", "time": "Closed"}], "id": "6750100012", "name": "USPS COLLECTION BOX - BLUE BOX", "address": {"city": "HUTCHINSON", "state": "KS", "street": "128 E 1ST AVE", "postcode": "67501"}}},
{"geometry": {"type": "Point", "coordinates": [-97.9297090425, 38.0534278544]}, "type": "Feature", "properties": {"collection_times": [{"days": "Mon-Sat", "time": "6:30pm"}, {"days": "Sun", "time": "Closed"}], "id": "6750100034", "name": "USPS COLLECTION BOX - PO LOBBY", "address": {"city": "HUTCHINSON", "state": "KS", "street": "128 E 1ST AVE", "postcode": "67501"}}},
{"geometry": {"type": "Point", "coordinates": [-97.9037348619, 38.0705662159]}, "type": "Feature", "properties": {"collection_times": [{"days": "Mon-Sat", "time": "5:00pm"}, {"days": "Sun", "time": "Closed"}], "id": "6750100035", "name": "USPS COLLECTION BOX - BLUE BOX", "address": {"city": "HUTCHINSON", "state": "KS", "street": "1600 N LORRAINE ST", "postcode": "67501"}}},
{"geometry": {"type": "Point", "coordinates": [-97.9037348619, 38.0705662159]}, "type": "Feature", "properties": {"collection_times": [{"days": "Mon-Sat", "time": "5:00pm"}, {"days": "Sun", "time": "Closed"}], "id": "6750100036", "name": "USPS COLLECTION BOX - BLUE BOX", "address": {"city": "HUTCHINSON", "state": "KS", "street": "1600 N LORRAINE ST", "postcode": "67501"}}},
{"geometry": {"type": "Point", "coordinates": [-97.8913915094, 38.0721833473]}, "type": "Feature", "properties": {"collection_times": [{"days": "Mon-Sat", "time": "10:30am"}, {"days": "Sun", "time": "Closed"}], "id": "6750100038", "name": "USPS COLLECTION BOX - BLUE BOX", "address": {"city": "HUTCHINSON", "state": "KS", "street": "1905 E 17TH AVE", "postcode": "67501"}}},
{"geometry": {"type": "Point", "coordinates": [-97.9297090425, 38.0534278544]}, "type": "Feature", "properties": {"collection_times": [{"days": "Mon-Sat", "time": "6:30pm"}, {"days": "Sun", "time": "Closed"}], "id": "6750100041", "name": "USPS COLLECTION BOX - PO LOBBY", "address": {"city": "HUTCHINSON", "state": "KS", "street": "128 E 1ST AVE", "postcode": "67501"}}},
{"geometry": {"type": "Point", "coordinates": [-97.932361303, 38.0834234622]}, "type": "Feature", "properties": {"collection_times": [{"days": "Mon-Sat", "time": "3:00pm"}, {"days": "Sun", "time": "Closed"}], "id": "6750200000", "name": "USPS COLLECTION BOX - BLUE BOX", "address": {"city": "HUTCHINSON", "state": "KS", "street": "2727 N MAIN ST", "postcode": "67502"}}},
{"geometry": {"type": "Point", "coordinates": [-97.9053447679, 38.0865851448]}, "type": "Feature", "properties": {"collection_times": [{"days": "Mon-Sat", "time": "3:00pm"}, {"days": "Sun", "time": "Closed"}], "id": "6750200001", "name": "USPS COLLECTION BOX - BLUE BOX", "address": {"city": "HUTCHINSON", "state": "KS", "street": "1320 E 30TH AVE", "postcode": "67502"}}},
{"geometry": {"type": "Point", "coordinates": [-97.9215891641, 38.0864896898]}, "type": "Feature", "properties": {"collection_times": [{"days": "Mon-Sat", "time": "5:00pm"}, {"days": "Sun", "time": "Closed"}], "id": "6750200004", "name": "USPS COLLECTION BOX - BLUE BOX", "address": {"city": "HUTCHINSON", "state": "KS", "street": "517 E 30TH AVE", "postcode": "67502"}}},
{"geometry": {"type": "Point", "coordinates": [-97.9215891641, 38.0864896898]}, "type": "Feature", "properties": {"collection_times": [{"days": "Mon-Sat", "time": "5:00pm"}, {"days": "Sun", "time": "Closed"}], "id": "6750200009", "name": "USPS COLLECTION BOX - BLUE BOX", "address": {"city": "HUTCHINSON", "state": "KS", "street": "517 E 30TH AVE", "postcode": "67502"}}},
{"geometry": {"type": "Point", "coordinates": [-97.9404009835, 38.0328052689]}, "type": "Feature", "properties": {"collection_times": [{"days": "Mon-Sat", "time": "3:15pm"}, {"days": "Sun", "time": "Closed"}], "id": "6750500001", "name": "USPS COLLECTION BOX - BLUE BOX", "address": {"city": "HUTCHINSON", "state": "KS", "street": "401 N MAIN ST", "postcode": "67505"}}},
{"geometry": {"type": "Point", "coordinates": [-98.204438665, 37.9700719897]}, "type": "Feature", "properties": {"collection_times": [{"days": "Mon-Sat", "time": "3:30pm"}, {"days": "Sun", "time": "Closed"}], "id": "6751000001", "name": "USPS COLLECTION BOX - BLUE BOX", "address": {"city": "ABBYVILLE", "state": "KS", "street": "108 N MAIN ST", "postcode": "67510"}}},
{"geometry": {"type": "Point", "coordinates": [-98.2044788663, 37.9701242614]}, "type": "Feature", "properties": {"collection_times": [{"days": "Mon-Fri", "time": "11:45am"}, {"days": "Sat", "time": "9:45am"}, {"days": "Sun", "time": "Closed"}], "id": "6751000002", "name": "USPS COLLECTION BOX - PO LOBBY", "address": {"city": "ABBYVILLE", "state": "KS", "street": "108 N MAIN ST", "postcode": "67510"}}},
{"geometry": {"type": "Point", "coordinates": [-99.0131081507, 38.452583042]}, "type": "Feature", "properties": {"collection_times": [{"days": "Mon-Sat", "time": "3:45pm"}, {"days": "Sun", "time": "Closed"}], "id": "6751100001", "name": "USPS COLLECTION BOX - BLUE BOX", "address": {"city": "ALBERT", "state": "KS", "street": "2002 MAIN ST", "postcode": "67511"}}},
{"geometry": {"type": "Point", "coordinates": [-99.0131081507, 38.452583042]}, "type": "Feature", "properties": {"collection_times": [{"days": "Mon-Fri", "time": "1:45pm"}, {"days": "Sat", "time": "10:45am"}, {"days": "Sun", "time": "Closed"}], "id": "6751100003", "name": "USPS COLLECTION BOX - PO LOBBY", "address": {"city": "ALBERT", "state": "KS", "street": "2002 MAIN ST", "postcode": "67511"}}},
{"geometry": {"type": "Point", "coordinates": [-98.3120211213, 38.2436580263]}, "type": "Feature", "properties": {"collection_times": [{"days": "Mon-Fri", "time": "3:55pm"}, {"days": "Sat", "time": "12:55pm"}, {"days": "Sun", "time": "Closed"}], "id": "6751200001", "name": "USPS COLLECTION BOX - BLUE BOX", "address": {"city": "ALDEN", "state": "KS", "street": "204 PIONEER ST", "postcode": "67512"}}},
{"geometry": {"type": "Point", "coordinates": [-98.3120211213, 38.2436580263]}, "type": "Feature", "properties": {"collection_times": [{"days": "Mon-Fri", "time": "10:30am"}, {"days": "Sat", "time": "8:30am"}, {"days": "Sun", "time": "Closed"}], "id": "6751200002", "name": "USPS COLLECTION BOX - PO LOBBY", "address": {"city": "ALDEN", "state": "KS", "street": "204 PIONEER ST", "postcode": "67512"}}},
{"geometry": {"type": "Point", "coordinates": [-99.5523679348, 38.4658897692]}, "type": "Feature", "properties": {"collection_times": [{"days": "Mon-Sat", "time": "3:00pm"}, {"days": "Sun", "time": "Closed"}], "id": "6751300001", "name": "USPS COLLECTION BOX - BLUE BOX", "address": {"city": "ALEXANDER", "state": "KS", "street": "103 MAIN ST", "postcode": "67513"}}},
{"geometry": {"type": "Point", "coordinates": [-99.5523679348, 38.4658897692]}, "type": "Feature", "properties": {"collection_times": [{"days": "Mon-Fri", "time": "2:45pm"}, {"days": "Sat", "time": "2:15pm"}, {"days": "Sun", "time": "Closed"}], "id": "6751300002", "name": "USPS COLLECTION BOX - PO LOBBY", "address": {"city": "ALEXANDER", "state": "KS", "street": "103 MAIN ST", "postcode": "67513"}}},
{"geometry": {"type": "Point", "coordinates": [-98.1749460486, 37.8963869688]}, "type": "Feature", "properties": {"collection_times": [{"days": "Mon-Sat", "time": "3:15pm"}, {"days": "Sun", "time": "Closed"}], "id": "6751400001", "name": "USPS COLLECTION BOX - BLUE BOX", "address": {"city": "ARLINGTON", "state": "KS", "street": "111 W MAIN ST", "postcode": "67514"}}},
{"geometry": {"type": "Point", "coordinates": [-98.1749460486, 37.8963869688]}, "type": "Feature", "properties": {"collection_times": [{"days": "Mon-Fri", "time": "11:45am"}, {"days": "Sat", "time": "8:30am"}, {"days": "Sun", "time": "Closed"}], "id": "6751400002", "name": "USPS COLLECTION BOX - PO LOBBY", "address": {"city": "ARLINGTON", "state": "KS", "street": "111 W MAIN ST", "postcode": "67514"}}},
{"geometry": {"type": "Point", "coordinates": [-99.6911908417, 38.4440836931]}, "type": "Feature", "properties": {"collection_times": [{"days": "Mon-Sat", "time": "2:45pm"}, {"days": "Sun", "time": "Closed"}], "id": "6751600001", "name": "USPS COLLECTION BOX - BLUE BOX", "address": {"city": "BAZINE", "state": "KS", "street": "207 S MAIN ST", "postcode": "67516"}}},
{"geometry": {"type": "Point", "coordinates": [-99.6911908417, 38.4440836931]}, "type": "Feature", "properties": {"collection_times": [{"days": "Mon-Fri", "time": "12:15pm"}, {"days": "Sat", "time": "10:45am"}, {"days": "Sun", "time": "Closed"}], "id": "6751600002", "name": "USPS COLLECTION BOX - PO LOBBY", "address": {"city": "BAZINE", "state": "KS", "street": "207 S MAIN ST", "postcode": "67516"}}},
{"geometry": {"type": "Point", "coordinates": [-99.0990121383, 37.9505690303]}, "type": "Feature", "properties": {"collection_times": [{"days": "Mon-Sat", "time": "2:55pm"}, {"days": "Sun", "time": "Closed"}], "id": "6751900001", "name": "USPS COLLECTION BOX - BLUE BOX", "address": {"city": "BELPRE", "state": "KS", "street": "506 DUDLEY ST", "postcode": "67519"}}},
{"geometry": {"type": "Point", "coordinates": [-99.0990121383, 37.9505690303]}, "type": "Feature", "properties": {"collection_times": [{"days": "Mon-Fri", "time": "2:45pm"}, {"days": "Sat", "time": "10:45am"}, {"days": "Sun", "time": "Closed"}], "id": "6751900002", "name": "USPS COLLECTION BOX - PO LOBBY", "address": {"city": "BELPRE", "state": "KS", "street": "506 DUDLEY ST", "postcode": "67519"}}},
{"geometry": {"type": "Point", "coordinates": [-99.1982792366, 38.5192091373]}, "type": "Feature", "properties": {"collection_times": [{"days": "Mon-Sat", "time": "3:40pm"}, {"days": "Sun", "time": "Closed"}], "id": "6752000001", "name": "USPS COLLECTION BOX - BLUE BOX", "address": {"city": "BISON", "state": "KS", "street": "219 MAIN ST", "postcode": "67520"}}},
{"geometry": {"type": "Point", "coordinates": [-99.1982792366, 38.5192091373]}, "type": "Feature", "properties": {"collection_times": [{"days": "Mon-Fri", "time": "11:15am"}, {"days": "Sat", "time": "8:45am"}, {"days": "Sun", "time": "Closed"}], "id": "6752000002", "name": "USPS COLLECTION BOX - PO LOBBY", "address": {"city": "BISON", "state": "KS", "street": "219 MAIN ST", "postcode": "67520"}}},
{"geometry": {"type": "Point", "coordinates": [-99.697124359, 38.6247970907]}, "type": "Feature", "properties": {"collection_times": [{"days": "Mon-Sat", "time": "2:30pm"}, {"days": "Sun", "time": "Closed"}], "id": "6752100001", "name": "USPS COLLECTION BOX - BLUE BOX", "address": {"city": "BROWNELL", "state": "KS", "street": "100 W STATE ROAD 4", "postcode": "67521"}}},
{"geometry": {"type": "Point", "coordinates": [-99.697124359, 38.6247970907]}, "type": "Feature", "properties": {"collection_times": [{"days": "Mon-Fri", "time": "12:15pm"}, {"days": "Sat", "time": "9:55am"}, {"days": "Sun", "time": "Closed"}], "id": "6752100002", "name": "USPS COLLECTION BOX - PO LOBBY", "address": {"city": "BROWNELL", "state": "KS", "street": "100 W STATE ROAD 4", "postcode": "67521"}}},
{"geometry": {"type": "Point", "coordinates": [-97.7705054603, 38.1348275271]}, "type": "Feature", "properties": {"collection_times": [{"days": "Mon-Sat", "time": "3:50pm"}, {"days": "Sun", "time": "Closed"}], "id": "6752200001", "name": "USPS COLLECTION BOX - BLUE BOX", "address": {"city": "BUHLER", "state": "KS", "street": "106 N MAIN ST", "postcode": "67522"}}},
{"geometry": {"type": "Point", "coordinates": [-97.7705054603, 38.1348275271]}, "type": "Feature", "properties": {"collection_times": [{"days": "Mon-Fri", "time": "3:40pm"}, {"days": "Sat", "time": "10:15am"}, {"days": "Sun", "time": "Closed"}], "id": "6752200002", "name": "USPS COLLECTION BOX - PO LOBBY", "address": {"city": "BUHLER", "state": "KS", "street": "106 N MAIN ST", "postcode": "67522"}}},
{"geometry": {"type": "Point", "coordinates": [-99.5271436292, 38.1917463888]}, "type": "Feature", "properties": {"collection_times": [{"days": "Mon-Sat", "time": "2:10pm"}, {"days": "Sun", "time": "Closed"}], "id": "6752300001", "name": "USPS COLLECTION BOX - BLUE BOX", "address": {"city": "BURDETT", "state": "KS", "street": "202 ELM ST", "postcode": "67523"}}},
{"geometry": {"type": "Point", "coordinates": [-99.5271436292, 38.1917463888]}, "type": "Feature", "properties": {"collection_times": [{"days": "Mon-Fri", "time": "11:45am"}, {"days": "Sat", "time": "9:45am"}, {"days": "Sun", "time": "Closed"}], "id": "6752300002", "name": "USPS COLLECTION BOX - PO LOBBY", "address": {"city": "BURDETT", "state": "KS", "street": "202 ELM ST", "postcode": "67523"}}},
{"geometry": {"type": "Point", "coordinates": [-98.349529266, 38.3540170187]}, "type": "Feature", "properties": {"collection_times": [{"days": "Mon-Sat", "time": "3:35pm"}, {"days": "Sun", "time": "Closed"}], "id": "6752400001", "name": "USPS COLLECTION BOX - BLUE BOX", "address": {"city": "CHASE", "state": "KS", "street": "513 MAIN ST", "postcode": "67524"}}},
{"geometry": {"type": "Point", "coordinates": [-98.349529266, 38.3540170187]}, "type": "Feature", "properties": {"collection_times": [{"days": "Mon-Fri", "time": "11:45am"}, {"days": "Sat", "time": "9:15am"}, {"days": "Sun", "time": "Closed"}], "id": "6752400002", "name": "USPS COLLECTION BOX - PO LOBBY", "address": {"city": "CHASE", "state": "KS", "street": "513 MAIN ST", "postcode": "67524"}}},
{"geometry": {"type": "Point", "coordinates": [-98.5335349679, 38.5237470853]}, "type": "Feature", "properties": {"collection_times": [{"days": "Mon-Sat", "time": "4:00pm"}, {"days": "Sun", "time": "Closed"}], "id": "6752500001", "name": "USPS COLLECTION BOX - BLUE BOX", "address": {"city": "CLAFLIN", "state": "KS", "street": "218 MAIN ST", "postcode": "67525"}}},
{"geometry": {"type": "Point", "coordinates": [-98.5335349679, 38.5237470853]}, "type": "Feature", "properties": {"collection_times": [{"days": "Mon-Fri", "time": "2:10pm"}, {"days": "Sat", "time": "9:45am"}, {"days": "Sun", "time": "Closed"}], "id": "6752500003", "name": "USPS COLLECTION BOX - PO LOBBY", "address": {"city": "CLAFLIN", "state": "KS", "street": "218 MAIN ST", "postcode": "67525"}}},
{"geometry": {"type": "Point", "coordinates": [-98.5811232693, 38.355708993]}, "type": "Feature", "properties": {"collection_times": [{"days": "Mon-Sat", "time": "3:10pm"}, {"days": "Sun", "time": "Closed"}], "id": "6752600001", "name": "USPS COLLECTION BOX - BLUE BOX", "address": {"city": "ELLINWOOD", "state": "KS", "street": "200 N MAIN ST", "postcode": "67526"}}},
{"geometry": {"type": "Point", "coordinates": [-98.5811232693, 38.355708993]}, "type": "Feature", "properties": {"collection_times": [{"days": "Mon-Fri", "time": "3:00pm"}, {"days": "Sat", "time": "10:15am"}, {"days": "Sun", "time": "Closed"}], "id": "6752600002", "name": "USPS COLLECTION BOX - PO LOBBY", "address": {"city": "ELLINWOOD", "state": "KS", "street": "200 N MAIN ST", "postcode": "67526"}}},
{"geometry": {"type": "Point", "coordinates": [-99.2409941178, 38.0436448724]}, "type": "Feature", "properties": {"collection_times": [{"days": "Mon-Sat", "time": "2:50pm"}, {"days": "Sun", "time": "Closed"}], "id": "6752900001", "name": "USPS COLLECTION BOX - BLUE BOX", "address": {"city": "GARFIELD", "state": "KS", "street": "213 3RD ST", "postcode": "67529"}}},
{"geometry": {"type": "Point", "coordinates": [-99.2409941178, 38.0436448724]}, "type": "Feature", "properties": {"collection_times": [{"days": "Mon-Fri", "time": "11:45am"}, {"days": "Sat", "time": "9:00am"}, {"days": "Sun", "time": "Closed"}], "id": "6752900002", "name": "USPS COLLECTION BOX - PO LOBBY", "address": {"city": "GARFIELD", "state": "KS", "street": "213 3RD ST", "postcode": "67529"}}},
{"geometry": {"type": "Point", "coordinates": [-98.8063504084, 38.3740313776]}, "type": "Feature", "properties": {"collection_times": [{"days": "Mon-Fri", "time": "3:00pm"}, {"days": "Sat", "time": "1:00pm"}, {"days": "Sun", "time": "Closed"}], "id": "6753000005", "name": "USPS COLLECTION BOX - BLUE BOX", "address": {"city": "GREAT BEND", "state": "KS", "street": "1649 K 96 HWY", "postcode": "67530"}}},
{"geometry": {"type": "Point", "coordinates": [-98.7652044982, 38.3646950904]}, "type": "Feature", "properties": {"collection_times": [{"days": "Mon-Fri", "time": "3:00pm"}, {"days": "Sat", "time": "1:00pm"}, {"days": "Sun", "time": "Closed"}], "id": "6753000007", "name": "USPS COLLECTION BOX - BLUE BOX", "address": {"city": "GREAT BEND", "state": "KS", "street": "1321 MAIN ST", "postcode": "67530"}}},
{"geometry": {"type": "Point", "coordinates": [-98.7652461709, 38.369898848]}, "type": "Feature", "properties": {"collection_times": [{"days": "Mon-Fri", "time": "3:00pm"}, {"days": "Sat", "time": "1:00pm"}, {"days": "Sun", "time": "Closed"}], "id": "6753000008", "name": "USPS COLLECTION BOX - BLUE BOX", "address": {"city": "GREAT BEND", "state": "KS", "street": "1811 MAIN ST", "postcode": "67530"}}},
{"geometry": {"type": "Point", "coordinates": [-98.7875849383, 38.3665037805]}, "type": "Feature", "properties": {"collection_times": [{"days": "Mon-Fri", "time": "3:00pm"}, {"days": "Sat", "time": "1:00pm"}, {"days": "Sun", "time": "Closed"}], "id": "6753000010", "name": "USPS COLLECTION BOX - BLUE BOX", "address": {"city": "GREAT BEND", "state": "KS", "street": "3600 BROADWAY AVE", "postcode": "67530"}}},
{"geometry": {"type": "Point", "coordinates": [-98.7666216093, 38.3677058267]}, "type": "Feature", "properties": {"collection_times": [{"days": "Mon-Sat", "time": "5:00pm"}, {"days": "Sun", "time": "Closed"}], "id": "6753000020", "name": "USPS COLLECTION BOX - BLUE BOX", "address": {"city": "GREAT BEND", "state": "KS", "street": "2100 16TH ST", "postcode": "67530"}}},
{"geometry": {"type": "Point", "coordinates": [-98.7666216093, 38.3677058267]}, "type": "Feature", "properties": {"collection_times": [{"days": "Mon-Sat", "time": "5:00pm"}, {"days": "Sun", "time": "Closed"}], "id": "6753000021", "name": "USPS COLLECTION BOX - BLUE BOX", "address": {"city": "GREAT BEND", "state": "KS", "street": "2100 16TH ST", "postcode": "67530"}}},
{"geometry": {"type": "Point", "coordinates": [-98.7666216093, 38.3677058267]}, "type": "Feature", "properties": {"collection_times": [{"days": "Mon-Fri", "time": "5:00pm"}, {"days": "Sat", "time": "11:30am"}, {"days": "Sun", "time": "Closed"}], "id": "6753000025", "name": "USPS COLLECTION BOX - PO LOBBY", "address": {"city": "GREAT BEND", "state": "KS", "street": "2100 16TH ST", "postcode": "67530"}}},
{"geometry": {"type": "Point", "coordinates": [-98.7864015237, 38.3617471042]}, "type": "Feature", "properties": {"collection_times": [{"days": "Mon-Sat", "time": "3:00pm"}, {"days": "Sun", "time": "Closed"}], "id": "6753000026", "name": "USPS COLLECTION BOX - BLUE BOX", "address": {"city": "GREAT BEND", "state": "KS", "street": "3503 10TH ST", "postcode": "67530"}}},
{"geometry": {"type": "Point", "coordinates": [-97.7825757507, 37.9012932925]}, "type": "Feature", "properties": {"collection_times": [{"days": "Mon-Sat", "time": "3:20pm"}, {"days": "Sun", "time": "Closed"}], "id": "6754300001", "name": "USPS COLLECTION BOX - BLUE BOX", "address": {"city": "HAVEN", "state": "KS", "street": "106 N KANSAS ST", "postcode": "67543"}}},
{"geometry": {"type": "Point", "coordinates": [-97.7825757507, 37.9012932925]}, "type": "Feature", "properties": {"collection_times": [{"days": "Mon-Fri", "time": "3:10pm"}, {"days": "Sat", "time": "10:15am"}, {"days": "Sun", "time": "Closed"}], "id": "6754300002", "name": "USPS COLLECTION BOX - PO LOBBY", "address": {"city": "HAVEN", "state": "KS", "street": "106 N KANSAS ST", "postcode": "67543"}}},
{"geometry": {"type": "Point", "coordinates": [-98.7771185139, 38.514776373]}, "type": "Feature", "properties": {"collection_times": [{"days": "Mon-Sat", "time": "4:30pm"}, {"days": "Sun", "time": "Closed"}], "id": "6754400001", "name": "USPS COLLECTION BOX - BLUE BOX", "address": {"city": "HOISINGTON", "state": "KS", "street": "121 E 2ND ST", "postcode": "67544"}}},
{"geometry": {"type": "Point", "coordinates": [-98.7771185139, 38.514776373]}, "type": "Feature", "properties": {"collection_times": [{"days": "Mon-Fri", "time": "4:15pm"}, {"days": "Sat", "time": "10:00am"}, {"days": "Sun", "time": "Closed"}], "id": "6754400005", "name": "USPS COLLECTION BOX - PO LOBBY", "address": {"city": "HOISINGTON", "state": "KS", "street": "121 E 2ND ST", "postcode": "67544"}}},
{"geometry": {"type": "Point", "coordinates": [-97.7757512228, 38.2307580954]}, "type": "Feature", "properties": {"collection_times": [{"days": "Mon-Sat", "time": "4:10pm"}, {"days": "Sun", "time": "Closed"}], "id": "6754600001", "name": "USPS COLLECTION BOX - BLUE BOX", "address": {"city": "INMAN", "state": "KS", "street": "210 S MAIN ST", "postcode": "67546"}}},
{"geometry": {"type": "Point", "coordinates": [-97.7757512228, 38.2307580954]}, "type": "Feature", "properties": {"collection_times": [{"days": "Mon-Fri", "time": "4:00pm"}, {"days": "Sat", "time": "10:15am"}, {"days": "Sun", "time": "Closed"}], "id": "6754600002", "name": "USPS COLLECTION BOX - PO LOBBY", "address": {"city": "INMAN", "state": "KS", "street": "210 S MAIN ST", "postcode": "67546"}}},
{"geometry": {"type": "Point", "coordinates": [-99.4112975765, 37.919219341]}, "type": "Feature", "properties": {"collection_times": [{"days": "Mon-Sat", "time": "2:20pm"}, {"days": "Sun", "time": "Closed"}], "id": "6754700004", "name": "USPS COLLECTION BOX - BLUE BOX", "address": {"city": "KINSLEY", "state": "KS", "street": "717 MARSH AVE", "postcode": "67547"}}},
{"geometry": {"type": "Point", "coordinates": [-99.4112975765, 37.919219341]}, "type": "Feature", "properties": {"collection_times": [{"days": "Mon-Fri", "time": "2:10pm"}, {"days": "Sat", "time": "10:15am"}, {"days": "Sun", "time": "Closed"}], "id": "6754700006", "name": "USPS COLLECTION BOX - PO LOBBY", "address": {"city": "KINSLEY", "state": "KS", "street": "717 MARSH AVE", "postcode": "67547"}}},
{"geometry": {"type": "Point", "coordinates": [-99.3092508636, 38.5306027079]}, "type": "Feature", "properties": {"collection_times": [{"days": "Mon-Sat", "time": "3:25pm"}, {"days": "Sun", "time": "Closed"}], "id": "6754800001", "name": "USPS COLLECTION BOX - BLUE BOX", "address": {"city": "LA CROSSE", "state": "KS", "street": "122 E 8TH ST", "postcode": "67548"}}},
{"geometry": {"type": "Point", "coordinates": [-99.3092508636, 38.5306027079]}, "type": "Feature", "properties": {"collection_times": [{"days": "Mon-Fri", "time": "3:15pm"}, {"days": "Sat", "time": "10:15am"}, {"days": "Sun", "time": "Closed"}], "id": "6754800003", "name": "USPS COLLECTION BOX - PO LOBBY", "address": {"city": "LA CROSSE", "state": "KS", "street": "122 E 8TH ST", "postcode": "67548"}}},
{"geometry": {"type": "Point", "coordinates": [-99.0984087379, 38.1816169585]}, "type": "Feature", "properties": {"collection_times": [{"days": "Mon-Sat", "time": "3:20pm"}, {"days": "Sun", "time": "Closed"}], "id": "6755000004", "name": "USPS COLLECTION BOX - BLUE BOX", "address": {"city": "LARNED", "state": "KS", "street": "803 BROADWAY ST", "postcode": "67550"}}},
{"geometry": {"type": "Point", "coordinates": [-99.0984087379, 38.1816169585]}, "type": "Feature", "properties": {"collection_times": [{"days": "Mon-Sat", "time": "3:10pm"}, {"days": "Sun", "time": "Closed"}], "id": "6755000006", "name": "USPS COLLECTION BOX - PO LOBBY", "address": {"city": "LARNED", "state": "KS", "street": "803 BROADWAY ST", "postcode": "67550"}}},
{"geometry": {"type": "Point", "coordinates": [-99.0984087379, 38.1816169585]}, "type": "Feature", "properties": {"collection_times": [{"days": "Mon-Sat", "time": "3:10pm"}, {"days": "Sun", "time": "Closed"}], "id": "6755000007", "name": "USPS COLLECTION BOX - PO LOBBY", "address": {"city": "LARNED", "state": "KS", "street": "803 BROADWAY ST", "postcode": "67550"}}},
{"geometry": {"type": "Point", "coordinates": [-99.254648147, 37.9392824799]}, "type": "Feature", "properties": {"collection_times": [{"days": "Mon-Fri", "time": "11:45am"}, {"days": "Sat", "time": "8:45am"}, {"days": "Sun", "time": "Closed"}], "id": "6755200002", "name": "USPS COLLECTION BOX - PO LOBBY", "address": {"city": "LEWIS", "state": "KS", "street": "123 MAIN ST", "postcode": "67552"}}},
{"geometry": {"type": "Point", "coordinates": [-99.254648147, 37.9392824799]}, "type": "Feature", "properties": {"collection_times": [{"days": "Mon-Sat", "time": "2:40pm"}, {"days": "Sun", "time": "Closed"}], "id": "6755200003", "name": "USPS COLLECTION BOX - BLUE BOX", "address": {"city": "LEWIS", "state": "KS", "street": "123 MAIN ST", "postcode": "67552"}}},
{"geometry": {"type": "Point", "coordinates": [-98.2031816995, 38.3479655179]}, "type": "Feature", "properties": {"collection_times": [{"days": "Mon-Sat", "time": "3:55pm"}, {"days": "Sun", "time": "Closed"}], "id": "6755400004", "name": "USPS COLLECTION BOX - BLUE BOX", "address": {"city": "LYONS", "state": "KS", "street": "121 EAST AVE N", "postcode": "67554"}}},
{"geometry": {"type": "Point", "coordinates": [-98.2031816995, 38.3479655179]}, "type": "Feature", "properties": {"collection_times": [{"days": "Mon-Fri", "time": "3:30pm"}, {"days": "Sat", "time": "9:15am"}, {"days": "Sun", "time": "Closed"}], "id": "6755400007", "name": "USPS COLLECTION BOX - PO LOBBY", "address": {"city": "LYONS", "state": "KS", "street": "121 EAST AVE N", "postcode": "67554"}}},
{"geometry": {"type": "Point", "coordinates": [-99.5697182757, 38.5854401246]}, "type": "Feature", "properties": {"collection_times": [{"days": "Mon-Sat", "time": "2:55pm"}, {"days": "Sun", "time": "Closed"}], "id": "6755600001", "name": "USPS COLLECTION BOX - BLUE BOX", "address": {"city": "MCCRACKEN", "state": "KS", "street": "307 MAIN ST", "postcode": "67556"}}},
{"geometry": {"type": "Point", "coordinates": [-99.5697182757, 38.5854401246]}, "type": "Feature", "properties": {"collection_times": [{"days": "Mon-Fri", "time": "12:00pm"}, {"days": "Sat", "time": "9:45am"}, {"days": "Sun", "time": "Closed"}], "id": "6755600002", "name": "USPS COLLECTION BOX - PO LOBBY", "address": {"city": "MCCRACKEN", "state": "KS", "street": "307 MAIN ST", "postcode": "67556"}}},
{"geometry": {"type": "Point", "coordinates": [-98.9680372116, 37.9580252703]}, "type": "Feature", "properties": {"collection_times": [{"days": "Mon-Sat", "time": "3:10pm"}, {"days": "Sun", "time": "Closed"}], "id": "6755700001", "name": "USPS COLLECTION BOX - BLUE BOX", "address": {"city": "MACKSVILLE", "state": "KS", "street": "214 N MAIN ST", "postcode": "67557"}}},
{"geometry": {"type": "Point", "coordinates": [-98.9680372116, 37.9580252703]}, "type": "Feature", "properties": {"collection_times": [{"days": "Mon-Fri", "time": "2:00pm"}, {"days": "Sat", "time": "11:30am"}, {"days": "Sun", "time": "Closed"}], "id": "6755700002", "name": "USPS COLLECTION BOX - PO LOBBY", "address": {"city": "MACKSVILLE", "state": "KS", "street": "214 N MAIN ST", "postcode": "67557"}}},
{"geometry": {"type": "Point", "coordinates": [-99.9063613929, 38.4527307876]}, "type": "Feature", "properties": {"collection_times": [{"days": "Mon-Sat", "time": "2:25pm"}, {"days": "Sun", "time": "Closed"}], "id": "6756000002", "name": "USPS COLLECTION BOX - BLUE BOX", "address": {"city": "NESS CITY", "state": "KS", "street": "108 S KANSAS AVE", "postcode": "67560"}}},
{"geometry": {"type": "Point", "coordinates": [-99.9063613929, 38.4527307876]}, "type": "Feature", "properties": {"collection_times": [{"days": "Mon-Fri", "time": "2:10pm"}, {"days": "Sat", "time": "11:15am"}, {"days": "Sun", "time": "Closed"}], "id": "6756000003", "name": "USPS COLLECTION BOX - PO LOBBY", "address": {"city": "NESS CITY", "state": "KS", "street": "108 S KANSAS AVE", "postcode": "67560"}}},
{"geometry": {"type": "Point", "coordinates": [-98.0821972561, 38.1464063416]}, "type": "Feature", "properties": {"collection_times": [{"days": "Mon-Sat", "time": "4:40pm"}, {"days": "Sun", "time": "Closed"}], "id": "6756100001", "name": "USPS COLLECTION BOX - BLUE BOX", "address": {"city": "NICKERSON", "state": "KS", "street": "6 N NICKERSON ST", "postcode": "67561"}}},
{"geometry": {"type": "Point", "coordinates": [-98.0821972561, 38.1464063416]}, "type": "Feature", "properties": {"collection_times": [{"days": "Mon-Fri", "time": "3:15pm"}, {"days": "Sat", "time": "9:45am"}, {"days": "Sun", "time": "Closed"}], "id": "6756100002", "name": "USPS COLLECTION BOX - PO LOBBY", "address": {"city": "NICKERSON", "state": "KS", "street": "6 N NICKERSON ST", "postcode": "67561"}}},
{"geometry": {"type": "Point", "coordinates": [-98.0821972561, 38.1464063416]}, "type": "Feature", "properties": {"collection_times": [{"days": "Mon-Fri", "time": "3:15pm"}, {"days": "Sat", "time": "9:45am"}, {"days": "Sun", "time": "Closed"}], "id": "6756100004", "name": "USPS COLLECTION BOX - PO LOBBY", "address": {"city": "NICKERSON", "state": "KS", "street": "6 N NICKERSON ST", "postcode": "67561"}}},
{"geometry": {"type": "Point", "coordinates": [-99.5579193949, 37.8919888467]}, "type": "Feature", "properties": {"collection_times": [{"days": "Mon-Sat", "time": "12:00pm"}, {"days": "Sun", "time": "Closed"}], "id": "6756300001", "name": "USPS COLLECTION BOX - BLUE BOX", "address": {"city": "OFFERLE", "state": "KS", "street": "116 S MAIN ST", "postcode": "67563"}}},
{"geometry": {"type": "Point", "coordinates": [-98.9363501702, 38.5144079957]}, "type": "Feature", "properties": {"collection_times": [{"days": "Mon-Sat", "time": "4:15pm"}, {"days": "Sun", "time": "Closed"}], "id": "6756400001", "name": "USPS COLLECTION BOX - BLUE BOX", "address": {"city": "OLMITZ", "state": "KS", "street": "223 MAIN ST", "postcode": "67564"}}},
{"geometry": {"type": "Point", "coordinates": [-98.9363501702, 38.5144079957]}, "type": "Feature", "properties": {"collection_times": [{"days": "Mon-Fri", "time": "2:10pm"}, {"days": "Sat", "time": "12:30pm"}, {"days": "Sun", "time": "Closed"}], "id": "6756400002", "name": "USPS COLLECTION BOX - PO LOBBY", "address": {"city": "OLMITZ", "state": "KS", "street": "223 MAIN ST", "postcode": "67564"}}},
{"geometry": {"type": "Point", "coordinates": [-99.0513395392, 38.5386499774]}, "type": "Feature", "properties": {"collection_times": [{"days": "Mon-Sat", "time": "4:00pm"}, {"days": "Sun", "time": "Closed"}], "id": "6756500001", "name": "USPS COLLECTION BOX - BLUE BOX", "address": {"city": "OTIS", "state": "KS", "street": "100 N MAIN ST", "postcode": "67565"}}},
{"geometry": {"type": "Point", "coordinates": [-99.0513395392, 38.5386499774]}, "type": "Feature", "properties": {"collection_times": [{"days": "Mon-Fri", "time": "11:15am"}, {"days": "Sat", "time": "8:45am"}, {"days": "Sun", "time": "Closed"}], "id": "6756500002", "name": "USPS COLLECTION BOX - PO LOBBY", "address": {"city": "OTIS", "state": "KS", "street": "100 N MAIN ST", "postcode": "67565"}}},
{"geometry": {"type": "Point", "coordinates": [-98.09211845, 37.9686435041]}, "type": "Feature", "properties": {"collection_times": [{"days": "Mon-Sat", "time": "3:45pm"}, {"days": "Sun", "time": "Closed"}], "id": "6756600001", "name": "USPS COLLECTION BOX - BLUE BOX", "address": {"city": "PARTRIDGE", "state": "KS", "street": "24 S MAIN ST", "postcode": "67566"}}},
{"geometry": {"type": "Point", "coordinates": [-98.09211845, 37.9686435041]}, "type": "Feature", "properties": {"collection_times": [{"days": "Mon-Fri", "time": "3:30pm"}, {"days": "Sat", "time": "11:45am"}, {"days": "Sun", "time": "Closed"}], "id": "6756600002", "name": "USPS COLLECTION BOX - PO LOBBY", "address": {"city": "PARTRIDGE", "state": "KS", "street": "24 S MAIN ST", "postcode": "67566"}}},
{"geometry": {"type": "Point", "coordinates": [-98.9813528127, 38.265685758]}, "type": "Feature", "properties": {"collection_times": [{"days": "Mon-Sat", "time": "3:40pm"}, {"days": "Sun", "time": "Closed"}], "id": "6756700001", "name": "USPS COLLECTION BOX - BLUE BOX", "address": {"city": "PAWNEE ROCK", "state": "KS", "street": "501 CENTRE ST", "postcode": "67567"}}},
{"geometry": {"type": "Point", "coordinates": [-98.9813528127, 38.265685758]}, "type": "Feature", "properties": {"collection_times": [{"days": "Mon-Fri", "time": "11:45am"}, {"days": "Sat", "time": "8:45am"}, {"days": "Sun", "time": "Closed"}], "id": "6756700002", "name": "USPS COLLECTION BOX - PO LOBBY", "address": {"city": "PAWNEE ROCK", "state": "KS", "street": "501 CENTRE ST", "postcode": "67567"}}},
{"geometry": {"type": "Point", "coordinates": [-98.0196705061, 37.7808008764]}, "type": "Feature", "properties": {"collection_times": [{"days": "Mon-Sat", "time": "2:40pm"}, {"days": "Sun", "time": "Closed"}], "id": "6757000001", "name": "USPS COLLECTION BOX - BLUE BOX", "address": {"city": "PRETTY PRAIRIE", "state": "KS", "street": "114 W MAIN ST", "postcode": "67570"}}},
{"geometry": {"type": "Point", "coordinates": [-98.0196705061, 37.7808008764]}, "type": "Feature", "properties": {"collection_times": [{"days": "Mon-Fri", "time": "1:45pm"}, {"days": "Sat", "time": "9:45am"}, {"days": "Sun", "time": "Closed"}], "id": "6757000002", "name": "USPS COLLECTION BOX - PO LOBBY", "address": {"city": "PRETTY PRAIRIE", "state": "KS", "street": "114 W MAIN ST", "postcode": "67570"}}},
{"geometry": {"type": "Point", "coordinates": [-99.9314903173, 38.6345599069]}, "type": "Feature", "properties": {"collection_times": [{"days": "Mon-Sat", "time": "2:05pm"}, {"days": "Sun", "time": "Closed"}], "id": "6757200001", "name": "USPS COLLECTION BOX - BLUE BOX", "address": {"city": "RANSOM", "state": "KS", "street": "417 S VERMONT AVE", "postcode": "67572"}}},
{"geometry": {"type": "Point", "coordinates": [-99.9314903173, 38.6345599069]}, "type": "Feature", "properties": {"collection_times": [{"days": "Mon-Fri", "time": "12:25pm"}, {"days": "Sat", "time": "9:10am"}, {"days": "Sun", "time": "Closed"}], "id": "6757200002", "name": "USPS COLLECTION BOX - PO LOBBY", "address": {"city": "RANSOM", "state": "KS", "street": "417 S VERMONT AVE", "postcode": "67572"}}},
{"geometry": {"type": "Point", "coordinates": [-98.4157326994, 38.277931092]}, "type": "Feature", "properties": {"collection_times": [{"days": "Mon-Sat", "time": "3:35pm"}, {"days": "Sun", "time": "Closed"}], "id": "6757300001", "name": "USPS COLLECTION BOX - BLUE BOX", "address": {"city": "RAYMOND", "state": "KS", "street": "402 MAIN ST", "postcode": "67573"}}},
{"geometry": {"type": "Point", "coordinates": [-98.4157326994, 38.277931092]}, "type": "Feature", "properties": {"collection_times": [{"days": "Mon-Fri", "time": "10:40am"}, {"days": "Sat", "time": "10:30am"}, {"days": "Sun", "time": "Closed"}], "id": "6757300002", "name": "USPS COLLECTION BOX - PO LOBBY", "address": {"city": "RAYMOND", "state": "KS", "street": "402 MAIN ST", "postcode": "67573"}}},
{"geometry": {"type": "Point", "coordinates": [-99.4008504371, 38.1922124027]}, "type": "Feature", "properties": {"collection_times": [{"days": "Mon-Sat", "time": "2:30pm"}, {"days": "Sun", "time": "Closed"}], "id": "6757400001", "name": "USPS COLLECTION BOX - BLUE BOX", "address": {"city": "ROZEL", "state": "KS", "street": "108 N MAIN ST", "postcode": "67574"}}},
{"geometry": {"type": "Point", "coordinates": [-99.4008504371, 38.1922124027]}, "type": "Feature", "properties": {"collection_times": [{"days": "Mon-Fri", "time": "11:45am"}, {"days": "Sat", "time": "9:15am"}, {"days": "Sun", "time": "Closed"}], "id": "6757400002", "name": "USPS COLLECTION BOX - PO LOBBY", "address": {"city": "ROZEL", "state": "KS", "street": "108 N MAIN ST", "postcode": "67574"}}},
{"geometry": {"type": "Point", "coordinates": [-99.3088947969, 38.4674226053]}, "type": "Feature", "properties": {"collection_times": [{"days": "Mon-Sat", "time": "3:25pm"}, {"days": "Sun", "time": "Closed"}], "id": "6757500001", "name": "USPS COLLECTION BOX - BLUE BOX", "address": {"city": "RUSH CENTER", "state": "KS", "street": "221 N MAIN ST", "postcode": "67575"}}},
{"geometry": {"type": "Point", "coordinates": [-99.3088947969, 38.4674226053]}, "type": "Feature", "properties": {"collection_times": [{"days": "Mon-Fri", "time": "11:15am"}, {"days": "Sat", "time": "8:45am"}, {"days": "Sun", "time": "Closed"}], "id": "6757500002", "name": "USPS COLLECTION BOX - PO LOBBY", "address": {"city": "RUSH CENTER", "state": "KS", "street": "221 N MAIN ST", "postcode": "67575"}}},
{"geometry": {"type": "Point", "coordinates": [-98.7616299338, 38.001745407]}, "type": "Feature", "properties": {"collection_times": [{"days": "Mon-Sat", "time": "3:30pm"}, {"days": "Sun", "time": "Closed"}], "id": "6757600004", "name": "USPS COLLECTION BOX - BLUE BOX", "address": {"city": "SAINT JOHN", "state": "KS", "street": "320 N MAIN ST", "postcode": "67576"}}},
{"geometry": {"type": "Point", "coordinates": [-98.7616299338, 38.001745407]}, "type": "Feature", "properties": {"collection_times": [{"days": "Mon-Fri", "time": "3:30pm"}, {"days": "Sat", "time": "9:45am"}, {"days": "Sun", "time": "Closed"}], "id": "6757600005", "name": "USPS COLLECTION BOX - PO LOBBY", "address": {"city": "SAINT JOHN", "state": "KS", "street": "320 N MAIN ST", "postcode": "67576"}}},
{"geometry": {"type": "Point", "coordinates": [-98.6004021402, 37.9623698205]}, "type": "Feature", "properties": {"collection_times": [{"days": "Mon-Sat", "time": "4:05pm"}, {"days": "Sun", "time": "Closed"}], "id": "6757800001", "name": "USPS COLLECTION BOX - BLUE BOX", "address": {"city": "STAFFORD", "state": "KS", "street": "108 N MAIN ST", "postcode": "67578"}}},
{"geometry": {"type": "Point", "coordinates": [-98.6004021402, 37.9623698205]}, "type": "Feature", "properties": {"collection_times": [{"days": "Mon-Fri", "time": "3:50pm"}, {"days": "Sat", "time": "9:45am"}, {"days": "Sun", "time": "Closed"}], "id": "6757800002", "name": "USPS COLLECTION BOX - PO LOBBY", "address": {"city": "STAFFORD", "state": "KS", "street": "108 N MAIN ST", "postcode": "67578"}}},
{"geometry": {"type": "Point", "coordinates": [-98.2069964518, 38.2096087698]}, "type": "Feature", "properties": {"collection_times": [{"days": "Mon-Sat", "time": "4:20pm"}, {"days": "Sun", "time": "Closed"}], "id": "6757900002", "name": "USPS COLLECTION BOX - BLUE BOX", "address": {"city": "STERLING", "state": "KS", "street": "116 S BROADWAY AVE", "postcode": "67579"}}},
{"geometry": {"type": "Point", "coordinates": [-98.2069964518, 38.2096087698]}, "type": "Feature", "properties": {"collection_times": [{"days": "Mon-Fri", "time": "4:10pm"}, {"days": "Sat", "time": "9:15am"}, {"days": "Sun", "time": "Closed"}], "id": "6757900005", "name": "USPS COLLECTION BOX - PO LOBBY", "address": {"city": "STERLING", "state": "KS", "street": "116 S BROADWAY AVE", "postcode": "67579"}}},
{"geometry": {"type": "Point", "coordinates": [-98.4090368077, 37.9600164566]}, "type": "Feature", "properties": {"collection_times": [{"days": "Mon-Sat", "time": "4:25pm"}, {"days": "Sun", "time": "Closed"}], "id": "6758100001", "name": "USPS COLLECTION BOX - BLUE BOX", "address": {"city": "SYLVIA", "state": "KS", "street": "119 S MAIN ST", "postcode": "67581"}}},
{"geometry": {"type": "Point", "coordinates": [-98.4090368077, 37.9600164566]}, "type": "Feature", "properties": {"collection_times": [{"days": "Mon-Fri", "time": "4:10pm"}, {"days": "Sat", "time": "10:30am"}, {"days": "Sun", "time": "Closed"}], "id": "6758100002", "name": "USPS COLLECTION BOX - PO LOBBY", "address": {"city": "SYLVIA", "state": "KS", "street": "119 S MAIN ST", "postcode": "67581"}}},
{"geometry": {"type": "Point", "coordinates": [-98.4288411795, 37.8058711098]}, "type": "Feature", "properties": {"collection_times": [{"days": "Mon-Sat", "time": "2:50pm"}, {"days": "Sun", "time": "Closed"}], "id": "6758300001", "name": "USPS COLLECTION BOX - BLUE BOX", "address": {"city": "TURON", "state": "KS", "street": "108 N BURNS ST", "postcode": "67583"}}},
{"geometry": {"type": "Point", "coordinates": [-98.4288411795, 37.8058711098]}, "type": "Feature", "properties": {"collection_times": [{"days": "Mon-Fri", "time": "11:40am"}, {"days": "Sat", "time": "12:30pm"}, {"days": "Sun", "time": "Closed"}], "id": "6758300003", "name": "USPS COLLECTION BOX - PO LOBBY", "address": {"city": "TURON", "state": "KS", "street": "108 N BURNS ST", "postcode": "67583"}}},
{"geometry": {"type": "Point", "coordinates": [-100.1671002936, 38.6430283892]}, "type": "Feature", "properties": {"collection_times": [{"days": "Mon-Sat", "time": "1:45pm"}, {"days": "Sun", "time": "Closed"}], "id": "6758400001", "name": "USPS COLLECTION BOX - BLUE BOX", "address": {"city": "UTICA", "state": "KS", "street": "142 S OHIO ST", "postcode": "67584"}}},
{"geometry": {"type": "Point", "coordinates": [-100.1671002936, 38.6430283892]}, "type": "Feature", "properties": {"collection_times": [{"days": "Mon-Fri", "time": "12:45pm"}, {"days": "Sat", "time": "10:00am"}, {"days": "Sun", "time": "Closed"}], "id": "6758400002", "name": "USPS COLLECTION BOX - PO LOBBY", "address": {"city": "UTICA", "state": "KS", "street": "142 S OHIO ST", "postcode": "67584"}}},
{"geometry": {"type": "Point", "coordinates": [-97.8668691059, 37.9379612]}, "type": "Feature", "properties": {"collection_times": [{"days": "Mon-Sat", "time": "3:05pm"}, {"days": "Sun", "time": "Closed"}], "id": "6758500001", "name": "USPS COLLECTION BOX - BLUE BOX", "address": {"city": "YODER", "state": "KS", "street": "9803 S MAIN ST", "postcode": "67585"}}},
{"geometry": {"type": "Point", "coordinates": [-97.8668691059, 37.9379612]}, "type": "Feature", "properties": {"collection_times": [{"days": "Mon-Fri", "time": "12:40pm"}, {"days": "Sat", "time": "9:15am"}, {"days": "Sun", "time": "Closed"}], "id": "6758500002", "name": "USPS COLLECTION BOX - PO LOBBY", "address": {"city": "YODER", "state": "KS", "street": "9803 S MAIN ST", "postcode": "67585"}}}
]}
