{"type": "FeatureCollection", "features": [
{"geometry": {"type": "Point", "coordinates": [-99.3302585274, 38.8689913033]}, "type": "Feature", "properties": {"collection_times": [{"days": "Mon-Sat", "time": "2:35pm"}, {"days": "Sun", "time": "Closed"}], "id": "6760100000", "name": "USPS COLLECTION BOX - BLUE BOX", "address": {"city": "HAYS", "state": "KS", "street": "210 E 7TH ST", "postcode": "67601"}}},
{"geometry": {"type": "Point", "coordinates": [-99.299387367, 38.8710791402]}, "type": "Feature", "properties": {"collection_times": [{"days": "Mon-Sat", "time": "2:50pm"}, {"days": "Sun", "time": "Closed"}], "id": "6760100001", "name": "USPS COLLECTION BOX - BLUE BOX", "address": {"city": "HAYS", "state": "KS", "street": "1305 CANTERBURY DR", "postcode": "67601"}}},
{"geometry": {"type": "Point", "coordinates": [-99.3178672397, 38.8806073858]}, "type": "Feature", "properties": {"collection_times": [{"days": "Mon-Sat", "time": "2:55pm"}, {"days": "Sun", "time": "Closed"}], "id": "6760100002", "name": "USPS COLLECTION BOX - BLUE BOX", "address": {"city": "HAYS", "state": "KS", "street": "2400 VINE ST", "postcode": "67601"}}},
{"geometry": {"type": "Point", "coordinates": [-99.3178681499, 38.8877062212]}, "type": "Feature", "properties": {"collection_times": [{"days": "Mon-Sat", "time": "3:00pm"}, {"days": "Sun", "time": "Closed"}], "id": "6760100003", "name": "USPS COLLECTION BOX - BLUE BOX", "address": {"city": "HAYS", "state": "KS", "street": "2818 VINE ST", "postcode": "67601"}}},
{"geometry": {"type": "Point", "coordinates": [-99.3178735116, 38.8886526442]}, "type": "Feature", "properties": {"collection_times": [{"days": "Mon-Sat", "time": "10:00am"}, {"days": "Sun", "time": "Closed"}], "id": "6760100004", "name": "USPS COLLECTION BOX - BLUE BOX", "address": {"city": "HAYS", "state": "KS", "street": "2918 VINE ST", "postcode": "67601"}}},
{"geometry": {"type": "Point", "coordinates": [-99.336376102, 38.8855471211]}, "type": "Feature", "properties": {"collection_times": [{"days": "Mon-Sat", "time": "3:20pm"}, {"days": "Sun", "time": "Closed"}], "id": "6760100007", "name": "USPS COLLECTION BOX - BLUE BOX", "address": {"city": "HAYS", "state": "KS", "street": "2703 HALL ST", "postcode": "67601"}}},
{"geometry": {"type": "Point", "coordinates": [-99.3296355477, 38.8733480942]}, "type": "Feature", "properties": {"collection_times": [{"days": "Mon-Sat", "time": "3:25pm"}, {"days": "Sun", "time": "Closed"}], "id": "6760100009", "name": "USPS COLLECTION BOX - BLUE BOX", "address": {"city": "HAYS", "state": "KS", "street": "1201 MAIN ST", "postcode": "67601"}}},
{"geometry": {"type": "Point", "coordinates": [-99.3175903626, 38.8856491055]}, "type": "Feature", "properties": {"collection_times": [{"days": "Mon-Sat", "time": "3:10pm"}, {"days": "Sun", "time": "Closed"}], "id": "6760100016", "name": "USPS COLLECTION BOX - BLUE BOX", "address": {"city": "HAYS", "state": "KS", "street": "2707 VINE ST", "postcode": "67601"}}},
{"geometry": {"type": "Point", "coordinates": [-99.3178286701, 38.8928762025]}, "type": "Feature", "properties": {"collection_times": [{"days": "Mon-Sat", "time": "3:05pm"}, {"days": "Sun", "time": "Closed"}], "id": "6760100017", "name": "USPS COLLECTION BOX - BLUE BOX", "address": {"city": "HAYS", "state": "KS", "street": "3300 VINE ST", "postcode": "67601"}}},
{"geometry": {"type": "Point", "coordinates": [-99.3334967562, 38.8705017959]}, "type": "Feature", "properties": {"collection_times": [{"days": "Mon-Sat", "time": "4:00pm"}, {"days": "Sun", "time": "Closed"}], "id": "6760100018", "name": "USPS COLLECTION BOX - BLUE BOX", "address": {"city": "HAYS", "state": "KS", "street": "706 FORT ST", "postcode": "67601"}}},
{"geometry": {"type": "Point", "coordinates": [-99.3334967562, 38.8705017959]}, "type": "Feature", "properties": {"collection_times": [{"days": "Mon-Sat", "time": "4:00pm"}, {"days": "Sun", "time": "Closed"}], "id": "6760100019", "name": "USPS COLLECTION BOX - BLUE BOX", "address": {"city": "HAYS", "state": "KS", "street": "706 FORT ST", "postcode": "67601"}}},
{"geometry": {"type": "Point", "coordinates": [-99.2648999091, 38.8121294034]}, "type": "Feature", "properties": {"collection_times": [{"days": "Mon-Sat", "time": "8:55am"}, {"days": "Sun", "time": "Closed"}], "id": "6760100020", "name": "USPS COLLECTION BOX - BLUE BOX", "address": {"city": "HAYS", "state": "KS", "street": "883 MOSCOW ST", "postcode": "67601"}}},
{"geometry": {"type": "Point", "coordinates": [-99.3322467631, 38.8723358342]}, "type": "Feature", "properties": {"collection_times": [{"days": "Mon-Sat", "time": "3:30pm"}, {"days": "Sun", "time": "Closed"}], "id": "6760100022", "name": "USPS COLLECTION BOX - BLUE BOX", "address": {"city": "HAYS", "state": "KS", "street": "126 W 11TH ST", "postcode": "67601"}}},
{"geometry": {"type": "Point", "coordinates": [-99.3326411179, 38.8749780978]}, "type": "Feature", "properties": {"collection_times": [{"days": "Mon-Sat", "time": "3:25pm"}, {"days": "Sun", "time": "Closed"}], "id": "6760100032", "name": "USPS COLLECTION BOX - BLUE BOX", "address": {"city": "HAYS", "state": "KS", "street": "301 W 13TH ST", "postcode": "67601"}}},
{"geometry": {"type": "Point", "coordinates": [-99.3334967562, 38.8705017959]}, "type": "Feature", "properties": {"collection_times": [{"days": "Mon-Fri", "time": "3:50pm"}, {"days": "Sat", "time": "3:30pm"}, {"days": "Sun", "time": "Closed"}], "id": "6760100033", "name": "USPS COLLECTION BOX - PO LOBBY", "address": {"city": "HAYS", "state": "KS", "street": "706 FORT ST", "postcode": "67601"}}},
{"geometry": {"type": "Point", "coordinates": [-99.3334967562, 38.8705017959]}, "type": "Feature", "properties": {"collection_times": [{"days": "Mon-Fri", "time": "3:50pm"}, {"days": "Sat", "time": "3:30pm"}, {"days": "Sun", "time": "Closed"}], "id": "6760100034", "name": "USPS COLLECTION BOX - PO LOBBY", "address": {"city": "HAYS", "state": "KS", "street": "706 FORT ST", "postcode": "67601"}}},
{"geometry": {"type": "Point", "coordinates": [-99.3178524262, 38.9013228382]}, "type": "Feature", "properties": {"collection_times": [{"days": "Mon-Sat", "time": "3:05pm"}, {"days": "Sun", "time": "Closed"}], "id": "6760100040", "name": "USPS COLLECTION BOX - BLUE BOX", "address": {"city": "HAYS", "state": "KS", "street": "4301 VINE ST", "postcode": "67601"}}},
{"geometry": {"type": "Point", "coordinates": [-99.3175903626, 38.8856491055]}, "type": "Feature", "properties": {"collection_times": [{"days": "Mon-Sat", "time": "3:10pm"}, {"days": "Sun", "time": "Closed"}], "id": "6760100041", "name": "USPS COLLECTION BOX - BLUE BOX", "address": {"city": "HAYS", "state": "KS", "street": "2707 VINE ST", "postcode": "67601"}}},
{"geometry": {"type": "Point", "coordinates": [-99.1190757226, 39.7620568888]}, "type": "Feature", "properties": {"collection_times": [{"days": "Mon-Sat", "time": "12:45pm"}, {"days": "Sun", "time": "Closed"}], "id": "6762100001", "name": "USPS COLLECTION BOX - BLUE BOX", "address": {"city": "AGRA", "state": "KS", "street": "317 MAIN ST", "postcode": "67621"}}},
{"geometry": {"type": "Point", "coordinates": [-99.1190757226, 39.7620568888]}, "type": "Feature", "properties": {"collection_times": [{"days": "Mon-Fri", "time": "11:00am"}, {"days": "Sat", "time": "8:30am"}, {"days": "Sun", "time": "Closed"}], "id": "6762100002", "name": "USPS COLLECTION BOX - PO LOBBY", "address": {"city": "AGRA", "state": "KS", "street": "317 MAIN ST", "postcode": "67621"}}},
{"geometry": {"type": "Point", "coordinates": [-99.7068230282, 39.8924101641]}, "type": "Feature", "properties": {"collection_times": [{"days": "Mon-Fri", "time": "11:45am"}, {"days": "Sat", "time": "12:20pm"}, {"days": "Sun", "time": "Closed"}], "id": "6762200001", "name": "USPS COLLECTION BOX - BLUE BOX", "address": {"city": "ALMENA", "state": "KS", "street": "503 MAIN ST", "postcode": "67622"}}},
{"geometry": {"type": "Point", "coordinates": [-99.7068230282, 39.8924101641]}, "type": "Feature", "properties": {"collection_times": [{"days": "Mon-Fri", "time": "11:45am"}, {"days": "Sat", "time": "9:30am"}, {"days": "Sun", "time": "Closed"}], "id": "6762200002", "name": "USPS COLLECTION BOX - PO LOBBY", "address": {"city": "ALMENA", "state": "KS", "street": "503 MAIN ST", "postcode": "67622"}}},
{"geometry": {"type": "Point", "coordinates": [-98.947820131, 39.465909297]}, "type": "Feature", "properties": {"collection_times": [{"days": "Mon-Sat", "time": "1:05pm"}, {"days": "Sun", "time": "Closed"}], "id": "6762300001", "name": "USPS COLLECTION BOX - BLUE BOX", "address": {"city": "ALTON", "state": "KS", "street": "703 MILL ST STE B", "postcode": "67623"}}},
{"geometry": {"type": "Point", "coordinates": [-98.947820131, 39.465909297]}, "type": "Feature", "properties": {"collection_times": [{"days": "Mon-Fri", "time": "11:45am"}, {"days": "Sat", "time": "9:00am"}, {"days": "Sun", "time": "Closed"}], "id": "6762300002", "name": "USPS COLLECTION BOX - PO LOBBY", "address": {"city": "ALTON", "state": "KS", "street": "703 MILL ST STE B", "postcode": "67623"}}},
{"geometry": {"type": "Point", "coordinates": [-99.687352712, 39.3612015632]}, "type": "Feature", "properties": {"collection_times": [{"days": "Mon-Fri", "time": "11:45am"}, {"days": "Sat", "time": "12:00pm"}, {"days": "Sun", "time": "Closed"}], "id": "6762500001", "name": "USPS COLLECTION BOX - BLUE BOX", "address": {"city": "BOGUE", "state": "KS", "street": "410 MAIN ST", "postcode": "67625"}}},
{"geometry": {"type": "Point", "coordinates": [-99.687352712, 39.3612015632]}, "type": "Feature", "properties": {"collection_times": [{"days": "Mon-Fri", "time": "11:45am"}, {"days": "Sat", "time": "10:45am"}, {"days": "Sun", "time": "Closed"}], "id": "6762500002", "name": "USPS COLLECTION BOX - PO LOBBY", "address": {"city": "BOGUE", "state": "KS", "street": "410 MAIN ST", "postcode": "67625"}}},
{"geometry": {"type": "Point", "coordinates": [-98.7051440499, 38.8767640597]}, "type": "Feature", "properties": {"collection_times": [{"days": "Mon-Sat", "time": "12:06pm"}, {"days": "Sun", "time": "Closed"}], "id": "6762600001", "name": "USPS COLLECTION BOX - BLUE BOX", "address": {"city": "BUNKER HILL", "state": "KS", "street": "563 ELM ST", "postcode": "67626"}}},
{"geometry": {"type": "Point", "coordinates": [-98.7051440499, 38.8767640597]}, "type": "Feature", "properties": {"collection_times": [{"days": "Mon-Fri", "time": "11:15am"}, {"days": "Sat", "time": "9:15am"}, {"days": "Sun", "time": "Closed"}], "id": "6762600002", "name": "USPS COLLECTION BOX - PO LOBBY", "address": {"city": "BUNKER HILL", "state": "KS", "street": "563 ELM ST", "postcode": "67626"}}},
{"geometry": {"type": "Point", "coordinates": [-99.17158877, 39.0768567829]}, "type": "Feature", "properties": {"collection_times": [{"days": "Mon-Sat", "time": "9:30am"}, {"days": "Sun", "time": "Closed"}], "id": "6762700001", "name": "USPS COLLECTION BOX - BLUE BOX", "address": {"city": "CATHARINE", "state": "KS", "street": "1676 ST MARTIN", "postcode": "67627"}}},
{"geometry": {"type": "Point", "coordinates": [-98.9399910224, 39.659738465]}, "type": "Feature", "properties": {"collection_times": [{"days": "Mon-Sat", "time": "12:20pm"}, {"days": "Sun", "time": "Closed"}], "id": "6762800001", "name": "USPS COLLECTION BOX - BLUE BOX", "address": {"city": "CEDAR", "state": "KS", "street": "100 MAIN ST", "postcode": "67628"}}},
{"geometry": {"type": "Point", "coordinates": [-98.9399910224, 39.659738465]}, "type": "Feature", "properties": {"collection_times": [{"days": "Mon-Fri", "time": "10:00am"}, {"days": "Sat", "time": "9:15am"}, {"days": "Sun", "time": "Closed"}], "id": "6762800002", "name": "USPS COLLECTION BOX - PO LOBBY", "address": {"city": "CEDAR", "state": "KS", "street": "100 MAIN ST", "postcode": "67628"}}},
{"geometry": {"type": "Point", "coordinates": [-100.0580676875, 38.9143132943]}, "type": "Feature", "properties": {"collection_times": [{"days": "Mon-Sat", "time": "12:00pm"}, {"days": "Sun", "time": "Closed"}], "id": "6763100001", "name": "USPS COLLECTION BOX - BLUE BOX", "address": {"city": "COLLYER", "state": "KS", "street": "313 AINSILE AVE", "postcode": "67631"}}},
{"geometry": {"type": "Point", "coordinates": [-100.0580676875, 38.9143132943]}, "type": "Feature", "properties": {"collection_times": [{"days": "Mon-Fri", "time": "11:15am"}, {"days": "Sat", "time": "8:15am"}, {"days": "Sun", "time": "Closed"}], "id": "6763100002", "name": "USPS COLLECTION BOX - PO LOBBY", "address": {"city": "COLLYER", "state": "KS", "street": "313 AINSILE AVE", "postcode": "67631"}}},
{"geometry": {"type": "Point", "coordinates": [-99.586426257, 39.318496173]}, "type": "Feature", "properties": {"collection_times": [{"days": "Mon-Sat", "time": "12:15pm"}, {"days": "Sun", "time": "Closed"}], "id": "6763200001", "name": "USPS COLLECTION BOX - BLUE BOX", "address": {"city": "DAMAR", "state": "KS", "street": "302 MAIN ST", "postcode": "67632"}}},
{"geometry": {"type": "Point", "coordinates": [-99.586426257, 39.318496173]}, "type": "Feature", "properties": {"collection_times": [{"days": "Mon-Fri", "time": "11:45am"}, {"days": "Sat", "time": "9:45am"}, {"days": "Sun", "time": "Closed"}], "id": "6763200002", "name": "USPS COLLECTION BOX - PO LOBBY", "address": {"city": "DAMAR", "state": "KS", "street": "302 MAIN ST", "postcode": "67632"}}},
{"geometry": {"type": "Point", "coordinates": [-98.589386403, 38.8459239717]}, "type": "Feature", "properties": {"collection_times": [{"days": "Mon-Sat", "time": "11:50am"}, {"days": "Sun", "time": "Closed"}], "id": "6763400001", "name": "USPS COLLECTION BOX - BLUE BOX", "address": {"city": "DORRANCE", "state": "KS", "street": "521 MAIN ST", "postcode": "67634"}}},
{"geometry": {"type": "Point", "coordinates": [-98.589386403, 38.8459239717]}, "type": "Feature", "properties": {"collection_times": [{"days": "Mon-Fri", "time": "11:45am"}, {"days": "Sat", "time": "8:30am"}, {"days": "Sun", "time": "Closed"}], "id": "6763400002", "name": "USPS COLLECTION BOX - PO LOBBY", "address": {"city": "DORRANCE", "state": "KS", "street": "521 MAIN ST", "postcode": "67634"}}},
{"geometry": {"type": "Point", "coordinates": [-99.5615803482, 38.93557005]}, "type": "Feature", "properties": {"collection_times": [{"days": "Mon-Sat", "time": "1:25pm"}, {"days": "Sun", "time": "Closed"}], "id": "6763700003", "name": "USPS COLLECTION BOX - BLUE BOX", "address": {"city": "ELLIS", "state": "KS", "street": "807 JEFFERSON ST", "postcode": "67637"}}},
{"geometry": {"type": "Point", "coordinates": [-99.5615803482, 38.93557005]}, "type": "Feature", "properties": {"collection_times": [{"days": "Mon-Fri", "time": "1:05pm"}, {"days": "Sat", "time": "9:45am"}, {"days": "Sun", "time": "Closed"}], "id": "6763700004", "name": "USPS COLLECTION BOX - PO LOBBY", "address": {"city": "ELLIS", "state": "KS", "street": "807 JEFFERSON ST", "postcode": "67637"}}},
{"geometry": {"type": "Point", "coordinates": [-98.7855955809, 39.6547056761]}, "type": "Feature", "properties": {"collection_times": [{"days": "Mon-Sat", "time": "12:10pm"}, {"days": "Sun", "time": "Closed"}], "id": "6763800001", "name": "USPS COLLECTION BOX - BLUE BOX", "address": {"city": "GAYLORD", "state": "KS", "street": "600 5TH ST", "postcode": "67638"}}},
{"geometry": {"type": "Point", "coordinates": [-98.7855955809, 39.6547056761]}, "type": "Feature", "properties": {"collection_times": [{"days": "Mon-Fri", "time": "12:10pm"}, {"days": "Sat", "time": "10:45am"}, {"days": "Sun", "time": "Closed"}], "id": "6763800002", "name": "USPS COLLECTION BOX - PO LOBBY", "address": {"city": "GAYLORD", "state": "KS", "street": "600 5TH ST", "postcode": "67638"}}},
{"geometry": {"type": "Point", "coordinates": [-99.026923262, 38.87964241]}, "type": "Feature", "properties": {"collection_times": [{"days": "Mon-Sat", "time": "12:59pm"}, {"days": "Sun", "time": "Closed"}], "id": "6764000001", "name": "USPS COLLECTION BOX - BLUE BOX", "address": {"city": "GORHAM KS", "state": "KS", "street": "119 E US HIGHWAY 40", "postcode": "67640"}}},
{"geometry": {"type": "Point", "coordinates": [-99.026923262, 38.87964241]}, "type": "Feature", "properties": {"collection_times": [{"days": "Mon-Fri", "time": "11:45am"}, {"days": "Sat", "time": "9:45am"}, {"days": "Sun", "time": "Closed"}], "id": "6764000002", "name": "USPS COLLECTION BOX - PO LOBBY", "address": {"city": "GORHAM KS", "state": "KS", "street": "119 E US HIGHWAY 40", "postcode": "67640"}}},
{"geometry": {"type": "Point", "coordinates": [-99.8417354754, 39.3645002839]}, "type": "Feature", "properties": {"collection_times": [{"days": "Mon-Fri", "time": "11:15am"}, {"days": "Sat", "time": "11:35am"}, {"days": "Sun", "time": "Closed"}], "id": "6764200002", "name": "USPS COLLECTION BOX - BLUE BOX", "address": {"city": "HILL CITY", "state": "KS", "street": "112 E MAIN ST", "postcode": "67642"}}},
{"geometry": {"type": "Point", "coordinates": [-99.8417354754, 39.3645002839]}, "type": "Feature", "properties": {"collection_times": [{"days": "Mon-Fri", "time": "11:15am"}, {"days": "Sat", "time": "9:45am"}, {"days": "Sun", "time": "Closed"}], "id": "6764200003", "name": "USPS COLLECTION BOX - PO LOBBY", "address": {"city": "HILL CITY", "state": "KS", "street": "112 E MAIN ST", "postcode": "67642"}}},
{"geometry": {"type": "Point", "coordinates": [-100.2933532176, 39.6814500748]}, "type": "Feature", "properties": {"collection_times": [{"days": "Mon-Sat", "time": "11:10am"}, {"days": "Sun", "time": "Closed"}], "id": "6764300001", "name": "USPS COLLECTION BOX - BLUE BOX", "address": {"city": "JENNINGS", "state": "KS", "street": "123 S KANSAS AVE", "postcode": "67643"}}},
{"geometry": {"type": "Point", "coordinates": [-100.2933532176, 39.6814500748]}, "type": "Feature", "properties": {"collection_times": [{"days": "Mon-Fri", "time": "11:10am"}, {"days": "Sat", "time": "9:45am"}, {"days": "Sun", "time": "Closed"}], "id": "6764300002", "name": "USPS COLLECTION BOX - PO LOBBY", "address": {"city": "JENNINGS", "state": "KS", "street": "123 S KANSAS AVE", "postcode": "67643"}}},
{"geometry": {"type": "Point", "coordinates": [-99.1261890057, 39.645256035]}, "type": "Feature", "properties": {"collection_times": [{"days": "Mon-Sat", "time": "12:35pm"}, {"days": "Sun", "time": "Closed"}], "id": "6764400001", "name": "USPS COLLECTION BOX - BLUE BOX", "address": {"city": "KIRWIN", "state": "KS", "street": "9 SQUARE ST", "postcode": "67644"}}},
{"geometry": {"type": "Point", "coordinates": [-99.1261890057, 39.645256035]}, "type": "Feature", "properties": {"collection_times": [{"days": "Mon-Fri", "time": "11:45am"}, {"days": "Sat", "time": "8:15am"}, {"days": "Sun", "time": "Closed"}], "id": "6764400002", "name": "USPS COLLECTION BOX - PO LOBBY", "address": {"city": "KIRWIN", "state": "KS", "street": "9 SQUARE ST", "postcode": "67644"}}},
{"geometry": {"type": "Point", "coordinates": [-100.0020304089, 39.6103126422]}, "type": "Feature", "properties": {"collection_times": [{"days": "Mon-Sat", "time": "11:50am"}, {"days": "Sun", "time": "Closed"}], "id": "6764500001", "name": "USPS COLLECTION BOX - BLUE BOX", "address": {"city": "LENORA", "state": "KS", "street": "115 S MAIN ST", "postcode": "67645"}}},
{"geometry": {"type": "Point", "coordinates": [-100.0020304089, 39.6103126422]}, "type": "Feature", "properties": {"collection_times": [{"days": "Mon-Fri", "time": "11:50am"}, {"days": "Sat", "time": "9:45am"}, {"days": "Sun", "time": "Closed"}], "id": "6764500003", "name": "USPS COLLECTION BOX - PO LOBBY", "address": {"city": "LENORA", "state": "KS", "street": "115 S MAIN ST", "postcode": "67645"}}},
{"geometry": {"type": "Point", "coordinates": [-99.5692106998, 39.6616351416]}, "type": "Feature", "properties": {"collection_times": [{"days": "Mon-Fri", "time": "11:45am"}, {"days": "Sat", "time": "12:35pm"}, {"days": "Sun", "time": "Closed"}], "id": "6764600001", "name": "USPS COLLECTION BOX - BLUE BOX", "address": {"city": "LOGAN", "state": "KS", "street": "206 W MAIN ST", "postcode": "67646"}}},
{"geometry": {"type": "Point", "coordinates": [-99.5692106998, 39.6616351416]}, "type": "Feature", "properties": {"collection_times": [{"days": "Mon-Fri", "time": "11:45am"}, {"days": "Sat", "time": "9:00am"}, {"days": "Sun", "time": "Closed"}], "id": "6764600002", "name": "USPS COLLECTION BOX - PO LOBBY", "address": {"city": "LOGAN", "state": "KS", "street": "206 W MAIN ST", "postcode": "67646"}}},
{"geometry": {"type": "Point", "coordinates": [-99.5340649934, 39.9445468226]}, "type": "Feature", "properties": {"collection_times": [{"days": "Mon-Fri", "time": "11:45am"}, {"days": "Sat", "time": "12:00pm"}, {"days": "Sun", "time": "Closed"}], "id": "6764700001", "name": "USPS COLLECTION BOX - BLUE BOX", "address": {"city": "LONG ISLAND", "state": "KS", "street": "335 WASHINGTON AVE", "postcode": "67647"}}},
{"geometry": {"type": "Point", "coordinates": [-99.5340649934, 39.9445468226]}, "type": "Feature", "properties": {"collection_times": [{"days": "Mon-Fri", "time": "11:45am"}, {"days": "Sat", "time": "9:15am"}, {"days": "Sun", "time": "Closed"}], "id": "6764700002", "name": "USPS COLLECTION BOX - PO LOBBY", "address": {"city": "LONG ISLAND", "state": "KS", "street": "335 WASHINGTON AVE", "postcode": "67647"}}},
{"geometry": {"type": "Point", "coordinates": [-98.5382641818, 39.0577480751]}, "type": "Feature", "properties": {"collection_times": [{"days": "Mon-Sat", "time": "11:10am"}, {"days": "Sun", "time": "Closed"}], "id": "6764800001", "name": "USPS COLLECTION BOX - BLUE BOX", "address": {"city": "LUCAS", "state": "KS", "street": "218 S MAIN ST", "postcode": "67648"}}},
{"geometry": {"type": "Point", "coordinates": [-98.5382641818, 39.0577480751]}, "type": "Feature", "properties": {"collection_times": [{"days": "Mon-Fri", "time": "10:50am"}, {"days": "Sat", "time": "8:45am"}, {"days": "Sun", "time": "Closed"}], "id": "6764800002", "name": "USPS COLLECTION BOX - PO LOBBY", "address": {"city": "LUCAS", "state": "KS", "street": "218 S MAIN ST", "postcode": "67648"}}},
{"geometry": {"type": "Point", "coordinates": [-98.6918914272, 39.1123872935]}, "type": "Feature", "properties": {"collection_times": [{"days": "Mon-Sat", "time": "11:30am"}, {"days": "Sun", "time": "Closed"}], "id": "6764900001", "name": "USPS COLLECTION BOX - BLUE BOX", "address": {"city": "LURAY", "state": "KS", "street": "101 S MAIN ST", "postcode": "67649"}}},
{"geometry": {"type": "Point", "coordinates": [-98.6918914272, 39.1123872935]}, "type": "Feature", "properties": {"collection_times": [{"days": "Mon-Fri", "time": "11:10am"}, {"days": "Sat", "time": "9:15am"}, {"days": "Sun", "time": "Closed"}], "id": "6764900002", "name": "USPS COLLECTION BOX - PO LOBBY", "address": {"city": "LURAY", "state": "KS", "street": "101 S MAIN ST", "postcode": "67649"}}},
{"geometry": {"type": "Point", "coordinates": [-100.0700159829, 39.349462186]}, "type": "Feature", "properties": {"collection_times": [{"days": "Mon-Fri", "time": "11:15am"}, {"days": "Sat", "time": "11:10am"}, {"days": "Sun", "time": "Closed"}], "id": "6765000001", "name": "USPS COLLECTION BOX - BLUE BOX", "address": {"city": "MORLAND", "state": "KS", "street": "409 MAIN ST", "postcode": "67650"}}},
{"geometry": {"type": "Point", "coordinates": [-100.0700159829, 39.349462186]}, "type": "Feature", "properties": {"collection_times": [{"days": "Mon-Fri", "time": "11:15am"}, {"days": "Sat", "time": "9:00am"}, {"days": "Sun", "time": "Closed"}], "id": "6765000002", "name": "USPS COLLECTION BOX - PO LOBBY", "address": {"city": "MORLAND", "state": "KS", "street": "409 MAIN ST", "postcode": "67650"}}},
{"geometry": {"type": "Point", "coordinates": [-99.0242955214, 39.18880629]}, "type": "Feature", "properties": {"collection_times": [{"days": "Mon-Sat", "time": "12:15pm"}, {"days": "Sun", "time": "Closed"}], "id": "6765100001", "name": "USPS COLLECTION BOX - BLUE BOX", "address": {"city": "NATOMA", "state": "KS", "street": "402 ELM ST", "postcode": "67651"}}},
{"geometry": {"type": "Point", "coordinates": [-99.0242955214, 39.18880629]}, "type": "Feature", "properties": {"collection_times": [{"days": "Mon-Fri", "time": "11:45am"}, {"days": "Sat", "time": "8:45am"}, {"days": "Sun", "time": "Closed"}], "id": "6765100002", "name": "USPS COLLECTION BOX - PO LOBBY", "address": {"city": "NATOMA", "state": "KS", "street": "402 ELM ST", "postcode": "67651"}}},
{"geometry": {"type": "Point", "coordinates": [-100.1907421911, 39.8335340934]}, "type": "Feature", "properties": {"collection_times": [{"days": "Mon-Sat", "time": "11:40am"}, {"days": "Sun", "time": "Closed"}], "id": "6765300001", "name": "USPS COLLECTION BOX - BLUE BOX", "address": {"city": "NORCATUR", "state": "KS", "street": "106 S DECATUR AVE", "postcode": "67653"}}},
{"geometry": {"type": "Point", "coordinates": [-100.1907421911, 39.8335340934]}, "type": "Feature", "properties": {"collection_times": [{"days": "Mon-Fri", "time": "11:40am"}, {"days": "Sat", "time": "9:15am"}, {"days": "Sun", "time": "Closed"}], "id": "6765300002", "name": "USPS COLLECTION BOX - PO LOBBY", "address": {"city": "NORCATUR", "state": "KS", "street": "106 S DECATUR AVE", "postcode": "67653"}}},
{"geometry": {"type": "Point", "coordinates": [-99.887086851, 39.8283386943]}, "type": "Feature", "properties": {"collection_times": [{"days": "Mon-Fri", "time": "11:15am"}, {"days": "Sat", "time": "12:10pm"}, {"days": "Sun", "time": "Closed"}], "id": "6765400004", "name": "USPS COLLECTION BOX - BLUE BOX", "address": {"city": "NORTON", "state": "KS", "street": "302 E WASHINGTON ST", "postcode": "67654"}}},
{"geometry": {"type": "Point", "coordinates": [-99.887086851, 39.8283386943]}, "type": "Feature", "properties": {"collection_times": [{"days": "Mon-Fri", "time": "11:15am"}, {"days": "Sat", "time": "10:45am"}, {"days": "Sun", "time": "Closed"}], "id": "6765400005", "name": "USPS COLLECTION BOX - PO LOBBY", "address": {"city": "NORTON", "state": "KS", "street": "302 E WASHINGTON ST", "postcode": "67654"}}},
{"geometry": {"type": "Point", "coordinates": [-99.5631164864, 39.2525169823]}, "type": "Feature", "properties": {"collection_times": [{"days": "Mon-Fri", "time": "11:45am"}, {"days": "Sat", "time": "12:25pm"}, {"days": "Sun", "time": "Closed"}], "id": "6765700001", "name": "USPS COLLECTION BOX - BLUE BOX", "address": {"city": "PALCO", "state": "KS", "street": "411 MAIN ST", "postcode": "67657"}}},
{"geometry": {"type": "Point", "coordinates": [-99.5631164864, 39.2525169823]}, "type": "Feature", "properties": {"collection_times": [{"days": "Mon-Fri", "time": "11:45am"}, {"days": "Sat", "time": "8:30am"}, {"days": "Sun", "time": "Closed"}], "id": "6765700002", "name": "USPS COLLECTION BOX - PO LOBBY", "address": {"city": "PALCO", "state": "KS", "street": "411 MAIN ST", "postcode": "67657"}}},
{"geometry": {"type": "Point", "coordinates": [-98.9184059669, 39.1142595281]}, "type": "Feature", "properties": {"collection_times": [{"days": "Mon-Sat", "time": "12:00pm"}, {"days": "Sun", "time": "Closed"}], "id": "6765800001", "name": "USPS COLLECTION BOX - BLUE BOX", "address": {"city": "PARADISE", "state": "KS", "street": "116 MAIN ST", "postcode": "67658"}}},
{"geometry": {"type": "Point", "coordinates": [-98.9184059669, 39.1142595281]}, "type": "Feature", "properties": {"collection_times": [{"days": "Mon-Fri", "time": "11:15am"}, {"days": "Sat", "time": "9:15am"}, {"days": "Sun", "time": "Closed"}], "id": "6765800002", "name": "USPS COLLECTION BOX - PO LOBBY", "address": {"city": "PARADISE", "state": "KS", "street": "116 MAIN ST", "postcode": "67658"}}},
{"geometry": {"type": "Point", "coordinates": [-99.325913408, 39.7580059915]}, "type": "Feature", "properties": {"collection_times": [{"days": "Mon-Sat", "time": "1:15pm"}, {"days": "Sun", "time": "Closed"}], "id": "6766100002", "name": "USPS COLLECTION BOX - BLUE BOX", "address": {"city": "PHILLIPSBURG", "state": "KS", "street": "888 2ND ST", "postcode": "67661"}}},
{"geometry": {"type": "Point", "coordinates": [-99.325913408, 39.7580059915]}, "type": "Feature", "properties": {"collection_times": [{"days": "Mon-Sat", "time": "1:15pm"}, {"days": "Sun", "time": "Closed"}], "id": "6766100003", "name": "USPS COLLECTION BOX - BLUE BOX", "address": {"city": "PHILLIPSBURG", "state": "KS", "street": "888 2ND ST", "postcode": "67661"}}},
{"geometry": {"type": "Point", "coordinates": [-99.325913408, 39.7580059915]}, "type": "Feature", "properties": {"collection_times": [{"days": "Mon-Fri", "time": "12:15pm"}, {"days": "Sat", "time": "10:15am"}, {"days": "Sun", "time": "Closed"}], "id": "6766100004", "name": "USPS COLLECTION BOX - PO LOBBY", "address": {"city": "PHILLIPSBURG", "state": "KS", "street": "888 2ND ST", "postcode": "67661"}}},
{"geometry": {"type": "Point", "coordinates": [-99.3009497439, 39.2343484865]}, "type": "Feature", "properties": {"collection_times": [{"days": "Mon-Sat", "time": "1:05pm"}, {"days": "Sun", "time": "Closed"}], "id": "6766300002", "name": "USPS COLLECTION BOX - BLUE BOX", "address": {"city": "PLAINVILLE", "state": "KS", "street": "111 S MAIN ST", "postcode": "67663"}}},
{"geometry": {"type": "Point", "coordinates": [-99.3009497439, 39.2343484865]}, "type": "Feature", "properties": {"collection_times": [{"days": "Mon-Fri", "time": "12:45pm"}, {"days": "Sat", "time": "10:45am"}, {"days": "Sun", "time": "Closed"}], "id": "6766300006", "name": "USPS COLLECTION BOX - PO LOBBY", "address": {"city": "PLAINVILLE", "state": "KS", "street": "111 S MAIN ST", "postcode": "67663"}}},
{"geometry": {"type": "Point", "coordinates": [-99.5741674466, 39.8349455874]}, "type": "Feature", "properties": {"collection_times": [{"days": "Mon-Sat", "time": "12:35pm"}, {"days": "Sun", "time": "Closed"}], "id": "6766400001", "name": "USPS COLLECTION BOX - BLUE BOX", "address": {"city": "PRAIRIE VIEW", "state": "KS", "street": "401 MAIN ST", "postcode": "67664"}}},
{"geometry": {"type": "Point", "coordinates": [-99.5741674466, 39.8349455874]}, "type": "Feature", "properties": {"collection_times": [{"days": "Mon-Fri", "time": "10:45am"}, {"days": "Sat", "time": "9:45am"}, {"days": "Sun", "time": "Closed"}], "id": "6766400002", "name": "USPS COLLECTION BOX - PO LOBBY", "address": {"city": "PRAIRIE VIEW", "state": "KS", "street": "401 MAIN ST", "postcode": "67664"}}},
{"geometry": {"type": "Point", "coordinates": [-98.8605825609, 38.8913378348]}, "type": "Feature", "properties": {"collection_times": [{"days": "Mon-Fri", "time": "12:15pm"}, {"days": "Sat", "time": "12:39pm"}, {"days": "Sun", "time": "Closed"}], "id": "6766500004", "name": "USPS COLLECTION BOX - BLUE BOX", "address": {"city": "RUSSELL", "state": "KS", "street": "135 W WISCONSIN ST", "postcode": "67665"}}},
{"geometry": {"type": "Point", "coordinates": [-98.8605825609, 38.8913378348]}, "type": "Feature", "properties": {"collection_times": [{"days": "Mon-Fri", "time": "12:15pm"}, {"days": "Sat", "time": "12:39pm"}, {"days": "Sun", "time": "Closed"}], "id": "6766500006", "name": "USPS COLLECTION BOX - BLUE BOX", "address": {"city": "RUSSELL", "state": "KS", "street": "135 W WISCONSIN ST", "postcode": "67665"}}},
{"geometry": {"type": "Point", "coordinates": [-98.8605825609, 38.8913378348]}, "type": "Feature", "properties": {"collection_times": [{"days": "Mon-Fri", "time": "12:15pm"}, {"days": "Sat", "time": "11:15am"}, {"days": "Sun", "time": "Closed"}], "id": "6766500008", "name": "USPS COLLECTION BOX - PO LOBBY", "address": {"city": "RUSSELL", "state": "KS", "street": "135 W WISCONSIN ST", "postcode": "67665"}}},
{"geometry": {"type": "Point", "coordinates": [-99.2737559627, 39.4364476108]}, "type": "Feature", "properties": {"collection_times": [{"days": "Mon-Sat", "time": "1:45pm"}, {"days": "Sun", "time": "Closed"}], "id": "6766900002", "name": "USPS COLLECTION BOX - BLUE BOX", "address": {"city": "STOCKTON", "state": "KS", "street": "116 S WALNUT ST", "postcode": "67669"}}},
{"geometry": {"type": "Point", "coordinates": [-99.2737556273, 39.4363604233]}, "type": "Feature", "properties": {"collection_times": [{"days": "Mon-Fri", "time": "1:45pm"}, {"days": "Sat", "time": "9:45am"}, {"days": "Sun", "time": "Closed"}], "id": "6766900003", "name": "USPS COLLECTION BOX - PO LOBBY", "address": {"city": "STOCKTON", "state": "KS", "street": "124 S WALNUT ST", "postcode": "67669"}}},
{"geometry": {"type": "Point", "coordinates": [-99.1346057361, 38.8772862161]}, "type": "Feature", "properties": {"collection_times": [{"days": "Mon-Sat", "time": "1:15pm"}, {"days": "Sun", "time": "Closed"}], "id": "6767100001", "name": "USPS COLLECTION BOX - BLUE BOX", "address": {"city": "VICTORIA", "state": "KS", "street": "1003 4TH ST", "postcode": "67671"}}},
{"geometry": {"type": "Point", "coordinates": [-99.1346057361, 38.8772862161]}, "type": "Feature", "properties": {"collection_times": [{"days": "Mon-Fri", "time": "1:00pm"}, {"days": "Sat", "time": "8:15am"}, {"days": "Sun", "time": "Closed"}], "id": "6767100002", "name": "USPS COLLECTION BOX - PO LOBBY", "address": {"city": "VICTORIA", "state": "KS", "street": "1003 4TH ST", "postcode": "67671"}}},
{"geometry": {"type": "Point", "coordinates": [-99.8853768282, 39.0253558826]}, "type": "Feature", "properties": {"collection_times": [{"days": "Mon-Fri", "time": "12:15pm"}, {"days": "Sat", "time": "12:30pm"}, {"days": "Sun", "time": "Closed"}], "id": "6767200002", "name": "USPS COLLECTION BOX - BLUE BOX", "address": {"city": "WAKEENEY", "state": "KS", "street": "407 RUSSELL AVE", "postcode": "67672"}}},
{"geometry": {"type": "Point", "coordinates": [-99.8853768282, 39.0253558826]}, "type": "Feature", "properties": {"collection_times": [{"days": "Mon-Fri", "time": "12:15pm"}, {"days": "Sat", "time": "8:45am"}, {"days": "Sun", "time": "Closed"}], "id": "6767200003", "name": "USPS COLLECTION BOX - PO LOBBY", "address": {"city": "WAKEENEY", "state": "KS", "street": "407 RUSSELL AVE", "postcode": "67672"}}},
{"geometry": {"type": "Point", "coordinates": [-98.7983561443, 39.1201792287]}, "type": "Feature", "properties": {"collection_times": [{"days": "Mon-Sat", "time": "11:45am"}, {"days": "Sun", "time": "Closed"}], "id": "6767300001", "name": "USPS COLLECTION BOX - BLUE BOX", "address": {"city": "WALDO", "state": "KS", "street": "422 MAIN ST", "postcode": "67673"}}},
{"geometry": {"type": "Point", "coordinates": [-98.7983561443, 39.1201792287]}, "type": "Feature", "properties": {"collection_times": [{"days": "Mon-Sat", "time": "11:15am"}, {"days": "Sun", "time": "Closed"}], "id": "6767300002", "name": "USPS COLLECTION BOX - PO LOBBY", "address": {"city": "WALDO", "state": "KS", "street": "422 MAIN ST", "postcode": "67673"}}},
{"geometry": {"type": "Point", "coordinates": [-99.0982596868, 39.4536591539]}, "type": "Feature", "properties": {"collection_times": [{"days": "Mon-Sat", "time": "1:20pm"}, {"days": "Sun", "time": "Closed"}], "id": "6767500001", "name": "USPS COLLECTION BOX - BLUE BOX", "address": {"city": "WOODSTON", "state": "KS", "street": "508 MAIN ST", "postcode": "67675"}}},
{"geometry": {"type": "Point", "coordinates": [-99.0982596868, 39.4536591539]}, "type": "Feature", "properties": {"collection_times": [{"days": "Mon-Fri", "time": "9:15am"}, {"days": "Sat", "time": "8:15am"}, {"days": "Sun", "time": "Closed"}], "id": "6767500002", "name": "USPS COLLECTION BOX - PO LOBBY", "address": {"city": "WOODSTON", "state": "KS", "street": "508 MAIN ST", "postcode": "67675"}}}
]}
