{"type": "FeatureCollection", "features": [
{"geometry": {"type": "Point", "coordinates": [-101.0432931181, 39.3983711339]}, "type": "Feature", "properties": {"collection_times": [{"days": "Mon-Sat", "time": "5:00pm"}, {"days": "Sun", "time": "Closed"}], "id": "6770100001", "name": "USPS COLLECTION BOX - BLUE BOX", "address": {"city": "COLBY", "state": "KS", "street": "535 N COURT AVE", "postcode": "67701"}}},
{"geometry": {"type": "Point", "coordinates": [-101.054816961, 39.3921117192]}, "type": "Feature", "properties": {"collection_times": [{"days": "Mon-Sat", "time": "3:00pm"}, {"days": "Sun", "time": "Closed"}], "id": "6770100005", "name": "USPS COLLECTION BOX - BLUE BOX", "address": {"city": "COLBY", "state": "KS", "street": "350 S RANGE AVE", "postcode": "67701"}}},
{"geometry": {"type": "Point", "coordinates": [-101.0432931181, 39.3983711339]}, "type": "Feature", "properties": {"collection_times": [{"days": "Mon-Sat", "time": "5:00pm"}, {"days": "Sun", "time": "Closed"}], "id": "6770100007", "name": "USPS COLLECTION BOX - BLUE BOX", "address": {"city": "COLBY", "state": "KS", "street": "535 N COURT AVE", "postcode": "67701"}}},
{"geometry": {"type": "Point", "coordinates": [-101.0432931181, 39.3983711339]}, "type": "Feature", "properties": {"collection_times": [{"days": "Mon-Sat", "time": "5:00pm"}, {"days": "Sun", "time": "Closed"}], "id": "6770100008", "name": "USPS COLLECTION BOX - BLUE BOX", "address": {"city": "COLBY", "state": "KS", "street": "535 N COURT AVE", "postcode": "67701"}}},
{"geometry": {"type": "Point", "coordinates": [-101.0432931181, 39.3983711339]}, "type": "Feature", "properties": {"collection_times": [{"days": "Mon-Sat", "time": "5:00pm"}, {"days": "Sun", "time": "Closed"}], "id": "6770100009", "name": "USPS COLLECTION BOX - PO LOBBY", "address": {"city": "COLBY", "state": "KS", "street": "535 N COURT AVE", "postcode": "67701"}}},
{"geometry": {"type": "Point", "coordinates": [-101.0408035345, 39.8074076678]}, "type": "Feature", "properties": {"collection_times": [{"days": "Mon-Sat", "time": "2:35pm"}, {"days": "Sun", "time": "Closed"}], "id": "6773000001", "name": "USPS COLLECTION BOX - BLUE BOX", "address": {"city": "ATWOOD", "state": "KS", "street": "501 MAIN ST", "postcode": "67730"}}},
{"geometry": {"type": "Point", "coordinates": [-101.0408035345, 39.8074076678]}, "type": "Feature", "properties": {"collection_times": [{"days": "Mon-Sat", "time": "2:35pm"}, {"days": "Sun", "time": "Closed"}], "id": "6773000002", "name": "USPS COLLECTION BOX - BLUE BOX", "address": {"city": "ATWOOD", "state": "KS", "street": "501 MAIN ST", "postcode": "67730"}}},
{"geometry": {"type": "Point", "coordinates": [-101.0408035345, 39.8074076678]}, "type": "Feature", "properties": {"collection_times": [{"days": "Mon-Fri", "time": "2:35pm"}, {"days": "Sat", "time": "9:45am"}, {"days": "Sun", "time": "Closed"}], "id": "6773000005", "name": "USPS COLLECTION BOX - PO LOBBY", "address": {"city": "ATWOOD", "state": "KS", "street": "501 MAIN ST", "postcode": "67730"}}},
{"geometry": {"type": "Point", "coordinates": [-101.0408035345, 39.8074076678]}, "type": "Feature", "properties": {"collection_times": [{"days": "Mon-Fri", "time": "2:35pm"}, {"days": "Sat", "time": "9:45am"}, {"days": "Sun", "time": "Closed"}], "id": "6773000006", "name": "USPS COLLECTION BOX - PO LOBBY", "address": {"city": "ATWOOD", "state": "KS", "street": "501 MAIN ST", "postcode": "67730"}}},
{"geometry": {"type": "Point", "coordinates": [-101.5302522541, 39.7494015439]}, "type": "Feature", "properties": {"collection_times": [{"days": "Mon-Sat", "time": "1:50pm"}, {"days": "Sun", "time": "Closed"}], "id": "6773100001", "name": "USPS COLLECTION BOX - BLUE BOX", "address": {"city": "BIRD CITY", "state": "KS", "street": "117 W BRESSLER", "postcode": "67731"}}},
{"geometry": {"type": "Point", "coordinates": [-101.5302522541, 39.7494015439]}, "type": "Feature", "properties": {"collection_times": [{"days": "Mon-Fri", "time": "1:50pm"}, {"days": "Sat", "time": "8:45am"}, {"days": "Sun", "time": "Closed"}], "id": "6773100002", "name": "USPS COLLECTION BOX - PO LOBBY", "address": {"city": "BIRD CITY", "state": "KS", "street": "117 W BRESSLER", "postcode": "67731"}}},
{"geometry": {"type": "Point", "coordinates": [-101.3771871044, 39.363139477]}, "type": "Feature", "properties": {"collection_times": [{"days": "Mon-Sat", "time": "2:40pm"}, {"days": "Sun", "time": "Closed"}], "id": "6773200001", "name": "USPS COLLECTION BOX - BLUE BOX", "address": {"city": "BREWSTER", "state": "KS", "street": "329 KANSAS AVE", "postcode": "67732"}}},
{"geometry": {"type": "Point", "coordinates": [-101.3771871044, 39.363139477]}, "type": "Feature", "properties": {"collection_times": [{"days": "Mon-Fri", "time": "2:40pm"}, {"days": "Sat", "time": "9:45am"}, {"days": "Sun", "time": "Closed"}], "id": "6773200002", "name": "USPS COLLECTION BOX - PO LOBBY", "address": {"city": "BREWSTER", "state": "KS", "street": "329 KANSAS AVE", "postcode": "67732"}}},
{"geometry": {"type": "Point", "coordinates": [-101.5049255258, 39.3496276143]}, "type": "Feature", "properties": {"collection_times": [{"days": "Mon-Sat", "time": "1:15pm"}, {"days": "Sun", "time": "Closed"}], "id": "6773300001", "name": "USPS COLLECTION BOX - BLUE BOX", "address": {"city": "EDSON", "state": "KS", "street": "6419 MAIN ST", "postcode": "67733"}}},
{"geometry": {"type": "Point", "coordinates": [-101.5049255258, 39.3496276143]}, "type": "Feature", "properties": {"collection_times": [{"days": "Mon-Fri", "time": "10:45am"}, {"days": "Sat", "time": "8:30am"}, {"days": "Sun", "time": "Closed"}], "id": "6773300002", "name": "USPS COLLECTION BOX - PO LOBBY", "address": {"city": "EDSON", "state": "KS", "street": "6419 MAIN ST", "postcode": "67733"}}},
{"geometry": {"type": "Point", "coordinates": [-101.7114372945, 39.3480414447]}, "type": "Feature", "properties": {"collection_times": [{"days": "Mon-Sat", "time": "12:40pm"}, {"days": "Sun", "time": "Closed"}], "id": "6773500001", "name": "USPS COLLECTION BOX - BLUE BOX", "address": {"city": "GOODLAND", "state": "KS", "street": "124 E 11TH ST", "postcode": "67735"}}},
{"geometry": {"type": "Point", "coordinates": [-101.726549944, 39.3342251332]}, "type": "Feature", "properties": {"collection_times": [{"days": "Mon-Sat", "time": "12:50pm"}, {"days": "Sun", "time": "Closed"}], "id": "6773500002", "name": "USPS COLLECTION BOX - BLUE BOX", "address": {"city": "GOODLAND", "state": "KS", "street": "2160 COMMERCE RD", "postcode": "67735"}}},
{"geometry": {"type": "Point", "coordinates": [-101.7114372945, 39.3480414447]}, "type": "Feature", "properties": {"collection_times": [{"days": "Mon-Sat", "time": "12:50pm"}, {"days": "Sun", "time": "Closed"}], "id": "6773500003", "name": "USPS COLLECTION BOX - BLUE BOX", "address": {"city": "GOODLAND", "state": "KS", "street": "124 E 11TH ST", "postcode": "67735"}}},
{"geometry": {"type": "Point", "coordinates": [-101.7114372945, 39.3480414447]}, "type": "Feature", "properties": {"collection_times": [{"days": "Mon-Fri", "time": "12:50pm"}, {"days": "Sat", "time": "10:15am"}, {"days": "Sun", "time": "Closed"}], "id": "6773500005", "name": "USPS COLLECTION BOX - PO LOBBY", "address": {"city": "GOODLAND", "state": "KS", "street": "124 E 11TH ST", "postcode": "67735"}}},
{"geometry": {"type": "Point", "coordinates": [-101.7114372945, 39.3480414447]}, "type": "Feature", "properties": {"collection_times": [{"days": "Mon-Fri", "time": "12:50pm"}, {"days": "Sat", "time": "10:15am"}, {"days": "Sun", "time": "Closed"}], "id": "6773500006", "name": "USPS COLLECTION BOX - PO LOBBY", "address": {"city": "GOODLAND", "state": "KS", "street": "124 E 11TH ST", "postcode": "67735"}}},
{"geometry": {"type": "Point", "coordinates": [-100.487928889, 38.9589166262]}, "type": "Feature", "properties": {"collection_times": [{"days": "Mon-Fri", "time": "12:40pm"}, {"days": "Sat", "time": "1:00pm"}, {"days": "Sun", "time": "Closed"}], "id": "6773600001", "name": "USPS COLLECTION BOX - BLUE BOX", "address": {"city": "GOVE", "state": "KS", "street": "402 BROAD ST", "postcode": "67736"}}},
{"geometry": {"type": "Point", "coordinates": [-100.487928889, 38.9589166262]}, "type": "Feature", "properties": {"collection_times": [{"days": "Mon-Fri", "time": "12:40pm"}, {"days": "Sat", "time": "11:00am"}, {"days": "Sun", "time": "Closed"}], "id": "6773600002", "name": "USPS COLLECTION BOX - PO LOBBY", "address": {"city": "GOVE", "state": "KS", "street": "402 BROAD ST", "postcode": "67736"}}},
{"geometry": {"type": "Point", "coordinates": [-100.4652975439, 39.1122741987]}, "type": "Feature", "properties": {"collection_times": [{"days": "Mon-Sat", "time": "2:20pm"}, {"days": "Sun", "time": "Closed"}], "id": "6773700001", "name": "USPS COLLECTION BOX - BLUE BOX", "address": {"city": "GRAINFIELD", "state": "KS", "street": "205 MAIN ST", "postcode": "67737"}}},
{"geometry": {"type": "Point", "coordinates": [-100.4652975439, 39.1122741987]}, "type": "Feature", "properties": {"collection_times": [{"days": "Mon-Fri", "time": "2:20pm"}, {"days": "Sat", "time": "9:45am"}, {"days": "Sun", "time": "Closed"}], "id": "6773700002", "name": "USPS COLLECTION BOX - PO LOBBY", "address": {"city": "GRAINFIELD", "state": "KS", "street": "205 MAIN ST", "postcode": "67737"}}},
{"geometry": {"type": "Point", "coordinates": [-100.6289659529, 39.1259022635]}, "type": "Feature", "properties": {"collection_times": [{"days": "Mon-Sat", "time": "1:20pm"}, {"days": "Sun", "time": "Closed"}], "id": "6773800001", "name": "USPS COLLECTION BOX - BLUE BOX", "address": {"city": "GRINNELL", "state": "KS", "street": "93 S ADAMS ST", "postcode": "67738"}}},
{"geometry": {"type": "Point", "coordinates": [-100.6289659529, 39.1259022635]}, "type": "Feature", "properties": {"collection_times": [{"days": "Mon-Fri", "time": "1:20pm"}, {"days": "Sat", "time": "9:45am"}, {"days": "Sun", "time": "Closed"}], "id": "6773800002", "name": "USPS COLLECTION BOX - PO LOBBY", "address": {"city": "GRINNELL", "state": "KS", "street": "93 S ADAMS ST", "postcode": "67738"}}},
{"geometry": {"type": "Point", "coordinates": [-100.6289659529, 39.1259022635]}, "type": "Feature", "properties": {"collection_times": [{"days": "Mon-Fri", "time": "1:20pm"}, {"days": "Sat", "time": "9:45am"}, {"days": "Sun", "time": "Closed"}], "id": "6773800003", "name": "USPS COLLECTION BOX - PO LOBBY", "address": {"city": "GRINNELL", "state": "KS", "street": "93 S ADAMS ST", "postcode": "67738"}}},
{"geometry": {"type": "Point", "coordinates": [-100.7853983776, 39.9098474023]}, "type": "Feature", "properties": {"collection_times": [{"days": "Mon-Sat", "time": "1:20pm"}, {"days": "Sun", "time": "Closed"}], "id": "6773900001", "name": "USPS COLLECTION BOX - BLUE BOX", "address": {"city": "HERNDON", "state": "KS", "street": "306 S QUINCY AVE", "postcode": "67739"}}},
{"geometry": {"type": "Point", "coordinates": [-100.7853983776, 39.9098474023]}, "type": "Feature", "properties": {"collection_times": [{"days": "Mon-Fri", "time": "12:30pm"}, {"days": "Sat", "time": "9:15am"}, {"days": "Sun", "time": "Closed"}], "id": "6773900002", "name": "USPS COLLECTION BOX - PO LOBBY", "address": {"city": "HERNDON", "state": "KS", "street": "306 S QUINCY AVE", "postcode": "67739"}}},
{"geometry": {"type": "Point", "coordinates": [-100.4420836024, 39.3531475664]}, "type": "Feature", "properties": {"collection_times": [{"days": "Mon-Sat", "time": "2:50pm"}, {"days": "Sun", "time": "Closed"}], "id": "6774000001", "name": "USPS COLLECTION BOX - BLUE BOX", "address": {"city": "HOXIE", "state": "KS", "street": "733 MAIN ST", "postcode": "67740"}}},
{"geometry": {"type": "Point", "coordinates": [-100.4420836024, 39.3531475664]}, "type": "Feature", "properties": {"collection_times": [{"days": "Mon-Fri", "time": "2:50pm"}, {"days": "Sat", "time": "10:15am"}, {"days": "Sun", "time": "Closed"}], "id": "6774000002", "name": "USPS COLLECTION BOX - PO LOBBY", "address": {"city": "HOXIE", "state": "KS", "street": "733 MAIN ST", "postcode": "67740"}}},
{"geometry": {"type": "Point", "coordinates": [-100.4420836024, 39.3531475664]}, "type": "Feature", "properties": {"collection_times": [{"days": "Mon-Fri", "time": "2:50pm"}, {"days": "Sat", "time": "10:15am"}, {"days": "Sun", "time": "Closed"}], "id": "6774000003", "name": "USPS COLLECTION BOX - PO LOBBY", "address": {"city": "HOXIE", "state": "KS", "street": "733 MAIN ST", "postcode": "67740"}}},
{"geometry": {"type": "Point", "coordinates": [-102.0368186143, 39.335174635]}, "type": "Feature", "properties": {"collection_times": [{"days": "Mon-Sat", "time": "12:25pm"}, {"days": "Sun", "time": "Closed"}], "id": "6774100001", "name": "USPS COLLECTION BOX - BLUE BOX", "address": {"city": "KANORADO", "state": "KS", "street": "202 MAIN ST", "postcode": "67741"}}},
{"geometry": {"type": "Point", "coordinates": [-102.0368186143, 39.335174635]}, "type": "Feature", "properties": {"collection_times": [{"days": "Mon-Fri", "time": "11:45am"}, {"days": "Sat", "time": "8:45am"}, {"days": "Sun", "time": "Closed"}], "id": "6774100002", "name": "USPS COLLECTION BOX - PO LOBBY", "address": {"city": "KANORADO", "state": "KS", "street": "202 MAIN ST", "postcode": "67741"}}},
{"geometry": {"type": "Point", "coordinates": [-101.372617097, 39.783925235]}, "type": "Feature", "properties": {"collection_times": [{"days": "Mon-Sat", "time": "2:05pm"}, {"days": "Sun", "time": "Closed"}], "id": "6774500001", "name": "USPS COLLECTION BOX - BLUE BOX", "address": {"city": "MCDONALD", "state": "KS", "street": "218 RAWLINS AVE", "postcode": "67745"}}},
{"geometry": {"type": "Point", "coordinates": [-101.372617097, 39.783925235]}, "type": "Feature", "properties": {"collection_times": [{"days": "Mon-Fri", "time": "11:45am"}, {"days": "Sat", "time": "9:15am"}, {"days": "Sun", "time": "Closed"}], "id": "6774500002", "name": "USPS COLLECTION BOX - PO LOBBY", "address": {"city": "MCDONALD", "state": "KS", "street": "218 RAWLINS AVE", "postcode": "67745"}}},
{"geometry": {"type": "Point", "coordinates": [-100.8525276269, 39.1264067956]}, "type": "Feature", "properties": {"collection_times": [{"days": "Mon-Sat", "time": "2:30pm"}, {"days": "Sun", "time": "Closed"}], "id": "6774800001", "name": "USPS COLLECTION BOX - BLUE BOX", "address": {"city": "OAKLEY", "state": "KS", "street": "200 HUDSON AVE", "postcode": "67748"}}},
{"geometry": {"type": "Point", "coordinates": [-100.8525276269, 39.1264067956]}, "type": "Feature", "properties": {"collection_times": [{"days": "Mon-Fri", "time": "2:30pm"}, {"days": "Sat", "time": "10:45am"}, {"days": "Sun", "time": "Closed"}], "id": "6774800003", "name": "USPS COLLECTION BOX - PO LOBBY", "address": {"city": "OAKLEY", "state": "KS", "street": "200 HUDSON AVE", "postcode": "67748"}}},
{"geometry": {"type": "Point", "coordinates": [-100.5295070796, 39.8219139107]}, "type": "Feature", "properties": {"collection_times": [{"days": "Mon-Sat", "time": "1:50pm"}, {"days": "Sun", "time": "Closed"}], "id": "6774900001", "name": "USPS COLLECTION BOX - BLUE BOX", "address": {"city": "OBERLIN", "state": "KS", "street": "135 E HALL ST", "postcode": "67749"}}},
{"geometry": {"type": "Point", "coordinates": [-100.5295070796, 39.8219139107]}, "type": "Feature", "properties": {"collection_times": [{"days": "Mon-Fri", "time": "1:50pm"}, {"days": "Sat", "time": "10:45am"}, {"days": "Sun", "time": "Closed"}], "id": "6774900002", "name": "USPS COLLECTION BOX - PO LOBBY", "address": {"city": "OBERLIN", "state": "KS", "street": "135 E HALL ST", "postcode": "67749"}}},
{"geometry": {"type": "Point", "coordinates": [-100.5295070796, 39.8219139107]}, "type": "Feature", "properties": {"collection_times": [{"days": "Mon-Fri", "time": "1:50pm"}, {"days": "Sat", "time": "10:45am"}, {"days": "Sun", "time": "Closed"}], "id": "6774900003", "name": "USPS COLLECTION BOX - PO LOBBY", "address": {"city": "OBERLIN", "state": "KS", "street": "135 E HALL ST", "postcode": "67749"}}},
{"geometry": {"type": "Point", "coordinates": [-100.2348175018, 39.0695588189]}, "type": "Feature", "properties": {"collection_times": [{"days": "Mon-Sat", "time": "1:55pm"}, {"days": "Sun", "time": "Closed"}], "id": "6775200001", "name": "USPS COLLECTION BOX - BLUE BOX", "address": {"city": "QUINTER", "state": "KS", "street": "315 MAIN ST", "postcode": "67752"}}},
{"geometry": {"type": "Point", "coordinates": [-100.2348175018, 39.0695588189]}, "type": "Feature", "properties": {"collection_times": [{"days": "Mon-Fri", "time": "1:55pm"}, {"days": "Sat", "time": "10:15am"}, {"days": "Sun", "time": "Closed"}], "id": "6775200002", "name": "USPS COLLECTION BOX - PO LOBBY", "address": {"city": "QUINTER", "state": "KS", "street": "315 MAIN ST", "postcode": "67752"}}},
{"geometry": {"type": "Point", "coordinates": [-100.2348175018, 39.0695588189]}, "type": "Feature", "properties": {"collection_times": [{"days": "Mon-Fri", "time": "1:55pm"}, {"days": "Sat", "time": "10:15am"}, {"days": "Sun", "time": "Closed"}], "id": "6775200003", "name": "USPS COLLECTION BOX - PO LOBBY", "address": {"city": "QUINTER", "state": "KS", "street": "315 MAIN ST", "postcode": "67752"}}},
{"geometry": {"type": "Point", "coordinates": [-100.7433879277, 39.4690624531]}, "type": "Feature", "properties": {"collection_times": [{"days": "Mon-Sat", "time": "2:40pm"}, {"days": "Sun", "time": "Closed"}], "id": "6775300001", "name": "USPS COLLECTION BOX - BLUE BOX", "address": {"city": "REXFORD", "state": "KS", "street": "245 MAIN ST", "postcode": "67753"}}},
{"geometry": {"type": "Point", "coordinates": [-100.7433879277, 39.4690624531]}, "type": "Feature", "properties": {"collection_times": [{"days": "Mon-Fri", "time": "11:15am"}, {"days": "Sat", "time": "8:15am"}, {"days": "Sun", "time": "Closed"}], "id": "6775300002", "name": "USPS COLLECTION BOX - PO LOBBY", "address": {"city": "REXFORD", "state": "KS", "street": "245 MAIN ST", "postcode": "67753"}}},
{"geometry": {"type": "Point", "coordinates": [-101.7998172326, 39.7730934289]}, "type": "Feature", "properties": {"collection_times": [{"days": "Mon-Sat", "time": "1:30pm"}, {"days": "Sun", "time": "Closed"}], "id": "6775600001", "name": "USPS COLLECTION BOX - BLUE BOX", "address": {"city": "SAINT FRANCIS", "state": "KS", "street": "222 W WASHINGTON ST", "postcode": "67756"}}},
{"geometry": {"type": "Point", "coordinates": [-101.7998172326, 39.7730934289]}, "type": "Feature", "properties": {"collection_times": [{"days": "Mon-Fri", "time": "1:30pm"}, {"days": "Sat", "time": "10:45am"}, {"days": "Sun", "time": "Closed"}], "id": "6775600003", "name": "USPS COLLECTION BOX - PO LOBBY", "address": {"city": "SAINT FRANCIS", "state": "KS", "street": "222 W WASHINGTON ST", "postcode": "67756"}}},
{"geometry": {"type": "Point", "coordinates": [-101.7998172326, 39.7730934289]}, "type": "Feature", "properties": {"collection_times": [{"days": "Mon-Fri", "time": "1:30pm"}, {"days": "Sat", "time": "10:45am"}, {"days": "Sun", "time": "Closed"}], "id": "6775600004", "name": "USPS COLLECTION BOX - PO LOBBY", "address": {"city": "SAINT FRANCIS", "state": "KS", "street": "222 W WASHINGTON ST", "postcode": "67756"}}},
{"geometry": {"type": "Point", "coordinates": [-100.5677114887, 39.5438841203]}, "type": "Feature", "properties": {"collection_times": [{"days": "Mon-Sat", "time": "2:20pm"}, {"days": "Sun", "time": "Closed"}], "id": "6775700001", "name": "USPS COLLECTION BOX - BLUE BOX", "address": {"city": "SELDEN", "state": "KS", "street": "102 S KANSAS AVE", "postcode": "67757"}}},
{"geometry": {"type": "Point", "coordinates": [-100.5677114887, 39.5438841203]}, "type": "Feature", "properties": {"collection_times": [{"days": "Mon-Fri", "time": "2:20pm"}, {"days": "Sat", "time": "8:45am"}, {"days": "Sun", "time": "Closed"}], "id": "6775700002", "name": "USPS COLLECTION BOX - PO LOBBY", "address": {"city": "SELDEN", "state": "KS", "street": "102 S KANSAS AVE", "postcode": "67757"}}},
{"geometry": {"type": "Point", "coordinates": [-101.75162114, 38.8974530834]}, "type": "Feature", "properties": {"collection_times": [{"days": "Mon-Sat", "time": "12:10pm"}, {"days": "Sun", "time": "Closed"}], "id": "6775800001", "name": "USPS COLLECTION BOX - BLUE BOX", "address": {"city": "SHARON SPRINGS", "state": "KS", "street": "304 N MAIN ST", "postcode": "67758"}}},
{"geometry": {"type": "Point", "coordinates": [-101.75162114, 38.8974530834]}, "type": "Feature", "properties": {"collection_times": [{"days": "Mon-Fri", "time": "12:10pm"}, {"days": "Sat", "time": "9:45am"}, {"days": "Sun", "time": "Closed"}], "id": "6775800002", "name": "USPS COLLECTION BOX - PO LOBBY", "address": {"city": "SHARON SPRINGS", "state": "KS", "street": "304 N MAIN ST", "postcode": "67758"}}},
{"geometry": {"type": "Point", "coordinates": [-101.9449525897, 38.8860155192]}, "type": "Feature", "properties": {"collection_times": [{"days": "Mon-Fri", "time": "11:10am"}, {"days": "Sat", "time": "11:55am"}, {"days": "Sun", "time": "Closed"}], "id": "6776200001", "name": "USPS COLLECTION BOX - BLUE BOX", "address": {"city": "WESKAN", "state": "KS", "street": "527 WESKAN AVE", "postcode": "67762"}}},
{"geometry": {"type": "Point", "coordinates": [-101.9449525897, 38.8860155192]}, "type": "Feature", "properties": {"collection_times": [{"days": "Mon-Fri", "time": "11:00am"}, {"days": "Sat", "time": "8:45am"}, {"days": "Sun", "time": "Closed"}], "id": "6776200002", "name": "USPS COLLECTION BOX - PO LOBBY", "address": {"city": "WESKAN", "state": "KS", "street": "527 WESKAN AVE", "postcode": "67762"}}},
{"geometry": {"type": "Point", "coordinates": [-101.2442984328, 39.0623335961]}, "type": "Feature", "properties": {"collection_times": [{"days": "Mon-Fri", "time": "1:40pm"}, {"days": "Sat", "time": "1:55pm"}, {"days": "Sun", "time": "Closed"}], "id": "6776400001", "name": "USPS COLLECTION BOX - BLUE BOX", "address": {"city": "WINONA", "state": "KS", "street": "304 BELLVIEW AVE", "postcode": "67764"}}},
{"geometry": {"type": "Point", "coordinates": [-101.2442984328, 39.0623335961]}, "type": "Feature", "properties": {"collection_times": [{"days": "Mon-Fri", "time": "1:30pm"}, {"days": "Sat", "time": "8:45am"}, {"days": "Sun", "time": "Closed"}], "id": "6776400002", "name": "USPS COLLECTION BOX - PO LOBBY", "address": {"city": "WINONA", "state": "KS", "street": "304 BELLVIEW AVE", "postcode": "67764"}}}
]}
