{"type": "FeatureCollection", "features": [
{"geometry": {"type": "Point", "coordinates": [-100.0166934346, 37.755171591]}, "type": "Feature", "properties": {"collection_times": [{"days": "Mon-Sat", "time": "4:35pm"}, {"days": "Sun", "time": "Closed"}], "id": "6780100001", "name": "USPS COLLECTION BOX - BLUE BOX", "address": {"city": "DODGE CITY", "state": "KS", "street": "700 CENTRAL AVE", "postcode": "67801"}}},
{"geometry": {"type": "Point", "coordinates": [-100.0195419038, 37.7377281687]}, "type": "Feature", "properties": {"collection_times": [{"days": "Mon-Sat", "time": "3:00pm"}, {"days": "Sun", "time": "Closed"}], "id": "6780100010", "name": "USPS COLLECTION BOX - BLUE BOX", "address": {"city": "DODGE CITY", "state": "KS", "street": "819 S 2ND AVE", "postcode": "67801"}}},
{"geometry": {"type": "Point", "coordinates": [-100.0163884689, 37.7789961147]}, "type": "Feature", "properties": {"collection_times": [{"days": "Mon-Sat", "time": "3:00pm"}, {"days": "Sun", "time": "Closed"}], "id": "6780100011", "name": "USPS COLLECTION BOX - BLUE BOX", "address": {"city": "DODGE CITY", "state": "KS", "street": "2601 CENTRAL AVE", "postcode": "67801"}}},
{"geometry": {"type": "Point", "coordinates": [-100.0211892312, 37.7569717718]}, "type": "Feature", "properties": {"collection_times": [{"days": "Mon-Sat", "time": "3:00pm"}, {"days": "Sun", "time": "Closed"}], "id": "6780100014", "name": "USPS COLLECTION BOX - BLUE BOX", "address": {"city": "DODGE CITY", "state": "KS", "street": "2100 1ST AVE", "postcode": "67801"}}},
{"geometry": {"type": "Point", "coordinates": [-100.0166934346, 37.755171591]}, "type": "Feature", "properties": {"collection_times": [{"days": "Mon-Sat", "time": "4:35pm"}, {"days": "Sun", "time": "Closed"}], "id": "6780100027", "name": "USPS COLLECTION BOX - PO LOBBY", "address": {"city": "DODGE CITY", "state": "KS", "street": "700 CENTRAL AVE", "postcode": "67801"}}},
{"geometry": {"type": "Point", "coordinates": [-100.0329334496, 37.7789671257]}, "type": "Feature", "properties": {"collection_times": [{"days": "Mon-Sat", "time": "3:00pm"}, {"days": "Sun", "time": "Closed"}], "id": "6780100028", "name": "USPS COLLECTION BOX - BLUE BOX", "address": {"city": "DODGE CITY", "state": "KS", "street": "2520 N 14TH AVE", "postcode": "67801"}}},
{"geometry": {"type": "Point", "coordinates": [-100.0328995522, 37.7677194244]}, "type": "Feature", "properties": {"collection_times": [{"days": "Mon-Sat", "time": "3:00pm"}, {"days": "Sun", "time": "Closed"}], "id": "6780100029", "name": "USPS COLLECTION BOX - BLUE BOX", "address": {"city": "DODGE CITY", "state": "KS", "street": "1905 N 14TH AVE", "postcode": "67801"}}},
{"geometry": {"type": "Point", "coordinates": [-100.0642580478, 37.7126005437]}, "type": "Feature", "properties": {"collection_times": [{"days": "Mon-Sat", "time": "10:00am"}, {"days": "Sun", "time": "Closed"}], "id": "6780100030", "name": "USPS COLLECTION BOX - BLUE BOX", "address": {"city": "DODGE CITY", "state": "KS", "street": "701 SHERIDAN ST", "postcode": "67801"}}},
{"geometry": {"type": "Point", "coordinates": [-99.7659379937, 37.1893854958]}, "type": "Feature", "properties": {"collection_times": [{"days": "Mon-Sat", "time": "11:50am"}, {"days": "Sun", "time": "Closed"}], "id": "6783100001", "name": "USPS COLLECTION BOX - BLUE BOX", "address": {"city": "ASHLAND", "state": "KS", "street": "710 MAIN ST", "postcode": "67831"}}},
{"geometry": {"type": "Point", "coordinates": [-99.7659379937, 37.1893854958]}, "type": "Feature", "properties": {"collection_times": [{"days": "Mon-Sat", "time": "11:50am"}, {"days": "Sun", "time": "Closed"}], "id": "6783100002", "name": "USPS COLLECTION BOX - PO LOBBY", "address": {"city": "ASHLAND", "state": "KS", "street": "710 MAIN ST", "postcode": "67831"}}},
{"geometry": {"type": "Point", "coordinates": [-99.6341773659, 37.549442337]}, "type": "Feature", "properties": {"collection_times": [{"days": "Mon-Sat", "time": "12:40pm"}, {"days": "Sun", "time": "Closed"}], "id": "6783400001", "name": "USPS COLLECTION BOX - BLUE BOX", "address": {"city": "BUCKLIN", "state": "KS", "street": "107 S MAIN ST", "postcode": "67834"}}},
{"geometry": {"type": "Point", "coordinates": [-99.6341773659, 37.549442337]}, "type": "Feature", "properties": {"collection_times": [{"days": "Mon-Fri", "time": "12:00pm"}, {"days": "Sat", "time": "9:45am"}, {"days": "Sun", "time": "Closed"}], "id": "6783400002", "name": "USPS COLLECTION BOX - PO LOBBY", "address": {"city": "BUCKLIN", "state": "KS", "street": "107 S MAIN ST", "postcode": "67834"}}},
{"geometry": {"type": "Point", "coordinates": [-100.3480828177, 37.8090389684]}, "type": "Feature", "properties": {"collection_times": [{"days": "Mon-Sat", "time": "12:45pm"}, {"days": "Sun", "time": "Closed"}], "id": "6783500001", "name": "USPS COLLECTION BOX - BLUE BOX", "address": {"city": "CIMARRON", "state": "KS", "street": "207 N MAIN ST", "postcode": "67835"}}},
{"geometry": {"type": "Point", "coordinates": [-100.3480828177, 37.8090389684]}, "type": "Feature", "properties": {"collection_times": [{"days": "Mon-Fri", "time": "12:45pm"}, {"days": "Sat", "time": "9:45am"}, {"days": "Sun", "time": "Closed"}], "id": "6783500003", "name": "USPS COLLECTION BOX - PO LOBBY", "address": {"city": "CIMARRON", "state": "KS", "street": "207 N MAIN ST", "postcode": "67835"}}},
{"geometry": {"type": "Point", "coordinates": [-100.6294425857, 37.5427437319]}, "type": "Feature", "properties": {"collection_times": [{"days": "Mon-Fri", "time": "1:00pm"}, {"days": "Sat", "time": "12:40pm"}, {"days": "Sun", "time": "Closed"}], "id": "6783700001", "name": "USPS COLLECTION BOX - BLUE BOX", "address": {"city": "COPELAND", "state": "KS", "street": "107 SANTA FE ST", "postcode": "67837"}}},
{"geometry": {"type": "Point", "coordinates": [-100.6294425857, 37.5427437319]}, "type": "Feature", "properties": {"collection_times": [{"days": "Mon-Fri", "time": "12:40pm"}, {"days": "Sat", "time": "8:45am"}, {"days": "Sun", "time": "Closed"}], "id": "6783700002", "name": "USPS COLLECTION BOX - PO LOBBY", "address": {"city": "COPELAND", "state": "KS", "street": "107 SANTA FE ST", "postcode": "67837"}}},
{"geometry": {"type": "Point", "coordinates": [-101.1328181527, 37.9789819533]}, "type": "Feature", "properties": {"collection_times": [{"days": "Mon-Sat", "time": "2:35pm"}, {"days": "Sun", "time": "Closed"}], "id": "6783800001", "name": "USPS COLLECTION BOX - BLUE BOX", "address": {"city": "DEERFIELD", "state": "KS", "street": "514 MAIN ST", "postcode": "67838"}}},
{"geometry": {"type": "Point", "coordinates": [-101.1328181527, 37.9789819533]}, "type": "Feature", "properties": {"collection_times": [{"days": "Mon-Fri", "time": "2:00pm"}, {"days": "Sat", "time": "9:45am"}, {"days": "Sun", "time": "Closed"}], "id": "6783800002", "name": "USPS COLLECTION BOX - PO LOBBY", "address": {"city": "DEERFIELD", "state": "KS", "street": "514 MAIN ST", "postcode": "67838"}}},
{"geometry": {"type": "Point", "coordinates": [-100.4656337884, 38.4809852729]}, "type": "Feature", "properties": {"collection_times": [{"days": "Mon-Sat", "time": "12:40pm"}, {"days": "Sun", "time": "Closed"}], "id": "6783900002", "name": "USPS COLLECTION BOX - BLUE BOX", "address": {"city": "DIGHTON", "state": "KS", "street": "205 S LANE ST", "postcode": "67839"}}},
{"geometry": {"type": "Point", "coordinates": [-100.4656337884, 38.4809852729]}, "type": "Feature", "properties": {"collection_times": [{"days": "Mon-Fri", "time": "12:40pm"}, {"days": "Sat", "time": "11:45am"}, {"days": "Sun", "time": "Closed"}], "id": "6783900003", "name": "USPS COLLECTION BOX - PO LOBBY", "address": {"city": "DIGHTON", "state": "KS", "street": "205 S LANE ST", "postcode": "67839"}}},
{"geometry": {"type": "Point", "coordinates": [-99.9989573479, 37.1496201656]}, "type": "Feature", "properties": {"collection_times": [{"days": "Mon-Sat", "time": "11:25am"}, {"days": "Sun", "time": "Closed"}], "id": "6784000000", "name": "USPS COLLECTION BOX - BLUE BOX", "address": {"city": "ENGLEWOOD", "state": "KS", "street": "100 N STATE ROAD 283", "postcode": "67840"}}},
{"geometry": {"type": "Point", "coordinates": [-99.9989573479, 37.1496201656]}, "type": "Feature", "properties": {"collection_times": [{"days": "Mon-Sat", "time": "10:15am"}, {"days": "Sun", "time": "Closed"}], "id": "6784000001", "name": "USPS COLLECTION BOX - PO LOBBY", "address": {"city": "ENGLEWOOD", "state": "KS", "street": "100 N STATE ROAD 283", "postcode": "67840"}}},
{"geometry": {"type": "Point", "coordinates": [-100.2333346741, 37.652197534]}, "type": "Feature", "properties": {"collection_times": [{"days": "Mon-Fri", "time": "1:20pm"}, {"days": "Sat", "time": "10:15am"}, {"days": "Sun", "time": "Closed"}], "id": "6784100002", "name": "USPS COLLECTION BOX - PO LOBBY", "address": {"city": "ENSIGN", "state": "KS", "street": "306 AUBREY ST", "postcode": "67841"}}},
{"geometry": {"type": "Point", "coordinates": [-100.2333346741, 37.652197534]}, "type": "Feature", "properties": {"collection_times": [{"days": "Mon-Sat", "time": "1:20pm"}, {"days": "Sun", "time": "Closed"}], "id": "6784100003", "name": "USPS COLLECTION BOX - BLUE BOX", "address": {"city": "ENSIGN", "state": "KS", "street": "306 AUBREY ST", "postcode": "67841"}}},
{"geometry": {"type": "Point", "coordinates": [-99.7538087837, 37.6386343592]}, "type": "Feature", "properties": {"collection_times": [{"days": "Mon-Sat", "time": "1:10pm"}, {"days": "Sun", "time": "Closed"}], "id": "6784200001", "name": "USPS COLLECTION BOX - BLUE BOX", "address": {"city": "FORD", "state": "KS", "street": "601 N MAIN ST", "postcode": "67842"}}},
{"geometry": {"type": "Point", "coordinates": [-99.7538087837, 37.6386343592]}, "type": "Feature", "properties": {"collection_times": [{"days": "Mon-Fri", "time": "12:45pm"}, {"days": "Sat", "time": "12:00pm"}, {"days": "Sun", "time": "Closed"}], "id": "6784200002", "name": "USPS COLLECTION BOX - PO LOBBY", "address": {"city": "FORD", "state": "KS", "street": "601 N MAIN ST", "postcode": "67842"}}},
{"geometry": {"type": "Point", "coordinates": [-100.1954490181, 37.38073107]}, "type": "Feature", "properties": {"collection_times": [{"days": "Mon-Sat", "time": "12:40pm"}, {"days": "Sun", "time": "Closed"}], "id": "6784400001", "name": "USPS COLLECTION BOX - BLUE BOX", "address": {"city": "FOWLER", "state": "KS", "street": "410 N MAIN ST", "postcode": "67844"}}},
{"geometry": {"type": "Point", "coordinates": [-100.1954490181, 37.38073107]}, "type": "Feature", "properties": {"collection_times": [{"days": "Mon-Fri", "time": "11:15am"}, {"days": "Sat", "time": "9:15am"}, {"days": "Sun", "time": "Closed"}], "id": "6784400002", "name": "USPS COLLECTION BOX - PO LOBBY", "address": {"city": "FOWLER", "state": "KS", "street": "410 N MAIN ST", "postcode": "67844"}}},
{"geometry": {"type": "Point", "coordinates": [-100.8561194456, 37.964146201]}, "type": "Feature", "properties": {"collection_times": [{"days": "Mon-Sat", "time": "3:00pm"}, {"days": "Sun", "time": "Closed"}], "id": "6784600005", "name": "USPS COLLECTION BOX - BLUE BOX", "address": {"city": "GARDEN CITY", "state": "KS", "street": "1509 E FULTON TER", "postcode": "67846"}}},
{"geometry": {"type": "Point", "coordinates": [-100.8472420694, 37.9658972376]}, "type": "Feature", "properties": {"collection_times": [{"days": "Mon-Sat", "time": "3:00pm"}, {"days": "Sun", "time": "Closed"}], "id": "6784600010", "name": "USPS COLLECTION BOX - BLUE BOX", "address": {"city": "GARDEN CITY", "state": "KS", "street": "405 N CAMPUS DR", "postcode": "67846"}}},
{"geometry": {"type": "Point", "coordinates": [-100.8585216733, 37.9750351376]}, "type": "Feature", "properties": {"collection_times": [{"days": "Mon-Sat", "time": "3:00pm"}, {"days": "Sun", "time": "Closed"}], "id": "6784600011", "name": "USPS COLLECTION BOX - BLUE BOX", "address": {"city": "GARDEN CITY", "state": "KS", "street": "1305 E KANSAS AVE", "postcode": "67846"}}},
{"geometry": {"type": "Point", "coordinates": [-100.8709072173, 37.967279968]}, "type": "Feature", "properties": {"collection_times": [{"days": "Mon-Sat", "time": "3:15pm"}, {"days": "Sun", "time": "Closed"}], "id": "6784600030", "name": "USPS COLLECTION BOX - PO LOBBY", "address": {"city": "GARDEN CITY", "state": "KS", "street": "410 N 6TH ST", "postcode": "67846"}}},
{"geometry": {"type": "Point", "coordinates": [-100.8335819372, 37.9864555639]}, "type": "Feature", "properties": {"collection_times": [{"days": "Mon-Sat", "time": "2:15pm"}, {"days": "Sun", "time": "Closed"}], "id": "6784600031", "name": "USPS COLLECTION BOX - BLUE BOX", "address": {"city": "GARDEN CITY", "state": "KS", "street": "3101 E KANSAS AVE", "postcode": "67846"}}},
{"geometry": {"type": "Point", "coordinates": [-100.876571211, 37.9673198038]}, "type": "Feature", "properties": {"collection_times": [{"days": "Mon-Sat", "time": "3:00pm"}, {"days": "Sun", "time": "Closed"}], "id": "6784600033", "name": "USPS COLLECTION BOX - BLUE BOX", "address": {"city": "GARDEN CITY", "state": "KS", "street": "311 N 9TH ST", "postcode": "67846"}}},
{"geometry": {"type": "Point", "coordinates": [-100.8709072173, 37.967279968]}, "type": "Feature", "properties": {"collection_times": [{"days": "Mon-Sat", "time": "3:15pm"}, {"days": "Sun", "time": "Closed"}], "id": "6784600036", "name": "USPS COLLECTION BOX - BLUE BOX", "address": {"city": "GARDEN CITY", "state": "KS", "street": "410 N 6TH ST", "postcode": "67846"}}},
{"geometry": {"type": "Point", "coordinates": [-99.7143250636, 38.1221959893]}, "type": "Feature", "properties": {"collection_times": [{"days": "Mon-Sat", "time": "11:30am"}, {"days": "Sun", "time": "Closed"}], "id": "6784900001", "name": "USPS COLLECTION BOX - BLUE BOX", "address": {"city": "HANSTON", "state": "KS", "street": "104 N LOGAN ST", "postcode": "67849"}}},
{"geometry": {"type": "Point", "coordinates": [-99.7143250636, 38.1221959893]}, "type": "Feature", "properties": {"collection_times": [{"days": "Mon-Fri", "time": "11:30am"}, {"days": "Sat", "time": "9:00am"}, {"days": "Sun", "time": "Closed"}], "id": "6784900002", "name": "USPS COLLECTION BOX - PO LOBBY", "address": {"city": "HANSTON", "state": "KS", "street": "104 N LOGAN ST", "postcode": "67849"}}},
{"geometry": {"type": "Point", "coordinates": [-100.6176101032, 38.6005626718]}, "type": "Feature", "properties": {"collection_times": [{"days": "Mon-Sat", "time": "12:15pm"}, {"days": "Sun", "time": "Closed"}], "id": "6785000001", "name": "USPS COLLECTION BOX - BLUE BOX", "address": {"city": "HEALY", "state": "KS", "street": "1001 S ELM ST", "postcode": "67850"}}},
{"geometry": {"type": "Point", "coordinates": [-100.6176101032, 38.6005626718]}, "type": "Feature", "properties": {"collection_times": [{"days": "Mon-Sat", "time": "12:15pm"}, {"days": "Sun", "time": "Closed"}], "id": "6785000002", "name": "USPS COLLECTION BOX - PO LOBBY", "address": {"city": "HEALY", "state": "KS", "street": "1001 S ELM ST", "postcode": "67850"}}},
{"geometry": {"type": "Point", "coordinates": [-100.9903243042, 37.9892786711]}, "type": "Feature", "properties": {"collection_times": [{"days": "Mon-Sat", "time": "2:40pm"}, {"days": "Sun", "time": "Closed"}], "id": "6785100001", "name": "USPS COLLECTION BOX - BLUE BOX", "address": {"city": "HOLCOMB", "state": "KS", "street": "304 N JONES AVE", "postcode": "67851"}}},
{"geometry": {"type": "Point", "coordinates": [-100.9903243042, 37.9892786711]}, "type": "Feature", "properties": {"collection_times": [{"days": "Mon-Fri", "time": "2:40pm"}, {"days": "Sat", "time": "10:45am"}, {"days": "Sun", "time": "Closed"}], "id": "6785100005", "name": "USPS COLLECTION BOX - PO LOBBY", "address": {"city": "HOLCOMB", "state": "KS", "street": "304 N JONES AVE", "postcode": "67851"}}},
{"geometry": {"type": "Point", "coordinates": [-100.4534878867, 37.8293512564]}, "type": "Feature", "properties": {"collection_times": [{"days": "Mon-Sat", "time": "12:30pm"}, {"days": "Sun", "time": "Closed"}], "id": "6785300001", "name": "USPS COLLECTION BOX - BLUE BOX", "address": {"city": "INGALLS", "state": "KS", "street": "111 S MAIN ST", "postcode": "67853"}}},
{"geometry": {"type": "Point", "coordinates": [-100.4534878867, 37.8293512564]}, "type": "Feature", "properties": {"collection_times": [{"days": "Mon-Fri", "time": "12:15pm"}, {"days": "Sat", "time": "11:15am"}, {"days": "Sun", "time": "Closed"}], "id": "6785300002", "name": "USPS COLLECTION BOX - PO LOBBY", "address": {"city": "INGALLS", "state": "KS", "street": "111 S MAIN ST", "postcode": "67853"}}},
{"geometry": {"type": "Point", "coordinates": [-99.8924112424, 38.0864713521]}, "type": "Feature", "properties": {"collection_times": [{"days": "Mon-Sat", "time": "11:55am"}, {"days": "Sun", "time": "Closed"}], "id": "6785400001", "name": "USPS COLLECTION BOX - BLUE BOX", "address": {"city": "JETMORE", "state": "KS", "street": "320 BOWLUS ST", "postcode": "67854"}}},
{"geometry": {"type": "Point", "coordinates": [-99.8924112424, 38.0864713521]}, "type": "Feature", "properties": {"collection_times": [{"days": "Mon-Fri", "time": "11:55am"}, {"days": "Sat", "time": "9:45am"}, {"days": "Sun", "time": "Closed"}], "id": "6785400002", "name": "USPS COLLECTION BOX - PO LOBBY", "address": {"city": "JETMORE", "state": "KS", "street": "320 BOWLUS ST", "postcode": "67854"}}},
{"geometry": {"type": "Point", "coordinates": [-101.7508308858, 37.57001203]}, "type": "Feature", "properties": {"collection_times": [{"days": "Mon-Sat", "time": "1:20pm"}, {"days": "Sun", "time": "Closed"}], "id": "6785500002", "name": "USPS COLLECTION BOX - BLUE BOX", "address": {"city": "JOHNSON", "state": "KS", "street": "115 S MAIN ST", "postcode": "67855"}}},
{"geometry": {"type": "Point", "coordinates": [-101.7508308858, 37.57001203]}, "type": "Feature", "properties": {"collection_times": [{"days": "Mon-Fri", "time": "1:20pm"}, {"days": "Sat", "time": "12:45pm"}, {"days": "Sun", "time": "Closed"}], "id": "6785500003", "name": "USPS COLLECTION BOX - PO LOBBY", "address": {"city": "JOHNSON", "state": "KS", "street": "115 S MAIN ST", "postcode": "67855"}}},
{"geometry": {"type": "Point", "coordinates": [-101.586777268, 37.856494169]}, "type": "Feature", "properties": {"collection_times": [{"days": "Mon-Sat", "time": "12:50pm"}, {"days": "Sun", "time": "Closed"}], "id": "6785700001", "name": "USPS COLLECTION BOX - BLUE BOX", "address": {"city": "KENDALL", "state": "KS", "street": "102 W B ST", "postcode": "67857"}}},
{"geometry": {"type": "Point", "coordinates": [-101.586777268, 37.856494169]}, "type": "Feature", "properties": {"collection_times": [{"days": "Mon-Fri", "time": "11:50am"}, {"days": "Sat", "time": "10:00am"}, {"days": "Sun", "time": "Closed"}], "id": "6785700002", "name": "USPS COLLECTION BOX - PO LOBBY", "address": {"city": "KENDALL", "state": "KS", "street": "102 W B ST", "postcode": "67857"}}},
{"geometry": {"type": "Point", "coordinates": [-100.7000721156, 37.2028434905]}, "type": "Feature", "properties": {"collection_times": [{"days": "Mon-Sat", "time": "11:45am"}, {"days": "Sun", "time": "Closed"}], "id": "6785900001", "name": "USPS COLLECTION BOX - BLUE BOX", "address": {"city": "KISMET", "state": "KS", "street": "506 MAIN ST", "postcode": "67859"}}},
{"geometry": {"type": "Point", "coordinates": [-100.7001361548, 37.2031315126]}, "type": "Feature", "properties": {"collection_times": [{"days": "Mon-Fri", "time": "11:40am"}, {"days": "Sat", "time": "10:00am"}, {"days": "Sun", "time": "Closed"}], "id": "6785900002", "name": "USPS COLLECTION BOX - PO LOBBY", "address": {"city": "KISMET", "state": "KS", "street": "506 MAIN ST", "postcode": "67859"}}},
{"geometry": {"type": "Point", "coordinates": [-101.2553644104, 37.9414414436]}, "type": "Feature", "properties": {"collection_times": [{"days": "Mon-Sat", "time": "2:15pm"}, {"days": "Sun", "time": "Closed"}], "id": "6786000001", "name": "USPS COLLECTION BOX - BLUE BOX", "address": {"city": "LAKIN", "state": "KS", "street": "108 E LINCOLN AVE", "postcode": "67860"}}},
{"geometry": {"type": "Point", "coordinates": [-101.2553644104, 37.9414414436]}, "type": "Feature", "properties": {"collection_times": [{"days": "Mon-Fri", "time": "2:15pm"}, {"days": "Sat", "time": "10:45am"}, {"days": "Sun", "time": "Closed"}], "id": "6786000002", "name": "USPS COLLECTION BOX - PO LOBBY", "address": {"city": "LAKIN", "state": "KS", "street": "108 E LINCOLN AVE", "postcode": "67860"}}},
{"geometry": {"type": "Point", "coordinates": [-101.3582869825, 38.482614934]}, "type": "Feature", "properties": {"collection_times": [{"days": "Mon-Fri", "time": "12:35pm"}, {"days": "Sat", "time": "12:45pm"}, {"days": "Sun", "time": "Closed"}], "id": "6786100002", "name": "USPS COLLECTION BOX - BLUE BOX", "address": {"city": "LEOTI", "state": "KS", "street": "209 N 4TH ST", "postcode": "67861"}}},
{"geometry": {"type": "Point", "coordinates": [-101.3582869825, 38.482614934]}, "type": "Feature", "properties": {"collection_times": [{"days": "Mon-Fri", "time": "12:35pm"}, {"days": "Sat", "time": "10:45am"}, {"days": "Sun", "time": "Closed"}], "id": "6786100003", "name": "USPS COLLECTION BOX - PO LOBBY", "address": {"city": "LEOTI", "state": "KS", "street": "209 N 4TH ST", "postcode": "67861"}}},
{"geometry": {"type": "Point", "coordinates": [-101.3582869825, 38.482614934]}, "type": "Feature", "properties": {"collection_times": [{"days": "Mon-Fri", "time": "12:35pm"}, {"days": "Sat", "time": "10:45am"}, {"days": "Sun", "time": "Closed"}], "id": "6786100004", "name": "USPS COLLECTION BOX - PO LOBBY", "address": {"city": "LEOTI", "state": "KS", "street": "209 N 4TH ST", "postcode": "67861"}}},
{"geometry": {"type": "Point", "coordinates": [-101.8850728193, 37.522963693]}, "type": "Feature", "properties": {"collection_times": [{"days": "Mon-Sat", "time": "12:55pm"}, {"days": "Sun", "time": "Closed"}], "id": "6786200001", "name": "USPS COLLECTION BOX - BLUE BOX", "address": {"city": "MANTER", "state": "KS", "street": "216 N MAIN ST", "postcode": "67862"}}},
{"geometry": {"type": "Point", "coordinates": [-101.8850728193, 37.522963693]}, "type": "Feature", "properties": {"collection_times": [{"days": "Mon-Fri", "time": "11:00am"}, {"days": "Sat", "time": "11:30am"}, {"days": "Sun", "time": "Closed"}], "id": "6786200002", "name": "USPS COLLECTION BOX - PO LOBBY", "address": {"city": "MANTER", "state": "KS", "street": "216 N MAIN ST", "postcode": "67862"}}},
{"geometry": {"type": "Point", "coordinates": [-100.339994512, 37.2843758551]}, "type": "Feature", "properties": {"collection_times": [{"days": "Mon-Sat", "time": "12:20pm"}, {"days": "Sun", "time": "Closed"}], "id": "6786400001", "name": "USPS COLLECTION BOX - BLUE BOX", "address": {"city": "MEADE", "state": "KS", "street": "101 E WEST PLAINS ST", "postcode": "67864"}}},
{"geometry": {"type": "Point", "coordinates": [-100.339994512, 37.2843758551]}, "type": "Feature", "properties": {"collection_times": [{"days": "Mon-Fri", "time": "12:20pm"}, {"days": "Sat", "time": "10:45am"}, {"days": "Sun", "time": "Closed"}], "id": "6786400002", "name": "USPS COLLECTION BOX - PO LOBBY", "address": {"city": "MEADE", "state": "KS", "street": "101 E WEST PLAINS ST", "postcode": "67864"}}},
{"geometry": {"type": "Point", "coordinates": [-100.0138373078, 37.4432552025]}, "type": "Feature", "properties": {"collection_times": [{"days": "Mon-Sat", "time": "12:45pm"}, {"days": "Sun", "time": "Closed"}], "id": "6786500001", "name": "USPS COLLECTION BOX - BLUE BOX", "address": {"city": "MINNEOLA", "state": "KS", "street": "116 S MAIN ST", "postcode": "67865"}}},
{"geometry": {"type": "Point", "coordinates": [-100.0138373078, 37.4432552025]}, "type": "Feature", "properties": {"collection_times": [{"days": "Mon-Fri", "time": "1:00pm"}, {"days": "Sat", "time": "9:15am"}, {"days": "Sun", "time": "Closed"}], "id": "6786500002", "name": "USPS COLLECTION BOX - PO LOBBY", "address": {"city": "MINNEOLA", "state": "KS", "street": "116 S MAIN ST", "postcode": "67865"}}},
{"geometry": {"type": "Point", "coordinates": [-100.4427533877, 37.5971152958]}, "type": "Feature", "properties": {"collection_times": [{"days": "Mon-Sat", "time": "1:00pm"}, {"days": "Sun", "time": "Closed"}], "id": "6786700001", "name": "USPS COLLECTION BOX - BLUE BOX", "address": {"city": "MONTEZUMA", "state": "KS", "street": "207 N AZTEC ST", "postcode": "67867"}}},
{"geometry": {"type": "Point", "coordinates": [-100.4427533877, 37.5971152958]}, "type": "Feature", "properties": {"collection_times": [{"days": "Mon-Fri", "time": "1:00pm"}, {"days": "Sat", "time": "10:15am"}, {"days": "Sun", "time": "Closed"}], "id": "6786700002", "name": "USPS COLLECTION BOX - PO LOBBY", "address": {"city": "MONTEZUMA", "state": "KS", "street": "207 N AZTEC ST", "postcode": "67867"}}},
{"geometry": {"type": "Point", "coordinates": [-100.5895936449, 37.2601798925]}, "type": "Feature", "properties": {"collection_times": [{"days": "Mon-Fri", "time": "12:00pm"}, {"days": "Sat", "time": "12:15pm"}, {"days": "Sun", "time": "Closed"}], "id": "6786900001", "name": "USPS COLLECTION BOX - BLUE BOX", "address": {"city": "PLAINS", "state": "KS", "street": "416 GRAND AVE", "postcode": "67869"}}},
{"geometry": {"type": "Point", "coordinates": [-100.5895936449, 37.2601798925]}, "type": "Feature", "properties": {"collection_times": [{"days": "Mon-Fri", "time": "12:00pm"}, {"days": "Sat", "time": "10:15am"}, {"days": "Sun", "time": "Closed"}], "id": "6786900002", "name": "USPS COLLECTION BOX - PO LOBBY", "address": {"city": "PLAINS", "state": "KS", "street": "416 GRAND AVE", "postcode": "67869"}}},
{"geometry": {"type": "Point", "coordinates": [-100.9855367404, 37.4403352518]}, "type": "Feature", "properties": {"collection_times": [{"days": "Mon-Fri", "time": "12:00pm"}, {"days": "Sat", "time": "10:45am"}, {"days": "Sun", "time": "Closed"}], "id": "6787000001", "name": "USPS COLLECTION BOX - BLUE BOX", "address": {"city": "SATANTA", "state": "KS", "street": "117 SEQUOYAH ST", "postcode": "67870"}}},
{"geometry": {"type": "Point", "coordinates": [-100.9855367404, 37.4403352518]}, "type": "Feature", "properties": {"collection_times": [{"days": "Mon-Fri", "time": "12:00pm"}, {"days": "Sat", "time": "10:45am"}, {"days": "Sun", "time": "Closed"}], "id": "6787000002", "name": "USPS COLLECTION BOX - PO LOBBY", "address": {"city": "SATANTA", "state": "KS", "street": "117 SEQUOYAH ST", "postcode": "67870"}}},
{"geometry": {"type": "Point", "coordinates": [-100.9069358803, 38.4845875855]}, "type": "Feature", "properties": {"collection_times": [{"days": "Mon-Fri", "time": "1:10pm"}, {"days": "Sat", "time": "10:45am"}, {"days": "Sun", "time": "Closed"}], "id": "6787100001", "name": "USPS COLLECTION BOX - BLUE BOX", "address": {"city": "SCOTT CITY", "state": "KS", "street": "100 W 3RD ST", "postcode": "67871"}}},
{"geometry": {"type": "Point", "coordinates": [-100.9069358803, 38.4845875855]}, "type": "Feature", "properties": {"collection_times": [{"days": "Mon-Fri", "time": "1:10pm"}, {"days": "Sat", "time": "10:30am"}, {"days": "Sun", "time": "Closed"}], "id": "6787100003", "name": "USPS COLLECTION BOX - BLUE BOX", "address": {"city": "SCOTT CITY", "state": "KS", "street": "100 W 3RD ST", "postcode": "67871"}}},
{"geometry": {"type": "Point", "coordinates": [-100.9069358803, 38.4845875855]}, "type": "Feature", "properties": {"collection_times": [{"days": "Mon-Fri", "time": "1:10pm"}, {"days": "Sat", "time": "10:45am"}, {"days": "Sun", "time": "Closed"}], "id": "6787100004", "name": "USPS COLLECTION BOX - PO LOBBY", "address": {"city": "SCOTT CITY", "state": "KS", "street": "100 W 3RD ST", "postcode": "67871"}}},
{"geometry": {"type": "Point", "coordinates": [-99.754953143, 37.8438354609]}, "type": "Feature", "properties": {"collection_times": [{"days": "Mon-Sat", "time": "1:00pm"}, {"days": "Sun", "time": "Closed"}], "id": "6787600001", "name": "USPS COLLECTION BOX - BLUE BOX", "address": {"city": "SPEARVILLE", "state": "KS", "street": "302 MAIN ST", "postcode": "67876"}}},
{"geometry": {"type": "Point", "coordinates": [-99.754953143, 37.8438354609]}, "type": "Feature", "properties": {"collection_times": [{"days": "Mon-Fri", "time": "12:45pm"}, {"days": "Sat", "time": "8:45am"}, {"days": "Sun", "time": "Closed"}], "id": "6787600002", "name": "USPS COLLECTION BOX - PO LOBBY", "address": {"city": "SPEARVILLE", "state": "KS", "street": "302 MAIN ST", "postcode": "67876"}}},
{"geometry": {"type": "Point", "coordinates": [-100.8438322437, 37.4810270451]}, "type": "Feature", "properties": {"collection_times": [{"days": "Mon-Sat", "time": "12:20pm"}, {"days": "Sun", "time": "Closed"}], "id": "6787700001", "name": "USPS COLLECTION BOX - BLUE BOX", "address": {"city": "SUBLETTE", "state": "KS", "street": "209 S INMAN ST", "postcode": "67877"}}},
{"geometry": {"type": "Point", "coordinates": [-100.8438322437, 37.4810270451]}, "type": "Feature", "properties": {"collection_times": [{"days": "Mon-Fri", "time": "12:20pm"}, {"days": "Sat", "time": "11:15am"}, {"days": "Sun", "time": "Closed"}], "id": "6787700002", "name": "USPS COLLECTION BOX - PO LOBBY", "address": {"city": "SUBLETTE", "state": "KS", "street": "209 S INMAN ST", "postcode": "67877"}}},
{"geometry": {"type": "Point", "coordinates": [-101.7508443551, 37.9812708671]}, "type": "Feature", "properties": {"collection_times": [{"days": "Mon-Sat", "time": "12:30pm"}, {"days": "Sun", "time": "Closed"}], "id": "6787800001", "name": "USPS COLLECTION BOX - BLUE BOX", "address": {"city": "SYRACUSE", "state": "KS", "street": "200 N GATES ST", "postcode": "67878"}}},
{"geometry": {"type": "Point", "coordinates": [-101.7508443551, 37.9812708671]}, "type": "Feature", "properties": {"collection_times": [{"days": "Mon-Fri", "time": "12:30pm"}, {"days": "Sat", "time": "11:45am"}, {"days": "Sun", "time": "Closed"}], "id": "6787800002", "name": "USPS COLLECTION BOX - PO LOBBY", "address": {"city": "SYRACUSE", "state": "KS", "street": "200 N GATES ST", "postcode": "67878"}}},
{"geometry": {"type": "Point", "coordinates": [-101.761407384, 38.4723117523]}, "type": "Feature", "properties": {"collection_times": [{"days": "Mon-Sat", "time": "11:10am"}, {"days": "Sun", "time": "Closed"}], "id": "6787900001", "name": "USPS COLLECTION BOX - BLUE BOX", "address": {"city": "TRIBUNE", "state": "KS", "street": "123 W GREELEY AVE", "postcode": "67879"}}},
{"geometry": {"type": "Point", "coordinates": [-101.761407384, 38.4723117523]}, "type": "Feature", "properties": {"collection_times": [{"days": "Mon-Fri", "time": "11:10am"}, {"days": "Sat", "time": "10:45am"}, {"days": "Sun", "time": "Closed"}], "id": "6787900002", "name": "USPS COLLECTION BOX - PO LOBBY", "address": {"city": "TRIBUNE", "state": "KS", "street": "123 W GREELEY AVE", "postcode": "67879"}}},
{"geometry": {"type": "Point", "coordinates": [-101.761407384, 38.4723117523]}, "type": "Feature", "properties": {"collection_times": [{"days": "Mon-Fri", "time": "11:10am"}, {"days": "Sat", "time": "10:45am"}, {"days": "Sun", "time": "Closed"}], "id": "6787900003", "name": "USPS COLLECTION BOX - PO LOBBY", "address": {"city": "TRIBUNE", "state": "KS", "street": "123 W GREELEY AVE", "postcode": "67879"}}},
{"geometry": {"type": "Point", "coordinates": [-101.359356279, 37.579502795]}, "type": "Feature", "properties": {"collection_times": [{"days": "Mon-Sat", "time": "1:55pm"}, {"days": "Sun", "time": "Closed"}], "id": "6788000002", "name": "USPS COLLECTION BOX - BLUE BOX", "address": {"city": "ULYSSES", "state": "KS", "street": "208 S BAUGHMAN ST", "postcode": "67880"}}},
{"geometry": {"type": "Point", "coordinates": [-101.359356279, 37.579502795]}, "type": "Feature", "properties": {"collection_times": [{"days": "Mon-Sat", "time": "1:55pm"}, {"days": "Sun", "time": "Closed"}], "id": "6788000003", "name": "USPS COLLECTION BOX - BLUE BOX", "address": {"city": "ULYSSES", "state": "KS", "street": "208 S BAUGHMAN ST", "postcode": "67880"}}},
{"geometry": {"type": "Point", "coordinates": [-101.359356279, 37.579502795]}, "type": "Feature", "properties": {"collection_times": [{"days": "Mon-Fri", "time": "1:55pm"}, {"days": "Sat", "time": "12:00pm"}, {"days": "Sun", "time": "Closed"}], "id": "6788000004", "name": "USPS COLLECTION BOX - PO LOBBY", "address": {"city": "ULYSSES", "state": "KS", "street": "208 S BAUGHMAN ST", "postcode": "67880"}}},
{"geometry": {"type": "Point", "coordinates": [-101.359356279, 37.579502795]}, "type": "Feature", "properties": {"collection_times": [{"days": "Mon-Fri", "time": "1:55pm"}, {"days": "Sat", "time": "12:00pm"}, {"days": "Sun", "time": "Closed"}], "id": "6788000005", "name": "USPS COLLECTION BOX - PO LOBBY", "address": {"city": "ULYSSES", "state": "KS", "street": "208 S BAUGHMAN ST", "postcode": "67880"}}},
{"geometry": {"type": "Point", "coordinates": [-99.8877192139, 37.7823260009]}, "type": "Feature", "properties": {"collection_times": [{"days": "Mon-Sat", "time": "1:20pm"}, {"days": "Sun", "time": "Closed"}], "id": "6788200001", "name": "USPS COLLECTION BOX - BLUE BOX", "address": {"city": "WRIGHT", "state": "KS", "street": "10894 MAIN ST", "postcode": "67882"}}},
{"geometry": {"type": "Point", "coordinates": [-99.8877192139, 37.7823260009]}, "type": "Feature", "properties": {"collection_times": [{"days": "Mon-Fri", "time": "12:00pm"}, {"days": "Sat", "time": "9:45am"}, {"days": "Sun", "time": "Closed"}], "id": "6788200002", "name": "USPS COLLECTION BOX - PO LOBBY", "address": {"city": "WRIGHT", "state": "KS", "street": "10894 MAIN ST", "postcode": "67882"}}}
]}
