{"type": "FeatureCollection", "features": [
{"geometry": {"type": "Point", "coordinates": [-100.9220454914, 37.0428583734]}, "type": "Feature", "properties": {"collection_times": [{"days": "Mon-Sat", "time": "5:00pm"}, {"days": "Sun", "time": "Closed"}], "id": "6790100000", "name": "USPS COLLECTION BOX - BLUE BOX", "address": {"city": "LIBERAL", "state": "KS", "street": "25 E 5TH ST", "postcode": "67901"}}},
{"geometry": {"type": "Point", "coordinates": [-100.9220027954, 37.0505868512]}, "type": "Feature", "properties": {"collection_times": [{"days": "Mon-Fri", "time": "3:00pm"}, {"days": "Sat", "time": "1:30pm"}, {"days": "Sun", "time": "Closed"}], "id": "6790100003", "name": "USPS COLLECTION BOX - BLUE BOX", "address": {"city": "LIBERAL", "state": "KS", "street": "25 E 11TH ST", "postcode": "67901"}}},
{"geometry": {"type": "Point", "coordinates": [-100.9405645765, 37.0539163005]}, "type": "Feature", "properties": {"collection_times": [{"days": "Mon-Fri", "time": "3:00pm"}, {"days": "Sat", "time": "1:30pm"}, {"days": "Sun", "time": "Closed"}], "id": "6790100014", "name": "USPS COLLECTION BOX - BLUE BOX", "address": {"city": "LIBERAL", "state": "KS", "street": "1460 N WESTERN AVE", "postcode": "67901"}}},
{"geometry": {"type": "Point", "coordinates": [-100.9220454914, 37.0428583734]}, "type": "Feature", "properties": {"collection_times": [{"days": "Mon-Sat", "time": "5:00pm"}, {"days": "Sun", "time": "Closed"}], "id": "6790100018", "name": "USPS COLLECTION BOX - PO LOBBY", "address": {"city": "LIBERAL", "state": "KS", "street": "25 E 5TH ST", "postcode": "67901"}}},
{"geometry": {"type": "Point", "coordinates": [-100.9223998546, 37.0650148294]}, "type": "Feature", "properties": {"collection_times": [{"days": "Mon-Sat", "time": "1:30pm"}, {"days": "Sun", "time": "Closed"}], "id": "6790100019", "name": "USPS COLLECTION BOX - BLUE BOX", "address": {"city": "LIBERAL", "state": "KS", "street": "2310 N KANSAS AVE", "postcode": "67901"}}},
{"geometry": {"type": "Point", "coordinates": [-100.9260889017, 37.054265076]}, "type": "Feature", "properties": {"collection_times": [{"days": "Mon-Fri", "time": "10:00am"}, {"days": "Sat-Sun", "time": "Closed"}], "id": "6790100021", "name": "USPS COLLECTION BOX - BLUE BOX", "address": {"city": "LIBERAL", "state": "KS", "street": "315 W 15TH ST", "postcode": "67901"}}},
{"geometry": {"type": "Point", "coordinates": [-101.8981664321, 37.0018315409]}, "type": "Feature", "properties": {"collection_times": [{"days": "Mon-Sat", "time": "3:00pm"}, {"days": "Sun", "time": "Closed"}], "id": "6795000001", "name": "USPS COLLECTION BOX - BLUE BOX", "address": {"city": "ELKHART", "state": "KS", "street": "336 MORTON ST", "postcode": "67950"}}},
{"geometry": {"type": "Point", "coordinates": [-101.8981664321, 37.0018315409]}, "type": "Feature", "properties": {"collection_times": [{"days": "Mon-Fri", "time": "3:00pm"}, {"days": "Sat", "time": "12:45pm"}, {"days": "Sun", "time": "Closed"}], "id": "6795000002", "name": "USPS COLLECTION BOX - PO LOBBY", "address": {"city": "ELKHART", "state": "KS", "street": "336 MORTON ST", "postcode": "67950"}}},
{"geometry": {"type": "Point", "coordinates": [-101.8981664321, 37.0018315409]}, "type": "Feature", "properties": {"collection_times": [{"days": "Mon-Fri", "time": "3:00pm"}, {"days": "Sat", "time": "12:45pm"}, {"days": "Sun", "time": "Closed"}], "id": "6795000003", "name": "USPS COLLECTION BOX - PO LOBBY", "address": {"city": "ELKHART", "state": "KS", "street": "336 MORTON ST", "postcode": "67950"}}},
{"geometry": {"type": "Point", "coordinates": [-101.3496815378, 37.1777041738]}, "type": "Feature", "properties": {"collection_times": [{"days": "Mon-Sat", "time": "4:00pm"}, {"days": "Sun", "time": "Closed"}], "id": "6795100001", "name": "USPS COLLECTION BOX - BLUE BOX", "address": {"city": "HUGOTON", "state": "KS", "street": "512 S JACKSON ST", "postcode": "67951"}}},
{"geometry": {"type": "Point", "coordinates": [-101.3496815378, 37.1777041738]}, "type": "Feature", "properties": {"collection_times": [{"days": "Mon-Sat", "time": "4:00pm"}, {"days": "Sun", "time": "Closed"}], "id": "6795100002", "name": "USPS COLLECTION BOX - BLUE BOX", "address": {"city": "HUGOTON", "state": "KS", "street": "512 S JACKSON ST", "postcode": "67951"}}},
{"geometry": {"type": "Point", "coordinates": [-101.3496815378, 37.1777041738]}, "type": "Feature", "properties": {"collection_times": [{"days": "Mon-Fri", "time": "4:15pm"}, {"days": "Sat", "time": "4:00pm"}, {"days": "Sun", "time": "Closed"}], "id": "6795100005", "name": "USPS COLLECTION BOX - PO LOBBY", "address": {"city": "HUGOTON", "state": "KS", "street": "512 S JACKSON ST", "postcode": "67951"}}},
{"geometry": {"type": "Point", "coordinates": [-101.3496815378, 37.1777041738]}, "type": "Feature", "properties": {"collection_times": [{"days": "Mon-Fri", "time": "4:15pm"}, {"days": "Sat", "time": "4:00pm"}, {"days": "Sun", "time": "Closed"}], "id": "6795100006", "name": "USPS COLLECTION BOX - PO LOBBY", "address": {"city": "HUGOTON", "state": "KS", "street": "512 S JACKSON ST", "postcode": "67951"}}},
{"geometry": {"type": "Point", "coordinates": [-101.2068890921, 37.3150716774]}, "type": "Feature", "properties": {"collection_times": [{"days": "Mon-Sat", "time": "3:20pm"}, {"days": "Sun", "time": "Closed"}], "id": "6795200001", "name": "USPS COLLECTION BOX - BLUE BOX", "address": {"city": "MOSCOW", "state": "KS", "street": "301 W CIMARRON ST", "postcode": "67952"}}},
{"geometry": {"type": "Point", "coordinates": [-101.2068890921, 37.3150716774]}, "type": "Feature", "properties": {"collection_times": [{"days": "Mon-Fri", "time": "2:10pm"}, {"days": "Sat", "time": "11:10am"}, {"days": "Sun", "time": "Closed"}], "id": "6795200002", "name": "USPS COLLECTION BOX - PO LOBBY", "address": {"city": "MOSCOW", "state": "KS", "street": "301 W CIMARRON ST", "postcode": "67952"}}},
{"geometry": {"type": "Point", "coordinates": [-101.7811606391, 37.2652684877]}, "type": "Feature", "properties": {"collection_times": [{"days": "Mon-Fri", "time": "1:15pm"}, {"days": "Sat", "time": "12:15pm"}, {"days": "Sun", "time": "Closed"}], "id": "6795300001", "name": "USPS COLLECTION BOX - BLUE BOX", "address": {"city": "RICHFIELD", "state": "KS", "street": "223 7TH ST", "postcode": "67953"}}},
{"geometry": {"type": "Point", "coordinates": [-101.7811606391, 37.2652684877]}, "type": "Feature", "properties": {"collection_times": [{"days": "Mon-Fri", "time": "1:15pm"}, {"days": "Sat", "time": "12:15pm"}, {"days": "Sun", "time": "Closed"}], "id": "6795300002", "name": "USPS COLLECTION BOX - PO LOBBY", "address": {"city": "RICHFIELD", "state": "KS", "street": "223 7TH ST", "postcode": "67953"}}},
{"geometry": {"type": "Point", "coordinates": [-101.6329007116, 37.1200799131]}, "type": "Feature", "properties": {"collection_times": [{"days": "Mon-Fri", "time": "3:00pm"}, {"days": "Sat", "time": "3:20pm"}, {"days": "Sun", "time": "Closed"}], "id": "6795400001", "name": "USPS COLLECTION BOX - BLUE BOX", "address": {"city": "ROLLA", "state": "KS", "street": "301 S WASHINGTON ST", "postcode": "67954"}}},
{"geometry": {"type": "Point", "coordinates": [-101.6329007116, 37.1200799131]}, "type": "Feature", "properties": {"collection_times": [{"days": "Mon-Fri", "time": "3:00pm"}, {"days": "Sat", "time": "10:15am"}, {"days": "Sun", "time": "Closed"}], "id": "6795400002", "name": "USPS COLLECTION BOX - PO LOBBY", "address": {"city": "ROLLA", "state": "KS", "street": "301 S WASHINGTON ST", "postcode": "67954"}}}
]}
