{"type": "FeatureCollection", "features": [
{"geometry": {"type": "Point", "coordinates": [-79.998121335, 40.5670653664]}, "type": "Feature", "properties": {"collection_times": [{"days": "Mon-Fri", "time": "12:00pm"}, {"days": "Sat", "time": "10:30am"}, {"days": "Sun", "time": "Closed"}], "id": "1510100002", "name": "USPS COLLECTION BOX - BLUE BOX", "address": {"city": "ALLISON PARK", "state": "PA", "street": "1701 DUNCAN AVE", "postcode": "15101"}}},
{"geometry": {"type": "Point", "coordinates": [-79.9718797563, 40.555691216]}, "type": "Feature", "properties": {"collection_times": [{"days": "Mon-Fri", "time": "10:00am"}, {"days": "Sat", "time": "10:30am"}, {"days": "Sun", "time": "Closed"}], "id": "1510100003", "name": "USPS COLLECTION BOX - BLUE BOX", "address": {"city": "ALLISON PARK", "state": "PA", "street": "2412 FERGUSON RD", "postcode": "15101"}}},
{"geometry": {"type": "Point", "coordinates": [-79.964997301, 40.5663650547]}, "type": "Feature", "properties": {"collection_times": [{"days": "Mon-Fri", "time": "12:00pm"}, {"days": "Sat", "time": "10:30am"}, {"days": "Sun", "time": "Closed"}], "id": "1510100005", "name": "USPS COLLECTION BOX - BLUE BOX", "address": {"city": "ALLISON PARK", "state": "PA", "street": "4086 MOUNT ROYAL BLVD", "postcode": "15101"}}},
{"geometry": {"type": "Point", "coordinates": [-79.9486631404, 40.5913747488]}, "type": "Feature", "properties": {"collection_times": [{"days": "Mon-Fri", "time": "10:00am"}, {"days": "Sat", "time": "10:30am"}, {"days": "Sun", "time": "Closed"}], "id": "1510100006", "name": "USPS COLLECTION BOX - BLUE BOX", "address": {"city": "ALLISON PARK", "state": "PA", "street": "2855 OXFORD BLVD", "postcode": "15101"}}},
{"geometry": {"type": "Point", "coordinates": [-79.9471618287, 40.6023897041]}, "type": "Feature", "properties": {"collection_times": [{"days": "Mon-Sat", "time": "9:00am"}, {"days": "Sun", "time": "Closed"}], "id": "1510100008", "name": "USPS COLLECTION BOX - BLUE BOX", "address": {"city": "ALLISON PARK", "state": "PA", "street": "4960 WILLIAM FLYNN HWY", "postcode": "15101"}}},
{"geometry": {"type": "Point", "coordinates": [-79.947737674, 40.594965633]}, "type": "Feature", "properties": {"collection_times": [{"days": "Mon-Fri", "time": "5:00pm"}, {"days": "Sat", "time": "3:00pm"}, {"days": "Sun", "time": "Closed"}], "id": "1510100009", "name": "USPS COLLECTION BOX - BLUE BOX", "address": {"city": "ALLISON PARK", "state": "PA", "street": "4746 WILLIAM FLYNN HWY", "postcode": "15101"}}},
{"geometry": {"type": "Point", "coordinates": [-79.947737674, 40.594965633]}, "type": "Feature", "properties": {"collection_times": [{"days": "Mon-Fri", "time": "5:00pm"}, {"days": "Sat", "time": "3:00pm"}, {"days": "Sun", "time": "Closed"}], "id": "1510100010", "name": "USPS COLLECTION BOX - BLUE BOX", "address": {"city": "ALLISON PARK", "state": "PA", "street": "4746 WILLIAM FLYNN HWY", "postcode": "15101"}}},
{"geometry": {"type": "Point", "coordinates": [-79.9476747891, 40.5954160591]}, "type": "Feature", "properties": {"collection_times": [{"days": "Mon-Fri", "time": "5:00pm"}, {"days": "Sat", "time": "3:00pm"}, {"days": "Sun", "time": "Closed"}], "id": "1510100016", "name": "USPS COLLECTION BOX - PO LOBBY", "address": {"city": "ALLISON PARK", "state": "PA", "street": "4746 WILLIAM FLYNN HWY LBBY", "postcode": "15101"}}},
{"geometry": {"type": "Point", "coordinates": [-80.033080678, 40.327802726]}, "type": "Feature", "properties": {"collection_times": [{"days": "Mon-Fri", "time": "5:00pm"}, {"days": "Sat", "time": "3:00pm"}, {"days": "Sun", "time": "Closed"}], "id": "1510200001", "name": "USPS COLLECTION BOX - BLUE BOX", "address": {"city": "BETHEL PARK", "state": "PA", "street": "2765 S PARK RD", "postcode": "15102"}}},
{"geometry": {"type": "Point", "coordinates": [-80.0231880965, 40.3323650277]}, "type": "Feature", "properties": {"collection_times": [{"days": "Mon-Fri", "time": "4:45pm"}, {"days": "Sat", "time": "1:30pm"}, {"days": "Sun", "time": "Closed"}], "id": "1510200003", "name": "USPS COLLECTION BOX - BLUE BOX", "address": {"city": "BETHEL PARK", "state": "PA", "street": "5259 LIBRARY RD", "postcode": "15102"}}},
{"geometry": {"type": "Point", "coordinates": [-80.026053905, 40.3419778734]}, "type": "Feature", "properties": {"collection_times": [{"days": "Mon-Fri", "time": "2:30pm"}, {"days": "Sat", "time": "1:15pm"}, {"days": "Sun", "time": "Closed"}], "id": "1510200005", "name": "USPS COLLECTION BOX - BLUE BOX", "address": {"city": "BETHEL PARK", "state": "PA", "street": "4996 LIBRARY RD", "postcode": "15102"}}},
{"geometry": {"type": "Point", "coordinates": [-80.0260427154, 40.3389684018]}, "type": "Feature", "properties": {"collection_times": [{"days": "Mon-Fri", "time": "2:45pm"}, {"days": "Sat", "time": "1:15pm"}, {"days": "Sun", "time": "Closed"}], "id": "1510200006", "name": "USPS COLLECTION BOX - BLUE BOX", "address": {"city": "BETHEL PARK", "state": "PA", "street": "5055 LIBRARY RD", "postcode": "15102"}}},
{"geometry": {"type": "Point", "coordinates": [-80.0307934786, 40.2934102861]}, "type": "Feature", "properties": {"collection_times": [{"days": "Mon-Fri", "time": "4:45pm"}, {"days": "Sat", "time": "1:30pm"}, {"days": "Sun", "time": "Closed"}], "id": "1510200007", "name": "USPS COLLECTION BOX - BLUE BOX", "address": {"city": "BETHEL PARK", "state": "PA", "street": "5100 W LIBRARY AVE", "postcode": "15102"}}},
{"geometry": {"type": "Point", "coordinates": [-80.0271915196, 40.3385525807]}, "type": "Feature", "properties": {"collection_times": [{"days": "Mon-Fri", "time": "2:45pm"}, {"days": "Sat", "time": "1:15pm"}, {"days": "Sun", "time": "Closed"}], "id": "1510200010", "name": "USPS COLLECTION BOX - BLUE BOX", "address": {"city": "BETHEL PARK", "state": "PA", "street": "4920 BRIGHTWOOD RD", "postcode": "15102"}}},
{"geometry": {"type": "Point", "coordinates": [-80.0499994653, 40.3486898079]}, "type": "Feature", "properties": {"collection_times": [{"days": "Mon-Fri", "time": "2:30pm"}, {"days": "Sat", "time": "1:00pm"}, {"days": "Sun", "time": "Closed"}], "id": "1510200017", "name": "USPS COLLECTION BOX - BLUE BOX", "address": {"city": "BETHEL PARK", "state": "PA", "street": "7000 OXFORD DR", "postcode": "15102"}}},
{"geometry": {"type": "Point", "coordinates": [-80.0509361849, 40.3439034246]}, "type": "Feature", "properties": {"collection_times": [{"days": "Mon-Fri", "time": "2:30pm"}, {"days": "Sat", "time": "11:00am"}, {"days": "Sun", "time": "Closed"}], "id": "1510200018", "name": "USPS COLLECTION BOX - BLUE BOX", "address": {"city": "BETHEL PARK", "state": "PA", "street": "1500 OXFORD DR", "postcode": "15102"}}},
{"geometry": {"type": "Point", "coordinates": [-80.0571639999, 40.3219113164]}, "type": "Feature", "properties": {"collection_times": [{"days": "Mon-Fri", "time": "2:15pm"}, {"days": "Sat", "time": "1:00pm"}, {"days": "Sun", "time": "Closed"}], "id": "1510200019", "name": "USPS COLLECTION BOX - BLUE BOX", "address": {"city": "BETHEL PARK", "state": "PA", "street": "3400 S PARK RD", "postcode": "15102"}}},
{"geometry": {"type": "Point", "coordinates": [-80.033080678, 40.327802726]}, "type": "Feature", "properties": {"collection_times": [{"days": "Mon-Fri", "time": "5:00pm"}, {"days": "Sat", "time": "3:00pm"}, {"days": "Sun", "time": "Closed"}], "id": "1510200025", "name": "USPS COLLECTION BOX - BLUE BOX", "address": {"city": "BETHEL PARK", "state": "PA", "street": "2765 S PARK RD", "postcode": "15102"}}},
{"geometry": {"type": "Point", "coordinates": [-80.0391172374, 40.3226541153]}, "type": "Feature", "properties": {"collection_times": [{"days": "Mon-Fri", "time": "5:00pm"}, {"days": "Sat", "time": "3:00pm"}, {"days": "Sun", "time": "Closed"}], "id": "1510200026", "name": "USPS COLLECTION BOX - BLUE BOX", "address": {"city": "BETHEL PARK", "state": "PA", "street": "2765 S PARK RD", "postcode": "15102"}}},
{"geometry": {"type": "Point", "coordinates": [-80.0209920364, 40.3328307123]}, "type": "Feature", "properties": {"collection_times": [{"days": "Mon-Fri", "time": "4:45pm"}, {"days": "Sat", "time": "1:30pm"}, {"days": "Sun", "time": "Closed"}], "id": "1510200030", "name": "USPS COLLECTION BOX - BLUE BOX", "address": {"city": "BETHEL PARK", "state": "PA", "street": "7228 BAPTIST RD", "postcode": "15102"}}},
{"geometry": {"type": "Point", "coordinates": [-80.0497413709, 40.3443860737]}, "type": "Feature", "properties": {"collection_times": [{"days": "Mon-Fri", "time": "2:30pm"}, {"days": "Sat", "time": "11:00am"}, {"days": "Sun", "time": "Closed"}], "id": "1510200031", "name": "USPS COLLECTION BOX - BLUE BOX", "address": {"city": "BETHEL PARK", "state": "PA", "street": "2000 OXFORD DR", "postcode": "15102"}}},
{"geometry": {"type": "Point", "coordinates": [-80.0258672693, 40.3418114506]}, "type": "Feature", "properties": {"collection_times": [{"days": "Mon-Fri", "time": "2:45pm"}, {"days": "Sat", "time": "1:15pm"}, {"days": "Sun", "time": "Closed"}], "id": "1510200032", "name": "USPS COLLECTION BOX - BLUE BOX", "address": {"city": "BETHEL PARK", "state": "PA", "street": "5001 LIBRARY RD", "postcode": "15102"}}},
{"geometry": {"type": "Point", "coordinates": [-80.0517574215, 40.3434723098]}, "type": "Feature", "properties": {"collection_times": [{"days": "Mon-Fri", "time": "2:30pm"}, {"days": "Sat", "time": "11:00am"}, {"days": "Sun", "time": "Closed"}], "id": "1510200033", "name": "USPS COLLECTION BOX - BLUE BOX", "address": {"city": "BETHEL PARK", "state": "PA", "street": "1300 OXFORD DR", "postcode": "15102"}}},
{"geometry": {"type": "Point", "coordinates": [-80.0666111102, 40.3131183825]}, "type": "Feature", "properties": {"collection_times": [{"days": "Mon-Fri", "time": "2:15pm"}, {"days": "Sat", "time": "1:00pm"}, {"days": "Sun", "time": "Closed"}], "id": "1510200034", "name": "USPS COLLECTION BOX - BLUE BOX", "address": {"city": "BETHEL PARK", "state": "PA", "street": "414 MCMURRAY RD", "postcode": "15102"}}},
{"geometry": {"type": "Point", "coordinates": [-80.0335876277, 40.3278616]}, "type": "Feature", "properties": {"collection_times": [{"days": "Mon-Fri", "time": "5:00pm"}, {"days": "Sat", "time": "3:00pm"}, {"days": "Sun", "time": "Closed"}], "id": "1510200035", "name": "USPS COLLECTION BOX - PO LOBBY", "address": {"city": "BETHEL PARK", "state": "PA", "street": "2765 S PARK RD-MAIN LOBBY", "postcode": "15102"}}},
{"geometry": {"type": "Point", "coordinates": [-80.0335876277, 40.3278616]}, "type": "Feature", "properties": {"collection_times": [{"days": "Mon-Fri", "time": "5:00pm"}, {"days": "Sat", "time": "3:00pm"}, {"days": "Sun", "time": "Closed"}], "id": "1510200036", "name": "USPS COLLECTION BOX - PO LOBBY", "address": {"city": "BETHEL PARK", "state": "PA", "street": "2765 S PARK RD-MAIN LOBBY", "postcode": "15102"}}},
{"geometry": {"type": "Point", "coordinates": [-79.8799837728, 40.4114299288]}, "type": "Feature", "properties": {"collection_times": [{"days": "Mon-Fri", "time": "3:00pm"}, {"days": "Sat", "time": "12:00pm"}, {"days": "Sun", "time": "Closed"}], "id": "1510400003", "name": "USPS COLLECTION BOX - BLUE BOX", "address": {"city": "BRADDOCK", "state": "PA", "street": "300 RANKIN BLVD", "postcode": "15104"}}},
{"geometry": {"type": "Point", "coordinates": [-79.8753385571, 40.4045153662]}, "type": "Feature", "properties": {"collection_times": [{"days": "Mon-Sat", "time": "12:30pm"}, {"days": "Sun", "time": "Closed"}], "id": "1510400008", "name": "USPS COLLECTION BOX - BLUE BOX", "address": {"city": "BRADDOCK", "state": "PA", "street": "100 2ND ST", "postcode": "15104"}}},
{"geometry": {"type": "Point", "coordinates": [-79.8487207155, 40.4112188035]}, "type": "Feature", "properties": {"collection_times": [{"days": "Mon-Sat", "time": "12:30pm"}, {"days": "Sun", "time": "Closed"}], "id": "1510400020", "name": "USPS COLLECTION BOX - BLUE BOX", "address": {"city": "BRADDOCK", "state": "PA", "street": "118 GENERAL BRADDOCK DR", "postcode": "15104"}}},
{"geometry": {"type": "Point", "coordinates": [-79.8643819092, 40.4053442293]}, "type": "Feature", "properties": {"collection_times": [{"days": "Mon-Sat", "time": "10:30am"}, {"days": "Sun", "time": "Closed"}], "id": "1510400021", "name": "USPS COLLECTION BOX - BLUE BOX", "address": {"city": "BRADDOCK", "state": "PA", "street": "620 6TH ST", "postcode": "15104"}}},
{"geometry": {"type": "Point", "coordinates": [-79.8406978878, 40.4024897493]}, "type": "Feature", "properties": {"collection_times": [{"days": "Mon-Sat", "time": "11:00am"}, {"days": "Sun", "time": "Closed"}], "id": "1510400029", "name": "USPS COLLECTION BOX - BLUE BOX", "address": {"city": "BRADDOCK", "state": "PA", "street": "1545 GRANDVIEW AVE", "postcode": "15104"}}},
{"geometry": {"type": "Point", "coordinates": [-79.871248986, 40.4049053515]}, "type": "Feature", "properties": {"collection_times": [{"days": "Mon-Sat", "time": "3:30pm"}, {"days": "Sun", "time": "Closed"}], "id": "1510400035", "name": "USPS COLLECTION BOX - BLUE BOX", "address": {"city": "BRADDOCK", "state": "PA", "street": "404 BRADDOCK AVE", "postcode": "15104"}}},
{"geometry": {"type": "Point", "coordinates": [-79.8620479312, 40.3985019946]}, "type": "Feature", "properties": {"collection_times": [{"days": "Mon-Fri", "time": "4:45pm"}, {"days": "Sat", "time": "3:45pm"}, {"days": "Sun", "time": "Closed"}], "id": "1510400042", "name": "USPS COLLECTION BOX - BLUE BOX", "address": {"city": "BRADDOCK", "state": "PA", "street": "1110 BRADDOCK AVE", "postcode": "15104"}}},
{"geometry": {"type": "Point", "coordinates": [-79.8620479312, 40.3985019946]}, "type": "Feature", "properties": {"collection_times": [{"days": "Mon-Fri", "time": "4:45pm"}, {"days": "Sat", "time": "3:45pm"}, {"days": "Sun", "time": "Closed"}], "id": "1510400043", "name": "USPS COLLECTION BOX - PO LOBBY", "address": {"city": "BRADDOCK", "state": "PA", "street": "1110 BRADDOCK AVE LBBY", "postcode": "15104"}}},
{"geometry": {"type": "Point", "coordinates": [-79.8620479312, 40.3985019946]}, "type": "Feature", "properties": {"collection_times": [{"days": "Mon-Fri", "time": "4:45pm"}, {"days": "Sat", "time": "3:45pm"}, {"days": "Sun", "time": "Closed"}], "id": "1510400044", "name": "USPS COLLECTION BOX - PO LOBBY", "address": {"city": "BRADDOCK", "state": "PA", "street": "1110 BRADDOCK AVE LBBY", "postcode": "15104"}}},
{"geometry": {"type": "Point", "coordinates": [-80.1106751891, 40.4084676449]}, "type": "Feature", "properties": {"collection_times": [{"days": "Mon-Fri", "time": "2:30pm"}, {"days": "Sat", "time": "9:30am"}, {"days": "Sun", "time": "Closed"}], "id": "1510600003", "name": "USPS COLLECTION BOX - BLUE BOX", "address": {"city": "CARNEGIE", "state": "PA", "street": "600 N BELL AVE", "postcode": "15106"}}},
{"geometry": {"type": "Point", "coordinates": [-80.0870041398, 40.4096608466]}, "type": "Feature", "properties": {"collection_times": [{"days": "Mon-Fri", "time": "2:00pm"}, {"days": "Sat", "time": "10:00am"}, {"days": "Sun", "time": "Closed"}], "id": "1510600004", "name": "USPS COLLECTION BOX - BLUE BOX", "address": {"city": "CARNEGIE", "state": "PA", "street": "102 BROADWAY ST", "postcode": "15106"}}},
{"geometry": {"type": "Point", "coordinates": [-80.0845009986, 40.3841006522]}, "type": "Feature", "properties": {"collection_times": [{"days": "Mon-Fri", "time": "2:00pm"}, {"days": "Sat", "time": "11:00am"}, {"days": "Sun", "time": "Closed"}], "id": "1510600012", "name": "USPS COLLECTION BOX - BLUE BOX", "address": {"city": "CARNEGIE", "state": "PA", "street": "301 LINDSAY RD", "postcode": "15106"}}},
{"geometry": {"type": "Point", "coordinates": [-80.084289503, 40.3862217074]}, "type": "Feature", "properties": {"collection_times": [{"days": "Mon-Fri", "time": "2:00pm"}, {"days": "Sat", "time": "11:00am"}, {"days": "Sun", "time": "Closed"}], "id": "1510600013", "name": "USPS COLLECTION BOX - BLUE BOX", "address": {"city": "CARNEGIE", "state": "PA", "street": "401 LINDSAY RD", "postcode": "15106"}}},
{"geometry": {"type": "Point", "coordinates": [-80.0808397406, 40.383645213]}, "type": "Feature", "properties": {"collection_times": [{"days": "Mon-Fri", "time": "2:00pm"}, {"days": "Sat", "time": "11:00am"}, {"days": "Sun", "time": "Closed"}], "id": "1510600014", "name": "USPS COLLECTION BOX - BLUE BOX", "address": {"city": "CARNEGIE", "state": "PA", "street": "645 LINDSAY RD", "postcode": "15106"}}},
{"geometry": {"type": "Point", "coordinates": [-80.0917178743, 40.4042229037]}, "type": "Feature", "properties": {"collection_times": [{"days": "Mon-Fri", "time": "2:00pm"}, {"days": "Sat", "time": "11:00am"}, {"days": "Sun", "time": "Closed"}], "id": "1510600016", "name": "USPS COLLECTION BOX - BLUE BOX", "address": {"city": "CARNEGIE", "state": "PA", "street": "2100 OLD WASHINGTON PIKE", "postcode": "15106"}}},
{"geometry": {"type": "Point", "coordinates": [-80.0899996889, 40.3881827926]}, "type": "Feature", "properties": {"collection_times": [{"days": "Mon-Fri", "time": "2:00pm"}, {"days": "Sat", "time": "11:00am"}, {"days": "Sun", "time": "Closed"}], "id": "1510600017", "name": "USPS COLLECTION BOX - BLUE BOX", "address": {"city": "CARNEGIE", "state": "PA", "street": "1631 E RAILROAD ST", "postcode": "15106"}}},
{"geometry": {"type": "Point", "coordinates": [-80.0828921744, 40.4007910202]}, "type": "Feature", "properties": {"collection_times": [{"days": "Mon-Fri", "time": "2:00pm"}, {"days": "Sat", "time": "10:30am"}, {"days": "Sun", "time": "Closed"}], "id": "1510600022", "name": "USPS COLLECTION BOX - BLUE BOX", "address": {"city": "CARNEGIE", "state": "PA", "street": "900 WASHINGTON AVE", "postcode": "15106"}}},
{"geometry": {"type": "Point", "coordinates": [-80.0918665889, 40.4045729288]}, "type": "Feature", "properties": {"collection_times": [{"days": "Mon-Fri", "time": "2:00pm"}, {"days": "Sat", "time": "9:30am"}, {"days": "Sun", "time": "Closed"}], "id": "1510600024", "name": "USPS COLLECTION BOX - BLUE BOX", "address": {"city": "CARNEGIE", "state": "PA", "street": "509 E MAIN ST", "postcode": "15106"}}},
{"geometry": {"type": "Point", "coordinates": [-80.0918665889, 40.4045729288]}, "type": "Feature", "properties": {"collection_times": [{"days": "Mon-Fri", "time": "2:00pm"}, {"days": "Sat", "time": "10:00am"}, {"days": "Sun", "time": "Closed"}], "id": "1510600025", "name": "USPS COLLECTION BOX - BLUE BOX", "address": {"city": "CARNEGIE", "state": "PA", "street": "4 W MAIN ST", "postcode": "15106"}}},
{"geometry": {"type": "Point", "coordinates": [-80.0789286433, 40.41294208]}, "type": "Feature", "properties": {"collection_times": [{"days": "Mon-Fri", "time": "2:30pm"}, {"days": "Sat", "time": "9:30am"}, {"days": "Sun", "time": "Closed"}], "id": "1510600028", "name": "USPS COLLECTION BOX - BLUE BOX", "address": {"city": "CARNEGIE", "state": "PA", "street": "800 BELL AVE BLDG 6", "postcode": "15106"}}},
{"geometry": {"type": "Point", "coordinates": [-80.0918665889, 40.4045729288]}, "type": "Feature", "properties": {"collection_times": [{"days": "Mon-Fri", "time": "2:00pm"}, {"days": "Sat", "time": "10:30am"}, {"days": "Sun", "time": "Closed"}], "id": "1510600037", "name": "USPS COLLECTION BOX - BLUE BOX", "address": {"city": "CARNEGIE", "state": "PA", "street": "1100 WASHINGTON AVE", "postcode": "15106"}}},
{"geometry": {"type": "Point", "coordinates": [-80.0966632243, 40.4001861962]}, "type": "Feature", "properties": {"collection_times": [{"days": "Mon-Fri", "time": "2:00pm"}, {"days": "Sat", "time": "10:00am"}, {"days": "Sun", "time": "Closed"}], "id": "1510600038", "name": "USPS COLLECTION BOX - BLUE BOX", "address": {"city": "CARNEGIE", "state": "PA", "street": "1 KEYSTONE DR", "postcode": "15106"}}},
{"geometry": {"type": "Point", "coordinates": [-80.0859685301, 40.4079775408]}, "type": "Feature", "properties": {"collection_times": [{"days": "Mon-Fri", "time": "4:30pm"}, {"days": "Sat", "time": "12:00pm"}, {"days": "Sun", "time": "Closed"}], "id": "1510600039", "name": "USPS COLLECTION BOX - BLUE BOX", "address": {"city": "CARNEGIE", "state": "PA", "street": "139 E MAIN ST", "postcode": "15106"}}},
{"geometry": {"type": "Point", "coordinates": [-80.0918665889, 40.4045729288]}, "type": "Feature", "properties": {"collection_times": [{"days": "Mon-Fri", "time": "2:30pm"}, {"days": "Sat", "time": "9:30am"}, {"days": "Sun", "time": "Closed"}], "id": "1510600042", "name": "USPS COLLECTION BOX - BLUE BOX", "address": {"city": "CARNEGIE", "state": "PA", "street": "600 N BELL AVE BLDG 2", "postcode": "15106"}}},
{"geometry": {"type": "Point", "coordinates": [-80.0918665889, 40.4045729288]}, "type": "Feature", "properties": {"collection_times": [{"days": "Mon-Fri", "time": "2:00pm"}, {"days": "Sat", "time": "10:00am"}, {"days": "Sun", "time": "Closed"}], "id": "1510600048", "name": "USPS COLLECTION BOX - BLUE BOX", "address": {"city": "CARNEGIE", "state": "PA", "street": "4 W MAIN ST", "postcode": "15106"}}},
{"geometry": {"type": "Point", "coordinates": [-80.0859685301, 40.4079775408]}, "type": "Feature", "properties": {"collection_times": [{"days": "Mon-Fri", "time": "4:30pm"}, {"days": "Sat", "time": "12:00pm"}, {"days": "Sun", "time": "Closed"}], "id": "1510600049", "name": "USPS COLLECTION BOX - PO LOBBY", "address": {"city": "CARNEGIE", "state": "PA", "street": "139 E MAIN ST", "postcode": "15106"}}},
{"geometry": {"type": "Point", "coordinates": [-80.0918665889, 40.4045729288]}, "type": "Feature", "properties": {"collection_times": [{"days": "Mon-Fri", "time": "2:00pm"}, {"days": "Sat", "time": "10:30am"}, {"days": "Sun", "time": "Closed"}], "id": "1510600053", "name": "USPS COLLECTION BOX - BLUE BOX", "address": {"city": "CARNEGIE", "state": "PA", "street": "1100 WASHINGTON AVE", "postcode": "15106"}}},
{"geometry": {"type": "Point", "coordinates": [-80.0892228413, 40.4170843202]}, "type": "Feature", "properties": {"collection_times": [{"days": "Mon-Fri", "time": "2:30pm"}, {"days": "Sat", "time": "9:30am"}, {"days": "Sun", "time": "Closed"}], "id": "1510600057", "name": "USPS COLLECTION BOX - BLUE BOX", "address": {"city": "CARNEGIE", "state": "PA", "street": "555 N BELL AVE", "postcode": "15106"}}},
{"geometry": {"type": "Point", "coordinates": [-80.0918665889, 40.4045729288]}, "type": "Feature", "properties": {"collection_times": [{"days": "Mon-Fri", "time": "2:00pm"}, {"days": "Sat", "time": "10:00am"}, {"days": "Sun", "time": "Closed"}], "id": "1510600058", "name": "USPS COLLECTION BOX - BLUE BOX", "address": {"city": "CARNEGIE", "state": "PA", "street": "1 VETERANS WAY REAR", "postcode": "15106"}}},
{"geometry": {"type": "Point", "coordinates": [-80.093537996, 40.4017913221]}, "type": "Feature", "properties": {"collection_times": [{"days": "Mon-Fri", "time": "2:00pm"}, {"days": "Sat", "time": "10:00am"}, {"days": "Sun", "time": "Closed"}], "id": "1510600059", "name": "USPS COLLECTION BOX - BLUE BOX", "address": {"city": "CARNEGIE", "state": "PA", "street": "200 3RD AVE", "postcode": "15106"}}},
{"geometry": {"type": "Point", "coordinates": [-80.1642271792, 40.5174817109]}, "type": "Feature", "properties": {"collection_times": [{"days": "Mon-Fri", "time": "5:30pm"}, {"days": "Sat", "time": "3:30pm"}, {"days": "Sun", "time": "Closed"}], "id": "1510800001", "name": "USPS COLLECTION BOX - BLUE BOX", "address": {"city": "CORAOPOLIS", "state": "PA", "street": "1140 THORN RUN RD", "postcode": "15108"}}},
{"geometry": {"type": "Point", "coordinates": [-80.2004247575, 40.5016739833]}, "type": "Feature", "properties": {"collection_times": [{"days": "Mon-Fri", "time": "1:30pm"}, {"days": "Sat", "time": "12:00pm"}, {"days": "Sun", "time": "Closed"}], "id": "1510800002", "name": "USPS COLLECTION BOX - BLUE BOX", "address": {"city": "CORAOPOLIS", "state": "PA", "street": "1026 4TH AVE", "postcode": "15108"}}},
{"geometry": {"type": "Point", "coordinates": [-80.2017742039, 40.4960752105]}, "type": "Feature", "properties": {"collection_times": [{"days": "Mon-Fri", "time": "4:30pm"}, {"days": "Sat", "time": "12:45pm"}, {"days": "Sun", "time": "Closed"}], "id": "1510800009", "name": "USPS COLLECTION BOX - BLUE BOX", "address": {"city": "CORAOPOLIS", "state": "PA", "street": "600 CLUBHOUSE DR", "postcode": "15108"}}},
{"geometry": {"type": "Point", "coordinates": [-80.2065087486, 40.4973530452]}, "type": "Feature", "properties": {"collection_times": [{"days": "Mon-Fri", "time": "4:30pm"}, {"days": "Sat", "time": "12:45pm"}, {"days": "Sun", "time": "Closed"}], "id": "1510800010", "name": "USPS COLLECTION BOX - BLUE BOX", "address": {"city": "CORAOPOLIS", "state": "PA", "street": "300 CHERRINGTON PKWY", "postcode": "15108"}}},
{"geometry": {"type": "Point", "coordinates": [-80.2205318159, 40.516254913]}, "type": "Feature", "properties": {"collection_times": [{"days": "Mon-Fri", "time": "1:45pm"}, {"days": "Sat", "time": "12:15pm"}, {"days": "Sun", "time": "Closed"}], "id": "1510800011", "name": "USPS COLLECTION BOX - BLUE BOX", "address": {"city": "CORAOPOLIS", "state": "PA", "street": "825 BEAVER GRADE RD", "postcode": "15108"}}},
{"geometry": {"type": "Point", "coordinates": [-80.2177369578, 40.5203265741]}, "type": "Feature", "properties": {"collection_times": [{"days": "Mon-Fri", "time": "1:45pm"}, {"days": "Sat", "time": "12:15pm"}, {"days": "Sun", "time": "Closed"}], "id": "1510800012", "name": "USPS COLLECTION BOX - BLUE BOX", "address": {"city": "CORAOPOLIS", "state": "PA", "street": "5990 UNIVERSITY BLVD", "postcode": "15108"}}},
{"geometry": {"type": "Point", "coordinates": [-80.1651574386, 40.5178555864]}, "type": "Feature", "properties": {"collection_times": [{"days": "Mon-Fri", "time": "1:30pm"}, {"days": "Sat", "time": "12:00pm"}, {"days": "Sun", "time": "Closed"}], "id": "1510800018", "name": "USPS COLLECTION BOX - BLUE BOX", "address": {"city": "CORAOPOLIS", "state": "PA", "street": "953 5TH AVE", "postcode": "15108"}}},
{"geometry": {"type": "Point", "coordinates": [-80.205202068, 40.4962433373]}, "type": "Feature", "properties": {"collection_times": [{"days": "Mon-Fri", "time": "4:30pm"}, {"days": "Sat", "time": "12:45pm"}, {"days": "Sun", "time": "Closed"}], "id": "1510800019", "name": "USPS COLLECTION BOX - BLUE BOX", "address": {"city": "CORAOPOLIS", "state": "PA", "street": "500 CHERRINGTON PKWY", "postcode": "15108"}}},
{"geometry": {"type": "Point", "coordinates": [-80.2158610483, 40.5114387119]}, "type": "Feature", "properties": {"collection_times": [{"days": "Mon-Fri", "time": "2:00pm"}, {"days": "Sat", "time": "12:30pm"}, {"days": "Sun", "time": "Closed"}], "id": "1510800026", "name": "USPS COLLECTION BOX - BLUE BOX", "address": {"city": "CORAOPOLIS", "state": "PA", "street": "200 POLO CLUB DR", "postcode": "15108"}}},
{"geometry": {"type": "Point", "coordinates": [-80.1661604241, 40.5181001709]}, "type": "Feature", "properties": {"collection_times": [{"days": "Mon-Fri", "time": "4:45pm"}, {"days": "Sat", "time": "12:00pm"}, {"days": "Sun", "time": "Closed"}], "id": "1510800027", "name": "USPS COLLECTION BOX - BLUE BOX", "address": {"city": "CORAOPOLIS", "state": "PA", "street": "914 5TH AVE", "postcode": "15108"}}},
{"geometry": {"type": "Point", "coordinates": [-80.2117921151, 40.5013969484]}, "type": "Feature", "properties": {"collection_times": [{"days": "Mon-Fri", "time": "2:00pm"}, {"days": "Sat", "time": "12:30pm"}, {"days": "Sun", "time": "Closed"}], "id": "1510800028", "name": "USPS COLLECTION BOX - BLUE BOX", "address": {"city": "CORAOPOLIS", "state": "PA", "street": "345 ROUSER RD", "postcode": "15108"}}},
{"geometry": {"type": "Point", "coordinates": [-80.1764476671, 40.4630678949]}, "type": "Feature", "properties": {"collection_times": [{"days": "Mon-Sat", "time": "10:00am"}, {"days": "Sun", "time": "Closed"}], "id": "1510800042", "name": "USPS COLLECTION BOX - BLUE BOX", "address": {"city": "CORAOPOLIS", "state": "PA", "street": "1000 FED EX DR", "postcode": "15108"}}},
{"geometry": {"type": "Point", "coordinates": [-80.2092664977, 40.5012975798]}, "type": "Feature", "properties": {"collection_times": [{"days": "Mon-Fri", "time": "2:15pm"}, {"days": "Sat", "time": "12:45pm"}, {"days": "Sun", "time": "Closed"}], "id": "1510800049", "name": "USPS COLLECTION BOX - BLUE BOX", "address": {"city": "CORAOPOLIS", "state": "PA", "street": "1187 THORN RUN RD", "postcode": "15108"}}},
{"geometry": {"type": "Point", "coordinates": [-80.2109250062, 40.5013602766]}, "type": "Feature", "properties": {"collection_times": [{"days": "Mon-Fri", "time": "2:00pm"}, {"days": "Sat", "time": "12:30pm"}, {"days": "Sun", "time": "Closed"}], "id": "1510800050", "name": "USPS COLLECTION BOX - BLUE BOX", "address": {"city": "CORAOPOLIS", "state": "PA", "street": "400 ROUSER RD", "postcode": "15108"}}},
{"geometry": {"type": "Point", "coordinates": [-80.204471965, 40.501466743]}, "type": "Feature", "properties": {"collection_times": [{"days": "Mon-Fri", "time": "4:30pm"}, {"days": "Sat", "time": "1:00pm"}, {"days": "Sun", "time": "Closed"}], "id": "1510800053", "name": "USPS COLLECTION BOX - BLUE BOX", "address": {"city": "CORAOPOLIS", "state": "PA", "street": "1009 BEAVER GRADE RD", "postcode": "15108"}}},
{"geometry": {"type": "Point", "coordinates": [-80.1497588597, 40.4677066493]}, "type": "Feature", "properties": {"collection_times": [{"days": "Mon-Sat", "time": "9:30am"}, {"days": "Sun", "time": "Closed"}], "id": "1510800054", "name": "USPS COLLECTION BOX - BLUE BOX", "address": {"city": "CORAOPOLIS", "state": "PA", "street": "1350 VENTANA DR", "postcode": "15108"}}},
{"geometry": {"type": "Point", "coordinates": [-77.8387503615, 40.896509984]}, "type": "Feature", "properties": {"collection_times": [{"days": "Mon-Fri", "time": "5:30pm"}, {"days": "Sat", "time": "3:30pm"}, {"days": "Sun", "time": "Closed"}], "id": "1510800055", "name": "USPS COLLECTION BOX - PO LOBBY", "address": {"city": "CORAOPOLIS", "state": "PA", "street": "1140 THORN RUN RD LBBY", "postcode": "15108"}}},
{"geometry": {"type": "Point", "coordinates": [-77.8387503615, 40.896509984]}, "type": "Feature", "properties": {"collection_times": [{"days": "Mon-Fri", "time": "5:30pm"}, {"days": "Sat", "time": "3:30pm"}, {"days": "Sun", "time": "Closed"}], "id": "1510800058", "name": "USPS COLLECTION BOX - PO LOBBY", "address": {"city": "CORAOPOLIS", "state": "PA", "street": "1140 THORN RUN RD LBBY", "postcode": "15108"}}},
{"geometry": {"type": "Point", "coordinates": [-80.1661604241, 40.5181001709]}, "type": "Feature", "properties": {"collection_times": [{"days": "Mon-Fri", "time": "4:45pm"}, {"days": "Sat", "time": "12:00pm"}, {"days": "Sun", "time": "Closed"}], "id": "1510800063", "name": "USPS COLLECTION BOX - PO LOBBY", "address": {"city": "CORAOPOLIS", "state": "PA", "street": "914 5TH AVE LBBY", "postcode": "15108"}}},
{"geometry": {"type": "Point", "coordinates": [-80.2064238473, 40.5044134937]}, "type": "Feature", "properties": {"collection_times": [{"days": "Mon-Fri", "time": "4:30pm"}, {"days": "Sat", "time": "1:00pm"}, {"days": "Sun", "time": "Closed"}], "id": "1510800065", "name": "USPS COLLECTION BOX - BLUE BOX", "address": {"city": "CORAOPOLIS", "state": "PA", "street": "1005 BEAVER GRADE RD", "postcode": "15108"}}},
{"geometry": {"type": "Point", "coordinates": [-80.2041989637, 40.5023537588]}, "type": "Feature", "properties": {"collection_times": [{"days": "Mon-Fri", "time": "2:15pm"}, {"days": "Sat", "time": "12:45pm"}, {"days": "Sun", "time": "Closed"}], "id": "1510800067", "name": "USPS COLLECTION BOX - BLUE BOX", "address": {"city": "CORAOPOLIS", "state": "PA", "street": "1550 CORAOPOLIS HEIGHTS RD", "postcode": "15108"}}},
{"geometry": {"type": "Point", "coordinates": [-80.2094151059, 40.5040204772]}, "type": "Feature", "properties": {"collection_times": [{"days": "Mon-Fri", "time": "5:30pm"}, {"days": "Sat", "time": "3:30pm"}, {"days": "Sun", "time": "Closed"}], "id": "1510800069", "name": "USPS COLLECTION BOX - APC", "address": {"city": "CORAOPOLIS", "state": "PA", "street": "1140 THORN RUN RD", "postcode": "15108"}}},
{"geometry": {"type": "Point", "coordinates": [-79.8457, 40.37308]}, "type": "Feature", "properties": {"collection_times": [{"days": "Mon-Fri", "time": "4:45pm"}, {"days": "Sat", "time": "3:00pm"}, {"days": "Sun", "time": "Closed"}], "id": "1511000001", "name": "USPS COLLECTION BOX - BLUE BOX", "address": {"city": "DUQUESNE", "state": "PA", "street": "16 S 1ST ST", "postcode": "15110"}}},
{"geometry": {"type": "Point", "coordinates": [-79.863335739, 40.381194856]}, "type": "Feature", "properties": {"collection_times": [{"days": "Mon-Sat", "time": "2:00pm"}, {"days": "Sun", "time": "Closed"}], "id": "1511000002", "name": "USPS COLLECTION BOX - BLUE BOX", "address": {"city": "DUQUESNE", "state": "PA", "street": "400 MILLER AVE", "postcode": "15110"}}},
{"geometry": {"type": "Point", "coordinates": [-79.850447492, 40.377143403]}, "type": "Feature", "properties": {"collection_times": [{"days": "Mon-Sat", "time": "2:00pm"}, {"days": "Sun", "time": "Closed"}], "id": "1511000004", "name": "USPS COLLECTION BOX - BLUE BOX", "address": {"city": "DUQUESNE", "state": "PA", "street": "215 N 2ND ST", "postcode": "15110"}}},
{"geometry": {"type": "Point", "coordinates": [-79.858739286, 40.381912727]}, "type": "Feature", "properties": {"collection_times": [{"days": "Mon-Sat", "time": "2:00pm"}, {"days": "Sun", "time": "Closed"}], "id": "1511000006", "name": "USPS COLLECTION BOX - BLUE BOX", "address": {"city": "DUQUESNE", "state": "PA", "street": "828 RICHFORD ST", "postcode": "15110"}}},
{"geometry": {"type": "Point", "coordinates": [-79.850719338, 40.372254581]}, "type": "Feature", "properties": {"collection_times": [{"days": "Mon-Sat", "time": "2:00pm"}, {"days": "Sun", "time": "Closed"}], "id": "1511000012", "name": "USPS COLLECTION BOX - BLUE BOX", "address": {"city": "DUQUESNE", "state": "PA", "street": "515 GRANT AVE", "postcode": "15110"}}},
{"geometry": {"type": "Point", "coordinates": [-79.854684407, 40.371353217]}, "type": "Feature", "properties": {"collection_times": [{"days": "Mon-Sat", "time": "2:15pm"}, {"days": "Sun", "time": "Closed"}], "id": "1511000015", "name": "USPS COLLECTION BOX - BLUE BOX", "address": {"city": "DUQUESNE", "state": "PA", "street": "917 GRANT AVE", "postcode": "15110"}}},
{"geometry": {"type": "Point", "coordinates": [-79.8479316181, 40.3642485594]}, "type": "Feature", "properties": {"collection_times": [{"days": "Mon-Sat", "time": "2:15pm"}, {"days": "Sun", "time": "Closed"}], "id": "1511000016", "name": "USPS COLLECTION BOX - BLUE BOX", "address": {"city": "DUQUESNE", "state": "PA", "street": "500 CRAWFORD AVE", "postcode": "15110"}}},
{"geometry": {"type": "Point", "coordinates": [-79.8507956255, 40.3658819012]}, "type": "Feature", "properties": {"collection_times": [{"days": "Mon-Sat", "time": "2:15pm"}, {"days": "Sun", "time": "Closed"}], "id": "1511000018", "name": "USPS COLLECTION BOX - BLUE BOX", "address": {"city": "DUQUESNE", "state": "PA", "street": "719 MEHAFFEY ST", "postcode": "15110"}}},
{"geometry": {"type": "Point", "coordinates": [-79.8522863459, 40.3712138968]}, "type": "Feature", "properties": {"collection_times": [{"days": "Mon-Sat", "time": "2:15pm"}, {"days": "Sun", "time": "Closed"}], "id": "1511000019", "name": "USPS COLLECTION BOX - BLUE BOX", "address": {"city": "DUQUESNE", "state": "PA", "street": "900 CRAWFORD AVE", "postcode": "15110"}}},
{"geometry": {"type": "Point", "coordinates": [-79.8558101885, 40.3676149361]}, "type": "Feature", "properties": {"collection_times": [{"days": "Mon-Sat", "time": "2:15pm"}, {"days": "Sun", "time": "Closed"}], "id": "1511000022", "name": "USPS COLLECTION BOX - BLUE BOX", "address": {"city": "DUQUESNE", "state": "PA", "street": "1222 KENNEDY AVE", "postcode": "15110"}}},
{"geometry": {"type": "Point", "coordinates": [-79.84571, 40.37312]}, "type": "Feature", "properties": {"collection_times": [{"days": "Mon-Fri", "time": "4:45pm"}, {"days": "Sat", "time": "3:00pm"}, {"days": "Sun", "time": "Closed"}], "id": "1511000027", "name": "USPS COLLECTION BOX - BLUE BOX", "address": {"city": "DUQUESNE", "state": "PA", "street": "11 S 1ST ST", "postcode": "15110"}}},
{"geometry": {"type": "Point", "coordinates": [-79.846688392, 40.3726259502]}, "type": "Feature", "properties": {"collection_times": [{"days": "Mon-Sat", "time": "2:00pm"}, {"days": "Sun", "time": "Closed"}], "id": "1511000030", "name": "USPS COLLECTION BOX - BLUE BOX", "address": {"city": "DUQUESNE", "state": "PA", "street": "12 S 2ND ST", "postcode": "15110"}}},
{"geometry": {"type": "Point", "coordinates": [-79.8456450222, 40.3730399859]}, "type": "Feature", "properties": {"collection_times": [{"days": "Mon-Fri", "time": "4:45pm"}, {"days": "Sat", "time": "3:00pm"}, {"days": "Sun", "time": "Closed"}], "id": "1511000031", "name": "USPS COLLECTION BOX - PO LOBBY", "address": {"city": "DUQUESNE", "state": "PA", "street": "11 S 1ST ST LBBY", "postcode": "15110"}}},
{"geometry": {"type": "Point", "coordinates": [-79.8456450222, 40.3730399859]}, "type": "Feature", "properties": {"collection_times": [{"days": "Mon-Fri", "time": "4:45pm"}, {"days": "Sat", "time": "3:00pm"}, {"days": "Sun", "time": "Closed"}], "id": "1511000032", "name": "USPS COLLECTION BOX - PO LOBBY", "address": {"city": "DUQUESNE", "state": "PA", "street": "11 S 1ST ST LBBY BARCODED", "postcode": "15110"}}},
{"geometry": {"type": "Point", "coordinates": [-79.8456450222, 40.3730399859]}, "type": "Feature", "properties": {"collection_times": [{"days": "Mon-Fri", "time": "4:45pm"}, {"days": "Sat", "time": "3:00pm"}, {"days": "Sun", "time": "Closed"}], "id": "1511000033", "name": "USPS COLLECTION BOX - PO LOBBY", "address": {"city": "DUQUESNE", "state": "PA", "street": "11 S 1ST ST LBBY", "postcode": "15110"}}},
{"geometry": {"type": "Point", "coordinates": [-79.844163719, 40.3738416008]}, "type": "Feature", "properties": {"collection_times": [{"days": "Mon-Sat", "time": "2:00pm"}, {"days": "Sun", "time": "Closed"}], "id": "1511000034", "name": "USPS COLLECTION BOX - BLUE BOX", "address": {"city": "DUQUESNE", "state": "PA", "street": "1 E GRANT AVE", "postcode": "15110"}}},
{"geometry": {"type": "Point", "coordinates": [-79.8356951543, 40.3997452845]}, "type": "Feature", "properties": {"collection_times": [{"days": "Mon-Fri", "time": "4:45pm"}, {"days": "Sat", "time": "12:00pm"}, {"days": "Sun", "time": "Closed"}], "id": "1511200001", "name": "USPS COLLECTION BOX - BLUE BOX", "address": {"city": "EAST PITTSBURGH", "state": "PA", "street": "701 LINDEN AVE", "postcode": "15112"}}},
{"geometry": {"type": "Point", "coordinates": [-79.835026621, 40.3989253407]}, "type": "Feature", "properties": {"collection_times": [{"days": "Mon-Fri", "time": "3:15pm"}, {"days": "Sat", "time": "2:00pm"}, {"days": "Sun", "time": "Closed"}], "id": "1511200002", "name": "USPS COLLECTION BOX - BLUE BOX", "address": {"city": "EAST PITTSBURGH", "state": "PA", "street": "700 BRADDOCK AVE", "postcode": "15112"}}},
{"geometry": {"type": "Point", "coordinates": [-79.8359919186, 40.4105277489]}, "type": "Feature", "properties": {"collection_times": [{"days": "Mon-Sat", "time": "10:15am"}, {"days": "Sun", "time": "Closed"}], "id": "1511200006", "name": "USPS COLLECTION BOX - BLUE BOX", "address": {"city": "EAST PITTSBURGH", "state": "PA", "street": "201 ELIZABETH AVE", "postcode": "15112"}}},
{"geometry": {"type": "Point", "coordinates": [-79.8395287824, 40.4171295654]}, "type": "Feature", "properties": {"collection_times": [{"days": "Mon-Sat", "time": "12:00pm"}, {"days": "Sun", "time": "Closed"}], "id": "1511200008", "name": "USPS COLLECTION BOX - BLUE BOX", "address": {"city": "EAST PITTSBURGH", "state": "PA", "street": "995 GREENSBURG PIKE", "postcode": "15112"}}},
{"geometry": {"type": "Point", "coordinates": [-79.8440763316, 40.3967606387]}, "type": "Feature", "properties": {"collection_times": [{"days": "Mon-Sat", "time": "1:00pm"}, {"days": "Sun", "time": "Closed"}], "id": "1511200017", "name": "USPS COLLECTION BOX - BLUE BOX", "address": {"city": "EAST PITTSBURGH", "state": "PA", "street": "500 HOWARD ST", "postcode": "15112"}}},
{"geometry": {"type": "Point", "coordinates": [-79.83914667, 40.3960724291]}, "type": "Feature", "properties": {"collection_times": [{"days": "Mon-Sat", "time": "2:00pm"}, {"days": "Sun", "time": "Closed"}], "id": "1511200021", "name": "USPS COLLECTION BOX - BLUE BOX", "address": {"city": "EAST PITTSBURGH", "state": "PA", "street": "601 GRANDVIEW AVE", "postcode": "15112"}}},
{"geometry": {"type": "Point", "coordinates": [-79.837374956, 40.4094408162]}, "type": "Feature", "properties": {"collection_times": [{"days": "Mon-Sat", "time": "9:00am"}, {"days": "Sun", "time": "Closed"}], "id": "1511200023", "name": "USPS COLLECTION BOX - BLUE BOX", "address": {"city": "EAST PITTSBURGH", "state": "PA", "street": "146 HIGHLAND AVE", "postcode": "15112"}}},
{"geometry": {"type": "Point", "coordinates": [-79.8356951543, 40.3997452845]}, "type": "Feature", "properties": {"collection_times": [{"days": "Mon-Fri", "time": "4:45pm"}, {"days": "Sat", "time": "12:00pm"}, {"days": "Sun", "time": "Closed"}], "id": "1511200024", "name": "USPS COLLECTION BOX - PO LOBBY", "address": {"city": "EAST PITTSBURGH", "state": "PA", "street": "701 LINDEN AVE LBBY", "postcode": "15112"}}},
{"geometry": {"type": "Point", "coordinates": [-79.8356951543, 40.3997452845]}, "type": "Feature", "properties": {"collection_times": [{"days": "Mon-Fri", "time": "4:45pm"}, {"days": "Sat", "time": "12:00pm"}, {"days": "Sun", "time": "Closed"}], "id": "1511200025", "name": "USPS COLLECTION BOX - PO LOBBY", "address": {"city": "EAST PITTSBURGH", "state": "PA", "street": "701 LINDEN AVE - PRIORITY", "postcode": "15112"}}},
{"geometry": {"type": "Point", "coordinates": [-79.8356951543, 40.3997452845]}, "type": "Feature", "properties": {"collection_times": [{"days": "Mon-Fri", "time": "4:45pm"}, {"days": "Sat", "time": "12:00pm"}, {"days": "Sun", "time": "Closed"}], "id": "1511200026", "name": "USPS COLLECTION BOX - PO LOBBY", "address": {"city": "EAST PITTSBURGH", "state": "PA", "street": "701 LINDEN AVE LBBY", "postcode": "15112"}}},
{"geometry": {"type": "Point", "coordinates": [-79.8378929914, 40.4062412748]}, "type": "Feature", "properties": {"collection_times": [{"days": "Mon-Fri", "time": "4:45pm"}, {"days": "Sat", "time": "12:00pm"}, {"days": "Sun", "time": "Closed"}], "id": "1511200027", "name": "USPS COLLECTION BOX - PO LOBBY", "address": {"city": "EAST PITTSBURGH", "state": "PA", "street": "701 LINDEN AVE - BARCODED & METERED", "postcode": "15112"}}},
{"geometry": {"type": "Point", "coordinates": [-79.9609896931, 40.5348511495]}, "type": "Feature", "properties": {"collection_times": [{"days": "Mon-Fri", "time": "4:30pm"}, {"days": "Sat", "time": "4:00pm"}, {"days": "Sun", "time": "Closed"}], "id": "1511600001", "name": "USPS COLLECTION BOX - BLUE BOX", "address": {"city": "GLENSHAW", "state": "PA", "street": "1541 BUTLER PLANK RD", "postcode": "15116"}}},
{"geometry": {"type": "Point", "coordinates": [-79.9639018609, 40.5370937518]}, "type": "Feature", "properties": {"collection_times": [{"days": "Mon-Fri", "time": "8:30am"}, {"days": "Sat", "time": "2:00pm"}, {"days": "Sun", "time": "Closed"}], "id": "1511600003", "name": "USPS COLLECTION BOX - BLUE BOX", "address": {"city": "GLENSHAW", "state": "PA", "street": "1671 BUTLER PLANK RD", "postcode": "15116"}}},
{"geometry": {"type": "Point", "coordinates": [-79.9822787317, 40.5389926838]}, "type": "Feature", "properties": {"collection_times": [{"days": "Mon-Sat", "time": "10:30am"}, {"days": "Sun", "time": "Closed"}], "id": "1511600004", "name": "USPS COLLECTION BOX - BLUE BOX", "address": {"city": "GLENSHAW", "state": "PA", "street": "700 SCOTT AVE", "postcode": "15116"}}},
{"geometry": {"type": "Point", "coordinates": [-79.9688277221, 40.5243002169]}, "type": "Feature", "properties": {"collection_times": [{"days": "Mon-Sat", "time": "11:45am"}, {"days": "Sun", "time": "Closed"}], "id": "1511600005", "name": "USPS COLLECTION BOX - BLUE BOX", "address": {"city": "GLENSHAW", "state": "PA", "street": "300 WETZEL RD", "postcode": "15116"}}},
{"geometry": {"type": "Point", "coordinates": [-79.9623971572, 40.5251507644]}, "type": "Feature", "properties": {"collection_times": [{"days": "Mon-Sat", "time": "10:30am"}, {"days": "Sun", "time": "Closed"}], "id": "1511600006", "name": "USPS COLLECTION BOX - BLUE BOX", "address": {"city": "GLENSHAW", "state": "PA", "street": "1700 MOUNT ROYAL BLVD", "postcode": "15116"}}},
{"geometry": {"type": "Point", "coordinates": [-79.9609896931, 40.5348511495]}, "type": "Feature", "properties": {"collection_times": [{"days": "Mon-Fri", "time": "4:30pm"}, {"days": "Sat", "time": "4:00pm"}, {"days": "Sun", "time": "Closed"}], "id": "1511600008", "name": "USPS COLLECTION BOX - BLUE BOX", "address": {"city": "GLENSHAW", "state": "PA", "street": "1541 BUTLER PLANK RD", "postcode": "15116"}}},
{"geometry": {"type": "Point", "coordinates": [-79.9609896931, 40.5348511495]}, "type": "Feature", "properties": {"collection_times": [{"days": "Mon-Fri", "time": "4:30pm"}, {"days": "Sat", "time": "4:00pm"}, {"days": "Sun", "time": "Closed"}], "id": "1511600009", "name": "USPS COLLECTION BOX - BLUE BOX", "address": {"city": "GLENSHAW", "state": "PA", "street": "1541 BUTLER PLANK RD", "postcode": "15116"}}},
{"geometry": {"type": "Point", "coordinates": [-79.9608278817, 40.5304092247]}, "type": "Feature", "properties": {"collection_times": [{"days": "Mon-Fri", "time": "4:30pm"}, {"days": "Sat", "time": "4:00pm"}, {"days": "Sun", "time": "Closed"}], "id": "1511600010", "name": "USPS COLLECTION BOX - PO LOBBY", "address": {"city": "GLENSHAW", "state": "PA", "street": "1541 BUTLER PLANK RD LBBY", "postcode": "15116"}}},
{"geometry": {"type": "Point", "coordinates": [-79.9608278817, 40.5304092247]}, "type": "Feature", "properties": {"collection_times": [{"days": "Mon-Fri", "time": "4:30pm"}, {"days": "Sat", "time": "4:00pm"}, {"days": "Sun", "time": "Closed"}], "id": "1511600011", "name": "USPS COLLECTION BOX - PO LOBBY", "address": {"city": "GLENSHAW", "state": "PA", "street": "1541 BUTLER PLANK RD LBBY", "postcode": "15116"}}},
{"geometry": {"type": "Point", "coordinates": [-79.9046510153, 40.408926229]}, "type": "Feature", "properties": {"collection_times": [{"days": "Mon-Sat", "time": "5:00pm"}, {"days": "Sun", "time": "Closed"}], "id": "1512000001", "name": "USPS COLLECTION BOX - BLUE BOX", "address": {"city": "HOMESTEAD", "state": "PA", "street": "601 E 8TH AVE", "postcode": "15120"}}},
{"geometry": {"type": "Point", "coordinates": [-79.907255891, 40.408784274]}, "type": "Feature", "properties": {"collection_times": [{"days": "Mon-Sat", "time": "4:00pm"}, {"days": "Sun", "time": "Closed"}], "id": "1512000007", "name": "USPS COLLECTION BOX - BLUE BOX", "address": {"city": "HOMESTEAD", "state": "PA", "street": "401 E 8TH AVE", "postcode": "15120"}}},
{"geometry": {"type": "Point", "coordinates": [-79.9053258277, 40.3960933984]}, "type": "Feature", "properties": {"collection_times": [{"days": "Mon-Fri", "time": "4:30pm"}, {"days": "Sat", "time": "5:00pm"}, {"days": "Sun", "time": "Closed"}], "id": "1512000024", "name": "USPS COLLECTION BOX - BLUE BOX", "address": {"city": "HOMESTEAD", "state": "PA", "street": "3406 MAIN ST", "postcode": "15120"}}},
{"geometry": {"type": "Point", "coordinates": [-79.9116872553, 40.3804843466]}, "type": "Feature", "properties": {"collection_times": [{"days": "Mon-Sat", "time": "1:30pm"}, {"days": "Sun", "time": "Closed"}], "id": "1512000029", "name": "USPS COLLECTION BOX - BLUE BOX", "address": {"city": "HOMESTEAD", "state": "PA", "street": "4401 W RUN RD", "postcode": "15120"}}},
{"geometry": {"type": "Point", "coordinates": [-79.9141643713, 40.3940623496]}, "type": "Feature", "properties": {"collection_times": [{"days": "Mon-Sat", "time": "1:15pm"}, {"days": "Sun", "time": "Closed"}], "id": "1512000032", "name": "USPS COLLECTION BOX - BLUE BOX", "address": {"city": "HOMESTEAD", "state": "PA", "street": "1198 CASCADE DR", "postcode": "15120"}}},
{"geometry": {"type": "Point", "coordinates": [-79.9122731081, 40.3903149912]}, "type": "Feature", "properties": {"collection_times": [{"days": "Mon-Sat", "time": "1:15pm"}, {"days": "Sun", "time": "Closed"}], "id": "1512000035", "name": "USPS COLLECTION BOX - BLUE BOX", "address": {"city": "HOMESTEAD", "state": "PA", "street": "3500 PINEWOOD DR", "postcode": "15120"}}},
{"geometry": {"type": "Point", "coordinates": [-79.9117479276, 40.3873498324]}, "type": "Feature", "properties": {"collection_times": [{"days": "Mon-Sat", "time": "1:15pm"}, {"days": "Sun", "time": "Closed"}], "id": "1512000037", "name": "USPS COLLECTION BOX - BLUE BOX", "address": {"city": "HOMESTEAD", "state": "PA", "street": "601 LONGFELLOW DR", "postcode": "15120"}}},
{"geometry": {"type": "Point", "coordinates": [-79.8882423097, 40.4015291733]}, "type": "Feature", "properties": {"collection_times": [{"days": "Mon-Sat", "time": "4:00pm"}, {"days": "Sun", "time": "Closed"}], "id": "1512000043", "name": "USPS COLLECTION BOX - BLUE BOX", "address": {"city": "HOMESTEAD", "state": "PA", "street": "106 WHITAKER ST", "postcode": "15120"}}},
{"geometry": {"type": "Point", "coordinates": [-79.9053388631, 40.3960933525]}, "type": "Feature", "properties": {"collection_times": [{"days": "Mon-Sat", "time": "1:45pm"}, {"days": "Sun", "time": "Closed"}], "id": "1512000058", "name": "USPS COLLECTION BOX - BLUE BOX", "address": {"city": "HOMESTEAD", "state": "PA", "street": "111 CAROLINE ST", "postcode": "15120"}}},
{"geometry": {"type": "Point", "coordinates": [-79.9046249902, 40.3827532619]}, "type": "Feature", "properties": {"collection_times": [{"days": "Mon-Fri", "time": "4:30pm"}, {"days": "Sat", "time": "4:45pm"}, {"days": "Sun", "time": "Closed"}], "id": "1512000059", "name": "USPS COLLECTION BOX - BLUE BOX", "address": {"city": "HOMESTEAD", "state": "PA", "street": "3904 MAIN ST", "postcode": "15120"}}},
{"geometry": {"type": "Point", "coordinates": [-79.9080699406, 40.3783998872]}, "type": "Feature", "properties": {"collection_times": [{"days": "Mon-Fri", "time": "4:30pm"}, {"days": "Sat", "time": "5:00pm"}, {"days": "Sun", "time": "Closed"}], "id": "1512000061", "name": "USPS COLLECTION BOX - BLUE BOX", "address": {"city": "HOMESTEAD", "state": "PA", "street": "4601 MAIN ST", "postcode": "15120"}}},
{"geometry": {"type": "Point", "coordinates": [-79.9091566065, 40.4078537817]}, "type": "Feature", "properties": {"collection_times": [{"days": "Mon-Fri", "time": "4:00pm"}, {"days": "Sat", "time": "5:00pm"}, {"days": "Sun", "time": "Closed"}], "id": "1512000080", "name": "USPS COLLECTION BOX - BLUE BOX", "address": {"city": "HOMESTEAD", "state": "PA", "street": "300 E 8TH AVE", "postcode": "15120"}}},
{"geometry": {"type": "Point", "coordinates": [-79.9165243745, 40.4030421911]}, "type": "Feature", "properties": {"collection_times": [{"days": "Mon-Sat", "time": "4:00pm"}, {"days": "Sun", "time": "Closed"}], "id": "1512000082", "name": "USPS COLLECTION BOX - BLUE BOX", "address": {"city": "HOMESTEAD", "state": "PA", "street": "401 W 8TH AVE", "postcode": "15120"}}},
{"geometry": {"type": "Point", "coordinates": [-79.9037566983, 40.4017279237]}, "type": "Feature", "properties": {"collection_times": [{"days": "Mon-Fri", "time": "4:30pm"}, {"days": "Sat", "time": "5:00pm"}, {"days": "Sun", "time": "Closed"}], "id": "1512000085", "name": "USPS COLLECTION BOX - BLUE BOX", "address": {"city": "HOMESTEAD", "state": "PA", "street": "201 E 17TH AVE", "postcode": "15120"}}},
{"geometry": {"type": "Point", "coordinates": [-79.9050200985, 40.4000079014]}, "type": "Feature", "properties": {"collection_times": [{"days": "Mon-Fri", "time": "4:30pm"}, {"days": "Sat", "time": "5:00pm"}, {"days": "Sun", "time": "Closed"}], "id": "1512000093", "name": "USPS COLLECTION BOX - BLUE BOX", "address": {"city": "HOMESTEAD", "state": "PA", "street": "1801 WEST ST", "postcode": "15120"}}},
{"geometry": {"type": "Point", "coordinates": [-79.9152030093, 40.3853853456]}, "type": "Feature", "properties": {"collection_times": [{"days": "Mon-Sat", "time": "1:15pm"}, {"days": "Sun", "time": "Closed"}], "id": "1512000098", "name": "USPS COLLECTION BOX - BLUE BOX", "address": {"city": "HOMESTEAD", "state": "PA", "street": "210 GATES DR", "postcode": "15120"}}},
{"geometry": {"type": "Point", "coordinates": [-79.9046510153, 40.408926229]}, "type": "Feature", "properties": {"collection_times": [{"days": "Mon-Sat", "time": "5:00pm"}, {"days": "Sun", "time": "Closed"}], "id": "1512000100", "name": "USPS COLLECTION BOX - BLUE BOX", "address": {"city": "HOMESTEAD", "state": "PA", "street": "601 E 8TH AVE", "postcode": "15120"}}},
{"geometry": {"type": "Point", "coordinates": [-79.9046510153, 40.408926229]}, "type": "Feature", "properties": {"collection_times": [{"days": "Mon-Sat", "time": "5:00pm"}, {"days": "Sun", "time": "Closed"}], "id": "1512000103", "name": "USPS COLLECTION BOX - PO LOBBY", "address": {"city": "HOMESTEAD", "state": "PA", "street": "601 E 8TH AVE LBBY", "postcode": "15120"}}},
{"geometry": {"type": "Point", "coordinates": [-79.9046510153, 40.408926229]}, "type": "Feature", "properties": {"collection_times": [{"days": "Mon-Sat", "time": "5:00pm"}, {"days": "Sun", "time": "Closed"}], "id": "1512000104", "name": "USPS COLLECTION BOX - PO LOBBY", "address": {"city": "HOMESTEAD", "state": "PA", "street": "601 E 8TH AVE LBBY", "postcode": "15120"}}},
{"geometry": {"type": "Point", "coordinates": [-79.9027996845, 40.3862725649]}, "type": "Feature", "properties": {"collection_times": [{"days": "Mon-Fri", "time": "4:30pm"}, {"days": "Sat", "time": "12:00pm"}, {"days": "Sun", "time": "Closed"}], "id": "1512000106", "name": "USPS COLLECTION BOX - PO LOBBY", "address": {"city": "HOMESTEAD", "state": "PA", "street": "3406 MAIN ST LBBY", "postcode": "15120"}}},
{"geometry": {"type": "Point", "coordinates": [-79.8899370327, 40.4072604187]}, "type": "Feature", "properties": {"collection_times": [{"days": "Mon-Sat", "time": "4:00pm"}, {"days": "Sun", "time": "Closed"}], "id": "1512000108", "name": "USPS COLLECTION BOX - BLUE BOX", "address": {"city": "HOMESTEAD", "state": "PA", "street": "420 E WATERFRONT DR", "postcode": "15120"}}},
{"geometry": {"type": "Point", "coordinates": [-79.9156693535, 40.4085925316]}, "type": "Feature", "properties": {"collection_times": [{"days": "Mon-Sat", "time": "4:00pm"}, {"days": "Sun", "time": "Closed"}], "id": "1512000110", "name": "USPS COLLECTION BOX - BLUE BOX", "address": {"city": "HOMESTEAD", "state": "PA", "street": "100 W BRIDGE ST", "postcode": "15120"}}},
{"geometry": {"type": "Point", "coordinates": [-79.8943199292, 40.3691325933]}, "type": "Feature", "properties": {"collection_times": [{"days": "Mon-Fri", "time": "4:00pm"}, {"days": "Sat", "time": "12:00pm"}, {"days": "Sun", "time": "Closed"}], "id": "1512200001", "name": "USPS COLLECTION BOX - BLUE BOX", "address": {"city": "PITTSBURGH", "state": "PA", "street": "5001 HOMEVILLE RD", "postcode": "15122"}}},
{"geometry": {"type": "Point", "coordinates": [-79.9255971811, 40.3505972411]}, "type": "Feature", "properties": {"collection_times": [{"days": "Mon-Fri", "time": "3:00pm"}, {"days": "Sat", "time": "9:00am"}, {"days": "Sun", "time": "Closed"}], "id": "1512200002", "name": "USPS COLLECTION BOX - BLUE BOX", "address": {"city": "PITTSBURGH", "state": "PA", "street": "3001 LEBANON CHURCH RD", "postcode": "15122"}}},
{"geometry": {"type": "Point", "coordinates": [-79.900351324, 40.35622629]}, "type": "Feature", "properties": {"collection_times": [{"days": "Mon-Fri", "time": "3:00pm"}, {"days": "Sat", "time": "9:00am"}, {"days": "Sun", "time": "Closed"}], "id": "1512200003", "name": "USPS COLLECTION BOX - BLUE BOX", "address": {"city": "PITTSBURGH", "state": "PA", "street": "814 PITTSBURGH MCKEESPORT BLVD", "postcode": "15122"}}},
{"geometry": {"type": "Point", "coordinates": [-79.900351324, 40.35622629]}, "type": "Feature", "properties": {"collection_times": [{"days": "Mon-Fri", "time": "3:00pm"}, {"days": "Sat", "time": "9:00am"}, {"days": "Sun", "time": "Closed"}], "id": "1512200004", "name": "USPS COLLECTION BOX - BLUE BOX", "address": {"city": "PITTSBURGH", "state": "PA", "street": "814 PITTSBURGH MCKEESPORT BLVD", "postcode": "15122"}}},
{"geometry": {"type": "Point", "coordinates": [-79.8943199292, 40.3691325933]}, "type": "Feature", "properties": {"collection_times": [{"days": "Mon-Fri", "time": "12:00pm"}, {"days": "Sat", "time": "9:00am"}, {"days": "Sun", "time": "Closed"}], "id": "1512200007", "name": "USPS COLLECTION BOX - BLUE BOX", "address": {"city": "PITTSBURGH", "state": "PA", "street": "305 BRIERLY LN", "postcode": "15122"}}},
{"geometry": {"type": "Point", "coordinates": [-79.9266694305, 40.3503153442]}, "type": "Feature", "properties": {"collection_times": [{"days": "Mon-Fri", "time": "2:00pm"}, {"days": "Sat", "time": "9:00am"}, {"days": "Sun", "time": "Closed"}], "id": "1512200008", "name": "USPS COLLECTION BOX - BLUE BOX", "address": {"city": "PITTSBURGH", "state": "PA", "street": "3000 LEBANON CHURCH RD", "postcode": "15122"}}},
{"geometry": {"type": "Point", "coordinates": [-79.8943199292, 40.3691325933]}, "type": "Feature", "properties": {"collection_times": [{"days": "Mon-Fri", "time": "2:00pm"}, {"days": "Sat", "time": "9:00am"}, {"days": "Sun", "time": "Closed"}], "id": "1512200010", "name": "USPS COLLECTION BOX - BLUE BOX", "address": {"city": "PITTSBURGH", "state": "PA", "street": "1852 HOMEVILLE RD", "postcode": "15122"}}},
{"geometry": {"type": "Point", "coordinates": [-79.8729962164, 40.3896948651]}, "type": "Feature", "properties": {"collection_times": [{"days": "Mon-Fri", "time": "12:00pm"}, {"days": "Sat", "time": "9:00am"}, {"days": "Sun", "time": "Closed"}], "id": "1512200012", "name": "USPS COLLECTION BOX - BLUE BOX", "address": {"city": "PITTSBURGH", "state": "PA", "street": "4200 VISTAVIEW ST", "postcode": "15122"}}},
{"geometry": {"type": "Point", "coordinates": [-79.8710397481, 40.3825180321]}, "type": "Feature", "properties": {"collection_times": [{"days": "Mon-Fri", "time": "11:00am"}, {"days": "Sat", "time": "9:00am"}, {"days": "Sun", "time": "Closed"}], "id": "1512200016", "name": "USPS COLLECTION BOX - BLUE BOX", "address": {"city": "PITTSBURGH", "state": "PA", "street": "1300 HOFFMAN BLVD", "postcode": "15122"}}},
{"geometry": {"type": "Point", "coordinates": [-79.9422426471, 40.3484604924]}, "type": "Feature", "properties": {"collection_times": [{"days": "Mon-Fri", "time": "3:00pm"}, {"days": "Sat", "time": "9:00am"}, {"days": "Sun", "time": "Closed"}], "id": "1512200017", "name": "USPS COLLECTION BOX - BLUE BOX", "address": {"city": "PITTSBURGH", "state": "PA", "street": "2204 LEBANON CHURCH RD", "postcode": "15122"}}},
{"geometry": {"type": "Point", "coordinates": [-79.9178114338, 40.3423173586]}, "type": "Feature", "properties": {"collection_times": [{"days": "Mon-Fri", "time": "12:00pm"}, {"days": "Sat", "time": "9:00am"}, {"days": "Sun", "time": "Closed"}], "id": "1512200019", "name": "USPS COLLECTION BOX - BLUE BOX", "address": {"city": "PITTSBURGH", "state": "PA", "street": "104 LEBANON MANOR DR", "postcode": "15122"}}},
{"geometry": {"type": "Point", "coordinates": [-79.8943199292, 40.3691325933]}, "type": "Feature", "properties": {"collection_times": [{"days": "Mon-Fri", "time": "2:00pm"}, {"days": "Sat", "time": "9:00am"}, {"days": "Sun", "time": "Closed"}], "id": "1512200021", "name": "USPS COLLECTION BOX - BLUE BOX", "address": {"city": "PITTSBURGH", "state": "PA", "street": "500 N LEWIS RUN RD", "postcode": "15122"}}},
{"geometry": {"type": "Point", "coordinates": [-79.903736588, 40.3543078307]}, "type": "Feature", "properties": {"collection_times": [{"days": "Mon-Fri", "time": "12:00pm"}, {"days": "Sat", "time": "9:00am"}, {"days": "Sun", "time": "Closed"}], "id": "1512200023", "name": "USPS COLLECTION BOX - BLUE BOX", "address": {"city": "PITTSBURGH", "state": "PA", "street": "6833 MADISON AVE", "postcode": "15122"}}},
{"geometry": {"type": "Point", "coordinates": [-79.8943199292, 40.3691325933]}, "type": "Feature", "properties": {"collection_times": [{"days": "Mon-Fri", "time": "12:00pm"}, {"days": "Sat", "time": "9:00am"}, {"days": "Sun", "time": "Closed"}], "id": "1512200024", "name": "USPS COLLECTION BOX - BLUE BOX", "address": {"city": "PITTSBURGH", "state": "PA", "street": "700 MAPLE ST", "postcode": "15122"}}},
{"geometry": {"type": "Point", "coordinates": [-79.9151124089, 40.3521919615]}, "type": "Feature", "properties": {"collection_times": [{"days": "Mon-Fri", "time": "12:00pm"}, {"days": "Sat", "time": "9:00am"}, {"days": "Sun", "time": "Closed"}], "id": "1512200029", "name": "USPS COLLECTION BOX - BLUE BOX", "address": {"city": "PITTSBURGH", "state": "PA", "street": "3710 BRINWAY DR", "postcode": "15122"}}},
{"geometry": {"type": "Point", "coordinates": [-79.9406780306, 40.3437948743]}, "type": "Feature", "properties": {"collection_times": [{"days": "Mon-Fri", "time": "3:00pm"}, {"days": "Sat", "time": "9:00am"}, {"days": "Sun", "time": "Closed"}], "id": "1512200030", "name": "USPS COLLECTION BOX - BLUE BOX", "address": {"city": "PITTSBURGH", "state": "PA", "street": "6010 MOUNTAIN VIEW DR", "postcode": "15122"}}},
{"geometry": {"type": "Point", "coordinates": [-79.901979894, 40.3563508008]}, "type": "Feature", "properties": {"collection_times": [{"days": "Mon-Fri", "time": "12:00pm"}, {"days": "Sat", "time": "9:00am"}, {"days": "Sun", "time": "Closed"}], "id": "1512200031", "name": "USPS COLLECTION BOX - BLUE BOX", "address": {"city": "PITTSBURGH", "state": "PA", "street": "200 PARK AVE", "postcode": "15122"}}},
{"geometry": {"type": "Point", "coordinates": [-79.9859108326, 40.4498104738]}, "type": "Feature", "properties": {"collection_times": [{"days": "Mon-Fri", "time": "12:00pm"}, {"days": "Sat", "time": "9:00am"}, {"days": "Sun", "time": "Closed"}], "id": "1512200032", "name": "USPS COLLECTION BOX - BLUE BOX", "address": {"city": "PITTSBURGH", "state": "PA", "street": "1700 PENNSYLVANIA AVE", "postcode": "15122"}}},
{"geometry": {"type": "Point", "coordinates": [-79.8624998215, 40.3620775051]}, "type": "Feature", "properties": {"collection_times": [{"days": "Mon-Fri", "time": "12:00pm"}, {"days": "Sat", "time": "9:00am"}, {"days": "Sun", "time": "Closed"}], "id": "1512200033", "name": "USPS COLLECTION BOX - BLUE BOX", "address": {"city": "PITTSBURGH", "state": "PA", "street": "1815 PENNSYLVANIA AVE", "postcode": "15122"}}},
{"geometry": {"type": "Point", "coordinates": [-79.9220815256, 40.3390108607]}, "type": "Feature", "properties": {"collection_times": [{"days": "Mon-Fri", "time": "12:00pm"}, {"days": "Sat", "time": "9:00am"}, {"days": "Sun", "time": "Closed"}], "id": "1512200035", "name": "USPS COLLECTION BOX - BLUE BOX", "address": {"city": "PITTSBURGH", "state": "PA", "street": "713 SAINT GERMAINE DR", "postcode": "15122"}}},
{"geometry": {"type": "Point", "coordinates": [-79.8737080872, 40.3591281465]}, "type": "Feature", "properties": {"collection_times": [{"days": "Mon-Fri", "time": "10:00am"}, {"days": "Sat", "time": "9:00am"}, {"days": "Sun", "time": "Closed"}], "id": "1512200036", "name": "USPS COLLECTION BOX - BLUE BOX", "address": {"city": "PITTSBURGH", "state": "PA", "street": "2201 REUBEN DR", "postcode": "15122"}}},
{"geometry": {"type": "Point", "coordinates": [-79.8943199292, 40.3691325933]}, "type": "Feature", "properties": {"collection_times": [{"days": "Mon-Fri", "time": "3:00pm"}, {"days": "Sat", "time": "9:00am"}, {"days": "Sun", "time": "Closed"}], "id": "1512200041", "name": "USPS COLLECTION BOX - BLUE BOX", "address": {"city": "PITTSBURGH", "state": "PA", "street": "4775 MOUNTAIN VIEW DR", "postcode": "15122"}}},
{"geometry": {"type": "Point", "coordinates": [-79.8943199292, 40.3691325933]}, "type": "Feature", "properties": {"collection_times": [{"days": "Mon-Fri", "time": "2:45pm"}, {"days": "Sat", "time": "9:00am"}, {"days": "Sun", "time": "Closed"}], "id": "1512200044", "name": "USPS COLLECTION BOX - BLUE BOX", "address": {"city": "PITTSBURGH", "state": "PA", "street": "3075 CLAIRTON RD", "postcode": "15122"}}},
{"geometry": {"type": "Point", "coordinates": [-79.8943199292, 40.3691325933]}, "type": "Feature", "properties": {"collection_times": [{"days": "Mon-Fri", "time": "2:45pm"}, {"days": "Sat", "time": "9:00am"}, {"days": "Sun", "time": "Closed"}], "id": "1512200045", "name": "USPS COLLECTION BOX - BLUE BOX", "address": {"city": "PITTSBURGH", "state": "PA", "street": "3075 CLAIRTON RD", "postcode": "15122"}}},
{"geometry": {"type": "Point", "coordinates": [-79.9281431828, 40.3254224151]}, "type": "Feature", "properties": {"collection_times": [{"days": "Mon-Fri", "time": "2:00pm"}, {"days": "Sat", "time": "9:00am"}, {"days": "Sun", "time": "Closed"}], "id": "1512200046", "name": "USPS COLLECTION BOX - BLUE BOX", "address": {"city": "PITTSBURGH", "state": "PA", "street": "1711 CLAIRTON RD", "postcode": "15122"}}},
{"geometry": {"type": "Point", "coordinates": [-79.8943199292, 40.3691325933]}, "type": "Feature", "properties": {"collection_times": [{"days": "Mon-Fri", "time": "4:00pm"}, {"days": "Sat", "time": "12:00pm"}, {"days": "Sun", "time": "Closed"}], "id": "1512200047", "name": "USPS COLLECTION BOX - BLUE BOX", "address": {"city": "PITTSBURGH", "state": "PA", "street": "5001 HOMEVILLE RD", "postcode": "15122"}}},
{"geometry": {"type": "Point", "coordinates": [-79.8943199292, 40.3691325933]}, "type": "Feature", "properties": {"collection_times": [{"days": "Mon-Fri", "time": "2:00pm"}, {"days": "Sat", "time": "9:00am"}, {"days": "Sun", "time": "Closed"}], "id": "1512200051", "name": "USPS COLLECTION BOX - BLUE BOX", "address": {"city": "PITTSBURGH", "state": "PA", "street": "500 N LEWIS RUN RD", "postcode": "15122"}}},
{"geometry": {"type": "Point", "coordinates": [-79.8943199292, 40.3691325933]}, "type": "Feature", "properties": {"collection_times": [{"days": "Mon-Fri", "time": "4:00pm"}, {"days": "Sat", "time": "12:00pm"}, {"days": "Sun", "time": "Closed"}], "id": "1512200052", "name": "USPS COLLECTION BOX - PO LOBBY", "address": {"city": "PITTSBURGH", "state": "PA", "street": "5001 HOMEVILLE RD", "postcode": "15122"}}},
{"geometry": {"type": "Point", "coordinates": [-79.9432606834, 40.3439297072]}, "type": "Feature", "properties": {"collection_times": [{"days": "Mon-Fri", "time": "3:00pm"}, {"days": "Sat", "time": "9:00am"}, {"days": "Sun", "time": "Closed"}], "id": "1512200053", "name": "USPS COLLECTION BOX - BLUE BOX", "address": {"city": "PITTSBURGH", "state": "PA", "street": "2251 CENTURY DR", "postcode": "15122"}}},
{"geometry": {"type": "Point", "coordinates": [-79.8943199292, 40.3691325933]}, "type": "Feature", "properties": {"collection_times": [{"days": "Mon-Fri", "time": "2:30pm"}, {"days": "Sat", "time": "9:00am"}, {"days": "Sun", "time": "Closed"}], "id": "1512200054", "name": "USPS COLLECTION BOX - BLUE BOX", "address": {"city": "PITTSBURGH", "state": "PA", "street": "9901 MOUNTAIN VIEW DR", "postcode": "15122"}}},
{"geometry": {"type": "Point", "coordinates": [-79.8943199292, 40.3691325933]}, "type": "Feature", "properties": {"collection_times": [{"days": "Mon-Fri", "time": "4:00pm"}, {"days": "Sat", "time": "12:00pm"}, {"days": "Sun", "time": "Closed"}], "id": "1512200055", "name": "USPS COLLECTION BOX - BLUE BOX", "address": {"city": "PITTSBURGH", "state": "PA", "street": "5001 HOMEVILLE RD", "postcode": "15122"}}},
{"geometry": {"type": "Point", "coordinates": [-79.8943199292, 40.3691325933]}, "type": "Feature", "properties": {"collection_times": [{"days": "Mon-Fri", "time": "3:00pm"}, {"days": "Sat", "time": "9:00am"}, {"days": "Sun", "time": "Closed"}], "id": "1512200059", "name": "USPS COLLECTION BOX - BLUE BOX", "address": {"city": "PITTSBURGH", "state": "PA", "street": "3001 LEBANON CHURCH RD", "postcode": "15122"}}},
{"geometry": {"type": "Point", "coordinates": [-80.236936744, 40.443151254]}, "type": "Feature", "properties": {"collection_times": [{"days": "Mon-Fri", "time": "4:30pm"}, {"days": "Sat", "time": "12:00pm"}, {"days": "Sun", "time": "Closed"}], "id": "1512600001", "name": "USPS COLLECTION BOX - BLUE BOX", "address": {"city": "IMPERIAL", "state": "PA", "street": "600 PENN LINCOLN DR", "postcode": "15126"}}},
{"geometry": {"type": "Point", "coordinates": [-77.8387503615, 40.896509984]}, "type": "Feature", "properties": {"collection_times": [{"days": "Mon-Fri", "time": "4:30pm"}, {"days": "Sat", "time": "12:00pm"}, {"days": "Sun", "time": "Closed"}], "id": "1512600002", "name": "USPS COLLECTION BOX - BLUE BOX", "address": {"city": "IMPERIAL", "state": "PA", "street": "600 PENN LINCOLN DR", "postcode": "15126"}}},
{"geometry": {"type": "Point", "coordinates": [-80.2369064889, 40.4432006834]}, "type": "Feature", "properties": {"collection_times": [{"days": "Mon-Fri", "time": "4:30pm"}, {"days": "Sat", "time": "12:00pm"}, {"days": "Sun", "time": "Closed"}], "id": "1512600008", "name": "USPS COLLECTION BOX - PO LOBBY", "address": {"city": "IMPERIAL", "state": "PA", "street": "600 PENN LINCOLN DR LBBY", "postcode": "15126"}}},
{"geometry": {"type": "Point", "coordinates": [-77.8387503615, 40.896509984]}, "type": "Feature", "properties": {"collection_times": [{"days": "Mon-Fri", "time": "4:45pm"}, {"days": "Sat", "time": "1:00pm"}, {"days": "Sun", "time": "Closed"}], "id": "1512700001", "name": "USPS COLLECTION BOX - BLUE BOX", "address": {"city": "INGOMAR", "state": "PA", "street": "736 W INGOMAR RD", "postcode": "15127"}}},
{"geometry": {"type": "Point", "coordinates": [-80.0831076975, 40.581118598]}, "type": "Feature", "properties": {"collection_times": [{"days": "Mon-Fri", "time": "4:45pm"}, {"days": "Sat", "time": "1:00pm"}, {"days": "Sun", "time": "Closed"}], "id": "1512700002", "name": "USPS COLLECTION BOX - BLUE BOX", "address": {"city": "INGOMAR", "state": "PA", "street": "736 W INGOMAR RD", "postcode": "15127"}}},
{"geometry": {"type": "Point", "coordinates": [-80.0831076975, 40.581118598]}, "type": "Feature", "properties": {"collection_times": [{"days": "Mon-Fri", "time": "4:45pm"}, {"days": "Sat", "time": "1:00pm"}, {"days": "Sun", "time": "Closed"}], "id": "1512700004", "name": "USPS COLLECTION BOX - PO LOBBY", "address": {"city": "INGOMAR", "state": "PA", "street": "736 W INGOMAR RD", "postcode": "15127"}}},
{"geometry": {"type": "Point", "coordinates": [-80.0009376741, 40.2920304707]}, "type": "Feature", "properties": {"collection_times": [{"days": "Mon-Fri", "time": "4:30pm"}, {"days": "Sat", "time": "2:00pm"}, {"days": "Sun", "time": "Closed"}], "id": "1512900001", "name": "USPS COLLECTION BOX - BLUE BOX", "address": {"city": "SOUTH PARK", "state": "PA", "street": "2560 BROWNSVILLE RD", "postcode": "15129"}}},
{"geometry": {"type": "Point", "coordinates": [-80.0275726895, 40.2896973742]}, "type": "Feature", "properties": {"collection_times": [{"days": "Mon-Sat", "time": "10:00am"}, {"days": "Sun", "time": "Closed"}], "id": "1512900002", "name": "USPS COLLECTION BOX - BLUE BOX", "address": {"city": "SOUTH PARK", "state": "PA", "street": "6375 LIBRARY RD", "postcode": "15129"}}},
{"geometry": {"type": "Point", "coordinates": [-80.0009376741, 40.2920304707]}, "type": "Feature", "properties": {"collection_times": [{"days": "Mon-Fri", "time": "4:30pm"}, {"days": "Sat", "time": "2:00pm"}, {"days": "Sun", "time": "Closed"}], "id": "1512900007", "name": "USPS COLLECTION BOX - BLUE BOX", "address": {"city": "SOUTH PARK", "state": "PA", "street": "2560 BROWNSVILLE RD", "postcode": "15129"}}},
{"geometry": {"type": "Point", "coordinates": [-80.0063955628, 40.2887369216]}, "type": "Feature", "properties": {"collection_times": [{"days": "Mon-Fri", "time": "4:30pm"}, {"days": "Sat", "time": "2:00pm"}, {"days": "Sun", "time": "Closed"}], "id": "1512900009", "name": "USPS COLLECTION BOX - PO LOBBY", "address": {"city": "SOUTH PARK", "state": "PA", "street": "2560 BROWNSVILLE RD LBBY", "postcode": "15129"}}},
{"geometry": {"type": "Point", "coordinates": [-80.0063955628, 40.2887369216]}, "type": "Feature", "properties": {"collection_times": [{"days": "Mon-Fri", "time": "4:30pm"}, {"days": "Sat", "time": "2:00pm"}, {"days": "Sun", "time": "Closed"}], "id": "1512900010", "name": "USPS COLLECTION BOX - PO LOBBY", "address": {"city": "SOUTH PARK", "state": "PA", "street": "2560 BROWNSVILLE RD LBBY", "postcode": "15129"}}},
{"geometry": {"type": "Point", "coordinates": [-80.0009376741, 40.2920304707]}, "type": "Feature", "properties": {"collection_times": [{"days": "Mon-Fri", "time": "4:30pm"}, {"days": "Sat", "time": "2:00pm"}, {"days": "Sun", "time": "Closed"}], "id": "1512900011", "name": "USPS COLLECTION BOX - PO LOBBY", "address": {"city": "SOUTH PARK", "state": "PA", "street": "2560 BROWNSVILLE RD", "postcode": "15129"}}},
{"geometry": {"type": "Point", "coordinates": [-80.0063955628, 40.2887369216]}, "type": "Feature", "properties": {"collection_times": [{"days": "Mon-Fri", "time": "4:30pm"}, {"days": "Sat", "time": "2:00pm"}, {"days": "Sun", "time": "Closed"}], "id": "1512900012", "name": "USPS COLLECTION BOX - PO LOBBY", "address": {"city": "SOUTH PARK", "state": "PA", "street": "2560 BROWNSVILLE RD LBBY", "postcode": "15129"}}},
{"geometry": {"type": "Point", "coordinates": [-79.8656524811, 40.3469401104]}, "type": "Feature", "properties": {"collection_times": [{"days": "Mon-Fri", "time": "5:00pm"}, {"days": "Sat", "time": "4:45pm"}, {"days": "Sun", "time": "Closed"}], "id": "1513400002", "name": "USPS COLLECTION BOX - BLUE BOX", "address": {"city": "MCKEESPORT", "state": "PA", "street": "203 9TH ST REAR", "postcode": "15134"}}},
{"geometry": {"type": "Point", "coordinates": [-79.8750663946, 40.3505613996]}, "type": "Feature", "properties": {"collection_times": [{"days": "Mon-Sat", "time": "9:00am"}, {"days": "Sun", "time": "Closed"}], "id": "1513400003", "name": "USPS COLLECTION BOX - BLUE BOX", "address": {"city": "MCKEESPORT", "state": "PA", "street": "319 ANN ST", "postcode": "15134"}}},
{"geometry": {"type": "Point", "coordinates": [-79.8486926146, 40.3457982963]}, "type": "Feature", "properties": {"collection_times": [{"days": "Mon-Fri", "time": "3:30pm"}, {"days": "Sat", "time": "2:45pm"}, {"days": "Sun", "time": "Closed"}], "id": "1513400004", "name": "USPS COLLECTION BOX - BLUE BOX", "address": {"city": "MCKEESPORT", "state": "PA", "street": "2301 VERSAILLES AVE", "postcode": "15134"}}},
{"geometry": {"type": "Point", "coordinates": [-79.8286636462, 40.3424948024]}, "type": "Feature", "properties": {"collection_times": [{"days": "Mon-Sat", "time": "10:00am"}, {"days": "Sun", "time": "Closed"}], "id": "1513400011", "name": "USPS COLLECTION BOX - BLUE BOX", "address": {"city": "MCKEESPORT", "state": "PA", "street": "2016 EDEN PARK BLVD", "postcode": "15134"}}},
{"geometry": {"type": "Point", "coordinates": [-79.8322579013, 40.3476006585]}, "type": "Feature", "properties": {"collection_times": [{"days": "Mon-Sat", "time": "9:30am"}, {"days": "Sun", "time": "Closed"}], "id": "1513400012", "name": "USPS COLLECTION BOX - BLUE BOX", "address": {"city": "MCKEESPORT", "state": "PA", "street": "3812 ONEIL BLVD", "postcode": "15134"}}},
{"geometry": {"type": "Point", "coordinates": [-79.813966564, 40.3387933238]}, "type": "Feature", "properties": {"collection_times": [{"days": "Mon-Sat", "time": "11:15am"}, {"days": "Sun", "time": "Closed"}], "id": "1513400018", "name": "USPS COLLECTION BOX - BLUE BOX", "address": {"city": "MCKEESPORT", "state": "PA", "street": "2200 FAWCETT AVE", "postcode": "15134"}}},
{"geometry": {"type": "Point", "coordinates": [-79.878543111, 40.3394096455]}, "type": "Feature", "properties": {"collection_times": [{"days": "Mon-Sat", "time": "9:30am"}, {"days": "Sun", "time": "Closed"}], "id": "1513400022", "name": "USPS COLLECTION BOX - BLUE BOX", "address": {"city": "MCKEESPORT", "state": "PA", "street": "1400 WASHINGTON BLVD", "postcode": "15134"}}},
{"geometry": {"type": "Point", "coordinates": [-79.8367187913, 40.3397305193]}, "type": "Feature", "properties": {"collection_times": [{"days": "Mon-Sat", "time": "10:00am"}, {"days": "Sun", "time": "Closed"}], "id": "1513400024", "name": "USPS COLLECTION BOX - BLUE BOX", "address": {"city": "MCKEESPORT", "state": "PA", "street": "1902 GRANDVIEW AVE", "postcode": "15134"}}},
{"geometry": {"type": "Point", "coordinates": [-79.8671535821, 40.3466966727]}, "type": "Feature", "properties": {"collection_times": [{"days": "Mon-Sat", "time": "8:30am"}, {"days": "Sun", "time": "Closed"}], "id": "1513400028", "name": "USPS COLLECTION BOX - BLUE BOX", "address": {"city": "MCKEESPORT", "state": "PA", "street": "100 9TH ST", "postcode": "15134"}}},
{"geometry": {"type": "Point", "coordinates": [-79.80947132, 40.3382574434]}, "type": "Feature", "properties": {"collection_times": [{"days": "Mon-Sat", "time": "12:15pm"}, {"days": "Sun", "time": "Closed"}], "id": "1513400031", "name": "USPS COLLECTION BOX - BLUE BOX", "address": {"city": "MCKEESPORT", "state": "PA", "street": "1985 LINCOLN WAY", "postcode": "15134"}}},
{"geometry": {"type": "Point", "coordinates": [-79.8146467654, 40.3314708078]}, "type": "Feature", "properties": {"collection_times": [{"days": "Mon-Fri", "time": "4:15pm"}, {"days": "Sat", "time": "11:30am"}, {"days": "Sun", "time": "Closed"}], "id": "1513400033", "name": "USPS COLLECTION BOX - BLUE BOX", "address": {"city": "MCKEESPORT", "state": "PA", "street": "1180 LONG RUN RD", "postcode": "15134"}}},
{"geometry": {"type": "Point", "coordinates": [-79.8569541099, 40.3242618559]}, "type": "Feature", "properties": {"collection_times": [{"days": "Mon-Sat", "time": "10:00am"}, {"days": "Sun", "time": "Closed"}], "id": "1513400034", "name": "USPS COLLECTION BOX - BLUE BOX", "address": {"city": "MCKEESPORT", "state": "PA", "street": "3107 LIBERTY WAY", "postcode": "15134"}}},
{"geometry": {"type": "Point", "coordinates": [-79.8266881047, 40.3517869451]}, "type": "Feature", "properties": {"collection_times": [{"days": "Mon-Sat", "time": "9:45am"}, {"days": "Sun", "time": "Closed"}], "id": "1513400045", "name": "USPS COLLECTION BOX - BLUE BOX", "address": {"city": "MCKEESPORT", "state": "PA", "street": "2501 ONEIL BLVD", "postcode": "15134"}}},
{"geometry": {"type": "Point", "coordinates": [-77.8387503615, 40.896509984]}, "type": "Feature", "properties": {"collection_times": [{"days": "Mon-Fri", "time": "4:00pm"}, {"days": "Sat", "time": "10:30am"}, {"days": "Sun", "time": "Closed"}], "id": "1513400046", "name": "USPS COLLECTION BOX - BLUE BOX", "address": {"city": "MCKEESPORT", "state": "PA", "street": "4000 UNIVERSITY DR", "postcode": "15134"}}},
{"geometry": {"type": "Point", "coordinates": [-79.8159378064, 40.3318908376]}, "type": "Feature", "properties": {"collection_times": [{"days": "Mon-Sat", "time": "11:15am"}, {"days": "Sun", "time": "Closed"}], "id": "1513400048", "name": "USPS COLLECTION BOX - BLUE BOX", "address": {"city": "MCKEESPORT", "state": "PA", "street": "152 ROYAL OAK DR", "postcode": "15134"}}},
{"geometry": {"type": "Point", "coordinates": [-79.8708033468, 40.3417274353]}, "type": "Feature", "properties": {"collection_times": [{"days": "Mon-Sat", "time": "9:30am"}, {"days": "Sun", "time": "Closed"}], "id": "1513400049", "name": "USPS COLLECTION BOX - BLUE BOX", "address": {"city": "MCKEESPORT", "state": "PA", "street": "1191 ROMINE AVE", "postcode": "15134"}}},
{"geometry": {"type": "Point", "coordinates": [-79.8644760106, 40.3490208603]}, "type": "Feature", "properties": {"collection_times": [{"days": "Mon-Fri", "time": "2:45pm"}, {"days": "Sat", "time": "2:00pm"}, {"days": "Sun", "time": "Closed"}], "id": "1513400067", "name": "USPS COLLECTION BOX - BLUE BOX", "address": {"city": "MCKEESPORT", "state": "PA", "street": "625 WALNUT ST", "postcode": "15134"}}},
{"geometry": {"type": "Point", "coordinates": [-79.8464080307, 40.3326431202]}, "type": "Feature", "properties": {"collection_times": [{"days": "Mon-Sat", "time": "1:00pm"}, {"days": "Sun", "time": "Closed"}], "id": "1513400070", "name": "USPS COLLECTION BOX - BLUE BOX", "address": {"city": "MCKEESPORT", "state": "PA", "street": "2801 WALNUT ST", "postcode": "15134"}}},
{"geometry": {"type": "Point", "coordinates": [-79.8560314019, 40.3516887595]}, "type": "Feature", "properties": {"collection_times": [{"days": "Mon-Sat", "time": "9:00am"}, {"days": "Sun", "time": "Closed"}], "id": "1513400072", "name": "USPS COLLECTION BOX - BLUE BOX", "address": {"city": "MCKEESPORT", "state": "PA", "street": "815 5TH AVE", "postcode": "15134"}}},
{"geometry": {"type": "Point", "coordinates": [-79.8656997255, 40.3508831645]}, "type": "Feature", "properties": {"collection_times": [{"days": "Mon-Fri", "time": "2:45pm"}, {"days": "Sat", "time": "2:00pm"}, {"days": "Sun", "time": "Closed"}], "id": "1513400075", "name": "USPS COLLECTION BOX - BLUE BOX", "address": {"city": "MCKEESPORT", "state": "PA", "street": "224 5TH AVE", "postcode": "15134"}}},
{"geometry": {"type": "Point", "coordinates": [-79.8629032105, 40.3500692887]}, "type": "Feature", "properties": {"collection_times": [{"days": "Mon-Fri", "time": "2:45pm"}, {"days": "Sat", "time": "2:00pm"}, {"days": "Sun", "time": "Closed"}], "id": "1513400076", "name": "USPS COLLECTION BOX - BLUE BOX", "address": {"city": "MCKEESPORT", "state": "PA", "street": "601 LOCUST ST", "postcode": "15134"}}},
{"geometry": {"type": "Point", "coordinates": [-79.8617864972, 40.3512912853]}, "type": "Feature", "properties": {"collection_times": [{"days": "Mon-Fri", "time": "3:00pm"}, {"days": "Sat", "time": "2:00pm"}, {"days": "Sun", "time": "Closed"}], "id": "1513400078", "name": "USPS COLLECTION BOX - BLUE BOX", "address": {"city": "MCKEESPORT", "state": "PA", "street": "500 5TH AVE", "postcode": "15134"}}},
{"geometry": {"type": "Point", "coordinates": [-79.8641786263, 40.3473207114]}, "type": "Feature", "properties": {"collection_times": [{"days": "Mon-Fri", "time": "3:15pm"}, {"days": "Sat", "time": "2:00pm"}, {"days": "Sun", "time": "Closed"}], "id": "1513400082", "name": "USPS COLLECTION BOX - BLUE BOX", "address": {"city": "MCKEESPORT", "state": "PA", "street": "1500 5TH AVE", "postcode": "15134"}}},
{"geometry": {"type": "Point", "coordinates": [-79.8185430731, 40.3493341736]}, "type": "Feature", "properties": {"collection_times": [{"days": "Mon-Sat", "time": "11:00am"}, {"days": "Sun", "time": "Closed"}], "id": "1513400086", "name": "USPS COLLECTION BOX - BLUE BOX", "address": {"city": "MCKEESPORT", "state": "PA", "street": "1507 LINCOLN WAY", "postcode": "15134"}}},
{"geometry": {"type": "Point", "coordinates": [-79.8181814468, 40.3489726857]}, "type": "Feature", "properties": {"collection_times": [{"days": "Mon-Sat", "time": "11:00am"}, {"days": "Sun", "time": "Closed"}], "id": "1513400087", "name": "USPS COLLECTION BOX - BLUE BOX", "address": {"city": "MCKEESPORT", "state": "PA", "street": "1514 LINCOLN WAY", "postcode": "15134"}}},
{"geometry": {"type": "Point", "coordinates": [-79.816965365, 40.347581526]}, "type": "Feature", "properties": {"collection_times": [{"days": "Mon-Sat", "time": "11:00am"}, {"days": "Sun", "time": "Closed"}], "id": "1513400088", "name": "USPS COLLECTION BOX - BLUE BOX", "address": {"city": "MCKEESPORT", "state": "PA", "street": "1612 LINCOLN WAY", "postcode": "15134"}}},
{"geometry": {"type": "Point", "coordinates": [-79.8364324081, 40.321073618]}, "type": "Feature", "properties": {"collection_times": [{"days": "Mon-Sat", "time": "9:00am"}, {"days": "Sun", "time": "Closed"}], "id": "1513400095", "name": "USPS COLLECTION BOX - BLUE BOX", "address": {"city": "MCKEESPORT", "state": "PA", "street": "4313 WALNUT ST STE 12", "postcode": "15134"}}},
{"geometry": {"type": "Point", "coordinates": [-79.8116302201, 40.2881567653]}, "type": "Feature", "properties": {"collection_times": [{"days": "Mon-Sat", "time": "1:00pm"}, {"days": "Sun", "time": "Closed"}], "id": "1513400098", "name": "USPS COLLECTION BOX - BLUE BOX", "address": {"city": "MCKEESPORT", "state": "PA", "street": "1 DUNCAN STATION RD", "postcode": "15134"}}},
{"geometry": {"type": "Point", "coordinates": [-79.8037517134, 40.3123092385]}, "type": "Feature", "properties": {"collection_times": [{"days": "Mon-Sat", "time": "1:15pm"}, {"days": "Sun", "time": "Closed"}], "id": "1513400099", "name": "USPS COLLECTION BOX - BLUE BOX", "address": {"city": "MCKEESPORT", "state": "PA", "street": "1129 GREENOCK BUENA VISTA RD", "postcode": "15134"}}},
{"geometry": {"type": "Point", "coordinates": [-79.8252335532, 40.2915186743]}, "type": "Feature", "properties": {"collection_times": [{"days": "Mon-Sat", "time": "1:00pm"}, {"days": "Sun", "time": "Closed"}], "id": "1513400102", "name": "USPS COLLECTION BOX - BLUE BOX", "address": {"city": "MCKEESPORT", "state": "PA", "street": "2015 DEVONWOOD DR", "postcode": "15134"}}},
{"geometry": {"type": "Point", "coordinates": [-79.8099586991, 40.3388217149]}, "type": "Feature", "properties": {"collection_times": [{"days": "Mon-Fri", "time": "4:30pm"}, {"days": "Sat", "time": "11:45am"}, {"days": "Sun", "time": "Closed"}], "id": "1513400108", "name": "USPS COLLECTION BOX - BLUE BOX", "address": {"city": "MCKEESPORT", "state": "PA", "street": "2280 LINCOLN WAY", "postcode": "15134"}}},
{"geometry": {"type": "Point", "coordinates": [-79.837350335, 40.3240088099]}, "type": "Feature", "properties": {"collection_times": [{"days": "Mon-Fri", "time": "4:00pm"}, {"days": "Sat", "time": "2:00pm"}, {"days": "Sun", "time": "Closed"}], "id": "1513400112", "name": "USPS COLLECTION BOX - BLUE BOX", "address": {"city": "MCKEESPORT", "state": "PA", "street": "318 LONG RUN RD", "postcode": "15134"}}},
{"geometry": {"type": "Point", "coordinates": [-79.8638957131, 40.3511221222]}, "type": "Feature", "properties": {"collection_times": [{"days": "Mon-Sat", "time": "2:45pm"}, {"days": "Sun", "time": "Closed"}], "id": "1513400116", "name": "USPS COLLECTION BOX - BLUE BOX", "address": {"city": "MCKEESPORT", "state": "PA", "street": "332 5TH AVE", "postcode": "15134"}}},
{"geometry": {"type": "Point", "coordinates": [-79.8145639583, 40.3441663235]}, "type": "Feature", "properties": {"collection_times": [{"days": "Mon-Fri", "time": "4:30pm"}, {"days": "Sat", "time": "11:15am"}, {"days": "Sun", "time": "Closed"}], "id": "1513400121", "name": "USPS COLLECTION BOX - BLUE BOX", "address": {"city": "MCKEESPORT", "state": "PA", "street": "1735 LINCOLN WAY", "postcode": "15134"}}},
{"geometry": {"type": "Point", "coordinates": [-79.8366415215, 40.3211814308]}, "type": "Feature", "properties": {"collection_times": [{"days": "Mon-Sat", "time": "11:30am"}, {"days": "Sun", "time": "Closed"}], "id": "1513400122", "name": "USPS COLLECTION BOX - BLUE BOX", "address": {"city": "MCKEESPORT", "state": "PA", "street": "4304 WALNUT ST", "postcode": "15134"}}},
{"geometry": {"type": "Point", "coordinates": [-79.8641786263, 40.3473207114]}, "type": "Feature", "properties": {"collection_times": [{"days": "Mon-Fri", "time": "5:00pm"}, {"days": "Sat", "time": "4:45pm"}, {"days": "Sun", "time": "Closed"}], "id": "1513400132", "name": "USPS COLLECTION BOX - BLUE BOX", "address": {"city": "MCKEESPORT", "state": "PA", "street": "850 WALNUT ST", "postcode": "15134"}}},
{"geometry": {"type": "Point", "coordinates": [-79.8254507297, 40.3111286455]}, "type": "Feature", "properties": {"collection_times": [{"days": "Mon-Fri", "time": "4:30pm"}, {"days": "Sat", "time": "12:00pm"}, {"days": "Sun", "time": "Closed"}], "id": "1513400134", "name": "USPS COLLECTION BOX - BLUE BOX", "address": {"city": "MCKEESPORT", "state": "PA", "street": "5727 SMITHFIELD ST", "postcode": "15134"}}},
{"geometry": {"type": "Point", "coordinates": [-79.8232539749, 40.3533011326]}, "type": "Feature", "properties": {"collection_times": [{"days": "Mon-Fri", "time": "4:45pm"}, {"days": "Sat", "time": "11:30am"}, {"days": "Sun", "time": "Closed"}], "id": "1513400135", "name": "USPS COLLECTION BOX - BLUE BOX", "address": {"city": "MCKEESPORT", "state": "PA", "street": "1133 LINCOLN WAY", "postcode": "15134"}}},
{"geometry": {"type": "Point", "coordinates": [-79.8556036665, 40.3222491607]}, "type": "Feature", "properties": {"collection_times": [{"days": "Mon-Sat", "time": "10:00am"}, {"days": "Sun", "time": "Closed"}], "id": "1513400147", "name": "USPS COLLECTION BOX - BLUE BOX", "address": {"city": "MCKEESPORT", "state": "PA", "street": "600 SCENERIDGE RD", "postcode": "15134"}}},
{"geometry": {"type": "Point", "coordinates": [-79.82592642, 40.3109111592]}, "type": "Feature", "properties": {"collection_times": [{"days": "Mon-Fri", "time": "4:30pm"}, {"days": "Sat", "time": "12:00pm"}, {"days": "Sun", "time": "Closed"}], "id": "1513400149", "name": "USPS COLLECTION BOX - PO LOBBY", "address": {"city": "MCKEESPORT", "state": "PA", "street": "5727 SMITHFIELD ST LBBY", "postcode": "15134"}}},
{"geometry": {"type": "Point", "coordinates": [-79.8642996941, 40.3475614001]}, "type": "Feature", "properties": {"collection_times": [{"days": "Mon-Fri", "time": "5:00pm"}, {"days": "Sat", "time": "4:45pm"}, {"days": "Sun", "time": "Closed"}], "id": "1513400150", "name": "USPS COLLECTION BOX - PO LOBBY", "address": {"city": "MCKEESPORT", "state": "PA", "street": "850 WALNUT ST LBBY", "postcode": "15134"}}},
{"geometry": {"type": "Point", "coordinates": [-79.8642996941, 40.3475614001]}, "type": "Feature", "properties": {"collection_times": [{"days": "Mon-Fri", "time": "5:00pm"}, {"days": "Sat", "time": "4:45pm"}, {"days": "Sun", "time": "Closed"}], "id": "1513400155", "name": "USPS COLLECTION BOX - PO LOBBY", "address": {"city": "MCKEESPORT", "state": "PA", "street": "850 WALNUT ST LBBY", "postcode": "15134"}}},
{"geometry": {"type": "Point", "coordinates": [-79.8047737899, 40.3348883763]}, "type": "Feature", "properties": {"collection_times": [{"days": "Mon-Fri", "time": "4:30pm"}, {"days": "Sat", "time": "11:45am"}, {"days": "Sun", "time": "Closed"}], "id": "1513400157", "name": "USPS COLLECTION BOX - BLUE BOX", "address": {"city": "MCKEESPORT", "state": "PA", "street": "2001 LINCOLN WAY", "postcode": "15134"}}},
{"geometry": {"type": "Point", "coordinates": [-79.8653850584, 40.3469167031]}, "type": "Feature", "properties": {"collection_times": [{"days": "Mon-Fri", "time": "5:00pm"}, {"days": "Sat", "time": "4:45pm"}, {"days": "Sun", "time": "Closed"}], "id": "1513400158", "name": "USPS COLLECTION BOX - BLUE BOX", "address": {"city": "MCKEESPORT", "state": "PA", "street": "206 9TH ST REAR", "postcode": "15134"}}},
{"geometry": {"type": "Point", "coordinates": [-79.8232539749, 40.3533011326]}, "type": "Feature", "properties": {"collection_times": [{"days": "Mon-Fri", "time": "4:45pm"}, {"days": "Sat", "time": "11:30am"}, {"days": "Sun", "time": "Closed"}], "id": "1513400162", "name": "USPS COLLECTION BOX - BLUE BOX", "address": {"city": "MCKEESPORT", "state": "PA", "street": "1133 LINCOLN WAY", "postcode": "15134"}}},
{"geometry": {"type": "Point", "coordinates": [-79.8302542791, 40.3494109034]}, "type": "Feature", "properties": {"collection_times": [{"days": "Mon-Fri", "time": "4:00pm"}, {"days": "Sat", "time": "10:45am"}, {"days": "Sun", "time": "Closed"}], "id": "1513400163", "name": "USPS COLLECTION BOX - BLUE BOX", "address": {"city": "MCKEESPORT", "state": "PA", "street": "687 ONEIL BLVD", "postcode": "15134"}}},
{"geometry": {"type": "Point", "coordinates": [-80.064494185, 40.465803453]}, "type": "Feature", "properties": {"collection_times": [{"days": "Mon-Fri", "time": "5:00pm"}, {"days": "Sat", "time": "3:00pm"}, {"days": "Sun", "time": "Closed"}], "id": "1513600001", "name": "USPS COLLECTION BOX - BLUE BOX", "address": {"city": "MCKEES ROCKS", "state": "PA", "street": "807 CHARTIERS AVE", "postcode": "15136"}}},
{"geometry": {"type": "Point", "coordinates": [-80.1437400347, 40.4462923539]}, "type": "Feature", "properties": {"collection_times": [{"days": "Mon-Fri", "time": "11:00am"}, {"days": "Sat", "time": "10:00am"}, {"days": "Sun", "time": "Closed"}], "id": "1513600007", "name": "USPS COLLECTION BOX - BLUE BOX", "address": {"city": "MCKEES ROCKS", "state": "PA", "street": "5992 STEUBENVILLE PIKE", "postcode": "15136"}}},
{"geometry": {"type": "Point", "coordinates": [-80.130914433, 40.4514742627]}, "type": "Feature", "properties": {"collection_times": [{"days": "Mon-Fri", "time": "12:00pm"}, {"days": "Sat", "time": "10:00am"}, {"days": "Sun", "time": "Closed"}], "id": "1513600009", "name": "USPS COLLECTION BOX - BLUE BOX", "address": {"city": "MCKEES ROCKS", "state": "PA", "street": "5633 STEUBENVILLE PIKE", "postcode": "15136"}}},
{"geometry": {"type": "Point", "coordinates": [-80.0537439894, 40.4652664049]}, "type": "Feature", "properties": {"collection_times": [{"days": "Mon-Fri", "time": "4:45pm"}, {"days": "Sat", "time": "10:00am"}, {"days": "Sun", "time": "Closed"}], "id": "1513600013", "name": "USPS COLLECTION BOX - BLUE BOX", "address": {"city": "MCKEES ROCKS", "state": "PA", "street": "4 RIVER RD", "postcode": "15136"}}},
{"geometry": {"type": "Point", "coordinates": [-80.0586201292, 40.4662550348]}, "type": "Feature", "properties": {"collection_times": [{"days": "Mon-Sat", "time": "3:00pm"}, {"days": "Sun", "time": "Closed"}], "id": "1513600014", "name": "USPS COLLECTION BOX - BLUE BOX", "address": {"city": "MCKEES ROCKS", "state": "PA", "street": "340 LINDEN AVE", "postcode": "15136"}}},
{"geometry": {"type": "Point", "coordinates": [-80.0608339145, 40.4711933265]}, "type": "Feature", "properties": {"collection_times": [{"days": "Mon-Fri", "time": "4:45pm"}, {"days": "Sat", "time": "2:30pm"}, {"days": "Sun", "time": "Closed"}], "id": "1513600016", "name": "USPS COLLECTION BOX - BLUE BOX", "address": {"city": "MCKEES ROCKS", "state": "PA", "street": "526 ISLAND AVE", "postcode": "15136"}}},
{"geometry": {"type": "Point", "coordinates": [-80.057362737, 40.4738458341]}, "type": "Feature", "properties": {"collection_times": [{"days": "Mon-Sat", "time": "2:45pm"}, {"days": "Sun", "time": "Closed"}], "id": "1513600019", "name": "USPS COLLECTION BOX - BLUE BOX", "address": {"city": "MCKEES ROCKS", "state": "PA", "street": "116 ELLA ST", "postcode": "15136"}}},
{"geometry": {"type": "Point", "coordinates": [-80.0681667012, 40.4649771907]}, "type": "Feature", "properties": {"collection_times": [{"days": "Mon-Sat", "time": "1:45pm"}, {"days": "Sun", "time": "Closed"}], "id": "1513600023", "name": "USPS COLLECTION BOX - BLUE BOX", "address": {"city": "MCKEES ROCKS", "state": "PA", "street": "1100 CHARTIERS AVE", "postcode": "15136"}}},
{"geometry": {"type": "Point", "coordinates": [-80.0709467238, 40.4705404886]}, "type": "Feature", "properties": {"collection_times": [{"days": "Mon-Fri", "time": "4:15pm"}, {"days": "Sat", "time": "2:00pm"}, {"days": "Sun", "time": "Closed"}], "id": "1513600024", "name": "USPS COLLECTION BOX - BLUE BOX", "address": {"city": "MCKEES ROCKS", "state": "PA", "street": "555 BROADWAY AVE", "postcode": "15136"}}},
{"geometry": {"type": "Point", "coordinates": [-80.0927979596, 40.472446851]}, "type": "Feature", "properties": {"collection_times": [{"days": "Mon-Sat", "time": "2:00pm"}, {"days": "Sun", "time": "Closed"}], "id": "1513600026", "name": "USPS COLLECTION BOX - BLUE BOX", "address": {"city": "MCKEES ROCKS", "state": "PA", "street": "25 HECKEL RD", "postcode": "15136"}}},
{"geometry": {"type": "Point", "coordinates": [-80.0764664426, 40.4697409735]}, "type": "Feature", "properties": {"collection_times": [{"days": "Mon-Fri", "time": "2:00pm"}, {"days": "Sat", "time": "12:00pm"}, {"days": "Sun", "time": "Closed"}], "id": "1513600027", "name": "USPS COLLECTION BOX - BLUE BOX", "address": {"city": "MCKEES ROCKS", "state": "PA", "street": "1800 PINE HOLLOW RD", "postcode": "15136"}}},
{"geometry": {"type": "Point", "coordinates": [-80.0853176809, 40.4694500803]}, "type": "Feature", "properties": {"collection_times": [{"days": "Mon-Fri", "time": "4:30pm"}, {"days": "Sat", "time": "2:00pm"}, {"days": "Sun", "time": "Closed"}], "id": "1513600028", "name": "USPS COLLECTION BOX - BLUE BOX", "address": {"city": "MCKEES ROCKS", "state": "PA", "street": "544 PINE HOLLOW RD", "postcode": "15136"}}},
{"geometry": {"type": "Point", "coordinates": [-80.0760783308, 40.4684113206]}, "type": "Feature", "properties": {"collection_times": [{"days": "Mon-Sat", "time": "1:45pm"}, {"days": "Sun", "time": "Closed"}], "id": "1513600035", "name": "USPS COLLECTION BOX - BLUE BOX", "address": {"city": "MCKEES ROCKS", "state": "PA", "street": "240 SINGER AVE", "postcode": "15136"}}},
{"geometry": {"type": "Point", "coordinates": [-80.0980552553, 40.4687313234]}, "type": "Feature", "properties": {"collection_times": [{"days": "Mon-Fri", "time": "4:30pm"}, {"days": "Sat", "time": "2:00pm"}, {"days": "Sun", "time": "Closed"}], "id": "1513600050", "name": "USPS COLLECTION BOX - BLUE BOX", "address": {"city": "MCKEES ROCKS", "state": "PA", "street": "1807 MCKEES ROCKS RD", "postcode": "15136"}}},
{"geometry": {"type": "Point", "coordinates": [-80.0656687845, 40.4826746669]}, "type": "Feature", "properties": {"collection_times": [{"days": "Mon-Fri", "time": "4:45pm"}, {"days": "Sat", "time": "2:00pm"}, {"days": "Sun", "time": "Closed"}], "id": "1513600051", "name": "USPS COLLECTION BOX - BLUE BOX", "address": {"city": "MCKEES ROCKS", "state": "PA", "street": "149 NICHOL AVE", "postcode": "15136"}}},
{"geometry": {"type": "Point", "coordinates": [-80.0650223445, 40.4658101409]}, "type": "Feature", "properties": {"collection_times": [{"days": "Mon-Fri", "time": "5:00pm"}, {"days": "Sat", "time": "3:00pm"}, {"days": "Sun", "time": "Closed"}], "id": "1513600054", "name": "USPS COLLECTION BOX - PO LOBBY", "address": {"city": "MCKEES ROCKS", "state": "PA", "street": "807 CHARTIERS AVE LBBY METERED", "postcode": "15136"}}},
{"geometry": {"type": "Point", "coordinates": [-80.0588795675, 40.4647729324]}, "type": "Feature", "properties": {"collection_times": [{"days": "Mon-Fri", "time": "3:00pm"}, {"days": "Sat", "time": "2:00pm"}, {"days": "Sun", "time": "Closed"}], "id": "1513600055", "name": "USPS COLLECTION BOX - BLUE BOX", "address": {"city": "MCKEES ROCKS", "state": "PA", "street": "519 CHARTIERS AVE", "postcode": "15136"}}},
{"geometry": {"type": "Point", "coordinates": [-80.0650223445, 40.4658101409]}, "type": "Feature", "properties": {"collection_times": [{"days": "Mon-Fri", "time": "5:00pm"}, {"days": "Sat", "time": "3:00pm"}, {"days": "Sun", "time": "Closed"}], "id": "1513600057", "name": "USPS COLLECTION BOX - PO LOBBY", "address": {"city": "MCKEES ROCKS", "state": "PA", "street": "807 CHARTIERS AVE LBBY STAMPED", "postcode": "15136"}}},
{"geometry": {"type": "Point", "coordinates": [-79.7911264319, 40.3757086048]}, "type": "Feature", "properties": {"collection_times": [{"days": "Mon-Fri", "time": "5:00pm"}, {"days": "Sat", "time": "3:30pm"}, {"days": "Sun", "time": "Closed"}], "id": "1513700001", "name": "USPS COLLECTION BOX - BLUE BOX", "address": {"city": "N VERSAILLES", "state": "PA", "street": "353 LINCOLN HWY", "postcode": "15137"}}},
{"geometry": {"type": "Point", "coordinates": [-79.8098214758, 40.3794445257]}, "type": "Feature", "properties": {"collection_times": [{"days": "Mon-Sat", "time": "2:00pm"}, {"days": "Sun", "time": "Closed"}], "id": "1513700004", "name": "USPS COLLECTION BOX - BLUE BOX", "address": {"city": "N VERSAILLES", "state": "PA", "street": "100 GRAHAM AVE", "postcode": "15137"}}},
{"geometry": {"type": "Point", "coordinates": [-79.7981456708, 40.3676421441]}, "type": "Feature", "properties": {"collection_times": [{"days": "Mon-Sat", "time": "1:15pm"}, {"days": "Sun", "time": "Closed"}], "id": "1513700006", "name": "USPS COLLECTION BOX - BLUE BOX", "address": {"city": "N VERSAILLES", "state": "PA", "street": "125 ARLENE DR", "postcode": "15137"}}},
{"geometry": {"type": "Point", "coordinates": [-79.8194519447, 40.3838841707]}, "type": "Feature", "properties": {"collection_times": [{"days": "Mon-Sat", "time": "2:30pm"}, {"days": "Sun", "time": "Closed"}], "id": "1513700012", "name": "USPS COLLECTION BOX - BLUE BOX", "address": {"city": "N VERSAILLES", "state": "PA", "street": "1401 GREENSBURG AVE", "postcode": "15137"}}},
{"geometry": {"type": "Point", "coordinates": [-79.7861875884, 40.3704581403]}, "type": "Feature", "properties": {"collection_times": [{"days": "Mon-Sat", "time": "2:15pm"}, {"days": "Sun", "time": "Closed"}], "id": "1513700014", "name": "USPS COLLECTION BOX - BLUE BOX", "address": {"city": "N VERSAILLES", "state": "PA", "street": "1701 LINCOLN HWY", "postcode": "15137"}}},
{"geometry": {"type": "Point", "coordinates": [-79.7781027971, 40.3668259024]}, "type": "Feature", "properties": {"collection_times": [{"days": "Mon-Sat", "time": "2:15pm"}, {"days": "Sun", "time": "Closed"}], "id": "1513700019", "name": "USPS COLLECTION BOX - BLUE BOX", "address": {"city": "N VERSAILLES", "state": "PA", "street": "1901 LINCOLN HWY", "postcode": "15137"}}},
{"geometry": {"type": "Point", "coordinates": [-79.7911264319, 40.3757086048]}, "type": "Feature", "properties": {"collection_times": [{"days": "Mon-Fri", "time": "5:00pm"}, {"days": "Sat", "time": "3:30pm"}, {"days": "Sun", "time": "Closed"}], "id": "1513700029", "name": "USPS COLLECTION BOX - BLUE BOX", "address": {"city": "N VERSAILLES", "state": "PA", "street": "353 LINCOLN HWY", "postcode": "15137"}}},
{"geometry": {"type": "Point", "coordinates": [-79.8186202003, 40.3819086644]}, "type": "Feature", "properties": {"collection_times": [{"days": "Mon-Fri", "time": "5:00pm"}, {"days": "Sat", "time": "3:30pm"}, {"days": "Sun", "time": "Closed"}], "id": "1513700032", "name": "USPS COLLECTION BOX - PO LOBBY", "address": {"city": "N VERSAILLES", "state": "PA", "street": "353 LINCOLN HWY LBBY", "postcode": "15137"}}},
{"geometry": {"type": "Point", "coordinates": [-79.8186202003, 40.3819086644]}, "type": "Feature", "properties": {"collection_times": [{"days": "Mon-Fri", "time": "5:00pm"}, {"days": "Sat", "time": "3:30pm"}, {"days": "Sun", "time": "Closed"}], "id": "1513700033", "name": "USPS COLLECTION BOX - PO LOBBY", "address": {"city": "N VERSAILLES", "state": "PA", "street": "353 LINCOLN HWY LBBY", "postcode": "15137"}}},
{"geometry": {"type": "Point", "coordinates": [-79.8228368617, 40.386389133]}, "type": "Feature", "properties": {"collection_times": [{"days": "Mon-Sat", "time": "2:30pm"}, {"days": "Sun", "time": "Closed"}], "id": "1513700034", "name": "USPS COLLECTION BOX - BLUE BOX", "address": {"city": "N VERSAILLES", "state": "PA", "street": "100 WALMART DR", "postcode": "15137"}}},
{"geometry": {"type": "Point", "coordinates": [-79.8388188967, 40.522193501]}, "type": "Feature", "properties": {"collection_times": [{"days": "Mon-Fri", "time": "4:45pm"}, {"days": "Sat", "time": "1:00pm"}, {"days": "Sun", "time": "Closed"}], "id": "1513900001", "name": "USPS COLLECTION BOX - BLUE BOX", "address": {"city": "OAKMONT", "state": "PA", "street": "530 ALLEGHENY RIVER BLVD", "postcode": "15139"}}},
{"geometry": {"type": "Point", "coordinates": [-79.8387176145, 40.5231125261]}, "type": "Feature", "properties": {"collection_times": [{"days": "Mon-Fri", "time": "1:30pm"}, {"days": "Sat", "time": "12:00pm"}, {"days": "Sun", "time": "Closed"}], "id": "1513900002", "name": "USPS COLLECTION BOX - BLUE BOX", "address": {"city": "OAKMONT", "state": "PA", "street": "769 5TH ST", "postcode": "15139"}}},
{"geometry": {"type": "Point", "coordinates": [-79.8484320735, 40.5166180814]}, "type": "Feature", "properties": {"collection_times": [{"days": "Mon-Fri", "time": "1:30pm"}, {"days": "Sat", "time": "12:00pm"}, {"days": "Sun", "time": "Closed"}], "id": "1513900003", "name": "USPS COLLECTION BOX - BLUE BOX", "address": {"city": "OAKMONT", "state": "PA", "street": "101 WASHINGTON AVE", "postcode": "15139"}}},
{"geometry": {"type": "Point", "coordinates": [-79.8427046104, 40.5161618902]}, "type": "Feature", "properties": {"collection_times": [{"days": "Mon-Fri", "time": "1:30pm"}, {"days": "Sat", "time": "12:00pm"}, {"days": "Sun", "time": "Closed"}], "id": "1513900005", "name": "USPS COLLECTION BOX - BLUE BOX", "address": {"city": "OAKMONT", "state": "PA", "street": "346 WASHINGTON AVE", "postcode": "15139"}}},
{"geometry": {"type": "Point", "coordinates": [-79.8321303271, 40.5206362264]}, "type": "Feature", "properties": {"collection_times": [{"days": "Mon-Fri", "time": "1:30pm"}, {"days": "Sat", "time": "12:00pm"}, {"days": "Sun", "time": "Closed"}], "id": "1513900006", "name": "USPS COLLECTION BOX - BLUE BOX", "address": {"city": "OAKMONT", "state": "PA", "street": "701 10TH ST", "postcode": "15139"}}},
{"geometry": {"type": "Point", "coordinates": [-79.8383171533, 40.5198912492]}, "type": "Feature", "properties": {"collection_times": [{"days": "Mon-Fri", "time": "1:30pm"}, {"days": "Sat", "time": "12:00pm"}, {"days": "Sun", "time": "Closed"}], "id": "1513900009", "name": "USPS COLLECTION BOX - BLUE BOX", "address": {"city": "OAKMONT", "state": "PA", "street": "666 ALLEGHENY RIVER BLVD", "postcode": "15139"}}},
{"geometry": {"type": "Point", "coordinates": [-79.8388188967, 40.522193501]}, "type": "Feature", "properties": {"collection_times": [{"days": "Mon-Fri", "time": "4:45pm"}, {"days": "Sat", "time": "1:00pm"}, {"days": "Sun", "time": "Closed"}], "id": "1513900011", "name": "USPS COLLECTION BOX - BLUE BOX", "address": {"city": "OAKMONT", "state": "PA", "street": "530 ALLEGHENY RIVER BLVD", "postcode": "15139"}}},
{"geometry": {"type": "Point", "coordinates": [-79.8426462212, 40.5186610515]}, "type": "Feature", "properties": {"collection_times": [{"days": "Mon-Fri", "time": "4:45pm"}, {"days": "Sat", "time": "1:00pm"}, {"days": "Sun", "time": "Closed"}], "id": "1513900014", "name": "USPS COLLECTION BOX - PO LOBBY", "address": {"city": "OAKMONT", "state": "PA", "street": "530 ALLEGHENY RIVER BLVD LBBY", "postcode": "15139"}}},
{"geometry": {"type": "Point", "coordinates": [-79.8426462212, 40.5186610515]}, "type": "Feature", "properties": {"collection_times": [{"days": "Mon-Fri", "time": "4:45pm"}, {"days": "Sat", "time": "1:00pm"}, {"days": "Sun", "time": "Closed"}], "id": "1513900015", "name": "USPS COLLECTION BOX - PO LOBBY", "address": {"city": "OAKMONT", "state": "PA", "street": "530 ALLEGHENY RIVER BLVD LBBY", "postcode": "15139"}}},
{"geometry": {"type": "Point", "coordinates": [-79.8426462212, 40.5186610515]}, "type": "Feature", "properties": {"collection_times": [{"days": "Mon-Fri", "time": "4:45pm"}, {"days": "Sat", "time": "1:00pm"}, {"days": "Sun", "time": "Closed"}], "id": "1513900016", "name": "USPS COLLECTION BOX - PO LOBBY", "address": {"city": "OAKMONT", "state": "PA", "street": "530 ALLEGHENY RIVER BLVD LBBY", "postcode": "15139"}}},
{"geometry": {"type": "Point", "coordinates": [-79.8418418091, 40.5240151238]}, "type": "Feature", "properties": {"collection_times": [{"days": "Mon-Sat", "time": "3:30pm"}, {"days": "Sun", "time": "Closed"}], "id": "1513900018", "name": "USPS COLLECTION BOX - BLUE BOX", "address": {"city": "OAKMONT", "state": "PA", "street": "803 ALLEGHENY AVE", "postcode": "15139"}}},
{"geometry": {"type": "Point", "coordinates": [-79.7833551349, 40.4008430704]}, "type": "Feature", "properties": {"collection_times": [{"days": "Mon-Sat", "time": "9:00am"}, {"days": "Sun", "time": "Closed"}], "id": "1514000003", "name": "USPS COLLECTION BOX - BLUE BOX", "address": {"city": "PITCAIRN", "state": "PA", "street": "270 BROADWAY ST", "postcode": "15140"}}},
{"geometry": {"type": "Point", "coordinates": [-79.7783997198, 40.4032089884]}, "type": "Feature", "properties": {"collection_times": [{"days": "Mon-Sat", "time": "10:00am"}, {"days": "Sun", "time": "Closed"}], "id": "1514000004", "name": "USPS COLLECTION BOX - BLUE BOX", "address": {"city": "PITCAIRN", "state": "PA", "street": "487 3RD ST", "postcode": "15140"}}},
{"geometry": {"type": "Point", "coordinates": [-79.7770296032, 40.4019927545]}, "type": "Feature", "properties": {"collection_times": [{"days": "Mon-Fri", "time": "4:30pm"}, {"days": "Sat", "time": "12:00pm"}, {"days": "Sun", "time": "Closed"}], "id": "1514000009", "name": "USPS COLLECTION BOX - BLUE BOX", "address": {"city": "PITCAIRN", "state": "PA", "street": "540 BROADWAY ST", "postcode": "15140"}}},
{"geometry": {"type": "Point", "coordinates": [-79.7770296032, 40.4019927545]}, "type": "Feature", "properties": {"collection_times": [{"days": "Mon-Fri", "time": "4:30pm"}, {"days": "Sat", "time": "12:00pm"}, {"days": "Sun", "time": "Closed"}], "id": "1514000012", "name": "USPS COLLECTION BOX - PO LOBBY", "address": {"city": "PITCAIRN", "state": "PA", "street": "540 BROADWAY ST LBBY", "postcode": "15140"}}},
{"geometry": {"type": "Point", "coordinates": [-80.132778211, 40.373374161]}, "type": "Feature", "properties": {"collection_times": [{"days": "Mon-Fri", "time": "4:30pm"}, {"days": "Sat", "time": "12:00pm"}, {"days": "Sun", "time": "Closed"}], "id": "1514200001", "name": "USPS COLLECTION BOX - BLUE BOX", "address": {"city": "PRESTO", "state": "PA", "street": "5234 THOMS RUN RD", "postcode": "15142"}}},
{"geometry": {"type": "Point", "coordinates": [-80.1334587132, 40.3897435376]}, "type": "Feature", "properties": {"collection_times": [{"days": "Mon-Sat", "time": "9:00am"}, {"days": "Sun", "time": "Closed"}], "id": "1514200002", "name": "USPS COLLECTION BOX - BLUE BOX", "address": {"city": "PRESTO", "state": "PA", "street": "2418 HILLTOP RD", "postcode": "15142"}}},
{"geometry": {"type": "Point", "coordinates": [-80.128074346, 40.386132996]}, "type": "Feature", "properties": {"collection_times": [{"days": "Mon-Sat", "time": "9:00am"}, {"days": "Sun", "time": "Closed"}], "id": "1514200003", "name": "USPS COLLECTION BOX - BLUE BOX", "address": {"city": "PRESTO", "state": "PA", "street": "1001 MERIDIAN DR", "postcode": "15142"}}},
{"geometry": {"type": "Point", "coordinates": [-80.132778211, 40.373374161]}, "type": "Feature", "properties": {"collection_times": [{"days": "Mon-Fri", "time": "4:30pm"}, {"days": "Sat", "time": "12:00pm"}, {"days": "Sun", "time": "Closed"}], "id": "1514200004", "name": "USPS COLLECTION BOX - BLUE BOX", "address": {"city": "PRESTO", "state": "PA", "street": "5234 THOMS RUN RD", "postcode": "15142"}}},
{"geometry": {"type": "Point", "coordinates": [-80.1272412248, 40.3724408198]}, "type": "Feature", "properties": {"collection_times": [{"days": "Mon-Fri", "time": "4:30pm"}, {"days": "Sat", "time": "12:00pm"}, {"days": "Sun", "time": "Closed"}], "id": "1514200006", "name": "USPS COLLECTION BOX - PO LOBBY", "address": {"city": "PRESTO", "state": "PA", "street": "5234 THOMS RUN RD LBBY", "postcode": "15142"}}},
{"geometry": {"type": "Point", "coordinates": [-80.1758490083, 40.5341124634]}, "type": "Feature", "properties": {"collection_times": [{"days": "Mon-Fri", "time": "5:00pm"}, {"days": "Sat", "time": "3:00pm"}, {"days": "Sun", "time": "Closed"}], "id": "1514300001", "name": "USPS COLLECTION BOX - BLUE BOX", "address": {"city": "SEWICKLEY", "state": "PA", "street": "521 THORN ST", "postcode": "15143"}}},
{"geometry": {"type": "Point", "coordinates": [-80.1802841637, 40.5413692221]}, "type": "Feature", "properties": {"collection_times": [{"days": "Mon-Fri", "time": "5:00pm"}, {"days": "Sat", "time": "9:30am"}, {"days": "Sun", "time": "Closed"}], "id": "1514300002", "name": "USPS COLLECTION BOX - BLUE BOX", "address": {"city": "SEWICKLEY", "state": "PA", "street": "521 LOCUST PL", "postcode": "15143"}}},
{"geometry": {"type": "Point", "coordinates": [-80.181523744, 40.5343719295]}, "type": "Feature", "properties": {"collection_times": [{"days": "Mon-Fri", "time": "4:45pm"}, {"days": "Sat", "time": "11:00am"}, {"days": "Sun", "time": "Closed"}], "id": "1514300004", "name": "USPS COLLECTION BOX - BLUE BOX", "address": {"city": "SEWICKLEY", "state": "PA", "street": "10 PINE ST", "postcode": "15143"}}},
{"geometry": {"type": "Point", "coordinates": [-80.174520627, 40.5317978108]}, "type": "Feature", "properties": {"collection_times": [{"days": "Mon-Fri", "time": "4:45pm"}, {"days": "Sat", "time": "9:30am"}, {"days": "Sun", "time": "Closed"}], "id": "1514300005", "name": "USPS COLLECTION BOX - BLUE BOX", "address": {"city": "SEWICKLEY", "state": "PA", "street": "1106 OHIO RIVER BLVD", "postcode": "15143"}}},
{"geometry": {"type": "Point", "coordinates": [-80.1753971996, 40.5322165783]}, "type": "Feature", "properties": {"collection_times": [{"days": "Mon-Fri", "time": "4:45pm"}, {"days": "Sat", "time": "9:30am"}, {"days": "Sun", "time": "Closed"}], "id": "1514300006", "name": "USPS COLLECTION BOX - BLUE BOX", "address": {"city": "SEWICKLEY", "state": "PA", "street": "1099 OHIO RIVER BLVD", "postcode": "15143"}}},
{"geometry": {"type": "Point", "coordinates": [-80.1945386586, 40.5463943415]}, "type": "Feature", "properties": {"collection_times": [{"days": "Mon-Fri", "time": "3:30pm"}, {"days": "Sat", "time": "9:00am"}, {"days": "Sun", "time": "Closed"}], "id": "1514300007", "name": "USPS COLLECTION BOX - BLUE BOX", "address": {"city": "SEWICKLEY", "state": "PA", "street": "301 OHIO RIVER BLVD", "postcode": "15143"}}},
{"geometry": {"type": "Point", "coordinates": [-80.1060053251, 40.5529164531]}, "type": "Feature", "properties": {"collection_times": [{"days": "Mon-Sat", "time": "11:00am"}, {"days": "Sun", "time": "Closed"}], "id": "1514300008", "name": "USPS COLLECTION BOX - BLUE BOX", "address": {"city": "SEWICKLEY", "state": "PA", "street": "1520 MOUNT NEBO RD", "postcode": "15143"}}},
{"geometry": {"type": "Point", "coordinates": [-80.1840471596, 40.5369831986]}, "type": "Feature", "properties": {"collection_times": [{"days": "Mon-Fri", "time": "4:45pm"}, {"days": "Sat", "time": "9:30am"}, {"days": "Sun", "time": "Closed"}], "id": "1514300009", "name": "USPS COLLECTION BOX - BLUE BOX", "address": {"city": "SEWICKLEY", "state": "PA", "street": "200 BROAD ST", "postcode": "15143"}}},
{"geometry": {"type": "Point", "coordinates": [-80.1830710544, 40.5402287594]}, "type": "Feature", "properties": {"collection_times": [{"days": "Mon-Fri", "time": "5:00pm"}, {"days": "Sat", "time": "12:00pm"}, {"days": "Sun", "time": "Closed"}], "id": "1514300010", "name": "USPS COLLECTION BOX - BLUE BOX", "address": {"city": "SEWICKLEY", "state": "PA", "street": "345 THORN ST", "postcode": "15143"}}},
{"geometry": {"type": "Point", "coordinates": [-80.1839064796, 40.5447935691]}, "type": "Feature", "properties": {"collection_times": [{"days": "Mon-Fri", "time": "3:30pm"}, {"days": "Sat", "time": "12:00pm"}, {"days": "Sun", "time": "Closed"}], "id": "1514300012", "name": "USPS COLLECTION BOX - BLUE BOX", "address": {"city": "SEWICKLEY", "state": "PA", "street": "136 CENTENNIAL AVE", "postcode": "15143"}}},
{"geometry": {"type": "Point", "coordinates": [-80.1796440222, 40.5407267851]}, "type": "Feature", "properties": {"collection_times": [{"days": "Mon-Fri", "time": "5:00pm"}, {"days": "Sat", "time": "10:00am"}, {"days": "Sun", "time": "Closed"}], "id": "1514300013", "name": "USPS COLLECTION BOX - BLUE BOX", "address": {"city": "SEWICKLEY", "state": "PA", "street": "527 BROAD ST", "postcode": "15143"}}},
{"geometry": {"type": "Point", "coordinates": [-80.1781437246, 40.5416804228]}, "type": "Feature", "properties": {"collection_times": [{"days": "Mon-Fri", "time": "4:45pm"}, {"days": "Sat", "time": "9:30am"}, {"days": "Sun", "time": "Closed"}], "id": "1514300015", "name": "USPS COLLECTION BOX - BLUE BOX", "address": {"city": "SEWICKLEY", "state": "PA", "street": "701 BROAD ST", "postcode": "15143"}}},
{"geometry": {"type": "Point", "coordinates": [-80.1801346232, 40.5427817376]}, "type": "Feature", "properties": {"collection_times": [{"days": "Mon-Fri", "time": "4:30pm"}, {"days": "Sat", "time": "10:00am"}, {"days": "Sun", "time": "Closed"}], "id": "1514300016", "name": "USPS COLLECTION BOX - BLUE BOX", "address": {"city": "SEWICKLEY", "state": "PA", "street": "625 BLACKBURN RD", "postcode": "15143"}}},
{"geometry": {"type": "Point", "coordinates": [-80.1813959845, 40.5410887705]}, "type": "Feature", "properties": {"collection_times": [{"days": "Mon-Fri", "time": "5:00pm"}, {"days": "Sat", "time": "10:00am"}, {"days": "Sun", "time": "Closed"}], "id": "1514300020", "name": "USPS COLLECTION BOX - BLUE BOX", "address": {"city": "SEWICKLEY", "state": "PA", "street": "400 BEAVER ST", "postcode": "15143"}}},
{"geometry": {"type": "Point", "coordinates": [-80.1806699806, 40.5404067398]}, "type": "Feature", "properties": {"collection_times": [{"days": "Mon-Fri", "time": "5:00pm"}, {"days": "Sat", "time": "10:00am"}, {"days": "Sun", "time": "Closed"}], "id": "1514300021", "name": "USPS COLLECTION BOX - BLUE BOX", "address": {"city": "SEWICKLEY", "state": "PA", "street": "438 BEAVER ST", "postcode": "15143"}}},
{"geometry": {"type": "Point", "coordinates": [-80.1579312998, 40.6094735266]}, "type": "Feature", "properties": {"collection_times": [{"days": "Mon-Sat", "time": "11:00am"}, {"days": "Sun", "time": "Closed"}], "id": "1514300024", "name": "USPS COLLECTION BOX - BLUE BOX", "address": {"city": "SEWICKLEY", "state": "PA", "street": "2020 BIG SEWICKLEY CREEK RD", "postcode": "15143"}}},
{"geometry": {"type": "Point", "coordinates": [-80.1016172319, 40.6128624398]}, "type": "Feature", "properties": {"collection_times": [{"days": "Mon-Fri", "time": "3:30pm"}, {"days": "Sat", "time": "11:00am"}, {"days": "Sun", "time": "Closed"}], "id": "1514300028", "name": "USPS COLLECTION BOX - BLUE BOX", "address": {"city": "SEWICKLEY", "state": "PA", "street": "2593 WEXFORD BAYNE RD", "postcode": "15143"}}},
{"geometry": {"type": "Point", "coordinates": [-80.1758490083, 40.5341124634]}, "type": "Feature", "properties": {"collection_times": [{"days": "Mon-Fri", "time": "5:00pm"}, {"days": "Sat", "time": "3:00pm"}, {"days": "Sun", "time": "Closed"}], "id": "1514300030", "name": "USPS COLLECTION BOX - BLUE BOX", "address": {"city": "SEWICKLEY", "state": "PA", "street": "521 THORN ST", "postcode": "15143"}}},
{"geometry": {"type": "Point", "coordinates": [-80.1812498885, 40.5390658388]}, "type": "Feature", "properties": {"collection_times": [{"days": "Mon-Fri", "time": "5:00pm"}, {"days": "Sat", "time": "3:00pm"}, {"days": "Sun", "time": "Closed"}], "id": "1514300033", "name": "USPS COLLECTION BOX - PO LOBBY", "address": {"city": "SEWICKLEY", "state": "PA", "street": "521 THORN ST LBBY", "postcode": "15143"}}},
{"geometry": {"type": "Point", "coordinates": [-80.1040027888, 40.6106879729]}, "type": "Feature", "properties": {"collection_times": [{"days": "Mon-Fri", "time": "4:00pm"}, {"days": "Sat", "time": "11:00am"}, {"days": "Sun", "time": "Closed"}], "id": "1514300035", "name": "USPS COLLECTION BOX - BLUE BOX", "address": {"city": "SEWICKLEY", "state": "PA", "street": "2200 GEORGETOWN DR", "postcode": "15143"}}},
{"geometry": {"type": "Point", "coordinates": [-80.1579487926, 40.558692194]}, "type": "Feature", "properties": {"collection_times": [{"days": "Mon-Fri", "time": "4:00pm"}, {"days": "Sat", "time": "11:00am"}, {"days": "Sun", "time": "Closed"}], "id": "1514300036", "name": "USPS COLLECTION BOX - BLUE BOX", "address": {"city": "SEWICKLEY", "state": "PA", "street": "1600 CARMODY CT", "postcode": "15143"}}},
{"geometry": {"type": "Point", "coordinates": [-80.1040027888, 40.6106879729]}, "type": "Feature", "properties": {"collection_times": [{"days": "Mon-Fri", "time": "4:00pm"}, {"days": "Sat", "time": "11:00am"}, {"days": "Sun", "time": "Closed"}], "id": "1514300038", "name": "USPS COLLECTION BOX - BLUE BOX", "address": {"city": "SEWICKLEY", "state": "PA", "street": "2200 GEORGETOWN DR", "postcode": "15143"}}},
{"geometry": {"type": "Point", "coordinates": [-80.1579487926, 40.558692194]}, "type": "Feature", "properties": {"collection_times": [{"days": "Mon-Fri", "time": "4:00pm"}, {"days": "Sat", "time": "11:00am"}, {"days": "Sun", "time": "Closed"}], "id": "1514300039", "name": "USPS COLLECTION BOX - BLUE BOX", "address": {"city": "SEWICKLEY", "state": "PA", "street": "1600 CARMODY CT", "postcode": "15143"}}},
{"geometry": {"type": "Point", "coordinates": [-79.7820667121, 40.5435715291]}, "type": "Feature", "properties": {"collection_times": [{"days": "Mon-Fri", "time": "4:15pm"}, {"days": "Sat", "time": "3:15pm"}, {"days": "Sun", "time": "Closed"}], "id": "1514400001", "name": "USPS COLLECTION BOX - BLUE BOX", "address": {"city": "SPRINGDALE", "state": "PA", "street": "896 PITTSBURGH ST", "postcode": "15144"}}},
{"geometry": {"type": "Point", "coordinates": [-79.7842991361, 40.5453509717]}, "type": "Feature", "properties": {"collection_times": [{"days": "Mon-Sat", "time": "9:00am"}, {"days": "Sun", "time": "Closed"}], "id": "1514400002", "name": "USPS COLLECTION BOX - BLUE BOX", "address": {"city": "SPRINGDALE", "state": "PA", "street": "501 COLFAX ST", "postcode": "15144"}}},
{"geometry": {"type": "Point", "coordinates": [-79.790788849, 40.5442555517]}, "type": "Feature", "properties": {"collection_times": [{"days": "Mon-Sat", "time": "9:00am"}, {"days": "Sun", "time": "Closed"}], "id": "1514400003", "name": "USPS COLLECTION BOX - BLUE BOX", "address": {"city": "SPRINGDALE", "state": "PA", "street": "439 WASHINGTON ST", "postcode": "15144"}}},
{"geometry": {"type": "Point", "coordinates": [-79.7908444481, 40.5411396378]}, "type": "Feature", "properties": {"collection_times": [{"days": "Mon-Sat", "time": "2:00pm"}, {"days": "Sun", "time": "Closed"}], "id": "1514400004", "name": "USPS COLLECTION BOX - BLUE BOX", "address": {"city": "SPRINGDALE", "state": "PA", "street": "243 PITTSBURGH ST", "postcode": "15144"}}},
{"geometry": {"type": "Point", "coordinates": [-79.7840325797, 40.5380082933]}, "type": "Feature", "properties": {"collection_times": [{"days": "Mon-Sat", "time": "2:00pm"}, {"days": "Sun", "time": "Closed"}], "id": "1514400005", "name": "USPS COLLECTION BOX - BLUE BOX", "address": {"city": "SPRINGDALE", "state": "PA", "street": "153 COLFAX ST", "postcode": "15144"}}},
{"geometry": {"type": "Point", "coordinates": [-79.7803953716, 40.5412035175]}, "type": "Feature", "properties": {"collection_times": [{"days": "Mon-Sat", "time": "2:00pm"}, {"days": "Sun", "time": "Closed"}], "id": "1514400006", "name": "USPS COLLECTION BOX - BLUE BOX", "address": {"city": "SPRINGDALE", "state": "PA", "street": "735 PITTSBURGH ST", "postcode": "15144"}}},
{"geometry": {"type": "Point", "coordinates": [-79.7842388052, 40.5432251944]}, "type": "Feature", "properties": {"collection_times": [{"days": "Mon-Sat", "time": "9:00am"}, {"days": "Sun", "time": "Closed"}], "id": "1514400007", "name": "USPS COLLECTION BOX - BLUE BOX", "address": {"city": "SPRINGDALE", "state": "PA", "street": "376 COLFAX ST", "postcode": "15144"}}},
{"geometry": {"type": "Point", "coordinates": [-79.7733295577, 40.5425378953]}, "type": "Feature", "properties": {"collection_times": [{"days": "Mon-Sat", "time": "2:00pm"}, {"days": "Sun", "time": "Closed"}], "id": "1514400009", "name": "USPS COLLECTION BOX - BLUE BOX", "address": {"city": "SPRINGDALE", "state": "PA", "street": "1055 PITTSBURGH ST", "postcode": "15144"}}},
{"geometry": {"type": "Point", "coordinates": [-79.7820667121, 40.5435715291]}, "type": "Feature", "properties": {"collection_times": [{"days": "Mon-Fri", "time": "4:15pm"}, {"days": "Sat", "time": "3:15pm"}, {"days": "Sun", "time": "Closed"}], "id": "1514400010", "name": "USPS COLLECTION BOX - BLUE BOX", "address": {"city": "SPRINGDALE", "state": "PA", "street": "896 PITTSBURGH ST", "postcode": "15144"}}},
{"geometry": {"type": "Point", "coordinates": [-79.7778768519, 40.5414554878]}, "type": "Feature", "properties": {"collection_times": [{"days": "Mon-Fri", "time": "4:15pm"}, {"days": "Sat", "time": "12:00pm"}, {"days": "Sun", "time": "Closed"}], "id": "1514400011", "name": "USPS COLLECTION BOX - PO LOBBY", "address": {"city": "SPRINGDALE", "state": "PA", "street": "896 PITTSBURGH ST LBBY", "postcode": "15144"}}},
{"geometry": {"type": "Point", "coordinates": [-79.7796215374, 40.5393349503]}, "type": "Feature", "properties": {"collection_times": [{"days": "Mon-Sat", "time": "9:00am"}, {"days": "Sun", "time": "Closed"}], "id": "1514400012", "name": "USPS COLLECTION BOX - BLUE BOX", "address": {"city": "SPRINGDALE", "state": "PA", "street": "809 GARFIELD ST", "postcode": "15144"}}},
{"geometry": {"type": "Point", "coordinates": [-79.7778768519, 40.5414554878]}, "type": "Feature", "properties": {"collection_times": [{"days": "Mon-Fri", "time": "4:15pm"}, {"days": "Sat", "time": "12:00pm"}, {"days": "Sun", "time": "Closed"}], "id": "1514400013", "name": "USPS COLLECTION BOX - PO LOBBY", "address": {"city": "SPRINGDALE", "state": "PA", "street": "896 PITTSBURGH ST LBBY", "postcode": "15144"}}},
{"geometry": {"type": "Point", "coordinates": [-79.8286506337, 40.405295728]}, "type": "Feature", "properties": {"collection_times": [{"days": "Mon-Fri", "time": "1:30pm"}, {"days": "Sat", "time": "10:00am"}, {"days": "Sun", "time": "Closed"}], "id": "1514500002", "name": "USPS COLLECTION BOX - BLUE BOX", "address": {"city": "TURTLE CREEK", "state": "PA", "street": "519 PENN AVE", "postcode": "15145"}}},
{"geometry": {"type": "Point", "coordinates": [-79.8358149745, 40.4271258774]}, "type": "Feature", "properties": {"collection_times": [{"days": "Mon-Fri", "time": "3:30pm"}, {"days": "Sat", "time": "11:00am"}, {"days": "Sun", "time": "Closed"}], "id": "1514500014", "name": "USPS COLLECTION BOX - BLUE BOX", "address": {"city": "TURTLE CREEK", "state": "PA", "street": "700 BROWN AVE", "postcode": "15145"}}},
{"geometry": {"type": "Point", "coordinates": [-79.8130251705, 40.4139188841]}, "type": "Feature", "properties": {"collection_times": [{"days": "Mon-Sat", "time": "11:30am"}, {"days": "Sun", "time": "Closed"}], "id": "1514500015", "name": "USPS COLLECTION BOX - BLUE BOX", "address": {"city": "TURTLE CREEK", "state": "PA", "street": "80 HARPER DR", "postcode": "15145"}}},
{"geometry": {"type": "Point", "coordinates": [-79.8218799978, 40.41320403]}, "type": "Feature", "properties": {"collection_times": [{"days": "Mon-Fri", "time": "4:30pm"}, {"days": "Sat", "time": "1:00pm"}, {"days": "Sun", "time": "Closed"}], "id": "1514500025", "name": "USPS COLLECTION BOX - BLUE BOX", "address": {"city": "TURTLE CREEK", "state": "PA", "street": "116 GRANT ST", "postcode": "15145"}}},
{"geometry": {"type": "Point", "coordinates": [-79.8218799978, 40.41320403]}, "type": "Feature", "properties": {"collection_times": [{"days": "Mon-Fri", "time": "4:30pm"}, {"days": "Sat", "time": "1:00pm"}, {"days": "Sun", "time": "Closed"}], "id": "1514500026", "name": "USPS COLLECTION BOX - BLUE BOX", "address": {"city": "TURTLE CREEK", "state": "PA", "street": "116 GRANT ST", "postcode": "15145"}}},
{"geometry": {"type": "Point", "coordinates": [-79.8313326827, 40.4030324397]}, "type": "Feature", "properties": {"collection_times": [{"days": "Mon-Fri", "time": "1:15pm"}, {"days": "Sat-Sun", "time": "Closed"}], "id": "1514500034", "name": "USPS COLLECTION BOX - BLUE BOX", "address": {"city": "TURTLE CREEK", "state": "PA", "street": "501 BRADDOCK AVE", "postcode": "15145"}}},
{"geometry": {"type": "Point", "coordinates": [-79.8257374828, 40.4050236789]}, "type": "Feature", "properties": {"collection_times": [{"days": "Mon-Fri", "time": "4:30pm"}, {"days": "Sat", "time": "1:00pm"}, {"days": "Sun", "time": "Closed"}], "id": "1514500036", "name": "USPS COLLECTION BOX - PO LOBBY", "address": {"city": "TURTLE CREEK", "state": "PA", "street": "116 GRANT ST LBBY", "postcode": "15145"}}},
{"geometry": {"type": "Point", "coordinates": [-79.8257374828, 40.4050236789]}, "type": "Feature", "properties": {"collection_times": [{"days": "Mon-Fri", "time": "4:30pm"}, {"days": "Sat", "time": "1:00pm"}, {"days": "Sun", "time": "Closed"}], "id": "1514500037", "name": "USPS COLLECTION BOX - PO LOBBY", "address": {"city": "TURTLE CREEK", "state": "PA", "street": "116 GRANT ST LBBY", "postcode": "15145"}}},
{"geometry": {"type": "Point", "coordinates": [-77.8387503615, 40.896509984]}, "type": "Feature", "properties": {"collection_times": [{"days": "Mon-Fri", "time": "5:45pm"}, {"days": "Sat", "time": "3:00pm"}, {"days": "Sun", "time": "Closed"}], "id": "1514600001", "name": "USPS COLLECTION BOX - BLUE BOX", "address": {"city": "MONROEVILLE", "state": "PA", "street": "2630 MONROEVILLE BLVD", "postcode": "15146"}}},
{"geometry": {"type": "Point", "coordinates": [-79.7528785393, 40.4522423854]}, "type": "Feature", "properties": {"collection_times": [{"days": "Mon-Fri", "time": "2:30pm"}, {"days": "Sat", "time": "1:00pm"}, {"days": "Sun", "time": "Closed"}], "id": "1514600002", "name": "USPS COLLECTION BOX - BLUE BOX", "address": {"city": "MONROEVILLE", "state": "PA", "street": "595 BEATTY RD", "postcode": "15146"}}},
{"geometry": {"type": "Point", "coordinates": [-79.7523805374, 40.4513767115]}, "type": "Feature", "properties": {"collection_times": [{"days": "Mon-Fri", "time": "2:30pm"}, {"days": "Sat", "time": "1:00pm"}, {"days": "Sun", "time": "Closed"}], "id": "1514600003", "name": "USPS COLLECTION BOX - BLUE BOX", "address": {"city": "MONROEVILLE", "state": "PA", "street": "610 BEATTY RD", "postcode": "15146"}}},
{"geometry": {"type": "Point", "coordinates": [-79.7732739403, 40.4438515359]}, "type": "Feature", "properties": {"collection_times": [{"days": "Mon-Fri", "time": "3:00pm"}, {"days": "Sat", "time": "1:00pm"}, {"days": "Sun", "time": "Closed"}], "id": "1514600007", "name": "USPS COLLECTION BOX - BLUE BOX", "address": {"city": "MONROEVILLE", "state": "PA", "street": "319 GARDEN CITY DR", "postcode": "15146"}}},
{"geometry": {"type": "Point", "coordinates": [-79.7611474462, 40.4350246697]}, "type": "Feature", "properties": {"collection_times": [{"days": "Mon-Fri", "time": "1:30pm"}, {"days": "Sat", "time": "12:30pm"}, {"days": "Sun", "time": "Closed"}], "id": "1514600009", "name": "USPS COLLECTION BOX - BLUE BOX", "address": {"city": "MONROEVILLE", "state": "PA", "street": "117 FOX PLAN RD", "postcode": "15146"}}},
{"geometry": {"type": "Point", "coordinates": [-79.7596758453, 40.4465656174]}, "type": "Feature", "properties": {"collection_times": [{"days": "Mon-Fri", "time": "2:30pm"}, {"days": "Sat", "time": "1:00pm"}, {"days": "Sun", "time": "Closed"}], "id": "1514600010", "name": "USPS COLLECTION BOX - BLUE BOX", "address": {"city": "MONROEVILLE", "state": "PA", "street": "339 OLD HAYMAKER RD", "postcode": "15146"}}},
{"geometry": {"type": "Point", "coordinates": [-79.7390462239, 40.4308393609]}, "type": "Feature", "properties": {"collection_times": [{"days": "Mon-Fri", "time": "1:00pm"}, {"days": "Sat", "time": "12:00pm"}, {"days": "Sun", "time": "Closed"}], "id": "1514600017", "name": "USPS COLLECTION BOX - BLUE BOX", "address": {"city": "MONROEVILLE", "state": "PA", "street": "140 LAVALE DR", "postcode": "15146"}}},
{"geometry": {"type": "Point", "coordinates": [-79.7576633805, 40.4262852188]}, "type": "Feature", "properties": {"collection_times": [{"days": "Mon-Fri", "time": "1:00pm"}, {"days": "Sat", "time": "12:00pm"}, {"days": "Sun", "time": "Closed"}], "id": "1514600018", "name": "USPS COLLECTION BOX - BLUE BOX", "address": {"city": "MONROEVILLE", "state": "PA", "street": "2500 KING LEAR DR", "postcode": "15146"}}},
{"geometry": {"type": "Point", "coordinates": [-79.7920167875, 40.4313151675]}, "type": "Feature", "properties": {"collection_times": [{"days": "Mon-Fri", "time": "3:30pm"}, {"days": "Sat", "time": "1:30pm"}, {"days": "Sun", "time": "Closed"}], "id": "1514600019", "name": "USPS COLLECTION BOX - BLUE BOX", "address": {"city": "MONROEVILLE", "state": "PA", "street": "105 MALL BLVD", "postcode": "15146"}}},
{"geometry": {"type": "Point", "coordinates": [-79.7657164564, 40.4306014321]}, "type": "Feature", "properties": {"collection_times": [{"days": "Mon-Fri", "time": "12:00pm"}, {"days": "Sat", "time": "10:00am"}, {"days": "Sun", "time": "Closed"}], "id": "1514600020", "name": "USPS COLLECTION BOX - BLUE BOX", "address": {"city": "MONROEVILLE", "state": "PA", "street": "200 MALL BLVD", "postcode": "15146"}}},
{"geometry": {"type": "Point", "coordinates": [-79.7695237109, 40.4353056292]}, "type": "Feature", "properties": {"collection_times": [{"days": "Mon-Fri", "time": "1:30pm"}, {"days": "Sat", "time": "12:30pm"}, {"days": "Sun", "time": "Closed"}], "id": "1514600023", "name": "USPS COLLECTION BOX - BLUE BOX", "address": {"city": "MONROEVILLE", "state": "PA", "street": "4058 MONROEVILLE BLVD", "postcode": "15146"}}},
{"geometry": {"type": "Point", "coordinates": [-77.8387503615, 40.896509984]}, "type": "Feature", "properties": {"collection_times": [{"days": "Mon-Fri", "time": "3:00pm"}, {"days": "Sat", "time": "1:00pm"}, {"days": "Sun", "time": "Closed"}], "id": "1514600024", "name": "USPS COLLECTION BOX - BLUE BOX", "address": {"city": "MONROEVILLE", "state": "PA", "street": "2700 MONROEVILLE BLVD", "postcode": "15146"}}},
{"geometry": {"type": "Point", "coordinates": [-79.7758317916, 40.4372699069]}, "type": "Feature", "properties": {"collection_times": [{"days": "Mon-Sat", "time": "12:00pm"}, {"days": "Sun", "time": "Closed"}], "id": "1514600025", "name": "USPS COLLECTION BOX - BLUE BOX", "address": {"city": "MONROEVILLE", "state": "PA", "street": "3948 MONROEVILLE BLVD", "postcode": "15146"}}},
{"geometry": {"type": "Point", "coordinates": [-79.7856635012, 40.4360158883]}, "type": "Feature", "properties": {"collection_times": [{"days": "Mon-Fri", "time": "12:00pm"}, {"days": "Sat", "time": "10:00am"}, {"days": "Sun", "time": "Closed"}], "id": "1514600027", "name": "USPS COLLECTION BOX - BLUE BOX", "address": {"city": "MONROEVILLE", "state": "PA", "street": "1 MONROEVILLE CTR", "postcode": "15146"}}},
{"geometry": {"type": "Point", "coordinates": [-79.7856635012, 40.4360158883]}, "type": "Feature", "properties": {"collection_times": [{"days": "Mon-Fri", "time": "3:30pm"}, {"days": "Sat", "time": "1:30pm"}, {"days": "Sun", "time": "Closed"}], "id": "1514600029", "name": "USPS COLLECTION BOX - BLUE BOX", "address": {"city": "MONROEVILLE", "state": "PA", "street": "1 MONROEVILLE MALL", "postcode": "15146"}}},
{"geometry": {"type": "Point", "coordinates": [-79.7544282393, 40.4253847371]}, "type": "Feature", "properties": {"collection_times": [{"days": "Mon-Fri", "time": "1:00pm"}, {"days": "Sat", "time": "12:00pm"}, {"days": "Sun", "time": "Closed"}], "id": "1514600033", "name": "USPS COLLECTION BOX - BLUE BOX", "address": {"city": "MONROEVILLE", "state": "PA", "street": "2520 MOSSIDE BLVD", "postcode": "15146"}}},
{"geometry": {"type": "Point", "coordinates": [-79.757545172, 40.436405868]}, "type": "Feature", "properties": {"collection_times": [{"days": "Mon-Fri", "time": "1:30pm"}, {"days": "Sat", "time": "12:30pm"}, {"days": "Sun", "time": "Closed"}], "id": "1514600035", "name": "USPS COLLECTION BOX - BLUE BOX", "address": {"city": "MONROEVILLE", "state": "PA", "street": "2735 MOSSIDE BLVD", "postcode": "15146"}}},
{"geometry": {"type": "Point", "coordinates": [-79.7516364562, 40.432017588]}, "type": "Feature", "properties": {"collection_times": [{"days": "Mon-Fri", "time": "1:00pm"}, {"days": "Sat", "time": "12:00pm"}, {"days": "Sun", "time": "Closed"}], "id": "1514600038", "name": "USPS COLLECTION BOX - BLUE BOX", "address": {"city": "MONROEVILLE", "state": "PA", "street": "2644 MOSSIDE BLVD", "postcode": "15146"}}},
{"geometry": {"type": "Point", "coordinates": [-79.7526434634, 40.4341311381]}, "type": "Feature", "properties": {"collection_times": [{"days": "Mon-Fri", "time": "1:00pm"}, {"days": "Sat", "time": "12:00pm"}, {"days": "Sun", "time": "Closed"}], "id": "1514600040", "name": "USPS COLLECTION BOX - BLUE BOX", "address": {"city": "MONROEVILLE", "state": "PA", "street": "4307 NORTHERN PIKE", "postcode": "15146"}}},
{"geometry": {"type": "Point", "coordinates": [-79.7407334691, 40.4344044703]}, "type": "Feature", "properties": {"collection_times": [{"days": "Mon-Fri", "time": "1:00pm"}, {"days": "Sat", "time": "12:00pm"}, {"days": "Sun", "time": "Closed"}], "id": "1514600041", "name": "USPS COLLECTION BOX - BLUE BOX", "address": {"city": "MONROEVILLE", "state": "PA", "street": "511 DEAUVILLE DR", "postcode": "15146"}}},
{"geometry": {"type": "Point", "coordinates": [-79.7885838135, 40.4316946402]}, "type": "Feature", "properties": {"collection_times": [{"days": "Mon-Sat", "time": "10:00am"}, {"days": "Sun", "time": "Closed"}], "id": "1514600042", "name": "USPS COLLECTION BOX - BLUE BOX", "address": {"city": "MONROEVILLE", "state": "PA", "street": "100 OXFORD DR REAR", "postcode": "15146"}}},
{"geometry": {"type": "Point", "coordinates": [-79.7657164564, 40.4306014321]}, "type": "Feature", "properties": {"collection_times": [{"days": "Mon-Fri", "time": "2:30pm"}, {"days": "Sat", "time": "1:00pm"}, {"days": "Sun", "time": "Closed"}], "id": "1514600045", "name": "USPS COLLECTION BOX - BLUE BOX", "address": {"city": "MONROEVILLE", "state": "PA", "street": "4680 OLD WILLIAM PENN HWY", "postcode": "15146"}}},
{"geometry": {"type": "Point", "coordinates": [-79.7574530168, 40.4476047033]}, "type": "Feature", "properties": {"collection_times": [{"days": "Mon-Fri", "time": "2:30pm"}, {"days": "Sat", "time": "1:00pm"}, {"days": "Sun", "time": "Closed"}], "id": "1514600047", "name": "USPS COLLECTION BOX - BLUE BOX", "address": {"city": "MONROEVILLE", "state": "PA", "street": "2180 ELDO RD", "postcode": "15146"}}},
{"geometry": {"type": "Point", "coordinates": [-79.7657164564, 40.4306014321]}, "type": "Feature", "properties": {"collection_times": [{"days": "Mon-Fri", "time": "2:30pm"}, {"days": "Sat", "time": "1:00pm"}, {"days": "Sun", "time": "Closed"}], "id": "1514600048", "name": "USPS COLLECTION BOX - BLUE BOX", "address": {"city": "MONROEVILLE", "state": "PA", "street": "700 SECO RD", "postcode": "15146"}}},
{"geometry": {"type": "Point", "coordinates": [-79.7836562519, 40.4404925056]}, "type": "Feature", "properties": {"collection_times": [{"days": "Mon-Fri", "time": "3:00pm"}, {"days": "Sat", "time": "1:00pm"}, {"days": "Sun", "time": "Closed"}], "id": "1514600051", "name": "USPS COLLECTION BOX - BLUE BOX", "address": {"city": "MONROEVILLE", "state": "PA", "street": "1120 FOX HILL DR", "postcode": "15146"}}},
{"geometry": {"type": "Point", "coordinates": [-79.755274738, 40.427669127]}, "type": "Feature", "properties": {"collection_times": [{"days": "Mon-Fri", "time": "2:00pm"}, {"days": "Sat", "time": "12:00pm"}, {"days": "Sun", "time": "Closed"}], "id": "1514600052", "name": "USPS COLLECTION BOX - BLUE BOX", "address": {"city": "MONROEVILLE", "state": "PA", "street": "200 JAMES PL", "postcode": "15146"}}},
{"geometry": {"type": "Point", "coordinates": [-79.7711393457, 40.4357216209]}, "type": "Feature", "properties": {"collection_times": [{"days": "Mon-Fri", "time": "2:00pm"}, {"days": "Sat", "time": "12:30pm"}, {"days": "Sun", "time": "Closed"}], "id": "1514600053", "name": "USPS COLLECTION BOX - BLUE BOX", "address": {"city": "MONROEVILLE", "state": "PA", "street": "4010 MONROEVILLE BLVD", "postcode": "15146"}}},
{"geometry": {"type": "Point", "coordinates": [-79.7886478363, 40.4354356709]}, "type": "Feature", "properties": {"collection_times": [{"days": "Mon-Fri", "time": "12:00pm"}, {"days": "Sat", "time": "10:00am"}, {"days": "Sun", "time": "Closed"}], "id": "1514600054", "name": "USPS COLLECTION BOX - BLUE BOX", "address": {"city": "MONROEVILLE", "state": "PA", "street": "3747 WILLIAM PENN HWY", "postcode": "15146"}}},
{"geometry": {"type": "Point", "coordinates": [-79.7717112698, 40.4384576166]}, "type": "Feature", "properties": {"collection_times": [{"days": "Mon-Fri", "time": "12:00pm"}, {"days": "Sat", "time": "10:00am"}, {"days": "Sun", "time": "Closed"}], "id": "1514600056", "name": "USPS COLLECTION BOX - BLUE BOX", "address": {"city": "MONROEVILLE", "state": "PA", "street": "4005 WILLIAM PENN HWY", "postcode": "15146"}}},
{"geometry": {"type": "Point", "coordinates": [-79.7694830017, 40.4387989978]}, "type": "Feature", "properties": {"collection_times": [{"days": "Mon-Fri", "time": "12:00pm"}, {"days": "Sat", "time": "10:00am"}, {"days": "Sun", "time": "Closed"}], "id": "1514600057", "name": "USPS COLLECTION BOX - BLUE BOX", "address": {"city": "MONROEVILLE", "state": "PA", "street": "4087 WILLIAM PENN HWY", "postcode": "15146"}}},
{"geometry": {"type": "Point", "coordinates": [-79.7136510745, 40.4452505147]}, "type": "Feature", "properties": {"collection_times": [{"days": "Mon-Fri", "time": "2:00pm"}, {"days": "Sat", "time": "12:30pm"}, {"days": "Sun", "time": "Closed"}], "id": "1514600062", "name": "USPS COLLECTION BOX - BLUE BOX", "address": {"city": "MONROEVILLE", "state": "PA", "street": "1786 ROUTE 286", "postcode": "15146"}}},
{"geometry": {"type": "Point", "coordinates": [-79.7660910318, 40.3912350777]}, "type": "Feature", "properties": {"collection_times": [{"days": "Mon-Fri", "time": "1:00pm"}, {"days": "Sat", "time": "12:00pm"}, {"days": "Sun", "time": "Closed"}], "id": "1514600063", "name": "USPS COLLECTION BOX - BLUE BOX", "address": {"city": "MONROEVILLE", "state": "PA", "street": "4500 BROADWAY BLVD", "postcode": "15146"}}},
{"geometry": {"type": "Point", "coordinates": [-79.7566356407, 40.4337399763]}, "type": "Feature", "properties": {"collection_times": [{"days": "Mon-Fri", "time": "2:00pm"}, {"days": "Sat", "time": "12:30pm"}, {"days": "Sun", "time": "Closed"}], "id": "1514600067", "name": "USPS COLLECTION BOX - BLUE BOX", "address": {"city": "MONROEVILLE", "state": "PA", "street": "4232 NORTHERN PIKE", "postcode": "15146"}}},
{"geometry": {"type": "Point", "coordinates": [-79.7548339942, 40.4363507667]}, "type": "Feature", "properties": {"collection_times": [{"days": "Mon-Fri", "time": "1:30pm"}, {"days": "Sat", "time": "12:30pm"}, {"days": "Sun", "time": "Closed"}], "id": "1514600068", "name": "USPS COLLECTION BOX - BLUE BOX", "address": {"city": "MONROEVILLE", "state": "PA", "street": "125 DAUGHERTY DR", "postcode": "15146"}}},
{"geometry": {"type": "Point", "coordinates": [-79.7657164564, 40.4306014321]}, "type": "Feature", "properties": {"collection_times": [{"days": "Mon-Fri", "time": "12:00pm"}, {"days": "Sat", "time": "10:00am"}, {"days": "Sun", "time": "Closed"}], "id": "1514600070", "name": "USPS COLLECTION BOX - BLUE BOX", "address": {"city": "MONROEVILLE", "state": "PA", "street": "300 MALL BLVD", "postcode": "15146"}}},
{"geometry": {"type": "Point", "coordinates": [-79.7800890014, 40.4364835829]}, "type": "Feature", "properties": {"collection_times": [{"days": "Mon-Fri", "time": "3:00pm"}, {"days": "Sat", "time": "1:00pm"}, {"days": "Sun", "time": "Closed"}], "id": "1514600071", "name": "USPS COLLECTION BOX - BLUE BOX", "address": {"city": "MONROEVILLE", "state": "PA", "street": "1500 EAGLES NEST LN", "postcode": "15146"}}},
{"geometry": {"type": "Point", "coordinates": [-79.7513912561, 40.4304540477]}, "type": "Feature", "properties": {"collection_times": [{"days": "Mon-Fri", "time": "2:00pm"}, {"days": "Sat", "time": "12:30pm"}, {"days": "Sun", "time": "Closed"}], "id": "1514600075", "name": "USPS COLLECTION BOX - BLUE BOX", "address": {"city": "MONROEVILLE", "state": "PA", "street": "2615 MOSSIDE BLVD", "postcode": "15146"}}},
{"geometry": {"type": "Point", "coordinates": [-79.7842920384, 40.4322600946]}, "type": "Feature", "properties": {"collection_times": [{"days": "Mon-Fri", "time": "5:45pm"}, {"days": "Sat", "time": "3:00pm"}, {"days": "Sun", "time": "Closed"}], "id": "1514600078", "name": "USPS COLLECTION BOX - BLUE BOX", "address": {"city": "MONROEVILLE", "state": "PA", "street": "2630 MONROEVILLE BLVD", "postcode": "15146"}}},
{"geometry": {"type": "Point", "coordinates": [-77.8387503615, 40.896509984]}, "type": "Feature", "properties": {"collection_times": [{"days": "Mon-Fri", "time": "5:45pm"}, {"days": "Sat", "time": "3:00pm"}, {"days": "Sun", "time": "Closed"}], "id": "1514600079", "name": "USPS COLLECTION BOX - BLUE BOX", "address": {"city": "MONROEVILLE", "state": "PA", "street": "2630 MONROEVILLE BLVD", "postcode": "15146"}}},
{"geometry": {"type": "Point", "coordinates": [-79.75823516, 40.4467079023]}, "type": "Feature", "properties": {"collection_times": [{"days": "Mon-Fri", "time": "2:30pm"}, {"days": "Sat", "time": "1:00pm"}, {"days": "Sun", "time": "Closed"}], "id": "1514600087", "name": "USPS COLLECTION BOX - BLUE BOX", "address": {"city": "MONROEVILLE", "state": "PA", "street": "700 SECO RD", "postcode": "15146"}}},
{"geometry": {"type": "Point", "coordinates": [-79.7574530168, 40.4476047033]}, "type": "Feature", "properties": {"collection_times": [{"days": "Mon-Fri", "time": "2:30pm"}, {"days": "Sat", "time": "1:00pm"}, {"days": "Sun", "time": "Closed"}], "id": "1514600088", "name": "USPS COLLECTION BOX - BLUE BOX", "address": {"city": "MONROEVILLE", "state": "PA", "street": "2180 ELDO RD", "postcode": "15146"}}},
{"geometry": {"type": "Point", "coordinates": [-79.7640522703, 40.4388910519]}, "type": "Feature", "properties": {"collection_times": [{"days": "Mon-Fri", "time": "1:30pm"}, {"days": "Sat-Sun", "time": "Closed"}], "id": "1514600089", "name": "USPS COLLECTION BOX - BLUE BOX", "address": {"city": "MONROEVILLE", "state": "PA", "street": "4220 WILLIAM PENN HWY", "postcode": "15146"}}},
{"geometry": {"type": "Point", "coordinates": [-79.7842920384, 40.4322600946]}, "type": "Feature", "properties": {"collection_times": [{"days": "Mon-Fri", "time": "5:45pm"}, {"days": "Sat", "time": "3:00pm"}, {"days": "Sun", "time": "Closed"}], "id": "1514600093", "name": "USPS COLLECTION BOX - PO LOBBY", "address": {"city": "MONROEVILLE", "state": "PA", "street": "2630 MONROEVILLE BLVD LBBY", "postcode": "15146"}}},
{"geometry": {"type": "Point", "coordinates": [-79.7842920384, 40.4322600946]}, "type": "Feature", "properties": {"collection_times": [{"days": "Mon-Fri", "time": "5:45pm"}, {"days": "Sat", "time": "3:00pm"}, {"days": "Sun", "time": "Closed"}], "id": "1514600094", "name": "USPS COLLECTION BOX - PO LOBBY", "address": {"city": "MONROEVILLE", "state": "PA", "street": "2630 MONROEVILLE BLVD LBBY", "postcode": "15146"}}},
{"geometry": {"type": "Point", "coordinates": [-79.7596758453, 40.4465656174]}, "type": "Feature", "properties": {"collection_times": [{"days": "Mon-Fri", "time": "2:30pm"}, {"days": "Sat", "time": "1:00pm"}, {"days": "Sun", "time": "Closed"}], "id": "1514600096", "name": "USPS COLLECTION BOX - BLUE BOX", "address": {"city": "MONROEVILLE", "state": "PA", "street": "339 OLD HAYMAKER RD", "postcode": "15146"}}},
{"geometry": {"type": "Point", "coordinates": [-79.7596758453, 40.4465656174]}, "type": "Feature", "properties": {"collection_times": [{"days": "Mon-Fri", "time": "2:30pm"}, {"days": "Sat", "time": "1:00pm"}, {"days": "Sun", "time": "Closed"}], "id": "1514600097", "name": "USPS COLLECTION BOX - BLUE BOX", "address": {"city": "MONROEVILLE", "state": "PA", "street": "339 OLD HAYMAKER RD", "postcode": "15146"}}},
{"geometry": {"type": "Point", "coordinates": [-79.7856635012, 40.4360158883]}, "type": "Feature", "properties": {"collection_times": [{"days": "Mon-Fri", "time": "3:30pm"}, {"days": "Sat", "time": "1:30pm"}, {"days": "Sun", "time": "Closed"}], "id": "1514600098", "name": "USPS COLLECTION BOX - BLUE BOX", "address": {"city": "MONROEVILLE", "state": "PA", "street": "1 MONROEVILLE MALL", "postcode": "15146"}}},
{"geometry": {"type": "Point", "coordinates": [-79.7131208273, 40.4367442975]}, "type": "Feature", "properties": {"collection_times": [{"days": "Mon-Fri", "time": "2:00pm"}, {"days": "Sat", "time": "12:30pm"}, {"days": "Sun", "time": "Closed"}], "id": "1514600103", "name": "USPS COLLECTION BOX - BLUE BOX", "address": {"city": "MONROEVILLE", "state": "PA", "street": "1670 ROUTE 286", "postcode": "15146"}}},
{"geometry": {"type": "Point", "coordinates": [-77.8387503615, 40.896509984]}, "type": "Feature", "properties": {"collection_times": [{"days": "Mon-Fri", "time": "5:45pm"}, {"days": "Sat", "time": "3:00pm"}, {"days": "Sun", "time": "Closed"}], "id": "1514600104", "name": "USPS COLLECTION BOX - APC", "address": {"city": "MONROEVILLE", "state": "PA", "street": "2630 MONROEVILLE BLVD", "postcode": "15146"}}},
{"geometry": {"type": "Point", "coordinates": [-79.8359826133, 40.5062151402]}, "type": "Feature", "properties": {"collection_times": [{"days": "Mon-Sat", "time": "1:30pm"}, {"days": "Sun", "time": "Closed"}], "id": "1514700002", "name": "USPS COLLECTION BOX - BLUE BOX", "address": {"city": "VERONA", "state": "PA", "street": "758 2ND ST", "postcode": "15147"}}},
{"geometry": {"type": "Point", "coordinates": [-79.8376328411, 40.5011875646]}, "type": "Feature", "properties": {"collection_times": [{"days": "Mon-Sat", "time": "2:00pm"}, {"days": "Sun", "time": "Closed"}], "id": "1514700003", "name": "USPS COLLECTION BOX - BLUE BOX", "address": {"city": "VERONA", "state": "PA", "street": "6832 VERONA RD", "postcode": "15147"}}},
{"geometry": {"type": "Point", "coordinates": [-79.8192777246, 40.4843281544]}, "type": "Feature", "properties": {"collection_times": [{"days": "Mon-Sat", "time": "1:45pm"}, {"days": "Sun", "time": "Closed"}], "id": "1514700004", "name": "USPS COLLECTION BOX - BLUE BOX", "address": {"city": "VERONA", "state": "PA", "street": "6105 SALTSBURG RD", "postcode": "15147"}}},
{"geometry": {"type": "Point", "coordinates": [-79.7898819863, 40.4982266597]}, "type": "Feature", "properties": {"collection_times": [{"days": "Mon-Sat", "time": "12:00pm"}, {"days": "Sun", "time": "Closed"}], "id": "1514700005", "name": "USPS COLLECTION BOX - BLUE BOX", "address": {"city": "VERONA", "state": "PA", "street": "1107 MILLTOWN RD", "postcode": "15147"}}},
{"geometry": {"type": "Point", "coordinates": [-79.8431939312, 40.5066126144]}, "type": "Feature", "properties": {"collection_times": [{"days": "Mon-Sat", "time": "2:00pm"}, {"days": "Sun", "time": "Closed"}], "id": "1514700006", "name": "USPS COLLECTION BOX - BLUE BOX", "address": {"city": "VERONA", "state": "PA", "street": "326 CENTER AVE", "postcode": "15147"}}},
{"geometry": {"type": "Point", "coordinates": [-79.8409874788, 40.4956209293]}, "type": "Feature", "properties": {"collection_times": [{"days": "Mon-Sat", "time": "1:30pm"}, {"days": "Sun", "time": "Closed"}], "id": "1514700012", "name": "USPS COLLECTION BOX - BLUE BOX", "address": {"city": "VERONA", "state": "PA", "street": "1629 VISTA VIEW DR", "postcode": "15147"}}},
{"geometry": {"type": "Point", "coordinates": [-79.834297085, 40.479759891]}, "type": "Feature", "properties": {"collection_times": [{"days": "Mon-Sat", "time": "1:45pm"}, {"days": "Sun", "time": "Closed"}], "id": "1514700022", "name": "USPS COLLECTION BOX - BLUE BOX", "address": {"city": "VERONA", "state": "PA", "street": "198 STEPHENS LN", "postcode": "15147"}}},
{"geometry": {"type": "Point", "coordinates": [-79.843544087, 40.4992830007]}, "type": "Feature", "properties": {"collection_times": [{"days": "Mon-Sat", "time": "2:00pm"}, {"days": "Sun", "time": "Closed"}], "id": "1514700023", "name": "USPS COLLECTION BOX - BLUE BOX", "address": {"city": "VERONA", "state": "PA", "street": "200 ALLEGHENY RIVER BLVD", "postcode": "15147"}}},
{"geometry": {"type": "Point", "coordinates": [-79.827776427, 40.4908887239]}, "type": "Feature", "properties": {"collection_times": [{"days": "Mon-Sat", "time": "1:45pm"}, {"days": "Sun", "time": "Closed"}], "id": "1514700025", "name": "USPS COLLECTION BOX - BLUE BOX", "address": {"city": "VERONA", "state": "PA", "street": "102 SHANNON HEIGHTS DR", "postcode": "15147"}}},
{"geometry": {"type": "Point", "coordinates": [-79.849051944, 40.4752701167]}, "type": "Feature", "properties": {"collection_times": [{"days": "Mon-Sat", "time": "1:30pm"}, {"days": "Sun", "time": "Closed"}], "id": "1514700030", "name": "USPS COLLECTION BOX - BLUE BOX", "address": {"city": "VERONA", "state": "PA", "street": "4689 VERONA RD", "postcode": "15147"}}},
{"geometry": {"type": "Point", "coordinates": [-79.8431371491, 40.5046891232]}, "type": "Feature", "properties": {"collection_times": [{"days": "Mon-Fri", "time": "4:30pm"}, {"days": "Sat", "time": "3:00pm"}, {"days": "Sun", "time": "Closed"}], "id": "1514700038", "name": "USPS COLLECTION BOX - BLUE BOX", "address": {"city": "VERONA", "state": "PA", "street": "632 ALLEGHENY RIVER BLVD", "postcode": "15147"}}},
{"geometry": {"type": "Point", "coordinates": [-79.8432806267, 40.5040810642]}, "type": "Feature", "properties": {"collection_times": [{"days": "Mon-Fri", "time": "4:30pm"}, {"days": "Sat", "time": "3:00pm"}, {"days": "Sun", "time": "Closed"}], "id": "1514700041", "name": "USPS COLLECTION BOX - PO LOBBY", "address": {"city": "VERONA", "state": "PA", "street": "620 ALLEGHENY RIVER BLVD LBBY", "postcode": "15147"}}},
{"geometry": {"type": "Point", "coordinates": [-79.8432806267, 40.5040810642]}, "type": "Feature", "properties": {"collection_times": [{"days": "Mon-Fri", "time": "4:30pm"}, {"days": "Sat", "time": "3:00pm"}, {"days": "Sun", "time": "Closed"}], "id": "1514700043", "name": "USPS COLLECTION BOX - PO LOBBY", "address": {"city": "VERONA", "state": "PA", "street": "620 ALLEGHENY RIVER BLVD LBBY", "postcode": "15147"}}},
{"geometry": {"type": "Point", "coordinates": [-79.8432806267, 40.5040810642]}, "type": "Feature", "properties": {"collection_times": [{"days": "Mon-Fri", "time": "4:30pm"}, {"days": "Sat", "time": "3:00pm"}, {"days": "Sun", "time": "Closed"}], "id": "1514700044", "name": "USPS COLLECTION BOX - PO LOBBY", "address": {"city": "VERONA", "state": "PA", "street": "620 ALLEGHENY RIVER BLVD LBBY", "postcode": "15147"}}},
{"geometry": {"type": "Point", "coordinates": [-79.8432806267, 40.5040810642]}, "type": "Feature", "properties": {"collection_times": [{"days": "Mon-Fri", "time": "4:30pm"}, {"days": "Sat", "time": "3:00pm"}, {"days": "Sun", "time": "Closed"}], "id": "1514700045", "name": "USPS COLLECTION BOX - PO LOBBY", "address": {"city": "VERONA", "state": "PA", "street": "620 ALLEGHENY RIVER BLVD LBBY", "postcode": "15147"}}},
{"geometry": {"type": "Point", "coordinates": [-79.8380149368, 40.4819384564]}, "type": "Feature", "properties": {"collection_times": [{"days": "Mon-Sat", "time": "1:30pm"}, {"days": "Sun", "time": "Closed"}], "id": "1514700046", "name": "USPS COLLECTION BOX - BLUE BOX", "address": {"city": "VERONA", "state": "PA", "street": "5501 VERONA RD", "postcode": "15147"}}},
{"geometry": {"type": "Point", "coordinates": [-79.8097408465, 40.3933084039]}, "type": "Feature", "properties": {"collection_times": [{"days": "Mon-Fri", "time": "4:15pm"}, {"days": "Sat", "time": "12:00pm"}, {"days": "Sun", "time": "Closed"}], "id": "1514800001", "name": "USPS COLLECTION BOX - BLUE BOX", "address": {"city": "WALL", "state": "PA", "street": "410 STATION ST", "postcode": "15148"}}},
{"geometry": {"type": "Point", "coordinates": [-79.8108139784, 40.3924996608]}, "type": "Feature", "properties": {"collection_times": [{"days": "Mon-Sat", "time": "9:00am"}, {"days": "Sun", "time": "Closed"}], "id": "1514800002", "name": "USPS COLLECTION BOX - BLUE BOX", "address": {"city": "WALL", "state": "PA", "street": "200 CALDWELL AVE", "postcode": "15148"}}},
{"geometry": {"type": "Point", "coordinates": [-79.8066677072, 40.3912126015]}, "type": "Feature", "properties": {"collection_times": [{"days": "Mon-Sat", "time": "9:00am"}, {"days": "Sun", "time": "Closed"}], "id": "1514800004", "name": "USPS COLLECTION BOX - BLUE BOX", "address": {"city": "WALL", "state": "PA", "street": "278 WELSH AVE", "postcode": "15148"}}},
{"geometry": {"type": "Point", "coordinates": [-79.8076157357, 40.3927241969]}, "type": "Feature", "properties": {"collection_times": [{"days": "Mon-Sat", "time": "9:00am"}, {"days": "Sun", "time": "Closed"}], "id": "1514800008", "name": "USPS COLLECTION BOX - BLUE BOX", "address": {"city": "WALL", "state": "PA", "street": "314 COMMERCE ST", "postcode": "15148"}}},
{"geometry": {"type": "Point", "coordinates": [-79.8055699213, 40.3954026421]}, "type": "Feature", "properties": {"collection_times": [{"days": "Mon-Sat", "time": "9:00am"}, {"days": "Sun", "time": "Closed"}], "id": "1514800009", "name": "USPS COLLECTION BOX - BLUE BOX", "address": {"city": "WALL", "state": "PA", "street": "200 AIRBRAKE AVE", "postcode": "15148"}}},
{"geometry": {"type": "Point", "coordinates": [-79.8102993912, 40.3963229842]}, "type": "Feature", "properties": {"collection_times": [{"days": "Mon-Sat", "time": "9:00am"}, {"days": "Sun", "time": "Closed"}], "id": "1514800011", "name": "USPS COLLECTION BOX - BLUE BOX", "address": {"city": "WALL", "state": "PA", "street": "538 AIRBRAKE AVE", "postcode": "15148"}}},
{"geometry": {"type": "Point", "coordinates": [-79.8170706484, 40.4015907005]}, "type": "Feature", "properties": {"collection_times": [{"days": "Mon-Sat", "time": "9:00am"}, {"days": "Sun", "time": "Closed"}], "id": "1514800012", "name": "USPS COLLECTION BOX - BLUE BOX", "address": {"city": "WALL", "state": "PA", "street": "221 5TH ST", "postcode": "15148"}}},
{"geometry": {"type": "Point", "coordinates": [-79.8078139945, 40.3960733799]}, "type": "Feature", "properties": {"collection_times": [{"days": "Mon-Sat", "time": "9:00am"}, {"days": "Sun", "time": "Closed"}], "id": "1514800014", "name": "USPS COLLECTION BOX - BLUE BOX", "address": {"city": "WALL", "state": "PA", "street": "500 MIDDLE AVE", "postcode": "15148"}}},
{"geometry": {"type": "Point", "coordinates": [-79.796813659, 40.3932082533]}, "type": "Feature", "properties": {"collection_times": [{"days": "Mon-Sat", "time": "9:00am"}, {"days": "Sun", "time": "Closed"}], "id": "1514800019", "name": "USPS COLLECTION BOX - BLUE BOX", "address": {"city": "WALL", "state": "PA", "street": "300 WALL AVE", "postcode": "15148"}}},
{"geometry": {"type": "Point", "coordinates": [-79.809843952, 40.3911014034]}, "type": "Feature", "properties": {"collection_times": [{"days": "Mon-Sat", "time": "9:00am"}, {"days": "Sun", "time": "Closed"}], "id": "1514800021", "name": "USPS COLLECTION BOX - BLUE BOX", "address": {"city": "WALL", "state": "PA", "street": "300 WESTINGHOUSE AVE", "postcode": "15148"}}},
{"geometry": {"type": "Point", "coordinates": [-79.8097408465, 40.3933084039]}, "type": "Feature", "properties": {"collection_times": [{"days": "Mon-Fri", "time": "4:15pm"}, {"days": "Sat", "time": "12:00pm"}, {"days": "Sun", "time": "Closed"}], "id": "1514800025", "name": "USPS COLLECTION BOX - PO LOBBY", "address": {"city": "WALL", "state": "PA", "street": "410 STATION ST LBBY", "postcode": "15148"}}},
{"geometry": {"type": "Point", "coordinates": [-79.8097408465, 40.3933084039]}, "type": "Feature", "properties": {"collection_times": [{"days": "Mon-Fri", "time": "4:15pm"}, {"days": "Sat", "time": "12:00pm"}, {"days": "Sun", "time": "Closed"}], "id": "1514800026", "name": "USPS COLLECTION BOX - PO LOBBY", "address": {"city": "WALL", "state": "PA", "street": "410 STATION ST LBBY", "postcode": "15148"}}},
{"geometry": {"type": "Point", "coordinates": [-79.7788480078, 40.3935337736]}, "type": "Feature", "properties": {"collection_times": [{"days": "Mon-Sat", "time": "9:00am"}, {"days": "Sun", "time": "Closed"}], "id": "1514800027", "name": "USPS COLLECTION BOX - BLUE BOX", "address": {"city": "WALL", "state": "PA", "street": "1 MEMORIAL FLD", "postcode": "15148"}}}
]}
