{"type": "FeatureCollection", "features": [
{"geometry": {"type": "Point", "coordinates": [-80.2525059921, 40.1723577257]}, "type": "Feature", "properties": {"collection_times": [{"days": "Mon-Sat", "time": "5:30pm"}, {"days": "Sun", "time": "Closed"}], "id": "1530100001", "name": "USPS COLLECTION BOX - BLUE BOX", "address": {"city": "WASHINGTON", "state": "PA", "street": "153 JEFFERSON AVE", "postcode": "15301"}}},
{"geometry": {"type": "Point", "coordinates": [-80.2423314107, 40.1822003966]}, "type": "Feature", "properties": {"collection_times": [{"days": "Mon-Fri", "time": "4:15pm"}, {"days": "Sat", "time": "1:00pm"}, {"days": "Sun", "time": "Closed"}], "id": "1530100004", "name": "USPS COLLECTION BOX - BLUE BOX", "address": {"city": "WASHINGTON", "state": "PA", "street": "95 LEONARD AVE", "postcode": "15301"}}},
{"geometry": {"type": "Point", "coordinates": [-80.2434503897, 40.1695413461]}, "type": "Feature", "properties": {"collection_times": [{"days": "Mon-Fri", "time": "1:15pm"}, {"days": "Sat", "time": "1:30pm"}, {"days": "Sun", "time": "Closed"}], "id": "1530100010", "name": "USPS COLLECTION BOX - BLUE BOX", "address": {"city": "WASHINGTON", "state": "PA", "street": "61 E WHEELING ST", "postcode": "15301"}}},
{"geometry": {"type": "Point", "coordinates": [-80.2364784225, 40.1603826187]}, "type": "Feature", "properties": {"collection_times": [{"days": "Mon-Sat", "time": "9:00am"}, {"days": "Sun", "time": "Closed"}], "id": "1530100014", "name": "USPS COLLECTION BOX - BLUE BOX", "address": {"city": "WASHINGTON", "state": "PA", "street": "815 S MAIN ST", "postcode": "15301"}}},
{"geometry": {"type": "Point", "coordinates": [-80.2424243408, 40.1681234514]}, "type": "Feature", "properties": {"collection_times": [{"days": "Mon-Sat", "time": "12:30pm"}, {"days": "Sun", "time": "Closed"}], "id": "1530100024", "name": "USPS COLLECTION BOX - BLUE BOX", "address": {"city": "WASHINGTON", "state": "PA", "street": "84 E MAIDEN ST", "postcode": "15301"}}},
{"geometry": {"type": "Point", "coordinates": [-80.2464485892, 40.1674968102]}, "type": "Feature", "properties": {"collection_times": [{"days": "Mon-Sat", "time": "3:00pm"}, {"days": "Sun", "time": "Closed"}], "id": "1530100025", "name": "USPS COLLECTION BOX - BLUE BOX", "address": {"city": "WASHINGTON", "state": "PA", "street": "69 W MAIDEN ST", "postcode": "15301"}}},
{"geometry": {"type": "Point", "coordinates": [-80.2501197295, 40.182337617]}, "type": "Feature", "properties": {"collection_times": [{"days": "Mon-Sat", "time": "3:00pm"}, {"days": "Sun", "time": "Closed"}], "id": "1530100026", "name": "USPS COLLECTION BOX - BLUE BOX", "address": {"city": "WASHINGTON", "state": "PA", "street": "850 BEECH ST", "postcode": "15301"}}},
{"geometry": {"type": "Point", "coordinates": [-80.243578314, 40.1740315937]}, "type": "Feature", "properties": {"collection_times": [{"days": "Mon-Sat", "time": "3:00pm"}, {"days": "Sun", "time": "Closed"}], "id": "1530100028", "name": "USPS COLLECTION BOX - BLUE BOX", "address": {"city": "WASHINGTON", "state": "PA", "street": "154 N COLLEGE ST", "postcode": "15301"}}},
{"geometry": {"type": "Point", "coordinates": [-80.2762302802, 40.1629694029]}, "type": "Feature", "properties": {"collection_times": [{"days": "Mon-Fri", "time": "5:15pm"}, {"days": "Sat", "time": "12:30pm"}, {"days": "Sun", "time": "Closed"}], "id": "1530100031", "name": "USPS COLLECTION BOX - BLUE BOX", "address": {"city": "WASHINGTON", "state": "PA", "street": "1500 W CHESTNUT ST", "postcode": "15301"}}},
{"geometry": {"type": "Point", "coordinates": [-80.246234376, 40.169997731]}, "type": "Feature", "properties": {"collection_times": [{"days": "Mon-Fri", "time": "4:00pm"}, {"days": "Sat", "time": "12:00pm"}, {"days": "Sun", "time": "Closed"}], "id": "1530100033", "name": "USPS COLLECTION BOX - BLUE BOX", "address": {"city": "WASHINGTON", "state": "PA", "street": "29 W CHERRY AVE", "postcode": "15301"}}},
{"geometry": {"type": "Point", "coordinates": [-80.2570888761, 40.1863982972]}, "type": "Feature", "properties": {"collection_times": [{"days": "Mon-Sat", "time": "9:00am"}, {"days": "Sun", "time": "Closed"}], "id": "1530100035", "name": "USPS COLLECTION BOX - BLUE BOX", "address": {"city": "WASHINGTON", "state": "PA", "street": "1296 DONNAN AVE", "postcode": "15301"}}},
{"geometry": {"type": "Point", "coordinates": [-80.2454460315, 40.1708625887]}, "type": "Feature", "properties": {"collection_times": [{"days": "Mon-Fri", "time": "5:00pm"}, {"days": "Sat", "time": "1:30pm"}, {"days": "Sun", "time": "Closed"}], "id": "1530100038", "name": "USPS COLLECTION BOX - BLUE BOX", "address": {"city": "WASHINGTON", "state": "PA", "street": "26 E BEAU ST", "postcode": "15301"}}},
{"geometry": {"type": "Point", "coordinates": [-80.2454991669, 40.1708539391]}, "type": "Feature", "properties": {"collection_times": [{"days": "Mon-Fri", "time": "4:45pm"}, {"days": "Sat", "time": "1:15pm"}, {"days": "Sun", "time": "Closed"}], "id": "1530100040", "name": "USPS COLLECTION BOX - BLUE BOX", "address": {"city": "WASHINGTON", "state": "PA", "street": "1 S MAIN ST", "postcode": "15301"}}},
{"geometry": {"type": "Point", "coordinates": [-80.2528459186, 40.1697333424]}, "type": "Feature", "properties": {"collection_times": [{"days": "Mon-Fri", "time": "4:30pm"}, {"days": "Sat", "time": "1:15pm"}, {"days": "Sun", "time": "Closed"}], "id": "1530100041", "name": "USPS COLLECTION BOX - BLUE BOX", "address": {"city": "WASHINGTON", "state": "PA", "street": "100 W BEAU ST", "postcode": "15301"}}},
{"geometry": {"type": "Point", "coordinates": [-80.2451453777, 40.1693590874]}, "type": "Feature", "properties": {"collection_times": [{"days": "Mon-Fri", "time": "12:30pm"}, {"days": "Sat", "time": "1:30pm"}, {"days": "Sun", "time": "Closed"}], "id": "1530100047", "name": "USPS COLLECTION BOX - BLUE BOX", "address": {"city": "WASHINGTON", "state": "PA", "street": "99 S MAIN ST", "postcode": "15301"}}},
{"geometry": {"type": "Point", "coordinates": [-80.2442822883, 40.1662839849]}, "type": "Feature", "properties": {"collection_times": [{"days": "Mon-Fri", "time": "12:30pm"}, {"days": "Sat", "time": "3:00pm"}, {"days": "Sun", "time": "Closed"}], "id": "1530100055", "name": "USPS COLLECTION BOX - BLUE BOX", "address": {"city": "WASHINGTON", "state": "PA", "street": "331 S MAIN ST", "postcode": "15301"}}},
{"geometry": {"type": "Point", "coordinates": [-80.2426212087, 40.1658116003]}, "type": "Feature", "properties": {"collection_times": [{"days": "Mon-Fri", "time": "4:00pm"}, {"days": "Sat", "time": "12:45pm"}, {"days": "Sun", "time": "Closed"}], "id": "1530100060", "name": "USPS COLLECTION BOX - BLUE BOX", "address": {"city": "WASHINGTON", "state": "PA", "street": "50 S LINCOLN ST", "postcode": "15301"}}},
{"geometry": {"type": "Point", "coordinates": [-80.2224851108, 40.1847192627]}, "type": "Feature", "properties": {"collection_times": [{"days": "Mon-Sat", "time": "12:45pm"}, {"days": "Sun", "time": "Closed"}], "id": "1530100064", "name": "USPS COLLECTION BOX - BLUE BOX", "address": {"city": "WASHINGTON", "state": "PA", "street": "30 TRINITY POINT DR", "postcode": "15301"}}},
{"geometry": {"type": "Point", "coordinates": [-80.2546495354, 40.1713230061]}, "type": "Feature", "properties": {"collection_times": [{"days": "Mon-Fri", "time": "4:30pm"}, {"days": "Sat", "time": "12:30pm"}, {"days": "Sun", "time": "Closed"}], "id": "1530100066", "name": "USPS COLLECTION BOX - BLUE BOX", "address": {"city": "WASHINGTON", "state": "PA", "street": "380 W CHESTNUT ST SIDE", "postcode": "15301"}}},
{"geometry": {"type": "Point", "coordinates": [-80.2237836327, 40.1863773304]}, "type": "Feature", "properties": {"collection_times": [{"days": "Mon-Sat", "time": "12:45pm"}, {"days": "Sun", "time": "Closed"}], "id": "1530100067", "name": "USPS COLLECTION BOX - BLUE BOX", "address": {"city": "WASHINGTON", "state": "PA", "street": "331 WASHINGTON RD", "postcode": "15301"}}},
{"geometry": {"type": "Point", "coordinates": [-80.2528459186, 40.1697333424]}, "type": "Feature", "properties": {"collection_times": [{"days": "Mon-Fri", "time": "4:30pm"}, {"days": "Sat", "time": "1:15pm"}, {"days": "Sun", "time": "Closed"}], "id": "1530100075", "name": "USPS COLLECTION BOX - BLUE BOX", "address": {"city": "WASHINGTON", "state": "PA", "street": "100 W BEAU ST", "postcode": "15301"}}},
{"geometry": {"type": "Point", "coordinates": [-80.2454460315, 40.1708625887]}, "type": "Feature", "properties": {"collection_times": [{"days": "Mon-Fri", "time": "5:00pm"}, {"days": "Sat", "time": "1:30pm"}, {"days": "Sun", "time": "Closed"}], "id": "1530100076", "name": "USPS COLLECTION BOX - BLUE BOX", "address": {"city": "WASHINGTON", "state": "PA", "street": "26 E BEAU ST", "postcode": "15301"}}},
{"geometry": {"type": "Point", "coordinates": [-80.2385347121, 40.1801438839]}, "type": "Feature", "properties": {"collection_times": [{"days": "Mon-Sat", "time": "9:00am"}, {"days": "Sun", "time": "Closed"}], "id": "1530100077", "name": "USPS COLLECTION BOX - BLUE BOX", "address": {"city": "WASHINGTON", "state": "PA", "street": "83 MURTLAND AVE", "postcode": "15301"}}},
{"geometry": {"type": "Point", "coordinates": [-80.2454874774, 40.1713545636]}, "type": "Feature", "properties": {"collection_times": [{"days": "Mon-Fri", "time": "5:00pm"}, {"days": "Sat-Sun", "time": "Closed"}], "id": "1530100078", "name": "USPS COLLECTION BOX - PO LOBBY", "address": {"city": "WASHINGTON", "state": "PA", "street": "28 N MAIN ST LBBY", "postcode": "15301"}}},
{"geometry": {"type": "Point", "coordinates": [-80.2525059921, 40.1723577257]}, "type": "Feature", "properties": {"collection_times": [{"days": "Mon-Fri", "time": "6:30pm"}, {"days": "Sat", "time": "5:00pm"}, {"days": "Sun", "time": "Closed"}], "id": "1530100079", "name": "USPS COLLECTION BOX - PO LOBBY", "address": {"city": "WASHINGTON", "state": "PA", "street": "153 JEFFERSON AVE LBBY", "postcode": "15301"}}},
{"geometry": {"type": "Point", "coordinates": [-80.2521398221, 40.1721126639]}, "type": "Feature", "properties": {"collection_times": [{"days": "Mon-Sat", "time": "1:15pm"}, {"days": "Sun", "time": "Closed"}], "id": "1530100083", "name": "USPS COLLECTION BOX - BLUE BOX", "address": {"city": "WASHINGTON", "state": "PA", "street": "90 W CHESTNUT ST", "postcode": "15301"}}},
{"geometry": {"type": "Point", "coordinates": [-80.2499688227, 40.1702288047]}, "type": "Feature", "properties": {"collection_times": [{"days": "Mon-Sat", "time": "1:15pm"}, {"days": "Sun", "time": "Closed"}], "id": "1530100084", "name": "USPS COLLECTION BOX - BLUE BOX", "address": {"city": "WASHINGTON", "state": "PA", "street": "150 W BEAU ST", "postcode": "15301"}}},
{"geometry": {"type": "Point", "coordinates": [-80.2521398221, 40.1721126639]}, "type": "Feature", "properties": {"collection_times": [{"days": "Mon-Sat", "time": "1:15pm"}, {"days": "Sun", "time": "Closed"}], "id": "1530100086", "name": "USPS COLLECTION BOX - BLUE BOX", "address": {"city": "WASHINGTON", "state": "PA", "street": "90 W CHESTNUT ST", "postcode": "15301"}}},
{"geometry": {"type": "Point", "coordinates": [-80.2454460315, 40.1708625887]}, "type": "Feature", "properties": {"collection_times": [{"days": "Mon-Fri", "time": "5:00pm"}, {"days": "Sat", "time": "1:30pm"}, {"days": "Sun", "time": "Closed"}], "id": "1530100087", "name": "USPS COLLECTION BOX - BLUE BOX", "address": {"city": "WASHINGTON", "state": "PA", "street": "26 E BEAU ST", "postcode": "15301"}}},
{"geometry": {"type": "Point", "coordinates": [-80.2521398221, 40.1721126639]}, "type": "Feature", "properties": {"collection_times": [{"days": "Mon-Sat", "time": "1:00pm"}, {"days": "Sun", "time": "Closed"}], "id": "1530100089", "name": "USPS COLLECTION BOX - BLUE BOX", "address": {"city": "WASHINGTON", "state": "PA", "street": "155 WILSON AVE", "postcode": "15301"}}},
{"geometry": {"type": "Point", "coordinates": [-80.2167906056, 40.1145670537]}, "type": "Feature", "properties": {"collection_times": [{"days": "Mon-Sat", "time": "10:30am"}, {"days": "Sun", "time": "Closed"}], "id": "1530100090", "name": "USPS COLLECTION BOX - BLUE BOX", "address": {"city": "WASHINGTON", "state": "PA", "street": "470 JOHNSON RD", "postcode": "15301"}}},
{"geometry": {"type": "Point", "coordinates": [-80.2472503439, 40.1778748602]}, "type": "Feature", "properties": {"collection_times": [{"days": "Mon-Sat", "time": "1:00pm"}, {"days": "Sun", "time": "Closed"}], "id": "1530100091", "name": "USPS COLLECTION BOX - BLUE BOX", "address": {"city": "WASHINGTON", "state": "PA", "street": "500 N MAIN ST", "postcode": "15301"}}},
{"geometry": {"type": "Point", "coordinates": [-80.2489267676, 40.1675634177]}, "type": "Feature", "properties": {"collection_times": [{"days": "Mon-Fri", "time": "6:30pm"}, {"days": "Sat", "time": "5:00pm"}, {"days": "Sun", "time": "Closed"}], "id": "1530100092", "name": "USPS COLLECTION BOX - APC", "address": {"city": "WASHINGTON", "state": "PA", "street": "153 JEFFERSON AVE", "postcode": "15301"}}},
{"geometry": {"type": "Point", "coordinates": [-80.2627975959, 40.1810632038]}, "type": "Feature", "properties": {"collection_times": [{"days": "Mon-Sat", "time": "9:00am"}, {"days": "Sun", "time": "Closed"}], "id": "1530100094", "name": "USPS COLLECTION BOX - BLUE BOX", "address": {"city": "WASHINGTON", "state": "PA", "street": "940 JEFFERSON AVE", "postcode": "15301"}}},
{"geometry": {"type": "Point", "coordinates": [-80.2442822883, 40.1662839849]}, "type": "Feature", "properties": {"collection_times": [{"days": "Mon-Fri", "time": "12:30pm"}, {"days": "Sat", "time": "3:00pm"}, {"days": "Sun", "time": "Closed"}], "id": "1530100095", "name": "USPS COLLECTION BOX - BLUE BOX", "address": {"city": "WASHINGTON", "state": "PA", "street": "331 S MAIN ST", "postcode": "15301"}}},
{"geometry": {"type": "Point", "coordinates": [-80.2478261978, 40.1704603518]}, "type": "Feature", "properties": {"collection_times": [{"days": "Mon-Sat", "time": "1:15pm"}, {"days": "Sun", "time": "Closed"}], "id": "1530100096", "name": "USPS COLLECTION BOX - BLUE BOX", "address": {"city": "WASHINGTON", "state": "PA", "street": "95 W BEAU ST", "postcode": "15301"}}},
{"geometry": {"type": "Point", "coordinates": [-80.2167086092, 40.1147134758]}, "type": "Feature", "properties": {"collection_times": [{"days": "Mon-Sat", "time": "10:30am"}, {"days": "Sun", "time": "Closed"}], "id": "1530100097", "name": "USPS COLLECTION BOX - BLUE BOX", "address": {"city": "WASHINGTON", "state": "PA", "street": "480 JOHNSON RD", "postcode": "15301"}}},
{"geometry": {"type": "Point", "coordinates": [-80.4503111828, 39.83738319]}, "type": "Feature", "properties": {"collection_times": [{"days": "Mon-Fri", "time": "3:45pm"}, {"days": "Sat", "time": "11:45am"}, {"days": "Sun", "time": "Closed"}], "id": "1531000001", "name": "USPS COLLECTION BOX - BLUE BOX", "address": {"city": "ALEPPO", "state": "PA", "street": "1169 ALEPPO RD", "postcode": "15310"}}},
{"geometry": {"type": "Point", "coordinates": [-80.2052619549, 40.0373754527]}, "type": "Feature", "properties": {"collection_times": [{"days": "Mon-Fri", "time": "4:15pm"}, {"days": "Sat", "time": "11:45am"}, {"days": "Sun", "time": "Closed"}], "id": "1531100001", "name": "USPS COLLECTION BOX - BLUE BOX", "address": {"city": "AMITY", "state": "PA", "street": "630 AMITY RIDGE RD", "postcode": "15311"}}},
{"geometry": {"type": "Point", "coordinates": [-80.2052619549, 40.0373754527]}, "type": "Feature", "properties": {"collection_times": [{"days": "Mon-Fri", "time": "12:25pm"}, {"days": "Sat", "time": "11:45am"}, {"days": "Sun", "time": "Closed"}], "id": "1531100002", "name": "USPS COLLECTION BOX - PO LOBBY", "address": {"city": "AMITY", "state": "PA", "street": "630 AMITY RIDGE RD LBBY", "postcode": "15311"}}},
{"geometry": {"type": "Point", "coordinates": [-80.4622671145, 40.2785404919]}, "type": "Feature", "properties": {"collection_times": [{"days": "Mon-Fri", "time": "4:30pm"}, {"days": "Sat", "time": "12:00pm"}, {"days": "Sun", "time": "Closed"}], "id": "1531200001", "name": "USPS COLLECTION BOX - BLUE BOX", "address": {"city": "AVELLA", "state": "PA", "street": "17 CAMPBELL ST", "postcode": "15312"}}},
{"geometry": {"type": "Point", "coordinates": [-80.4622671145, 40.2785404919]}, "type": "Feature", "properties": {"collection_times": [{"days": "Mon-Fri", "time": "4:30pm"}, {"days": "Sat", "time": "12:00pm"}, {"days": "Sun", "time": "Closed"}], "id": "1531200002", "name": "USPS COLLECTION BOX - PO LOBBY", "address": {"city": "AVELLA", "state": "PA", "street": "17 CAMPBELL ST", "postcode": "15312"}}},
{"geometry": {"type": "Point", "coordinates": [-80.0200788328, 40.0600712688]}, "type": "Feature", "properties": {"collection_times": [{"days": "Mon-Fri", "time": "4:00pm"}, {"days": "Sat", "time": "11:30am"}, {"days": "Sun", "time": "Closed"}], "id": "1531300001", "name": "USPS COLLECTION BOX - BLUE BOX", "address": {"city": "BEALLSVILLE", "state": "PA", "street": "82B SOUTH ST", "postcode": "15313"}}},
{"geometry": {"type": "Point", "coordinates": [-80.0200788328, 40.0600712688]}, "type": "Feature", "properties": {"collection_times": [{"days": "Mon-Fri", "time": "11:55am"}, {"days": "Sat", "time": "11:30am"}, {"days": "Sun", "time": "Closed"}], "id": "1531300002", "name": "USPS COLLECTION BOX - PO LOBBY", "address": {"city": "BEALLSVILLE", "state": "PA", "street": "82B SOUTH ST", "postcode": "15313"}}},
{"geometry": {"type": "Point", "coordinates": [-80.0141291108, 40.1267334265]}, "type": "Feature", "properties": {"collection_times": [{"days": "Mon-Fri", "time": "4:30pm"}, {"days": "Sat", "time": "3:00pm"}, {"days": "Sun", "time": "Closed"}], "id": "1531400001", "name": "USPS COLLECTION BOX - BLUE BOX", "address": {"city": "BENTLEYVILLE", "state": "PA", "street": "901 MAIN ST", "postcode": "15314"}}},
{"geometry": {"type": "Point", "coordinates": [-80.0023149245, 40.1287849847]}, "type": "Feature", "properties": {"collection_times": [{"days": "Mon-Sat", "time": "9:30am"}, {"days": "Sun", "time": "Closed"}], "id": "1531400002", "name": "USPS COLLECTION BOX - BLUE BOX", "address": {"city": "BENTLEYVILLE", "state": "PA", "street": "155 WILSON RD", "postcode": "15314"}}},
{"geometry": {"type": "Point", "coordinates": [-80.0081399084, 40.1170980919]}, "type": "Feature", "properties": {"collection_times": [{"days": "Mon-Sat", "time": "1:45pm"}, {"days": "Sun", "time": "Closed"}], "id": "1531400003", "name": "USPS COLLECTION BOX - BLUE BOX", "address": {"city": "BENTLEYVILLE", "state": "PA", "street": "604 MAIN ST", "postcode": "15314"}}},
{"geometry": {"type": "Point", "coordinates": [-80.0141291108, 40.1267334265]}, "type": "Feature", "properties": {"collection_times": [{"days": "Mon-Fri", "time": "4:30pm"}, {"days": "Sat", "time": "3:00pm"}, {"days": "Sun", "time": "Closed"}], "id": "1531400005", "name": "USPS COLLECTION BOX - BLUE BOX", "address": {"city": "BENTLEYVILLE", "state": "PA", "street": "901 MAIN ST", "postcode": "15314"}}},
{"geometry": {"type": "Point", "coordinates": [-80.0059344734, 40.1216423698]}, "type": "Feature", "properties": {"collection_times": [{"days": "Mon-Fri", "time": "4:30pm"}, {"days": "Sat", "time": "3:00pm"}, {"days": "Sun", "time": "Closed"}], "id": "1531400006", "name": "USPS COLLECTION BOX - PO LOBBY", "address": {"city": "BENTLEYVILLE", "state": "PA", "street": "901 MAIN ST LBBY", "postcode": "15314"}}},
{"geometry": {"type": "Point", "coordinates": [-80.0059344734, 40.1216423698]}, "type": "Feature", "properties": {"collection_times": [{"days": "Mon-Fri", "time": "4:30pm"}, {"days": "Sat", "time": "3:00pm"}, {"days": "Sun", "time": "Closed"}], "id": "1531400007", "name": "USPS COLLECTION BOX - PO LOBBY", "address": {"city": "BENTLEYVILLE", "state": "PA", "street": "901 MAIN ST LBBY", "postcode": "15314"}}},
{"geometry": {"type": "Point", "coordinates": [-80.0012244046, 40.1301840851]}, "type": "Feature", "properties": {"collection_times": [{"days": "Mon-Sat", "time": "9:15am"}, {"days": "Sun", "time": "Closed"}], "id": "1531400008", "name": "USPS COLLECTION BOX - BLUE BOX", "address": {"city": "BENTLEYVILLE", "state": "PA", "street": "205 WILSON RD", "postcode": "15314"}}},
{"geometry": {"type": "Point", "coordinates": [-79.9840974523, 39.7606251988]}, "type": "Feature", "properties": {"collection_times": [{"days": "Mon-Fri", "time": "4:00pm"}, {"days": "Sat", "time": "11:45am"}, {"days": "Sun", "time": "Closed"}], "id": "1531500001", "name": "USPS COLLECTION BOX - BLUE BOX", "address": {"city": "BOBTOWN", "state": "PA", "street": "778 LARIMER AVE", "postcode": "15315"}}},
{"geometry": {"type": "Point", "coordinates": [-79.9840974523, 39.7606251988]}, "type": "Feature", "properties": {"collection_times": [{"days": "Mon-Fri", "time": "4:00pm"}, {"days": "Sat", "time": "11:45am"}, {"days": "Sun", "time": "Closed"}], "id": "1531500002", "name": "USPS COLLECTION BOX - PO LOBBY", "address": {"city": "BOBTOWN", "state": "PA", "street": "778 LARIMER AVE", "postcode": "15315"}}},
{"geometry": {"type": "Point", "coordinates": [-80.2598434075, 39.7249180299]}, "type": "Feature", "properties": {"collection_times": [{"days": "Mon-Fri", "time": "4:15pm"}, {"days": "Sat", "time": "11:45am"}, {"days": "Sun", "time": "Closed"}], "id": "1531600001", "name": "USPS COLLECTION BOX - BLUE BOX", "address": {"city": "BRAVE", "state": "PA", "street": "120 OAK FOREST RD", "postcode": "15316"}}},
{"geometry": {"type": "Point", "coordinates": [-80.2598434075, 39.7249180299]}, "type": "Feature", "properties": {"collection_times": [{"days": "Mon-Fri", "time": "9:50am"}, {"days": "Sat", "time": "11:45am"}, {"days": "Sun", "time": "Closed"}], "id": "1531600002", "name": "USPS COLLECTION BOX - PO LOBBY", "address": {"city": "BRAVE", "state": "PA", "street": "120 OAK FOREST RD", "postcode": "15316"}}},
{"geometry": {"type": "Point", "coordinates": [-80.1658698452, 40.2711970801]}, "type": "Feature", "properties": {"collection_times": [{"days": "Mon-Fri", "time": "5:00pm"}, {"days": "Sat", "time": "2:30pm"}, {"days": "Sun", "time": "Closed"}], "id": "1531700001", "name": "USPS COLLECTION BOX - BLUE BOX", "address": {"city": "CANONSBURG", "state": "PA", "street": "120 W PIKE ST", "postcode": "15317"}}},
{"geometry": {"type": "Point", "coordinates": [-80.1658698452, 40.2711970801]}, "type": "Feature", "properties": {"collection_times": [{"days": "Mon-Fri", "time": "3:00pm"}, {"days": "Sat", "time": "1:00pm"}, {"days": "Sun", "time": "Closed"}], "id": "1531700003", "name": "USPS COLLECTION BOX - BLUE BOX", "address": {"city": "CANONSBURG", "state": "PA", "street": "15 N CENTRAL AVE", "postcode": "15317"}}},
{"geometry": {"type": "Point", "coordinates": [-80.1851966454, 40.2591373671]}, "type": "Feature", "properties": {"collection_times": [{"days": "Mon-Fri", "time": "3:00pm"}, {"days": "Sat", "time": "1:00pm"}, {"days": "Sun", "time": "Closed"}], "id": "1531700005", "name": "USPS COLLECTION BOX - BLUE BOX", "address": {"city": "CANONSBURG", "state": "PA", "street": "69 E PIKE ST", "postcode": "15317"}}},
{"geometry": {"type": "Point", "coordinates": [-80.1847556395, 40.2563724663]}, "type": "Feature", "properties": {"collection_times": [{"days": "Mon-Fri", "time": "2:00pm"}, {"days": "Sat", "time": "1:00pm"}, {"days": "Sun", "time": "Closed"}], "id": "1531700007", "name": "USPS COLLECTION BOX - BLUE BOX", "address": {"city": "CANONSBURG", "state": "PA", "street": "101 MEADOW LN", "postcode": "15317"}}},
{"geometry": {"type": "Point", "coordinates": [-80.1741515438, 40.2678004075]}, "type": "Feature", "properties": {"collection_times": [{"days": "Mon-Fri", "time": "1:15pm"}, {"days": "Sat", "time": "1:00pm"}, {"days": "Sun", "time": "Closed"}], "id": "1531700020", "name": "USPS COLLECTION BOX - BLUE BOX", "address": {"city": "CANONSBURG", "state": "PA", "street": "537 DUQUESNE AVE", "postcode": "15317"}}},
{"geometry": {"type": "Point", "coordinates": [-80.178786377, 40.2663359043]}, "type": "Feature", "properties": {"collection_times": [{"days": "Mon-Fri", "time": "1:15pm"}, {"days": "Sat", "time": "1:00pm"}, {"days": "Sun", "time": "Closed"}], "id": "1531700022", "name": "USPS COLLECTION BOX - BLUE BOX", "address": {"city": "CANONSBURG", "state": "PA", "street": "401 FRANKLIN AVE", "postcode": "15317"}}},
{"geometry": {"type": "Point", "coordinates": [-80.177854024, 40.2605196439]}, "type": "Feature", "properties": {"collection_times": [{"days": "Mon-Fri", "time": "4:30pm"}, {"days": "Sat", "time": "1:00pm"}, {"days": "Sun", "time": "Closed"}], "id": "1531700024", "name": "USPS COLLECTION BOX - BLUE BOX", "address": {"city": "CANONSBURG", "state": "PA", "street": "1000 PHILADELPHIA ST", "postcode": "15317"}}},
{"geometry": {"type": "Point", "coordinates": [-80.1817165664, 40.2597503717]}, "type": "Feature", "properties": {"collection_times": [{"days": "Mon-Fri", "time": "3:00pm"}, {"days": "Sat", "time": "1:00pm"}, {"days": "Sun", "time": "Closed"}], "id": "1531700027", "name": "USPS COLLECTION BOX - BLUE BOX", "address": {"city": "CANONSBURG", "state": "PA", "street": "163 E PIKE ST", "postcode": "15317"}}},
{"geometry": {"type": "Point", "coordinates": [-80.191496381, 40.2464216701]}, "type": "Feature", "properties": {"collection_times": [{"days": "Mon-Fri", "time": "2:00pm"}, {"days": "Sat-Sun", "time": "Closed"}], "id": "1531700032", "name": "USPS COLLECTION BOX - BLUE BOX", "address": {"city": "CANONSBURG", "state": "PA", "street": "100 MEDICAL BLVD", "postcode": "15317"}}},
{"geometry": {"type": "Point", "coordinates": [-80.1337429084, 40.2628389544]}, "type": "Feature", "properties": {"collection_times": [{"days": "Mon-Fri", "time": "3:30pm"}, {"days": "Sat", "time": "1:00pm"}, {"days": "Sun", "time": "Closed"}], "id": "1531700036", "name": "USPS COLLECTION BOX - BLUE BOX", "address": {"city": "CANONSBURG", "state": "PA", "street": "1061 WATERDAM PLAZA DR", "postcode": "15317"}}},
{"geometry": {"type": "Point", "coordinates": [-80.134208439, 40.263281342]}, "type": "Feature", "properties": {"collection_times": [{"days": "Mon-Fri", "time": "3:30pm"}, {"days": "Sat", "time": "1:00pm"}, {"days": "Sun", "time": "Closed"}], "id": "1531700037", "name": "USPS COLLECTION BOX - BLUE BOX", "address": {"city": "CANONSBURG", "state": "PA", "street": "2001 WATERDAM PLAZA DR", "postcode": "15317"}}},
{"geometry": {"type": "Point", "coordinates": [-80.1279120163, 40.2711756812]}, "type": "Feature", "properties": {"collection_times": [{"days": "Mon-Fri", "time": "5:00pm"}, {"days": "Sat", "time": "1:30pm"}, {"days": "Sun", "time": "Closed"}], "id": "1531700040", "name": "USPS COLLECTION BOX - BLUE BOX", "address": {"city": "CANONSBURG", "state": "PA", "street": "3935 WASHINGTON RD", "postcode": "15317"}}},
{"geometry": {"type": "Point", "coordinates": [-80.1210351642, 40.2838932895]}, "type": "Feature", "properties": {"collection_times": [{"days": "Mon-Fri", "time": "2:30pm"}, {"days": "Sat", "time": "12:30pm"}, {"days": "Sun", "time": "Closed"}], "id": "1531700042", "name": "USPS COLLECTION BOX - BLUE BOX", "address": {"city": "CANONSBURG", "state": "PA", "street": "3515 WASHINGTON RD", "postcode": "15317"}}},
{"geometry": {"type": "Point", "coordinates": [-80.1291770632, 40.2670592063]}, "type": "Feature", "properties": {"collection_times": [{"days": "Mon-Fri", "time": "3:30pm"}, {"days": "Sat", "time": "1:00pm"}, {"days": "Sun", "time": "Closed"}], "id": "1531700043", "name": "USPS COLLECTION BOX - BLUE BOX", "address": {"city": "CANONSBURG", "state": "PA", "street": "4050 WASHINGTON RD", "postcode": "15317"}}},
{"geometry": {"type": "Point", "coordinates": [-80.1314928605, 40.2637972743]}, "type": "Feature", "properties": {"collection_times": [{"days": "Mon-Fri", "time": "3:30pm"}, {"days": "Sat", "time": "1:00pm"}, {"days": "Sun", "time": "Closed"}], "id": "1531700044", "name": "USPS COLLECTION BOX - BLUE BOX", "address": {"city": "CANONSBURG", "state": "PA", "street": "4150 WASHINGTON RD", "postcode": "15317"}}},
{"geometry": {"type": "Point", "coordinates": [-80.1322145965, 40.2601106116]}, "type": "Feature", "properties": {"collection_times": [{"days": "Mon-Fri", "time": "3:30pm"}, {"days": "Sat", "time": "1:00pm"}, {"days": "Sun", "time": "Closed"}], "id": "1531700045", "name": "USPS COLLECTION BOX - BLUE BOX", "address": {"city": "CANONSBURG", "state": "PA", "street": "157 WATERDAM RD", "postcode": "15317"}}},
{"geometry": {"type": "Point", "coordinates": [-80.0840770647, 40.2781899308]}, "type": "Feature", "properties": {"collection_times": [{"days": "Mon-Fri", "time": "2:45pm"}, {"days": "Sat", "time": "12:30pm"}, {"days": "Sun", "time": "Closed"}], "id": "1531700046", "name": "USPS COLLECTION BOX - BLUE BOX", "address": {"city": "CANONSBURG", "state": "PA", "street": "601 E MCMURRAY RD", "postcode": "15317"}}},
{"geometry": {"type": "Point", "coordinates": [-80.082279093, 40.279851651]}, "type": "Feature", "properties": {"collection_times": [{"days": "Mon-Fri", "time": "2:45pm"}, {"days": "Sat", "time": "12:30pm"}, {"days": "Sun", "time": "Closed"}], "id": "1531700047", "name": "USPS COLLECTION BOX - BLUE BOX", "address": {"city": "CANONSBURG", "state": "PA", "street": "610 E MCMURRAY RD REAR", "postcode": "15317"}}},
{"geometry": {"type": "Point", "coordinates": [-80.1027706169, 40.293729685]}, "type": "Feature", "properties": {"collection_times": [{"days": "Mon-Fri", "time": "2:45pm"}, {"days": "Sat", "time": "12:45pm"}, {"days": "Sun", "time": "Closed"}], "id": "1531700048", "name": "USPS COLLECTION BOX - BLUE BOX", "address": {"city": "CANONSBURG", "state": "PA", "street": "3025 WASHINGTON RD", "postcode": "15317"}}},
{"geometry": {"type": "Point", "coordinates": [-80.1133807775, 40.2901293804]}, "type": "Feature", "properties": {"collection_times": [{"days": "Mon-Fri", "time": "3:00pm"}, {"days": "Sat", "time": "12:45pm"}, {"days": "Sun", "time": "Closed"}], "id": "1531700049", "name": "USPS COLLECTION BOX - BLUE BOX", "address": {"city": "CANONSBURG", "state": "PA", "street": "130 GALLERY DR", "postcode": "15317"}}},
{"geometry": {"type": "Point", "coordinates": [-80.1883043489, 40.2585727831]}, "type": "Feature", "properties": {"collection_times": [{"days": "Mon-Fri", "time": "3:00pm"}, {"days": "Sat", "time": "1:00pm"}, {"days": "Sun", "time": "Closed"}], "id": "1531700050", "name": "USPS COLLECTION BOX - BLUE BOX", "address": {"city": "CANONSBURG", "state": "PA", "street": "12 N JEFFERSON AVE", "postcode": "15317"}}},
{"geometry": {"type": "Point", "coordinates": [-80.173345996, 40.2555082854]}, "type": "Feature", "properties": {"collection_times": [{"days": "Mon-Fri", "time": "1:30pm"}, {"days": "Sat", "time": "1:00pm"}, {"days": "Sun", "time": "Closed"}], "id": "1531700051", "name": "USPS COLLECTION BOX - BLUE BOX", "address": {"city": "CANONSBURG", "state": "PA", "street": "102 GREENWOOD DR", "postcode": "15317"}}},
{"geometry": {"type": "Point", "coordinates": [-80.1289001479, 40.2669998863]}, "type": "Feature", "properties": {"collection_times": [{"days": "Mon-Fri", "time": "3:30pm"}, {"days": "Sat", "time": "1:15pm"}, {"days": "Sun", "time": "Closed"}], "id": "1531700053", "name": "USPS COLLECTION BOX - BLUE BOX", "address": {"city": "CANONSBURG", "state": "PA", "street": "4055 WASHINGTON RD", "postcode": "15317"}}},
{"geometry": {"type": "Point", "coordinates": [-80.1658698452, 40.2711970801]}, "type": "Feature", "properties": {"collection_times": [{"days": "Mon-Fri", "time": "5:00pm"}, {"days": "Sat", "time": "2:30pm"}, {"days": "Sun", "time": "Closed"}], "id": "1531700058", "name": "USPS COLLECTION BOX - BLUE BOX", "address": {"city": "CANONSBURG", "state": "PA", "street": "120 W PIKE ST", "postcode": "15317"}}},
{"geometry": {"type": "Point", "coordinates": [-80.1691795672, 40.2655610662]}, "type": "Feature", "properties": {"collection_times": [{"days": "Mon-Fri", "time": "3:00pm"}, {"days": "Sat", "time": "1:00pm"}, {"days": "Sun", "time": "Closed"}], "id": "1531700059", "name": "USPS COLLECTION BOX - BLUE BOX", "address": {"city": "CANONSBURG", "state": "PA", "street": "152 MORGANZA RD", "postcode": "15317"}}},
{"geometry": {"type": "Point", "coordinates": [-80.1658698452, 40.2711970801]}, "type": "Feature", "properties": {"collection_times": [{"days": "Mon-Fri", "time": "4:30pm"}, {"days": "Sat", "time": "10:00am"}, {"days": "Sun", "time": "Closed"}], "id": "1531700060", "name": "USPS COLLECTION BOX - BLUE BOX", "address": {"city": "CANONSBURG", "state": "PA", "street": "325 SOUTHPOINTE BLVD", "postcode": "15317"}}},
{"geometry": {"type": "Point", "coordinates": [-80.1742859, 40.295558424]}, "type": "Feature", "properties": {"collection_times": [{"days": "Mon-Fri", "time": "4:30pm"}, {"days": "Sat", "time": "11:00am"}, {"days": "Sun", "time": "Closed"}], "id": "1531700061", "name": "USPS COLLECTION BOX - BLUE BOX", "address": {"city": "CANONSBURG", "state": "PA", "street": "400 SOUTHPOINTE BLVD", "postcode": "15317"}}},
{"geometry": {"type": "Point", "coordinates": [-80.2043340448, 40.2572280792]}, "type": "Feature", "properties": {"collection_times": [{"days": "Mon-Fri", "time": "2:00pm"}, {"days": "Sat", "time": "1:00pm"}, {"days": "Sun", "time": "Closed"}], "id": "1531700064", "name": "USPS COLLECTION BOX - BLUE BOX", "address": {"city": "CANONSBURG", "state": "PA", "street": "617 W PIKE ST", "postcode": "15317"}}},
{"geometry": {"type": "Point", "coordinates": [-80.1819803662, 40.2432303498]}, "type": "Feature", "properties": {"collection_times": [{"days": "Mon-Fri", "time": "2:00pm"}, {"days": "Sat", "time": "1:00pm"}, {"days": "Sun", "time": "Closed"}], "id": "1531700065", "name": "USPS COLLECTION BOX - BLUE BOX", "address": {"city": "CANONSBURG", "state": "PA", "street": "950 S CENTRAL AVE", "postcode": "15317"}}},
{"geometry": {"type": "Point", "coordinates": [-80.1658698452, 40.2711970801]}, "type": "Feature", "properties": {"collection_times": [{"days": "Mon-Fri", "time": "4:30pm"}, {"days": "Sat", "time": "10:00am"}, {"days": "Sun", "time": "Closed"}], "id": "1531700069", "name": "USPS COLLECTION BOX - BLUE BOX", "address": {"city": "CANONSBURG", "state": "PA", "street": "325 SOUTHPOINTE BLVD", "postcode": "15317"}}},
{"geometry": {"type": "Point", "coordinates": [-80.1282442246, 40.2701293001]}, "type": "Feature", "properties": {"collection_times": [{"days": "Mon-Fri", "time": "5:00pm"}, {"days": "Sat", "time": "2:15pm"}, {"days": "Sun", "time": "Closed"}], "id": "1531700071", "name": "USPS COLLECTION BOX - PO LOBBY", "address": {"city": "CANONSBURG", "state": "PA", "street": "3935 WASHINGTON RD LBBY", "postcode": "15317"}}},
{"geometry": {"type": "Point", "coordinates": [-80.1282442246, 40.2701293001]}, "type": "Feature", "properties": {"collection_times": [{"days": "Mon-Fri", "time": "5:00pm"}, {"days": "Sat", "time": "2:15pm"}, {"days": "Sun", "time": "Closed"}], "id": "1531700072", "name": "USPS COLLECTION BOX - PO LOBBY", "address": {"city": "CANONSBURG", "state": "PA", "street": "3935 WASHINGTON RD LBBY", "postcode": "15317"}}},
{"geometry": {"type": "Point", "coordinates": [-80.1897499711, 40.258347426]}, "type": "Feature", "properties": {"collection_times": [{"days": "Mon-Fri", "time": "5:00pm"}, {"days": "Sat", "time": "2:30pm"}, {"days": "Sun", "time": "Closed"}], "id": "1531700073", "name": "USPS COLLECTION BOX - PO LOBBY", "address": {"city": "CANONSBURG", "state": "PA", "street": "120 W PIKE ST LBBY", "postcode": "15317"}}},
{"geometry": {"type": "Point", "coordinates": [-80.177854024, 40.2605196439]}, "type": "Feature", "properties": {"collection_times": [{"days": "Mon-Fri", "time": "4:30pm"}, {"days": "Sat", "time": "1:00pm"}, {"days": "Sun", "time": "Closed"}], "id": "1531700074", "name": "USPS COLLECTION BOX - BLUE BOX", "address": {"city": "CANONSBURG", "state": "PA", "street": "1000 PHILADELPHIA ST", "postcode": "15317"}}},
{"geometry": {"type": "Point", "coordinates": [-80.1658698452, 40.2711970801]}, "type": "Feature", "properties": {"collection_times": [{"days": "Mon-Fri", "time": "4:30pm"}, {"days": "Sat", "time": "10:00am"}, {"days": "Sun", "time": "Closed"}], "id": "1531700078", "name": "USPS COLLECTION BOX - BLUE BOX", "address": {"city": "CANONSBURG", "state": "PA", "street": "325 SOUTHPOINTE BLVD", "postcode": "15317"}}},
{"geometry": {"type": "Point", "coordinates": [-80.1282442246, 40.2701293001]}, "type": "Feature", "properties": {"collection_times": [{"days": "Mon-Fri", "time": "5:00pm"}, {"days": "Sat", "time": "2:15pm"}, {"days": "Sun", "time": "Closed"}], "id": "1531700080", "name": "USPS COLLECTION BOX - APC", "address": {"city": "CANONSBURG", "state": "PA", "street": "3935 WASHINGTON RD", "postcode": "15317"}}},
{"geometry": {"type": "Point", "coordinates": [-80.175555714, 40.301175798]}, "type": "Feature", "properties": {"collection_times": [{"days": "Mon-Fri", "time": "4:30pm"}, {"days": "Sat", "time": "11:00am"}, {"days": "Sun", "time": "Closed"}], "id": "1531700084", "name": "USPS COLLECTION BOX - BLUE BOX", "address": {"city": "CANONSBURG", "state": "PA", "street": "2000 CORPORATE DR", "postcode": "15317"}}},
{"geometry": {"type": "Point", "coordinates": [-79.9744214725, 39.8961861935]}, "type": "Feature", "properties": {"collection_times": [{"days": "Mon-Fri", "time": "4:00pm"}, {"days": "Sat", "time": "3:30pm"}, {"days": "Sun", "time": "Closed"}], "id": "1532000009", "name": "USPS COLLECTION BOX - BLUE BOX", "address": {"city": "CARMICHAELS", "state": "PA", "street": "111 N MARKET ST", "postcode": "15320"}}},
{"geometry": {"type": "Point", "coordinates": [-79.9744214725, 39.8961861935]}, "type": "Feature", "properties": {"collection_times": [{"days": "Mon-Fri", "time": "4:45pm"}, {"days": "Sat", "time": "3:30pm"}, {"days": "Sun", "time": "Closed"}], "id": "1532000012", "name": "USPS COLLECTION BOX - PO LOBBY", "address": {"city": "CARMICHAELS", "state": "PA", "street": "111 N MARKET ST LBBY", "postcode": "15320"}}},
{"geometry": {"type": "Point", "coordinates": [-80.1977557502, 40.3233528047]}, "type": "Feature", "properties": {"collection_times": [{"days": "Mon-Fri", "time": "4:00pm"}, {"days": "Sat", "time": "12:00pm"}, {"days": "Sun", "time": "Closed"}], "id": "1532100001", "name": "USPS COLLECTION BOX - BLUE BOX", "address": {"city": "CECIL", "state": "PA", "street": "3333 MILLERS RUN RD", "postcode": "15321"}}},
{"geometry": {"type": "Point", "coordinates": [-80.1977557502, 40.3233528047]}, "type": "Feature", "properties": {"collection_times": [{"days": "Mon-Fri", "time": "4:00pm"}, {"days": "Sat", "time": "12:00pm"}, {"days": "Sun", "time": "Closed"}], "id": "1532100002", "name": "USPS COLLECTION BOX - BLUE BOX", "address": {"city": "CECIL", "state": "PA", "street": "3333 MILLERS RUN RD", "postcode": "15321"}}},
{"geometry": {"type": "Point", "coordinates": [-80.1977557502, 40.3233528047]}, "type": "Feature", "properties": {"collection_times": [{"days": "Mon-Fri", "time": "4:00pm"}, {"days": "Sat", "time": "12:00pm"}, {"days": "Sun", "time": "Closed"}], "id": "1532100003", "name": "USPS COLLECTION BOX - PO LOBBY", "address": {"city": "CECIL", "state": "PA", "street": "3333 MILLERS RUN RD", "postcode": "15321"}}},
{"geometry": {"type": "Point", "coordinates": [-80.2177606281, 40.3187587495]}, "type": "Feature", "properties": {"collection_times": [{"days": "Mon-Sat", "time": "10:00am"}, {"days": "Sun", "time": "Closed"}], "id": "1532100004", "name": "USPS COLLECTION BOX - BLUE BOX", "address": {"city": "CECIL", "state": "PA", "street": "3599 MILLERS RUN RD", "postcode": "15321"}}},
{"geometry": {"type": "Point", "coordinates": [-80.0451995488, 39.9734636901]}, "type": "Feature", "properties": {"collection_times": [{"days": "Mon-Fri", "time": "4:30pm"}, {"days": "Sat", "time": "12:15pm"}, {"days": "Sun", "time": "Closed"}], "id": "1532200001", "name": "USPS COLLECTION BOX - BLUE BOX", "address": {"city": "CLARKSVILLE", "state": "PA", "street": "541 CENTER ST", "postcode": "15322"}}},
{"geometry": {"type": "Point", "coordinates": [-80.0451995488, 39.9734636901]}, "type": "Feature", "properties": {"collection_times": [{"days": "Mon-Fri", "time": "4:45pm"}, {"days": "Sat", "time": "12:15pm"}, {"days": "Sun", "time": "Closed"}], "id": "1532200002", "name": "USPS COLLECTION BOX - PO LOBBY", "address": {"city": "CLARKSVILLE", "state": "PA", "street": "541 CENTER ST", "postcode": "15322"}}},
{"geometry": {"type": "Point", "coordinates": [-80.4123721835, 40.117246532]}, "type": "Feature", "properties": {"collection_times": [{"days": "Mon-Fri", "time": "4:30pm"}, {"days": "Sat", "time": "12:00pm"}, {"days": "Sun", "time": "Closed"}], "id": "1532300001", "name": "USPS COLLECTION BOX - BLUE BOX", "address": {"city": "CLAYSVILLE", "state": "PA", "street": "146 MAIN ST", "postcode": "15323"}}},
{"geometry": {"type": "Point", "coordinates": [-80.4123721835, 40.117246532]}, "type": "Feature", "properties": {"collection_times": [{"days": "Mon-Fri", "time": "4:30pm"}, {"days": "Sat", "time": "12:00pm"}, {"days": "Sun", "time": "Closed"}], "id": "1532300002", "name": "USPS COLLECTION BOX - PO LOBBY", "address": {"city": "CLAYSVILLE", "state": "PA", "street": "146 MAIN ST LBBY", "postcode": "15323"}}},
{"geometry": {"type": "Point", "coordinates": [-80.4123721835, 40.117246532]}, "type": "Feature", "properties": {"collection_times": [{"days": "Mon-Fri", "time": "4:30pm"}, {"days": "Sat", "time": "12:00pm"}, {"days": "Sun", "time": "Closed"}], "id": "1532300003", "name": "USPS COLLECTION BOX - PO LOBBY", "address": {"city": "CLAYSVILLE", "state": "PA", "street": "146 MAIN ST LBBY", "postcode": "15323"}}},
{"geometry": {"type": "Point", "coordinates": [-80.0631947249, 40.1015760233]}, "type": "Feature", "properties": {"collection_times": [{"days": "Mon-Fri", "time": "4:15pm"}, {"days": "Sat", "time": "11:15am"}, {"days": "Sun", "time": "Closed"}], "id": "1532400001", "name": "USPS COLLECTION BOX - BLUE BOX", "address": {"city": "COKEBURG", "state": "PA", "street": "0 MADISON ST", "postcode": "15324"}}},
{"geometry": {"type": "Point", "coordinates": [-80.0631947249, 40.1015760233]}, "type": "Feature", "properties": {"collection_times": [{"days": "Mon-Fri", "time": "11:55am"}, {"days": "Sat", "time": "11:15am"}, {"days": "Sun", "time": "Closed"}], "id": "1532400002", "name": "USPS COLLECTION BOX - PO LOBBY", "address": {"city": "COKEBURG", "state": "PA", "street": "0 MADISON ST", "postcode": "15324"}}},
{"geometry": {"type": "Point", "coordinates": [-80.0631947249, 40.1015760233]}, "type": "Feature", "properties": {"collection_times": [{"days": "Mon-Fri", "time": "11:55am"}, {"days": "Sat", "time": "11:15am"}, {"days": "Sun", "time": "Closed"}], "id": "1532400003", "name": "USPS COLLECTION BOX - PO LOBBY", "address": {"city": "COKEBURG", "state": "PA", "street": "0 MADISON ST", "postcode": "15324"}}},
{"geometry": {"type": "Point", "coordinates": [-79.964998513, 39.948300506]}, "type": "Feature", "properties": {"collection_times": [{"days": "Mon-Fri", "time": "4:30pm"}, {"days": "Sat", "time": "11:45am"}, {"days": "Sun", "time": "Closed"}], "id": "1532500001", "name": "USPS COLLECTION BOX - BLUE BOX", "address": {"city": "CRUCIBLE", "state": "PA", "street": "103B CRUCIBLE CARMICHAELS RD", "postcode": "15325"}}},
{"geometry": {"type": "Point", "coordinates": [-79.964998513, 39.948300506]}, "type": "Feature", "properties": {"collection_times": [{"days": "Mon-Fri", "time": "12:55pm"}, {"days": "Sat", "time": "11:45am"}, {"days": "Sun", "time": "Closed"}], "id": "1532500002", "name": "USPS COLLECTION BOX - PO LOBBY", "address": {"city": "CRUCIBLE", "state": "PA", "street": "103B CRUCIBLE CARMICHAELS RD", "postcode": "15325"}}},
{"geometry": {"type": "Point", "coordinates": [-79.9288758709, 39.7543636889]}, "type": "Feature", "properties": {"collection_times": [{"days": "Mon-Fri", "time": "4:30pm"}, {"days": "Sat", "time": "11:45am"}, {"days": "Sun", "time": "Closed"}], "id": "1532700001", "name": "USPS COLLECTION BOX - BLUE BOX", "address": {"city": "DILLINER", "state": "PA", "street": "2854 STATE ROUTE 88", "postcode": "15327"}}},
{"geometry": {"type": "Point", "coordinates": [-79.9288758709, 39.7543636889]}, "type": "Feature", "properties": {"collection_times": [{"days": "Mon-Sat", "time": "11:45am"}, {"days": "Sun", "time": "Closed"}], "id": "1532700002", "name": "USPS COLLECTION BOX - PO LOBBY", "address": {"city": "DILLINER", "state": "PA", "street": "2854 STATE ROUTE 88", "postcode": "15327"}}},
{"geometry": {"type": "Point", "coordinates": [-80.2920738725, 40.045999465]}, "type": "Feature", "properties": {"collection_times": [{"days": "Mon-Fri", "time": "3:45pm"}, {"days": "Sat", "time": "11:45am"}, {"days": "Sun", "time": "Closed"}], "id": "1532900001", "name": "USPS COLLECTION BOX - BLUE BOX", "address": {"city": "PROSPERITY", "state": "PA", "street": "4559 PROSPERITY PIKE", "postcode": "15329"}}},
{"geometry": {"type": "Point", "coordinates": [-80.1742530146, 39.9588506413]}, "type": "Feature", "properties": {"collection_times": [{"days": "Mon-Sat", "time": "10:00am"}, {"days": "Sun", "time": "Closed"}], "id": "1532900002", "name": "USPS COLLECTION BOX - BLUE BOX", "address": {"city": "PROSPERITY", "state": "PA", "street": "720 WASHINGTON RD", "postcode": "15329"}}},
{"geometry": {"type": "Point", "coordinates": [-80.2920738725, 40.045999465]}, "type": "Feature", "properties": {"collection_times": [{"days": "Mon-Fri", "time": "3:45pm"}, {"days": "Sat", "time": "11:45am"}, {"days": "Sun", "time": "Closed"}], "id": "1532900003", "name": "USPS COLLECTION BOX - PO LOBBY", "address": {"city": "PROSPERITY", "state": "PA", "street": "4559 PROSPERITY PIKE LBBY", "postcode": "15329"}}},
{"geometry": {"type": "Point", "coordinates": [-80.1337943644, 40.1786211966]}, "type": "Feature", "properties": {"collection_times": [{"days": "Mon-Fri", "time": "4:45pm"}, {"days": "Sat", "time": "12:00pm"}, {"days": "Sun", "time": "Closed"}], "id": "1533000001", "name": "USPS COLLECTION BOX - BLUE BOX", "address": {"city": "EIGHTY FOUR", "state": "PA", "street": "812 ROUTE 519", "postcode": "15330"}}},
{"geometry": {"type": "Point", "coordinates": [-80.1303433979, 40.1527083625]}, "type": "Feature", "properties": {"collection_times": [{"days": "Mon-Sat", "time": "10:00am"}, {"days": "Sun", "time": "Closed"}], "id": "1533000002", "name": "USPS COLLECTION BOX - BLUE BOX", "address": {"city": "EIGHTY FOUR", "state": "PA", "street": "444 ROUTE 519", "postcode": "15330"}}},
{"geometry": {"type": "Point", "coordinates": [-80.1337943644, 40.1786211966]}, "type": "Feature", "properties": {"collection_times": [{"days": "Mon-Fri", "time": "4:45pm"}, {"days": "Sat", "time": "12:00pm"}, {"days": "Sun", "time": "Closed"}], "id": "1533000003", "name": "USPS COLLECTION BOX - PO LOBBY", "address": {"city": "EIGHTY FOUR", "state": "PA", "street": "812 ROUTE 519", "postcode": "15330"}}},
{"geometry": {"type": "Point", "coordinates": [-80.0195943451, 40.1014772064]}, "type": "Feature", "properties": {"collection_times": [{"days": "Mon-Fri", "time": "4:30pm"}, {"days": "Sat", "time": "12:00pm"}, {"days": "Sun", "time": "Closed"}], "id": "1533100001", "name": "USPS COLLECTION BOX - BLUE BOX", "address": {"city": "ELLSWORTH", "state": "PA", "street": "1002 ALMOND RD", "postcode": "15331"}}},
{"geometry": {"type": "Point", "coordinates": [-80.0195943451, 40.1014772064]}, "type": "Feature", "properties": {"collection_times": [{"days": "Mon-Fri", "time": "4:30pm"}, {"days": "Sat", "time": "12:00pm"}, {"days": "Sun", "time": "Closed"}], "id": "1533100002", "name": "USPS COLLECTION BOX - PO LOBBY", "address": {"city": "ELLSWORTH", "state": "PA", "street": "1002 ALMOND RD", "postcode": "15331"}}},
{"geometry": {"type": "Point", "coordinates": [-80.0051860007, 40.2523671422]}, "type": "Feature", "properties": {"collection_times": [{"days": "Mon-Fri", "time": "4:15pm"}, {"days": "Sat", "time": "3:15pm"}, {"days": "Sun", "time": "Closed"}], "id": "1533200001", "name": "USPS COLLECTION BOX - BLUE BOX", "address": {"city": "FINLEYVILLE", "state": "PA", "street": "3510 EXTENSION AVE", "postcode": "15332"}}},
{"geometry": {"type": "Point", "coordinates": [-80.0051860007, 40.2523671422]}, "type": "Feature", "properties": {"collection_times": [{"days": "Mon-Fri", "time": "4:15pm"}, {"days": "Sat", "time": "3:15pm"}, {"days": "Sun", "time": "Closed"}], "id": "1533200004", "name": "USPS COLLECTION BOX - PO LOBBY", "address": {"city": "FINLEYVILLE", "state": "PA", "street": "3510 EXTENSION AVE", "postcode": "15332"}}},
{"geometry": {"type": "Point", "coordinates": [-80.0015609566, 40.2544023607]}, "type": "Feature", "properties": {"collection_times": [{"days": "Mon-Sat", "time": "10:00am"}, {"days": "Sun", "time": "Closed"}], "id": "1533200005", "name": "USPS COLLECTION BOX - BLUE BOX", "address": {"city": "FINLEYVILLE", "state": "PA", "street": "3701 STATE ROUTE 88", "postcode": "15332"}}},
{"geometry": {"type": "Point", "coordinates": [-79.9979795375, 40.0014115913]}, "type": "Feature", "properties": {"collection_times": [{"days": "Mon-Fri", "time": "4:15pm"}, {"days": "Sat", "time": "12:00pm"}, {"days": "Sun", "time": "Closed"}], "id": "1533300001", "name": "USPS COLLECTION BOX - BLUE BOX", "address": {"city": "FREDERICKTOWN", "state": "PA", "street": "531 FRONT ST", "postcode": "15333"}}},
{"geometry": {"type": "Point", "coordinates": [-79.9979795375, 40.0014115913]}, "type": "Feature", "properties": {"collection_times": [{"days": "Mon-Fri", "time": "4:15pm"}, {"days": "Sat", "time": "12:00pm"}, {"days": "Sun", "time": "Closed"}], "id": "1533300002", "name": "USPS COLLECTION BOX - PO LOBBY", "address": {"city": "FREDERICKTOWN", "state": "PA", "street": "531 FRONT ST", "postcode": "15333"}}},
{"geometry": {"type": "Point", "coordinates": [-79.9962224316, 39.8118572856]}, "type": "Feature", "properties": {"collection_times": [{"days": "Mon-Sat", "time": "11:45am"}, {"days": "Sun", "time": "Closed"}], "id": "1533400001", "name": "USPS COLLECTION BOX - BLUE BOX", "address": {"city": "GARARDS FORT", "state": "PA", "street": "288 GARARDS FORT RD", "postcode": "15334"}}},
{"geometry": {"type": "Point", "coordinates": [-79.9962224316, 39.8118572856]}, "type": "Feature", "properties": {"collection_times": [{"days": "Mon-Sat", "time": "11:45am"}, {"days": "Sun", "time": "Closed"}], "id": "1533400002", "name": "USPS COLLECTION BOX - PO LOBBY", "address": {"city": "GARARDS FORT", "state": "PA", "street": "288 GARARDS FORT RD", "postcode": "15334"}}},
{"geometry": {"type": "Point", "coordinates": [-79.9896269474, 40.2562185291]}, "type": "Feature", "properties": {"collection_times": [{"days": "Mon-Fri", "time": "4:00pm"}, {"days": "Sat", "time": "11:45am"}, {"days": "Sun", "time": "Closed"}], "id": "1533600001", "name": "USPS COLLECTION BOX - BLUE BOX", "address": {"city": "GASTONVILLE", "state": "PA", "street": "3708 FINLEYVILLE ELRAMA RD", "postcode": "15336"}}},
{"geometry": {"type": "Point", "coordinates": [-79.9896269474, 40.2562185291]}, "type": "Feature", "properties": {"collection_times": [{"days": "Mon-Fri", "time": "11:55am"}, {"days": "Sat", "time": "11:45am"}, {"days": "Sun", "time": "Closed"}], "id": "1533600002", "name": "USPS COLLECTION BOX - PO LOBBY", "address": {"city": "GASTONVILLE", "state": "PA", "street": "3708 FINLEYVILLE ELRAMA RD", "postcode": "15336"}}},
{"geometry": {"type": "Point", "coordinates": [-80.3885383088, 39.9318805807]}, "type": "Feature", "properties": {"collection_times": [{"days": "Mon-Fri", "time": "3:45pm"}, {"days": "Sat", "time": "11:45am"}, {"days": "Sun", "time": "Closed"}], "id": "1533700001", "name": "USPS COLLECTION BOX - BLUE BOX", "address": {"city": "GRAYSVILLE", "state": "PA", "street": "1167 W ROY FURMAN HWY", "postcode": "15337"}}},
{"geometry": {"type": "Point", "coordinates": [-80.3885383088, 39.9318805807]}, "type": "Feature", "properties": {"collection_times": [{"days": "Mon-Sat", "time": "11:45am"}, {"days": "Sun", "time": "Closed"}], "id": "1533700002", "name": "USPS COLLECTION BOX - PO LOBBY", "address": {"city": "GRAYSVILLE", "state": "PA", "street": "1167 W ROY FURMAN HWY", "postcode": "15337"}}},
{"geometry": {"type": "Point", "coordinates": [-79.9625910296, 39.8123545603]}, "type": "Feature", "properties": {"collection_times": [{"days": "Mon-Fri", "time": "2:30pm"}, {"days": "Sat", "time": "11:30am"}, {"days": "Sun", "time": "Closed"}], "id": "1533800001", "name": "USPS COLLECTION BOX - BLUE BOX", "address": {"city": "GREENSBORO", "state": "PA", "street": "304 FRONT ST", "postcode": "15338"}}},
{"geometry": {"type": "Point", "coordinates": [-79.9625910296, 39.8123545603]}, "type": "Feature", "properties": {"collection_times": [{"days": "Mon-Sat", "time": "11:45am"}, {"days": "Sun", "time": "Closed"}], "id": "1533800002", "name": "USPS COLLECTION BOX - PO LOBBY", "address": {"city": "GREENSBORO", "state": "PA", "street": "304 FRONT ST", "postcode": "15338"}}},
{"geometry": {"type": "Point", "coordinates": [-80.3252317564, 40.2962314496]}, "type": "Feature", "properties": {"collection_times": [{"days": "Mon-Fri", "time": "4:15pm"}, {"days": "Sat", "time": "12:00pm"}, {"days": "Sun", "time": "Closed"}], "id": "1534000001", "name": "USPS COLLECTION BOX - BLUE BOX", "address": {"city": "HICKORY", "state": "PA", "street": "188 MAIN ST", "postcode": "15340"}}},
{"geometry": {"type": "Point", "coordinates": [-80.3079501175, 40.2993428253]}, "type": "Feature", "properties": {"collection_times": [{"days": "Mon-Sat", "time": "9:00am"}, {"days": "Sun", "time": "Closed"}], "id": "1534000006", "name": "USPS COLLECTION BOX - BLUE BOX", "address": {"city": "HICKORY", "state": "PA", "street": "86 MAIN ST", "postcode": "15340"}}},
{"geometry": {"type": "Point", "coordinates": [-80.3252317564, 40.2962314496]}, "type": "Feature", "properties": {"collection_times": [{"days": "Mon-Fri", "time": "3:45pm"}, {"days": "Sat", "time": "11:45am"}, {"days": "Sun", "time": "Closed"}], "id": "1534000007", "name": "USPS COLLECTION BOX - PO LOBBY", "address": {"city": "HICKORY", "state": "PA", "street": "188 MAIN ST", "postcode": "15340"}}},
{"geometry": {"type": "Point", "coordinates": [-80.3252317564, 40.2962314496]}, "type": "Feature", "properties": {"collection_times": [{"days": "Mon-Fri", "time": "3:45pm"}, {"days": "Sat", "time": "11:45am"}, {"days": "Sun", "time": "Closed"}], "id": "1534000008", "name": "USPS COLLECTION BOX - PO LOBBY", "address": {"city": "HICKORY", "state": "PA", "street": "188 MAIN ST", "postcode": "15340"}}},
{"geometry": {"type": "Point", "coordinates": [-80.3112432785, 39.8593116507]}, "type": "Feature", "properties": {"collection_times": [{"days": "Mon-Fri", "time": "4:15pm"}, {"days": "Sat", "time": "11:15am"}, {"days": "Sun", "time": "Closed"}], "id": "1534100001", "name": "USPS COLLECTION BOX - BLUE BOX", "address": {"city": "HOLBROOK", "state": "PA", "street": "2769 GOLDEN OAKS RD", "postcode": "15341"}}},
{"geometry": {"type": "Point", "coordinates": [-80.3112432785, 39.8593116507]}, "type": "Feature", "properties": {"collection_times": [{"days": "Mon-Fri", "time": "11:45am"}, {"days": "Sat", "time": "11:15am"}, {"days": "Sun", "time": "Closed"}], "id": "1534100002", "name": "USPS COLLECTION BOX - PO LOBBY", "address": {"city": "HOLBROOK", "state": "PA", "street": "2769 GOLDEN OAKS RD", "postcode": "15341"}}},
{"geometry": {"type": "Point", "coordinates": [-80.2107932709, 40.2484376997]}, "type": "Feature", "properties": {"collection_times": [{"days": "Mon-Sat", "time": "10:30am"}, {"days": "Sun", "time": "Closed"}], "id": "1534200002", "name": "USPS COLLECTION BOX - BLUE BOX", "address": {"city": "HOUSTON", "state": "PA", "street": "144 W PIKE ST", "postcode": "15342"}}},
{"geometry": {"type": "Point", "coordinates": [-80.2107314563, 40.2504964747]}, "type": "Feature", "properties": {"collection_times": [{"days": "Mon-Sat", "time": "9:00am"}, {"days": "Sun", "time": "Closed"}], "id": "1534200005", "name": "USPS COLLECTION BOX - BLUE BOX", "address": {"city": "HOUSTON", "state": "PA", "street": "1 W GRANT ST", "postcode": "15342"}}},
{"geometry": {"type": "Point", "coordinates": [-80.2094443114, 40.250266418]}, "type": "Feature", "properties": {"collection_times": [{"days": "Mon-Sat", "time": "11:30am"}, {"days": "Sun", "time": "Closed"}], "id": "1534200010", "name": "USPS COLLECTION BOX - BLUE BOX", "address": {"city": "HOUSTON", "state": "PA", "street": "22 E PIKE ST", "postcode": "15342"}}},
{"geometry": {"type": "Point", "coordinates": [-80.216628092, 40.2426842891]}, "type": "Feature", "properties": {"collection_times": [{"days": "Mon-Fri", "time": "4:30pm"}, {"days": "Sat", "time": "3:45pm"}, {"days": "Sun", "time": "Closed"}], "id": "1534200016", "name": "USPS COLLECTION BOX - BLUE BOX", "address": {"city": "HOUSTON", "state": "PA", "street": "123 S MAIN ST", "postcode": "15342"}}},
{"geometry": {"type": "Point", "coordinates": [-80.2073690315, 40.2491794504]}, "type": "Feature", "properties": {"collection_times": [{"days": "Mon-Fri", "time": "4:30pm"}, {"days": "Sat", "time": "12:00pm"}, {"days": "Sun", "time": "Closed"}], "id": "1534200017", "name": "USPS COLLECTION BOX - PO LOBBY", "address": {"city": "HOUSTON", "state": "PA", "street": "123 S MAIN ST LBBY", "postcode": "15342"}}},
{"geometry": {"type": "Point", "coordinates": [-80.0704413464, 39.923402288]}, "type": "Feature", "properties": {"collection_times": [{"days": "Mon-Fri", "time": "4:30pm"}, {"days": "Sat", "time": "12:00pm"}, {"days": "Sun", "time": "Closed"}], "id": "1534400001", "name": "USPS COLLECTION BOX - BLUE BOX", "address": {"city": "JEFFERSON", "state": "PA", "street": "1422 JEFFERSON RD", "postcode": "15344"}}},
{"geometry": {"type": "Point", "coordinates": [-80.0704413464, 39.923402288]}, "type": "Feature", "properties": {"collection_times": [{"days": "Mon-Fri", "time": "4:00pm"}, {"days": "Sat", "time": "12:00pm"}, {"days": "Sun", "time": "Closed"}], "id": "1534400002", "name": "USPS COLLECTION BOX - PO LOBBY", "address": {"city": "JEFFERSON", "state": "PA", "street": "1422 JEFFERSON RD", "postcode": "15344"}}},
{"geometry": {"type": "Point", "coordinates": [-80.0926727769, 40.02221043]}, "type": "Feature", "properties": {"collection_times": [{"days": "Mon-Fri", "time": "4:30pm"}, {"days": "Sat", "time": "11:30am"}, {"days": "Sun", "time": "Closed"}], "id": "1534500001", "name": "USPS COLLECTION BOX - BLUE BOX", "address": {"city": "MARIANNA", "state": "PA", "street": "1742 MAIN ST", "postcode": "15345"}}},
{"geometry": {"type": "Point", "coordinates": [-80.0926727769, 40.02221043]}, "type": "Feature", "properties": {"collection_times": [{"days": "Mon-Fri", "time": "4:30pm"}, {"days": "Sat", "time": "11:30am"}, {"days": "Sun", "time": "Closed"}], "id": "1534500002", "name": "USPS COLLECTION BOX - PO LOBBY", "address": {"city": "MARIANNA", "state": "PA", "street": "1742 MAIN ST", "postcode": "15345"}}},
{"geometry": {"type": "Point", "coordinates": [-80.0736218899, 39.9346363271]}, "type": "Feature", "properties": {"collection_times": [{"days": "Mon-Fri", "time": "4:15pm"}, {"days": "Sat", "time": "11:45am"}, {"days": "Sun", "time": "Closed"}], "id": "1534600001", "name": "USPS COLLECTION BOX - BLUE BOX", "address": {"city": "MATHER", "state": "PA", "street": "319 3RD ST", "postcode": "15346"}}},
{"geometry": {"type": "Point", "coordinates": [-80.0736218899, 39.9346363271]}, "type": "Feature", "properties": {"collection_times": [{"days": "Mon-Fri", "time": "1:55pm"}, {"days": "Sat", "time": "11:45am"}, {"days": "Sun", "time": "Closed"}], "id": "1534600002", "name": "USPS COLLECTION BOX - PO LOBBY", "address": {"city": "MATHER", "state": "PA", "street": "319 3RD ST", "postcode": "15346"}}},
{"geometry": {"type": "Point", "coordinates": [-80.0736218899, 39.9346363271]}, "type": "Feature", "properties": {"collection_times": [{"days": "Mon-Fri", "time": "1:55pm"}, {"days": "Sat", "time": "11:45am"}, {"days": "Sun", "time": "Closed"}], "id": "1534600003", "name": "USPS COLLECTION BOX - PO LOBBY", "address": {"city": "MATHER", "state": "PA", "street": "319 3RD ST", "postcode": "15346"}}},
{"geometry": {"type": "Point", "coordinates": [-80.2255825977, 40.2152053635]}, "type": "Feature", "properties": {"collection_times": [{"days": "Mon-Fri", "time": "5:00pm"}, {"days": "Sat", "time": "12:00pm"}, {"days": "Sun", "time": "Closed"}], "id": "1534700001", "name": "USPS COLLECTION BOX - BLUE BOX", "address": {"city": "MEADOW LANDS", "state": "PA", "street": "100 COUNTRY CLUB RD", "postcode": "15347"}}},
{"geometry": {"type": "Point", "coordinates": [-80.2255825977, 40.2152053635]}, "type": "Feature", "properties": {"collection_times": [{"days": "Mon-Fri", "time": "5:00pm"}, {"days": "Sat", "time": "12:00pm"}, {"days": "Sun", "time": "Closed"}], "id": "1534700002", "name": "USPS COLLECTION BOX - PO LOBBY", "address": {"city": "MEADOW LANDS", "state": "PA", "street": "100 COUNTRY CLUB RD", "postcode": "15347"}}},
{"geometry": {"type": "Point", "coordinates": [-79.9943494449, 39.9861109074]}, "type": "Feature", "properties": {"collection_times": [{"days": "Mon-Fri", "time": "4:30pm"}, {"days": "Sat", "time": "11:45am"}, {"days": "Sun", "time": "Closed"}], "id": "1534800001", "name": "USPS COLLECTION BOX - BLUE BOX", "address": {"city": "MILLSBORO", "state": "PA", "street": "21 MILL ST", "postcode": "15348"}}},
{"geometry": {"type": "Point", "coordinates": [-79.9943494449, 39.9861109074]}, "type": "Feature", "properties": {"collection_times": [{"days": "Mon-Fri", "time": "11:45am"}, {"days": "Sat", "time": "11:15am"}, {"days": "Sun", "time": "Closed"}], "id": "1534800002", "name": "USPS COLLECTION BOX - PO LOBBY", "address": {"city": "MILLSBORO", "state": "PA", "street": "21 MILL ST", "postcode": "15348"}}},
{"geometry": {"type": "Point", "coordinates": [-80.0708784901, 39.7329878628]}, "type": "Feature", "properties": {"collection_times": [{"days": "Mon-Fri", "time": "4:15pm"}, {"days": "Sat", "time": "11:45am"}, {"days": "Sun", "time": "Closed"}], "id": "1534900001", "name": "USPS COLLECTION BOX - BLUE BOX", "address": {"city": "MOUNT MORRIS", "state": "PA", "street": "100 MAIN ST", "postcode": "15349"}}},
{"geometry": {"type": "Point", "coordinates": [-80.0708784901, 39.7329878628]}, "type": "Feature", "properties": {"collection_times": [{"days": "Mon-Fri", "time": "4:15pm"}, {"days": "Sat", "time": "11:45am"}, {"days": "Sun", "time": "Closed"}], "id": "1534900002", "name": "USPS COLLECTION BOX - PO LOBBY", "address": {"city": "MOUNT MORRIS", "state": "PA", "street": "100 MAIN ST", "postcode": "15349"}}},
{"geometry": {"type": "Point", "coordinates": [-80.2018767998, 40.295643107]}, "type": "Feature", "properties": {"collection_times": [{"days": "Mon-Fri", "time": "4:00pm"}, {"days": "Sat", "time": "11:30am"}, {"days": "Sun", "time": "Closed"}], "id": "1535000001", "name": "USPS COLLECTION BOX - PO LOBBY", "address": {"city": "MUSE", "state": "PA", "street": "200 MUSE BISHOP RD", "postcode": "15350"}}},
{"geometry": {"type": "Point", "coordinates": [-80.2018767998, 40.295643107]}, "type": "Feature", "properties": {"collection_times": [{"days": "Mon-Fri", "time": "4:00pm"}, {"days": "Sat", "time": "11:30am"}, {"days": "Sun", "time": "Closed"}], "id": "1535000002", "name": "USPS COLLECTION BOX - BLUE BOX", "address": {"city": "MUSE", "state": "PA", "street": "200 MUSE BISHOP RD", "postcode": "15350"}}},
{"geometry": {"type": "Point", "coordinates": [-79.922543892, 39.878915121]}, "type": "Feature", "properties": {"collection_times": [{"days": "Mon-Fri", "time": "4:00pm"}, {"days": "Sat", "time": "11:30am"}, {"days": "Sun", "time": "Closed"}], "id": "1535100001", "name": "USPS COLLECTION BOX - BLUE BOX", "address": {"city": "NEMACOLIN", "state": "PA", "street": "1 PERSHING BLVD", "postcode": "15351"}}},
{"geometry": {"type": "Point", "coordinates": [-79.922543892, 39.878915121]}, "type": "Feature", "properties": {"collection_times": [{"days": "Mon-Fri", "time": "4:15pm"}, {"days": "Sat", "time": "11:30am"}, {"days": "Sun", "time": "Closed"}], "id": "1535100002", "name": "USPS COLLECTION BOX - PO LOBBY", "address": {"city": "NEMACOLIN", "state": "PA", "street": "1 PERSHING BLVD", "postcode": "15351"}}},
{"geometry": {"type": "Point", "coordinates": [-80.4244294695, 39.760823958]}, "type": "Feature", "properties": {"collection_times": [{"days": "Mon-Fri", "time": "3:00pm"}, {"days": "Sat", "time": "11:00am"}, {"days": "Sun", "time": "Closed"}], "id": "1535200001", "name": "USPS COLLECTION BOX - BLUE BOX", "address": {"city": "NEW FREEPORT", "state": "PA", "street": "119 MAIN ST", "postcode": "15352"}}},
{"geometry": {"type": "Point", "coordinates": [-80.4244294695, 39.760823958]}, "type": "Feature", "properties": {"collection_times": [{"days": "Mon-Fri", "time": "3:00pm"}, {"days": "Sat", "time": "11:00am"}, {"days": "Sun", "time": "Closed"}], "id": "1535200002", "name": "USPS COLLECTION BOX - PO LOBBY", "address": {"city": "NEW FREEPORT", "state": "PA", "street": "119 MAIN ST", "postcode": "15352"}}},
{"geometry": {"type": "Point", "coordinates": [-80.4278441806, 39.7314007306]}, "type": "Feature", "properties": {"collection_times": [{"days": "Mon-Fri", "time": "12:00pm"}, {"days": "Sat", "time": "11:00am"}, {"days": "Sun", "time": "Closed"}], "id": "1535200003", "name": "USPS COLLECTION BOX - BLUE BOX", "address": {"city": "NEW FREEPORT", "state": "PA", "street": "750 GARRISON RIDGE RD", "postcode": "15352"}}},
{"geometry": {"type": "Point", "coordinates": [-80.2942562413, 40.0099346073]}, "type": "Feature", "properties": {"collection_times": [{"days": "Mon-Sat", "time": "1:00pm"}, {"days": "Sun", "time": "Closed"}], "id": "1535300001", "name": "USPS COLLECTION BOX - BLUE BOX", "address": {"city": "NINEVEH", "state": "PA", "street": "1750 BROWNS CREEK RD", "postcode": "15353"}}},
{"geometry": {"type": "Point", "coordinates": [-80.2942562413, 40.0099346073]}, "type": "Feature", "properties": {"collection_times": [{"days": "Mon-Fri", "time": "10:45am"}, {"days": "Sat", "time": "11:45am"}, {"days": "Sun", "time": "Closed"}], "id": "1535300002", "name": "USPS COLLECTION BOX - PO LOBBY", "address": {"city": "NINEVEH", "state": "PA", "street": "1750 BROWNS CREEK RD", "postcode": "15353"}}},
{"geometry": {"type": "Point", "coordinates": [-80.011182444, 39.939605431]}, "type": "Feature", "properties": {"collection_times": [{"days": "Mon-Fri", "time": "4:30pm"}, {"days": "Sat", "time": "11:30am"}, {"days": "Sun", "time": "Closed"}], "id": "1535700001", "name": "USPS COLLECTION BOX - BLUE BOX", "address": {"city": "RICES LANDING", "state": "PA", "street": "113 RICES LANDING RD", "postcode": "15357"}}},
{"geometry": {"type": "Point", "coordinates": [-80.011182444, 39.939605431]}, "type": "Feature", "properties": {"collection_times": [{"days": "Mon-Fri", "time": "3:45pm"}, {"days": "Sat", "time": "11:30am"}, {"days": "Sun", "time": "Closed"}], "id": "1535700002", "name": "USPS COLLECTION BOX - PO LOBBY", "address": {"city": "RICES LANDING", "state": "PA", "street": "113 RICES LANDING RD", "postcode": "15357"}}},
{"geometry": {"type": "Point", "coordinates": [-79.9984772174, 40.054122442]}, "type": "Feature", "properties": {"collection_times": [{"days": "Mon-Fri", "time": "4:30pm"}, {"days": "Sat", "time": "12:15pm"}, {"days": "Sun", "time": "Closed"}], "id": "1535800001", "name": "USPS COLLECTION BOX - BLUE BOX", "address": {"city": "RICHEYVILLE", "state": "PA", "street": "3147 NATIONAL PIKE", "postcode": "15358"}}},
{"geometry": {"type": "Point", "coordinates": [-79.9984772174, 40.054122442]}, "type": "Feature", "properties": {"collection_times": [{"days": "Mon-Fri", "time": "4:00pm"}, {"days": "Sat", "time": "12:15pm"}, {"days": "Sun", "time": "Closed"}], "id": "1535800002", "name": "USPS COLLECTION BOX - PO LOBBY", "address": {"city": "RICHEYVILLE", "state": "PA", "street": "3147 NATIONAL PIKE", "postcode": "15358"}}},
{"geometry": {"type": "Point", "coordinates": [-80.2813043652, 39.890398281]}, "type": "Feature", "properties": {"collection_times": [{"days": "Mon-Fri", "time": "3:45pm"}, {"days": "Sat", "time": "10:30am"}, {"days": "Sun", "time": "Closed"}], "id": "1535900001", "name": "USPS COLLECTION BOX - BLUE BOX", "address": {"city": "ROGERSVILLE", "state": "PA", "street": "140 CHURCH ST", "postcode": "15359"}}},
{"geometry": {"type": "Point", "coordinates": [-80.2813043652, 39.890398281]}, "type": "Feature", "properties": {"collection_times": [{"days": "Mon-Fri", "time": "11:55am"}, {"days": "Sat", "time": "10:30am"}, {"days": "Sun", "time": "Closed"}], "id": "1535900002", "name": "USPS COLLECTION BOX - PO LOBBY", "address": {"city": "ROGERSVILLE", "state": "PA", "street": "140 CHURCH ST", "postcode": "15359"}}},
{"geometry": {"type": "Point", "coordinates": [-80.0906388041, 40.0971532822]}, "type": "Feature", "properties": {"collection_times": [{"days": "Mon-Fri", "time": "11:55am"}, {"days": "Sat", "time": "12:00pm"}, {"days": "Sun", "time": "Closed"}], "id": "1536000001", "name": "USPS COLLECTION BOX - PO LOBBY", "address": {"city": "SCENERY HILL", "state": "PA", "street": "1908 E NATIONAL PIKE", "postcode": "15360"}}},
{"geometry": {"type": "Point", "coordinates": [-80.0906388041, 40.0971532822]}, "type": "Feature", "properties": {"collection_times": [{"days": "Mon-Fri", "time": "3:45pm"}, {"days": "Sat", "time": "11:45am"}, {"days": "Sun", "time": "Closed"}], "id": "1536000002", "name": "USPS COLLECTION BOX - BLUE BOX", "address": {"city": "SCENERY HILL", "state": "PA", "street": "1908 E NATIONAL PIKE", "postcode": "15360"}}},
{"geometry": {"type": "Point", "coordinates": [-80.2459879121, 39.7588023316]}, "type": "Feature", "properties": {"collection_times": [{"days": "Mon-Fri", "time": "3:45pm"}, {"days": "Sat", "time": "10:45am"}, {"days": "Sun", "time": "Closed"}], "id": "1536200001", "name": "USPS COLLECTION BOX - BLUE BOX", "address": {"city": "SPRAGGS", "state": "PA", "street": "115 SPRAGGS RD", "postcode": "15362"}}},
{"geometry": {"type": "Point", "coordinates": [-80.2459879121, 39.7588023316]}, "type": "Feature", "properties": {"collection_times": [{"days": "Mon-Fri", "time": "10:55am"}, {"days": "Sat", "time": "10:45am"}, {"days": "Sun", "time": "Closed"}], "id": "1536200002", "name": "USPS COLLECTION BOX - PO LOBBY", "address": {"city": "SPRAGGS", "state": "PA", "street": "115 SPRAGGS RD", "postcode": "15362"}}},
{"geometry": {"type": "Point", "coordinates": [-80.2000043947, 40.2535385667]}, "type": "Feature", "properties": {"collection_times": [{"days": "Mon-Fri", "time": "4:30pm"}, {"days": "Sat", "time": "11:45am"}, {"days": "Sun", "time": "Closed"}], "id": "1536300001", "name": "USPS COLLECTION BOX - BLUE BOX", "address": {"city": "STRABANE", "state": "PA", "street": "218 LATIMER AVE", "postcode": "15363"}}},
{"geometry": {"type": "Point", "coordinates": [-80.2000043947, 40.2535385667]}, "type": "Feature", "properties": {"collection_times": [{"days": "Mon-Fri", "time": "4:30pm"}, {"days": "Sat", "time": "11:45am"}, {"days": "Sun", "time": "Closed"}], "id": "1536300002", "name": "USPS COLLECTION BOX - PO LOBBY", "address": {"city": "STRABANE", "state": "PA", "street": "218 LATIMER AVE", "postcode": "15363"}}},
{"geometry": {"type": "Point", "coordinates": [-80.2000043947, 40.2535385667]}, "type": "Feature", "properties": {"collection_times": [{"days": "Mon-Fri", "time": "4:30pm"}, {"days": "Sat", "time": "11:45am"}, {"days": "Sun", "time": "Closed"}], "id": "1536300003", "name": "USPS COLLECTION BOX - PO LOBBY", "address": {"city": "STRABANE", "state": "PA", "street": "218 LATIMER AVE", "postcode": "15363"}}},
{"geometry": {"type": "Point", "coordinates": [-80.2442829601, 39.9284343132]}, "type": "Feature", "properties": {"collection_times": [{"days": "Mon-Fri", "time": "3:45pm"}, {"days": "Sat", "time": "10:45am"}, {"days": "Sun", "time": "Closed"}], "id": "1536400001", "name": "USPS COLLECTION BOX - BLUE BOX", "address": {"city": "SYCAMORE", "state": "PA", "street": "123 WW RAILROAD RD", "postcode": "15364"}}},
{"geometry": {"type": "Point", "coordinates": [-80.2442829601, 39.9284343132]}, "type": "Feature", "properties": {"collection_times": [{"days": "Mon-Fri", "time": "11:55am"}, {"days": "Sat", "time": "10:45am"}, {"days": "Sun", "time": "Closed"}], "id": "1536400002", "name": "USPS COLLECTION BOX - PO LOBBY", "address": {"city": "SYCAMORE", "state": "PA", "street": "123 WW RAILROAD RD", "postcode": "15364"}}},
{"geometry": {"type": "Point", "coordinates": [-80.3778097663, 40.1599183563]}, "type": "Feature", "properties": {"collection_times": [{"days": "Mon-Fri", "time": "4:00pm"}, {"days": "Sat", "time": "11:00am"}, {"days": "Sun", "time": "Closed"}], "id": "1536500001", "name": "USPS COLLECTION BOX - BLUE BOX", "address": {"city": "TAYLORSTOWN", "state": "PA", "street": "56 MAIN ST", "postcode": "15365"}}},
{"geometry": {"type": "Point", "coordinates": [-80.3778097663, 40.1599183563]}, "type": "Feature", "properties": {"collection_times": [{"days": "Mon-Fri", "time": "10:50am"}, {"days": "Sat", "time": "11:00am"}, {"days": "Sun", "time": "Closed"}], "id": "1536500002", "name": "USPS COLLECTION BOX - PO LOBBY", "address": {"city": "TAYLORSTOWN", "state": "PA", "street": "56 MAIN ST", "postcode": "15365"}}},
{"geometry": {"type": "Point", "coordinates": [-79.8950469101, 40.1399790595]}, "type": "Feature", "properties": {"collection_times": [{"days": "Mon-Fri", "time": "4:45pm"}, {"days": "Sat", "time": "12:00pm"}, {"days": "Sun", "time": "Closed"}], "id": "1536600001", "name": "USPS COLLECTION BOX - BLUE BOX", "address": {"city": "VAN VOORHIS", "state": "PA", "street": "1275 BENTLEYVILLE RD", "postcode": "15366"}}},
{"geometry": {"type": "Point", "coordinates": [-79.8950469101, 40.1399790595]}, "type": "Feature", "properties": {"collection_times": [{"days": "Mon-Fri", "time": "10:45am"}, {"days": "Sat", "time": "11:45am"}, {"days": "Sun", "time": "Closed"}], "id": "1536600002", "name": "USPS COLLECTION BOX - PO LOBBY", "address": {"city": "VAN VOORHIS", "state": "PA", "street": "1275 BENTLEYVILLE RD", "postcode": "15366"}}},
{"geometry": {"type": "Point", "coordinates": [-80.0361574136, 40.2458327515]}, "type": "Feature", "properties": {"collection_times": [{"days": "Mon-Fri", "time": "4:30pm"}, {"days": "Sat", "time": "11:45am"}, {"days": "Sun", "time": "Closed"}], "id": "1536700001", "name": "USPS COLLECTION BOX - BLUE BOX", "address": {"city": "VENETIA", "state": "PA", "street": "712 VENETIA RD", "postcode": "15367"}}},
{"geometry": {"type": "Point", "coordinates": [-80.0615161215, 40.2864783598]}, "type": "Feature", "properties": {"collection_times": [{"days": "Mon-Sat", "time": "10:00am"}, {"days": "Sun", "time": "Closed"}], "id": "1536700002", "name": "USPS COLLECTION BOX - BLUE BOX", "address": {"city": "VENETIA", "state": "PA", "street": "199 QUAIL RUN RD", "postcode": "15367"}}},
{"geometry": {"type": "Point", "coordinates": [-79.990668583, 40.0151289973]}, "type": "Feature", "properties": {"collection_times": [{"days": "Mon-Fri", "time": "4:15pm"}, {"days": "Sat", "time": "11:45am"}, {"days": "Sun", "time": "Closed"}], "id": "1536800001", "name": "USPS COLLECTION BOX - BLUE BOX", "address": {"city": "VESTABURG", "state": "PA", "street": "301 COMMUNITY ST", "postcode": "15368"}}},
{"geometry": {"type": "Point", "coordinates": [-79.990668583, 40.0151289973]}, "type": "Feature", "properties": {"collection_times": [{"days": "Mon-Fri", "time": "11:55am"}, {"days": "Sat", "time": "11:45am"}, {"days": "Sun", "time": "Closed"}], "id": "1536800002", "name": "USPS COLLECTION BOX - PO LOBBY", "address": {"city": "VESTABURG", "state": "PA", "street": "301 COMMUNITY ST", "postcode": "15368"}}},
{"geometry": {"type": "Point", "coordinates": [-80.188454644, 39.895093521]}, "type": "Feature", "properties": {"collection_times": [{"days": "Mon-Fri", "time": "5:30pm"}, {"days": "Sat", "time": "3:15pm"}, {"days": "Sun", "time": "Closed"}], "id": "1537000001", "name": "USPS COLLECTION BOX - BLUE BOX", "address": {"city": "WAYNESBURG", "state": "PA", "street": "120 S MORRIS ST", "postcode": "15370"}}},
{"geometry": {"type": "Point", "coordinates": [-80.1854739982, 39.8964018401]}, "type": "Feature", "properties": {"collection_times": [{"days": "Mon-Fri", "time": "3:00pm"}, {"days": "Sat", "time": "2:00pm"}, {"days": "Sun", "time": "Closed"}], "id": "1537000003", "name": "USPS COLLECTION BOX - BLUE BOX", "address": {"city": "WAYNESBURG", "state": "PA", "street": "93 E HIGH ST", "postcode": "15370"}}},
{"geometry": {"type": "Point", "coordinates": [-80.1883169247, 39.8964546916]}, "type": "Feature", "properties": {"collection_times": [{"days": "Mon-Fri", "time": "3:00pm"}, {"days": "Sat", "time": "2:00pm"}, {"days": "Sun", "time": "Closed"}], "id": "1537000005", "name": "USPS COLLECTION BOX - BLUE BOX", "address": {"city": "WAYNESBURG", "state": "PA", "street": "77 W HIGH ST", "postcode": "15370"}}},
{"geometry": {"type": "Point", "coordinates": [-80.1669239114, 39.8962775242]}, "type": "Feature", "properties": {"collection_times": [{"days": "Mon-Fri", "time": "2:30pm"}, {"days": "Sat", "time": "2:00pm"}, {"days": "Sun", "time": "Closed"}], "id": "1537000007", "name": "USPS COLLECTION BOX - BLUE BOX", "address": {"city": "WAYNESBURG", "state": "PA", "street": "1440 E HIGH ST", "postcode": "15370"}}},
{"geometry": {"type": "Point", "coordinates": [-80.1887588599, 39.8953842718]}, "type": "Feature", "properties": {"collection_times": [{"days": "Mon-Fri", "time": "2:30pm"}, {"days": "Sat", "time": "2:00pm"}, {"days": "Sun", "time": "Closed"}], "id": "1537000008", "name": "USPS COLLECTION BOX - BLUE BOX", "address": {"city": "WAYNESBURG", "state": "PA", "street": "120 GREENE PLZ", "postcode": "15370"}}},
{"geometry": {"type": "Point", "coordinates": [-80.1792349533, 39.8963361613]}, "type": "Feature", "properties": {"collection_times": [{"days": "Mon-Fri", "time": "3:00pm"}, {"days": "Sat", "time": "2:00pm"}, {"days": "Sun", "time": "Closed"}], "id": "1537000009", "name": "USPS COLLECTION BOX - BLUE BOX", "address": {"city": "WAYNESBURG", "state": "PA", "street": "595 E HIGH ST", "postcode": "15370"}}},
{"geometry": {"type": "Point", "coordinates": [-80.1869307435, 39.8964155635]}, "type": "Feature", "properties": {"collection_times": [{"days": "Mon-Fri", "time": "3:00pm"}, {"days": "Sat", "time": "2:00pm"}, {"days": "Sun", "time": "Closed"}], "id": "1537000010", "name": "USPS COLLECTION BOX - BLUE BOX", "address": {"city": "WAYNESBURG", "state": "PA", "street": "1 W HIGH ST", "postcode": "15370"}}},
{"geometry": {"type": "Point", "coordinates": [-80.1691784947, 39.8952726256]}, "type": "Feature", "properties": {"collection_times": [{"days": "Mon-Fri", "time": "2:30pm"}, {"days": "Sat", "time": "2:00pm"}, {"days": "Sun", "time": "Closed"}], "id": "1537000014", "name": "USPS COLLECTION BOX - BLUE BOX", "address": {"city": "WAYNESBURG", "state": "PA", "street": "100 SUGAR RUN RD", "postcode": "15370"}}},
{"geometry": {"type": "Point", "coordinates": [-80.1884353328, 39.8951336365]}, "type": "Feature", "properties": {"collection_times": [{"days": "Mon-Fri", "time": "5:30pm"}, {"days": "Sat", "time": "3:15pm"}, {"days": "Sun", "time": "Closed"}], "id": "1537000022", "name": "USPS COLLECTION BOX - PO LOBBY", "address": {"city": "WAYNESBURG", "state": "PA", "street": "120 S MORRIS ST LBBY", "postcode": "15370"}}},
{"geometry": {"type": "Point", "coordinates": [-80.137852693, 39.900921158]}, "type": "Feature", "properties": {"collection_times": [{"days": "Mon-Fri", "time": "2:45pm"}, {"days": "Sat", "time": "2:00pm"}, {"days": "Sun", "time": "Closed"}], "id": "1537000024", "name": "USPS COLLECTION BOX - BLUE BOX", "address": {"city": "WAYNESBURG", "state": "PA", "street": "175 PROGRESS DR", "postcode": "15370"}}},
{"geometry": {"type": "Point", "coordinates": [-80.5087905912, 40.1058157725]}, "type": "Feature", "properties": {"collection_times": [{"days": "Mon-Fri", "time": "4:30pm"}, {"days": "Sat", "time": "12:00pm"}, {"days": "Sun", "time": "Closed"}], "id": "1537600001", "name": "USPS COLLECTION BOX - BLUE BOX", "address": {"city": "WEST ALEXANDER", "state": "PA", "street": "35 N LIBERTY RD", "postcode": "15376"}}},
{"geometry": {"type": "Point", "coordinates": [-80.5123811889, 40.1042109495]}, "type": "Feature", "properties": {"collection_times": [{"days": "Mon-Sat", "time": "9:00am"}, {"days": "Sun", "time": "Closed"}], "id": "1537600002", "name": "USPS COLLECTION BOX - BLUE BOX", "address": {"city": "WEST ALEXANDER", "state": "PA", "street": "106 MAIN ST", "postcode": "15376"}}},
{"geometry": {"type": "Point", "coordinates": [-80.5087905912, 40.1058157725]}, "type": "Feature", "properties": {"collection_times": [{"days": "Mon-Fri", "time": "4:30pm"}, {"days": "Sat", "time": "12:00pm"}, {"days": "Sun", "time": "Closed"}], "id": "1537600007", "name": "USPS COLLECTION BOX - PO LOBBY", "address": {"city": "WEST ALEXANDER", "state": "PA", "street": "35 N LIBERTY RD", "postcode": "15376"}}},
{"geometry": {"type": "Point", "coordinates": [-80.5087905912, 40.1058157725]}, "type": "Feature", "properties": {"collection_times": [{"days": "Mon-Fri", "time": "4:30pm"}, {"days": "Sat", "time": "12:00pm"}, {"days": "Sun", "time": "Closed"}], "id": "1537600008", "name": "USPS COLLECTION BOX - PO LOBBY", "address": {"city": "WEST ALEXANDER", "state": "PA", "street": "35 N LIBERTY RD", "postcode": "15376"}}},
{"geometry": {"type": "Point", "coordinates": [-80.4635042772, 39.9928679768]}, "type": "Feature", "properties": {"collection_times": [{"days": "Mon-Fri", "time": "4:00pm"}, {"days": "Sat", "time": "11:45am"}, {"days": "Sun", "time": "Closed"}], "id": "1537700001", "name": "USPS COLLECTION BOX - BLUE BOX", "address": {"city": "WEST FINLEY", "state": "PA", "street": "487 W FINLEY RD", "postcode": "15377"}}},
{"geometry": {"type": "Point", "coordinates": [-80.4635042772, 39.9928679768]}, "type": "Feature", "properties": {"collection_times": [{"days": "Mon-Fri", "time": "4:00pm"}, {"days": "Sat", "time": "11:45am"}, {"days": "Sun", "time": "Closed"}], "id": "1537700002", "name": "USPS COLLECTION BOX - PO LOBBY", "address": {"city": "WEST FINLEY", "state": "PA", "street": "487 W FINLEY RD", "postcode": "15377"}}},
{"geometry": {"type": "Point", "coordinates": [-80.2732158361, 40.2773377129]}, "type": "Feature", "properties": {"collection_times": [{"days": "Mon-Fri", "time": "4:00pm"}, {"days": "Sat", "time": "11:30am"}, {"days": "Sun", "time": "Closed"}], "id": "1537800001", "name": "USPS COLLECTION BOX - BLUE BOX", "address": {"city": "WESTLAND", "state": "PA", "street": "428 WESTLAND RD", "postcode": "15378"}}},
{"geometry": {"type": "Point", "coordinates": [-80.2732158361, 40.2773377129]}, "type": "Feature", "properties": {"collection_times": [{"days": "Mon-Fri", "time": "10:50am"}, {"days": "Sat", "time": "11:30am"}, {"days": "Sun", "time": "Closed"}], "id": "1537800002", "name": "USPS COLLECTION BOX - PO LOBBY", "address": {"city": "WESTLAND", "state": "PA", "street": "428 WESTLAND RD", "postcode": "15378"}}},
{"geometry": {"type": "Point", "coordinates": [-80.395509906, 40.2410125025]}, "type": "Feature", "properties": {"collection_times": [{"days": "Mon-Fri", "time": "4:30pm"}, {"days": "Sat", "time": "11:45am"}, {"days": "Sun", "time": "Closed"}], "id": "1537900001", "name": "USPS COLLECTION BOX - BLUE BOX", "address": {"city": "WEST MIDDLETOWN", "state": "PA", "street": "109 E MAIN ST", "postcode": "15379"}}},
{"geometry": {"type": "Point", "coordinates": [-80.395509906, 40.2410125025]}, "type": "Feature", "properties": {"collection_times": [{"days": "Mon-Fri", "time": "11:45am"}, {"days": "Sat", "time": "11:15am"}, {"days": "Sun", "time": "Closed"}], "id": "1537900002", "name": "USPS COLLECTION BOX - PO LOBBY", "address": {"city": "WEST MIDDLETOWN", "state": "PA", "street": "109 E MAIN ST", "postcode": "15379"}}},
{"geometry": {"type": "Point", "coordinates": [-80.4316666462, 39.9162122091]}, "type": "Feature", "properties": {"collection_times": [{"days": "Mon-Fri", "time": "4:00pm"}, {"days": "Sat", "time": "11:30am"}, {"days": "Sun", "time": "Closed"}], "id": "1538000001", "name": "USPS COLLECTION BOX - BLUE BOX", "address": {"city": "WIND RIDGE", "state": "PA", "street": "466 W ROY FURMAN HWY", "postcode": "15380"}}},
{"geometry": {"type": "Point", "coordinates": [-80.4316666462, 39.9162122091]}, "type": "Feature", "properties": {"collection_times": [{"days": "Mon-Fri", "time": "12:45pm"}, {"days": "Sat", "time": "11:45am"}, {"days": "Sun", "time": "Closed"}], "id": "1538000004", "name": "USPS COLLECTION BOX - PO LOBBY", "address": {"city": "WIND RIDGE", "state": "PA", "street": "466 W ROY FURMAN HWY", "postcode": "15380"}}}
]}
