{"type": "FeatureCollection", "features": [
{"geometry": {"type": "Point", "coordinates": [-79.72377681, 39.897738431]}, "type": "Feature", "properties": {"collection_times": [{"days": "Mon-Fri", "time": "6:00pm"}, {"days": "Sat", "time": "5:00pm"}, {"days": "Sun", "time": "Closed"}], "id": "1540100001", "name": "USPS COLLECTION BOX - BLUE BOX", "address": {"city": "UNIONTOWN", "state": "PA", "street": "47 E FAYETTE ST", "postcode": "15401"}}},
{"geometry": {"type": "Point", "coordinates": [-79.72377681, 39.897738431]}, "type": "Feature", "properties": {"collection_times": [{"days": "Mon-Fri", "time": "6:00pm"}, {"days": "Sat", "time": "5:00pm"}, {"days": "Sun", "time": "Closed"}], "id": "1540100002", "name": "USPS COLLECTION BOX - BLUE BOX", "address": {"city": "UNIONTOWN", "state": "PA", "street": "47 E FAYETTE ST", "postcode": "15401"}}},
{"geometry": {"type": "Point", "coordinates": [-79.712001444, 39.91205347]}, "type": "Feature", "properties": {"collection_times": [{"days": "Mon-Fri", "time": "12:45pm"}, {"days": "Sat", "time": "4:00pm"}, {"days": "Sun", "time": "Closed"}], "id": "1540100004", "name": "USPS COLLECTION BOX - BLUE BOX", "address": {"city": "UNIONTOWN", "state": "PA", "street": "450 N GALLATIN AVE", "postcode": "15401"}}},
{"geometry": {"type": "Point", "coordinates": [-79.725304982, 39.901188106]}, "type": "Feature", "properties": {"collection_times": [{"days": "Mon-Fri", "time": "5:00pm"}, {"days": "Sat", "time": "4:00pm"}, {"days": "Sun", "time": "Closed"}], "id": "1540100007", "name": "USPS COLLECTION BOX - BLUE BOX", "address": {"city": "UNIONTOWN", "state": "PA", "street": "2 E MAIN ST", "postcode": "15401"}}},
{"geometry": {"type": "Point", "coordinates": [-79.733773218, 39.899015889]}, "type": "Feature", "properties": {"collection_times": [{"days": "Mon-Fri", "time": "1:00pm"}, {"days": "Sat", "time": "4:45pm"}, {"days": "Sun", "time": "Closed"}], "id": "1540100010", "name": "USPS COLLECTION BOX - BLUE BOX", "address": {"city": "UNIONTOWN", "state": "PA", "street": "83 S MOUNT VERNON AVE", "postcode": "15401"}}},
{"geometry": {"type": "Point", "coordinates": [-79.722699609, 39.900273486]}, "type": "Feature", "properties": {"collection_times": [{"days": "Mon-Fri", "time": "5:00pm"}, {"days": "Sat", "time": "4:00pm"}, {"days": "Sun", "time": "Closed"}], "id": "1540100015", "name": "USPS COLLECTION BOX - BLUE BOX", "address": {"city": "UNIONTOWN", "state": "PA", "street": "62 E CHURCH ST", "postcode": "15401"}}},
{"geometry": {"type": "Point", "coordinates": [-79.739191723, 39.89369762]}, "type": "Feature", "properties": {"collection_times": [{"days": "Mon-Fri", "time": "5:00pm"}, {"days": "Sat", "time": "4:45pm"}, {"days": "Sun", "time": "Closed"}], "id": "1540100017", "name": "USPS COLLECTION BOX - BLUE BOX", "address": {"city": "UNIONTOWN", "state": "PA", "street": "66 LEBANON AVE", "postcode": "15401"}}},
{"geometry": {"type": "Point", "coordinates": [-79.744160266, 39.901123371]}, "type": "Feature", "properties": {"collection_times": [{"days": "Mon-Fri", "time": "5:00pm"}, {"days": "Sat", "time": "4:15pm"}, {"days": "Sun", "time": "Closed"}], "id": "1540100018", "name": "USPS COLLECTION BOX - BLUE BOX", "address": {"city": "UNIONTOWN", "state": "PA", "street": "199 DELAWARE AVE", "postcode": "15401"}}},
{"geometry": {"type": "Point", "coordinates": [-79.737931795, 39.900814287]}, "type": "Feature", "properties": {"collection_times": [{"days": "Mon-Fri", "time": "5:00pm"}, {"days": "Sat", "time": "4:30pm"}, {"days": "Sun", "time": "Closed"}], "id": "1540100019", "name": "USPS COLLECTION BOX - BLUE BOX", "address": {"city": "UNIONTOWN", "state": "PA", "street": "100 WOODLAWN AVE", "postcode": "15401"}}},
{"geometry": {"type": "Point", "coordinates": [-79.739925932, 39.894705593]}, "type": "Feature", "properties": {"collection_times": [{"days": "Mon-Fri", "time": "12:30pm"}, {"days": "Sat", "time": "4:30pm"}, {"days": "Sun", "time": "Closed"}], "id": "1540100021", "name": "USPS COLLECTION BOX - BLUE BOX", "address": {"city": "UNIONTOWN", "state": "PA", "street": "360 S MOUNT VERNON AVE", "postcode": "15401"}}},
{"geometry": {"type": "Point", "coordinates": [-79.738776797, 39.896412117]}, "type": "Feature", "properties": {"collection_times": [{"days": "Mon-Fri", "time": "5:00pm"}, {"days": "Sat", "time": "4:30pm"}, {"days": "Sun", "time": "Closed"}], "id": "1540100025", "name": "USPS COLLECTION BOX - BLUE BOX", "address": {"city": "UNIONTOWN", "state": "PA", "street": "25 EASY ST", "postcode": "15401"}}},
{"geometry": {"type": "Point", "coordinates": [-79.727442111, 39.898986751]}, "type": "Feature", "properties": {"collection_times": [{"days": "Mon-Fri", "time": "5:00pm"}, {"days": "Sat", "time": "4:45pm"}, {"days": "Sun", "time": "Closed"}], "id": "1540100027", "name": "USPS COLLECTION BOX - BLUE BOX", "address": {"city": "UNIONTOWN", "state": "PA", "street": "54 W FAYETTE ST", "postcode": "15401"}}},
{"geometry": {"type": "Point", "coordinates": [-79.730037726, 39.900015906]}, "type": "Feature", "properties": {"collection_times": [{"days": "Mon-Fri", "time": "5:00pm"}, {"days": "Sat", "time": "4:45pm"}, {"days": "Sun", "time": "Closed"}], "id": "1540100030", "name": "USPS COLLECTION BOX - BLUE BOX", "address": {"city": "UNIONTOWN", "state": "PA", "street": "120 W FAYETTE ST", "postcode": "15401"}}},
{"geometry": {"type": "Point", "coordinates": [-79.736847861, 39.896864339]}, "type": "Feature", "properties": {"collection_times": [{"days": "Mon-Fri", "time": "12:45pm"}, {"days": "Sat", "time": "4:30pm"}, {"days": "Sun", "time": "Closed"}], "id": "1540100032", "name": "USPS COLLECTION BOX - BLUE BOX", "address": {"city": "UNIONTOWN", "state": "PA", "street": "172 S MOUNT VERNON AVE", "postcode": "15401"}}},
{"geometry": {"type": "Point", "coordinates": [-79.721821972, 39.906934435]}, "type": "Feature", "properties": {"collection_times": [{"days": "Mon-Fri", "time": "5:00pm"}, {"days": "Sat", "time": "4:00pm"}, {"days": "Sun", "time": "Closed"}], "id": "1540100036", "name": "USPS COLLECTION BOX - BLUE BOX", "address": {"city": "UNIONTOWN", "state": "PA", "street": "180 N GALLATIN AVE", "postcode": "15401"}}},
{"geometry": {"type": "Point", "coordinates": [-79.723224093, 39.901407537]}, "type": "Feature", "properties": {"collection_times": [{"days": "Mon-Sat", "time": "5:00pm"}, {"days": "Sun", "time": "Closed"}], "id": "1540100041", "name": "USPS COLLECTION BOX - BLUE BOX", "address": {"city": "UNIONTOWN", "state": "PA", "street": "61 E MAIN ST", "postcode": "15401"}}},
{"geometry": {"type": "Point", "coordinates": [-79.718721688, 39.899424987]}, "type": "Feature", "properties": {"collection_times": [{"days": "Mon-Sat", "time": "5:00pm"}, {"days": "Sun", "time": "Closed"}], "id": "1540100043", "name": "USPS COLLECTION BOX - BLUE BOX", "address": {"city": "UNIONTOWN", "state": "PA", "street": "176 E MAIN ST", "postcode": "15401"}}},
{"geometry": {"type": "Point", "coordinates": [-79.729290375, 39.900885492]}, "type": "Feature", "properties": {"collection_times": [{"days": "Mon-Sat", "time": "5:00pm"}, {"days": "Sun", "time": "Closed"}], "id": "1540100048", "name": "USPS COLLECTION BOX - BLUE BOX", "address": {"city": "UNIONTOWN", "state": "PA", "street": "107 W MAIN ST", "postcode": "15401"}}},
{"geometry": {"type": "Point", "coordinates": [-79.737102519, 39.905068294]}, "type": "Feature", "properties": {"collection_times": [{"days": "Mon-Fri", "time": "5:00pm"}, {"days": "Sat", "time": "4:00pm"}, {"days": "Sun", "time": "Closed"}], "id": "1540100049", "name": "USPS COLLECTION BOX - BLUE BOX", "address": {"city": "UNIONTOWN", "state": "PA", "street": "7 OAKLAND AVE", "postcode": "15401"}}},
{"geometry": {"type": "Point", "coordinates": [-79.748301507, 39.905398162]}, "type": "Feature", "properties": {"collection_times": [{"days": "Mon-Fri", "time": "5:00pm"}, {"days": "Sat", "time": "4:00pm"}, {"days": "Sun", "time": "Closed"}], "id": "1540100051", "name": "USPS COLLECTION BOX - BLUE BOX", "address": {"city": "UNIONTOWN", "state": "PA", "street": "1366 MALL RUN RD", "postcode": "15401"}}},
{"geometry": {"type": "Point", "coordinates": [-79.734923587, 39.903154652]}, "type": "Feature", "properties": {"collection_times": [{"days": "Mon-Fri", "time": "5:00pm"}, {"days": "Sat", "time": "4:00pm"}, {"days": "Sun", "time": "Closed"}], "id": "1540100053", "name": "USPS COLLECTION BOX - BLUE BOX", "address": {"city": "UNIONTOWN", "state": "PA", "street": "264 W MAIN ST", "postcode": "15401"}}},
{"geometry": {"type": "Point", "coordinates": [-79.7265435, 39.901134125]}, "type": "Feature", "properties": {"collection_times": [{"days": "Mon-Fri", "time": "3:45pm"}, {"days": "Sat", "time": "5:00pm"}, {"days": "Sun", "time": "Closed"}], "id": "1540100054", "name": "USPS COLLECTION BOX - BLUE BOX", "address": {"city": "UNIONTOWN", "state": "PA", "street": "36 W MAIN ST", "postcode": "15401"}}},
{"geometry": {"type": "Point", "coordinates": [-79.739073964, 39.886446715]}, "type": "Feature", "properties": {"collection_times": [{"days": "Mon-Fri", "time": "5:00pm"}, {"days": "Sat", "time": "4:30pm"}, {"days": "Sun", "time": "Closed"}], "id": "1540100055", "name": "USPS COLLECTION BOX - BLUE BOX", "address": {"city": "UNIONTOWN", "state": "PA", "street": "10 METRO PLZ", "postcode": "15401"}}},
{"geometry": {"type": "Point", "coordinates": [-79.715204428, 39.8987804]}, "type": "Feature", "properties": {"collection_times": [{"days": "Mon-Fri", "time": "12:00pm"}, {"days": "Sat", "time": "4:45pm"}, {"days": "Sun", "time": "Closed"}], "id": "1540100057", "name": "USPS COLLECTION BOX - BLUE BOX", "address": {"city": "UNIONTOWN", "state": "PA", "street": "11 MIFFLIN AVE", "postcode": "15401"}}},
{"geometry": {"type": "Point", "coordinates": [-79.745344776, 39.866769939]}, "type": "Feature", "properties": {"collection_times": [{"days": "Mon-Fri", "time": "5:30pm"}, {"days": "Sat", "time": "4:30pm"}, {"days": "Sun", "time": "Closed"}], "id": "1540100058", "name": "USPS COLLECTION BOX - BLUE BOX", "address": {"city": "UNIONTOWN", "state": "PA", "street": "946 MORGANTOWN RD", "postcode": "15401"}}},
{"geometry": {"type": "Point", "coordinates": [-79.73327321, 39.892472658]}, "type": "Feature", "properties": {"collection_times": [{"days": "Mon-Fri", "time": "12:30pm"}, {"days": "Sat", "time": "4:30pm"}, {"days": "Sun", "time": "Closed"}], "id": "1540100059", "name": "USPS COLLECTION BOX - BLUE BOX", "address": {"city": "UNIONTOWN", "state": "PA", "street": "315 MORGANTOWN ST", "postcode": "15401"}}},
{"geometry": {"type": "Point", "coordinates": [-79.751633071, 39.913277434]}, "type": "Feature", "properties": {"collection_times": [{"days": "Mon-Fri", "time": "5:00pm"}, {"days": "Sat", "time": "4:00pm"}, {"days": "Sun", "time": "Closed"}], "id": "1540100066", "name": "USPS COLLECTION BOX - BLUE BOX", "address": {"city": "UNIONTOWN", "state": "PA", "street": "101 WAYLAND SMITH DR", "postcode": "15401"}}},
{"geometry": {"type": "Point", "coordinates": [-79.695990385, 39.92667016]}, "type": "Feature", "properties": {"collection_times": [{"days": "Mon-Fri", "time": "4:30pm"}, {"days": "Sat", "time": "4:15pm"}, {"days": "Sun", "time": "Closed"}], "id": "1540100067", "name": "USPS COLLECTION BOX - BLUE BOX", "address": {"city": "UNIONTOWN", "state": "PA", "street": "825 N GALLATIN AVENUE EXT", "postcode": "15401"}}},
{"geometry": {"type": "Point", "coordinates": [-79.725765835, 39.904651278]}, "type": "Feature", "properties": {"collection_times": [{"days": "Mon-Fri", "time": "5:00pm"}, {"days": "Sat", "time": "4:00pm"}, {"days": "Sun", "time": "Closed"}], "id": "1540100068", "name": "USPS COLLECTION BOX - BLUE BOX", "address": {"city": "UNIONTOWN", "state": "PA", "street": "119 N BEESON AVE", "postcode": "15401"}}},
{"geometry": {"type": "Point", "coordinates": [-79.75596123, 39.914556938]}, "type": "Feature", "properties": {"collection_times": [{"days": "Mon-Fri", "time": "5:00pm"}, {"days": "Sat", "time": "4:00pm"}, {"days": "Sun", "time": "Closed"}], "id": "1540100069", "name": "USPS COLLECTION BOX - BLUE BOX", "address": {"city": "UNIONTOWN", "state": "PA", "street": "355 WALMART DR", "postcode": "15401"}}},
{"geometry": {"type": "Point", "coordinates": [-79.754436576, 39.906422577]}, "type": "Feature", "properties": {"collection_times": [{"days": "Mon-Fri", "time": "5:00pm"}, {"days": "Sat", "time": "4:15pm"}, {"days": "Sun", "time": "Closed"}], "id": "1540100072", "name": "USPS COLLECTION BOX - BLUE BOX", "address": {"city": "UNIONTOWN", "state": "PA", "street": "99 MATTHEW DR", "postcode": "15401"}}},
{"geometry": {"type": "Point", "coordinates": [-79.72377681, 39.897738431]}, "type": "Feature", "properties": {"collection_times": [{"days": "Mon-Fri", "time": "6:00pm"}, {"days": "Sat", "time": "4:00pm"}, {"days": "Sun", "time": "Closed"}], "id": "1540100075", "name": "USPS COLLECTION BOX - BLUE BOX", "address": {"city": "UNIONTOWN", "state": "PA", "street": "47 E FAYETTE ST", "postcode": "15401"}}},
{"geometry": {"type": "Point", "coordinates": [-79.726606434, 39.922587374]}, "type": "Feature", "properties": {"collection_times": [{"days": "Mon-Fri", "time": "4:30pm"}, {"days": "Sat", "time": "4:15pm"}, {"days": "Sun", "time": "Closed"}], "id": "1540100076", "name": "USPS COLLECTION BOX - BLUE BOX", "address": {"city": "UNIONTOWN", "state": "PA", "street": "581 PITTSBURGH RD", "postcode": "15401"}}},
{"geometry": {"type": "Point", "coordinates": [-79.72377681, 39.897738431]}, "type": "Feature", "properties": {"collection_times": [{"days": "Mon-Fri", "time": "6:00pm"}, {"days": "Sat", "time": "4:00pm"}, {"days": "Sun", "time": "Closed"}], "id": "1540100077", "name": "USPS COLLECTION BOX - BLUE BOX", "address": {"city": "UNIONTOWN", "state": "PA", "street": "47 E FAYETTE ST", "postcode": "15401"}}},
{"geometry": {"type": "Point", "coordinates": [-79.748459079, 39.910921951]}, "type": "Feature", "properties": {"collection_times": [{"days": "Mon-Fri", "time": "5:00pm"}, {"days": "Sat", "time": "4:00pm"}, {"days": "Sun", "time": "Closed"}], "id": "1540100081", "name": "USPS COLLECTION BOX - BLUE BOX", "address": {"city": "UNIONTOWN", "state": "PA", "street": "100 NEW SALEM RD", "postcode": "15401"}}},
{"geometry": {"type": "Point", "coordinates": [-79.721434528, 39.9006053]}, "type": "Feature", "properties": {"collection_times": [{"days": "Mon-Fri", "time": "12:15pm"}, {"days": "Sat", "time": "5:00pm"}, {"days": "Sun", "time": "Closed"}], "id": "1540100082", "name": "USPS COLLECTION BOX - BLUE BOX", "address": {"city": "UNIONTOWN", "state": "PA", "street": "112 E MAIN ST", "postcode": "15401"}}},
{"geometry": {"type": "Point", "coordinates": [-79.3328145664, 39.7470275653]}, "type": "Feature", "properties": {"collection_times": [{"days": "Mon-Sat", "time": "12:00pm"}, {"days": "Sun", "time": "Closed"}], "id": "1541100001", "name": "USPS COLLECTION BOX - BLUE BOX", "address": {"city": "ADDISON", "state": "PA", "street": "7337 NATIONAL PIKE", "postcode": "15411"}}},
{"geometry": {"type": "Point", "coordinates": [-79.332651196, 39.746963966]}, "type": "Feature", "properties": {"collection_times": [{"days": "Mon-Sat", "time": "12:00pm"}, {"days": "Sun", "time": "Closed"}], "id": "1541100002", "name": "USPS COLLECTION BOX - PO LOBBY", "address": {"city": "ADDISON", "state": "PA", "street": "7337 NATIONAL PIKE", "postcode": "15411"}}},
{"geometry": {"type": "Point", "coordinates": [-79.8448656036, 40.0994046077]}, "type": "Feature", "properties": {"collection_times": [{"days": "Mon-Fri", "time": "11:55am"}, {"days": "Sat", "time": "11:45am"}, {"days": "Sun", "time": "Closed"}], "id": "1541200001", "name": "USPS COLLECTION BOX - BLUE BOX", "address": {"city": "ALLENPORT", "state": "PA", "street": "1908 MAIN ST", "postcode": "15412"}}},
{"geometry": {"type": "Point", "coordinates": [-79.8448656036, 40.0994046077]}, "type": "Feature", "properties": {"collection_times": [{"days": "Mon-Fri", "time": "11:55am"}, {"days": "Sat", "time": "11:45am"}, {"days": "Sun", "time": "Closed"}], "id": "1541200002", "name": "USPS COLLECTION BOX - PO LOBBY", "address": {"city": "ALLENPORT", "state": "PA", "street": "1908 MAIN ST LBBY", "postcode": "15412"}}},
{"geometry": {"type": "Point", "coordinates": [-79.8771556394, 39.9827560157]}, "type": "Feature", "properties": {"collection_times": [{"days": "Mon-Fri", "time": "12:25pm"}, {"days": "Sat", "time": "11:45am"}, {"days": "Sun", "time": "Closed"}], "id": "1541300001", "name": "USPS COLLECTION BOX - BLUE BOX", "address": {"city": "ALLISON", "state": "PA", "street": "575 ALLISON AVE", "postcode": "15413"}}},
{"geometry": {"type": "Point", "coordinates": [-79.8771556394, 39.9827560157]}, "type": "Feature", "properties": {"collection_times": [{"days": "Mon-Fri", "time": "12:25pm"}, {"days": "Sat", "time": "11:45am"}, {"days": "Sun", "time": "Closed"}], "id": "1541300002", "name": "USPS COLLECTION BOX - PO LOBBY", "address": {"city": "ALLISON", "state": "PA", "street": "575 ALLISON AVE LBBY", "postcode": "15413"}}},
{"geometry": {"type": "Point", "coordinates": [-79.828464662, 39.9784457491]}, "type": "Feature", "properties": {"collection_times": [{"days": "Mon-Fri", "time": "11:55am"}, {"days": "Sat", "time": "11:45am"}, {"days": "Sun", "time": "Closed"}], "id": "1541500001", "name": "USPS COLLECTION BOX - BLUE BOX", "address": {"city": "BRIER HILL", "state": "PA", "street": "6608 NATIONAL PIKE", "postcode": "15415"}}},
{"geometry": {"type": "Point", "coordinates": [-79.828464662, 39.9784457491]}, "type": "Feature", "properties": {"collection_times": [{"days": "Mon-Fri", "time": "11:55am"}, {"days": "Sat", "time": "11:45am"}, {"days": "Sun", "time": "Closed"}], "id": "1541500002", "name": "USPS COLLECTION BOX - PO LOBBY", "address": {"city": "BRIER HILL", "state": "PA", "street": "6608 NATIONAL PIKE", "postcode": "15415"}}},
{"geometry": {"type": "Point", "coordinates": [-79.7124192046, 39.8573778166]}, "type": "Feature", "properties": {"collection_times": [{"days": "Mon-Fri", "time": "11:55am"}, {"days": "Sat", "time": "11:45am"}, {"days": "Sun", "time": "Closed"}], "id": "1541600001", "name": "USPS COLLECTION BOX - BLUE BOX", "address": {"city": "BROWNFIELD", "state": "PA", "street": "212 2ND ST", "postcode": "15416"}}},
{"geometry": {"type": "Point", "coordinates": [-79.7124192046, 39.8573778166]}, "type": "Feature", "properties": {"collection_times": [{"days": "Mon-Fri", "time": "11:55am"}, {"days": "Sat", "time": "11:45am"}, {"days": "Sun", "time": "Closed"}], "id": "1541600002", "name": "USPS COLLECTION BOX - PO LOBBY", "address": {"city": "BROWNFIELD", "state": "PA", "street": "212 2ND ST", "postcode": "15416"}}},
{"geometry": {"type": "Point", "coordinates": [-79.8873753235, 40.0212394342]}, "type": "Feature", "properties": {"collection_times": [{"days": "Mon-Fri", "time": "5:00pm"}, {"days": "Sat", "time": "3:00pm"}, {"days": "Sun", "time": "Closed"}], "id": "1541700001", "name": "USPS COLLECTION BOX - BLUE BOX", "address": {"city": "BROWNSVILLE", "state": "PA", "street": "100 CHARLES ST", "postcode": "15417"}}},
{"geometry": {"type": "Point", "coordinates": [-79.8689194213, 40.0103448966]}, "type": "Feature", "properties": {"collection_times": [{"days": "Mon-Fri", "time": "10:00am"}, {"days": "Sat", "time": "9:00am"}, {"days": "Sun", "time": "Closed"}], "id": "1541700025", "name": "USPS COLLECTION BOX - BLUE BOX", "address": {"city": "BROWNSVILLE", "state": "PA", "street": "633 NATIONAL PIKE E", "postcode": "15417"}}},
{"geometry": {"type": "Point", "coordinates": [-79.8873753235, 40.0212394342]}, "type": "Feature", "properties": {"collection_times": [{"days": "Mon-Fri", "time": "5:00pm"}, {"days": "Sat", "time": "3:00pm"}, {"days": "Sun", "time": "Closed"}], "id": "1541700030", "name": "USPS COLLECTION BOX - PO LOBBY", "address": {"city": "BROWNSVILLE", "state": "PA", "street": "100 CHARLES ST-LOBBY", "postcode": "15417"}}},
{"geometry": {"type": "Point", "coordinates": [-79.8893469973, 40.0675307353]}, "type": "Feature", "properties": {"collection_times": [{"days": "Mon-Fri", "time": "4:30pm"}, {"days": "Sat", "time": "3:30pm"}, {"days": "Sun", "time": "Closed"}], "id": "1541900001", "name": "USPS COLLECTION BOX - BLUE BOX", "address": {"city": "CALIFORNIA", "state": "PA", "street": "430 2ND ST", "postcode": "15419"}}},
{"geometry": {"type": "Point", "coordinates": [-79.8926444759, 40.0668692243]}, "type": "Feature", "properties": {"collection_times": [{"days": "Mon-Sat", "time": "11:30am"}, {"days": "Sun", "time": "Closed"}], "id": "1541900002", "name": "USPS COLLECTION BOX - BLUE BOX", "address": {"city": "CALIFORNIA", "state": "PA", "street": "200 3RD ST", "postcode": "15419"}}},
{"geometry": {"type": "Point", "coordinates": [-79.8899322494, 40.0665171323]}, "type": "Feature", "properties": {"collection_times": [{"days": "Mon-Sat", "time": "11:30am"}, {"days": "Sun", "time": "Closed"}], "id": "1541900003", "name": "USPS COLLECTION BOX - BLUE BOX", "address": {"city": "CALIFORNIA", "state": "PA", "street": "404 3RD ST", "postcode": "15419"}}},
{"geometry": {"type": "Point", "coordinates": [-79.8911995822, 40.0656426184]}, "type": "Feature", "properties": {"collection_times": [{"days": "Mon-Sat", "time": "11:30am"}, {"days": "Sun", "time": "Closed"}], "id": "1541900005", "name": "USPS COLLECTION BOX - BLUE BOX", "address": {"city": "CALIFORNIA", "state": "PA", "street": "316 4TH ST", "postcode": "15419"}}},
{"geometry": {"type": "Point", "coordinates": [-79.8893469973, 40.0675307353]}, "type": "Feature", "properties": {"collection_times": [{"days": "Mon-Fri", "time": "4:30pm"}, {"days": "Sat", "time": "3:30pm"}, {"days": "Sun", "time": "Closed"}], "id": "1541900012", "name": "USPS COLLECTION BOX - PO LOBBY", "address": {"city": "CALIFORNIA", "state": "PA", "street": "430 2ND ST LBBY", "postcode": "15419"}}},
{"geometry": {"type": "Point", "coordinates": [-79.8893469973, 40.0675307353]}, "type": "Feature", "properties": {"collection_times": [{"days": "Mon-Fri", "time": "4:30pm"}, {"days": "Sat", "time": "3:30pm"}, {"days": "Sun", "time": "Closed"}], "id": "1541900013", "name": "USPS COLLECTION BOX - PO LOBBY", "address": {"city": "CALIFORNIA", "state": "PA", "street": "430 2ND ST LBBY", "postcode": "15419"}}},
{"geometry": {"type": "Point", "coordinates": [-79.886441301, 40.0659346487]}, "type": "Feature", "properties": {"collection_times": [{"days": "Mon-Fri", "time": "11:30am"}, {"days": "Sat-Sun", "time": "Closed"}], "id": "1541900014", "name": "USPS COLLECTION BOX - BLUE BOX", "address": {"city": "CALIFORNIA", "state": "PA", "street": "250 UNIVERSITY AVE", "postcode": "15419"}}},
{"geometry": {"type": "Point", "coordinates": [-79.8678729759, 39.9575133235]}, "type": "Feature", "properties": {"collection_times": [{"days": "Mon-Fri", "time": "12:25pm"}, {"days": "Sat", "time": "12:00pm"}, {"days": "Sun", "time": "Closed"}], "id": "1542000001", "name": "USPS COLLECTION BOX - BLUE BOX", "address": {"city": "CARDALE", "state": "PA", "street": "258 FILBERT ORIENT RD", "postcode": "15420"}}},
{"geometry": {"type": "Point", "coordinates": [-79.8678729759, 39.9575133235]}, "type": "Feature", "properties": {"collection_times": [{"days": "Mon-Fri", "time": "12:25pm"}, {"days": "Sat", "time": "12:00pm"}, {"days": "Sun", "time": "Closed"}], "id": "1542000002", "name": "USPS COLLECTION BOX - PO LOBBY", "address": {"city": "CARDALE", "state": "PA", "street": "258 FILBERT ORIENT RD", "postcode": "15420"}}},
{"geometry": {"type": "Point", "coordinates": [-79.6179405254, 39.8443275633]}, "type": "Feature", "properties": {"collection_times": [{"days": "Mon-Fri", "time": "4:45pm"}, {"days": "Sat", "time": "12:00pm"}, {"days": "Sun", "time": "Closed"}], "id": "1542100001", "name": "USPS COLLECTION BOX - BLUE BOX", "address": {"city": "CHALKHILL", "state": "PA", "street": "2963 NATIONAL PIKE", "postcode": "15421"}}},
{"geometry": {"type": "Point", "coordinates": [-79.6179405254, 39.8443275633]}, "type": "Feature", "properties": {"collection_times": [{"days": "Mon-Fri", "time": "4:45pm"}, {"days": "Sat", "time": "12:00pm"}, {"days": "Sun", "time": "Closed"}], "id": "1542100002", "name": "USPS COLLECTION BOX - PO LOBBY", "address": {"city": "CHALKHILL", "state": "PA", "street": "2963 NATIONAL PIKE LBBY", "postcode": "15421"}}},
{"geometry": {"type": "Point", "coordinates": [-79.8110032142, 39.9794445609]}, "type": "Feature", "properties": {"collection_times": [{"days": "Mon-Fri", "time": "10:50am"}, {"days": "Sat", "time": "11:45am"}, {"days": "Sun", "time": "Closed"}], "id": "1542200001", "name": "USPS COLLECTION BOX - BLUE BOX", "address": {"city": "CHESTNUT RIDGE", "state": "PA", "street": "402 3RD ST", "postcode": "15422"}}},
{"geometry": {"type": "Point", "coordinates": [-79.8110032142, 39.9794445609]}, "type": "Feature", "properties": {"collection_times": [{"days": "Mon-Fri", "time": "10:50am"}, {"days": "Sat", "time": "11:45am"}, {"days": "Sun", "time": "Closed"}], "id": "1542200002", "name": "USPS COLLECTION BOX - PO LOBBY", "address": {"city": "CHESTNUT RIDGE", "state": "PA", "street": "402 3RD ST", "postcode": "15422"}}},
{"geometry": {"type": "Point", "coordinates": [-79.9000194372, 40.0702246931]}, "type": "Feature", "properties": {"collection_times": [{"days": "Mon-Fri", "time": "4:30pm"}, {"days": "Sat", "time": "11:45am"}, {"days": "Sun", "time": "Closed"}], "id": "1542300001", "name": "USPS COLLECTION BOX - BLUE BOX", "address": {"city": "COAL CENTER", "state": "PA", "street": "109 SPRING ST", "postcode": "15423"}}},
{"geometry": {"type": "Point", "coordinates": [-79.9000194372, 40.0702246931]}, "type": "Feature", "properties": {"collection_times": [{"days": "Mon-Fri", "time": "4:30pm"}, {"days": "Sat", "time": "11:45am"}, {"days": "Sun", "time": "Closed"}], "id": "1542300002", "name": "USPS COLLECTION BOX - PO LOBBY", "address": {"city": "COAL CENTER", "state": "PA", "street": "109 SPRING ST", "postcode": "15423"}}},
{"geometry": {"type": "Point", "coordinates": [-79.3592371379, 39.8115272199]}, "type": "Feature", "properties": {"collection_times": [{"days": "Mon-Fri", "time": "4:30pm"}, {"days": "Sat", "time": "3:45pm"}, {"days": "Sun", "time": "Closed"}], "id": "1542400001", "name": "USPS COLLECTION BOX - BLUE BOX", "address": {"city": "CONFLUENCE", "state": "PA", "street": "512 HUGART ST", "postcode": "15424"}}},
{"geometry": {"type": "Point", "coordinates": [-79.3568463778, 39.8061991727]}, "type": "Feature", "properties": {"collection_times": [{"days": "Mon-Sat", "time": "9:30am"}, {"days": "Sun", "time": "Closed"}], "id": "1542400003", "name": "USPS COLLECTION BOX - BLUE BOX", "address": {"city": "CONFLUENCE", "state": "PA", "street": "821 ODEN ST", "postcode": "15424"}}},
{"geometry": {"type": "Point", "coordinates": [-79.3634342763, 39.8109806928]}, "type": "Feature", "properties": {"collection_times": [{"days": "Mon-Sat", "time": "12:00pm"}, {"days": "Sun", "time": "Closed"}], "id": "1542400007", "name": "USPS COLLECTION BOX - BLUE BOX", "address": {"city": "CONFLUENCE", "state": "PA", "street": "303 YOUGH ST", "postcode": "15424"}}},
{"geometry": {"type": "Point", "coordinates": [-79.3592371379, 39.8115272199]}, "type": "Feature", "properties": {"collection_times": [{"days": "Mon-Fri", "time": "4:30pm"}, {"days": "Sat", "time": "3:45pm"}, {"days": "Sun", "time": "Closed"}], "id": "1542400011", "name": "USPS COLLECTION BOX - PO LOBBY", "address": {"city": "CONFLUENCE", "state": "PA", "street": "512 HUGART ST", "postcode": "15424"}}},
{"geometry": {"type": "Point", "coordinates": [-79.3592371379, 39.8115272199]}, "type": "Feature", "properties": {"collection_times": [{"days": "Mon-Fri", "time": "4:30pm"}, {"days": "Sat", "time": "3:45pm"}, {"days": "Sun", "time": "Closed"}], "id": "1542400012", "name": "USPS COLLECTION BOX - PO LOBBY", "address": {"city": "CONFLUENCE", "state": "PA", "street": "512 HUGART ST", "postcode": "15424"}}},
{"geometry": {"type": "Point", "coordinates": [-79.3564690785, 39.8133542963]}, "type": "Feature", "properties": {"collection_times": [{"days": "Mon-Sat", "time": "12:00pm"}, {"days": "Sun", "time": "Closed"}], "id": "1542400014", "name": "USPS COLLECTION BOX - BLUE BOX", "address": {"city": "CONFLUENCE", "state": "PA", "street": "511 WILLIAMS ST", "postcode": "15424"}}},
{"geometry": {"type": "Point", "coordinates": [-79.591485325, 40.018287086]}, "type": "Feature", "properties": {"collection_times": [{"days": "Mon-Fri", "time": "5:00pm"}, {"days": "Sat", "time": "3:30pm"}, {"days": "Sun", "time": "Closed"}], "id": "1542500001", "name": "USPS COLLECTION BOX - BLUE BOX", "address": {"city": "CONNELLSVILLE", "state": "PA", "street": "115 N ARCH ST", "postcode": "15425"}}},
{"geometry": {"type": "Point", "coordinates": [-79.588928639, 40.0119879293]}, "type": "Feature", "properties": {"collection_times": [{"days": "Mon-Fri", "time": "2:00pm"}, {"days": "Sat", "time": "2:45pm"}, {"days": "Sun", "time": "Closed"}], "id": "1542500002", "name": "USPS COLLECTION BOX - BLUE BOX", "address": {"city": "CONNELLSVILLE", "state": "PA", "street": "704 S PITTSBURGH ST", "postcode": "15425"}}},
{"geometry": {"type": "Point", "coordinates": [-79.6020768433, 40.0176505753]}, "type": "Feature", "properties": {"collection_times": [{"days": "Mon-Fri", "time": "1:45pm"}, {"days": "Sat", "time": "12:15pm"}, {"days": "Sun", "time": "Closed"}], "id": "1542500003", "name": "USPS COLLECTION BOX - BLUE BOX", "address": {"city": "CONNELLSVILLE", "state": "PA", "street": "818 VANDERBILT RD", "postcode": "15425"}}},
{"geometry": {"type": "Point", "coordinates": [-79.5911472475, 40.0171902894]}, "type": "Feature", "properties": {"collection_times": [{"days": "Mon-Fri", "time": "2:15pm"}, {"days": "Sat", "time": "3:00pm"}, {"days": "Sun", "time": "Closed"}], "id": "1542500006", "name": "USPS COLLECTION BOX - BLUE BOX", "address": {"city": "CONNELLSVILLE", "state": "PA", "street": "131 S ARCH ST", "postcode": "15425"}}},
{"geometry": {"type": "Point", "coordinates": [-79.5887311851, 40.0025293778]}, "type": "Feature", "properties": {"collection_times": [{"days": "Mon-Fri", "time": "2:00pm"}, {"days": "Sat", "time": "2:45pm"}, {"days": "Sun", "time": "Closed"}], "id": "1542500007", "name": "USPS COLLECTION BOX - BLUE BOX", "address": {"city": "CONNELLSVILLE", "state": "PA", "street": "1411 S PITTSBURGH ST", "postcode": "15425"}}},
{"geometry": {"type": "Point", "coordinates": [-79.5893637809, 40.0178287909]}, "type": "Feature", "properties": {"collection_times": [{"days": "Mon-Fri", "time": "2:00pm"}, {"days": "Sat", "time": "2:30pm"}, {"days": "Sun", "time": "Closed"}], "id": "1542500008", "name": "USPS COLLECTION BOX - BLUE BOX", "address": {"city": "CONNELLSVILLE", "state": "PA", "street": "109 N PITTSBURGH ST", "postcode": "15425"}}},
{"geometry": {"type": "Point", "coordinates": [-79.5964177995, 40.0223023336]}, "type": "Feature", "properties": {"collection_times": [{"days": "Mon-Fri", "time": "1:45pm"}, {"days": "Sat", "time": "2:15pm"}, {"days": "Sun", "time": "Closed"}], "id": "1542500013", "name": "USPS COLLECTION BOX - BLUE BOX", "address": {"city": "CONNELLSVILLE", "state": "PA", "street": "103 MEMORIAL BLVD", "postcode": "15425"}}},
{"geometry": {"type": "Point", "coordinates": [-79.5860946571, 40.0170859504]}, "type": "Feature", "properties": {"collection_times": [{"days": "Mon-Fri", "time": "1:30pm"}, {"days": "Sat", "time": "2:00pm"}, {"days": "Sun", "time": "Closed"}], "id": "1542500019", "name": "USPS COLLECTION BOX - BLUE BOX", "address": {"city": "CONNELLSVILLE", "state": "PA", "street": "215 E FAIRVIEW AVE", "postcode": "15425"}}},
{"geometry": {"type": "Point", "coordinates": [-79.5860577739, 40.0233403099]}, "type": "Feature", "properties": {"collection_times": [{"days": "Mon-Fri", "time": "1:30pm"}, {"days": "Sat", "time": "2:00pm"}, {"days": "Sun", "time": "Closed"}], "id": "1542500022", "name": "USPS COLLECTION BOX - BLUE BOX", "address": {"city": "CONNELLSVILLE", "state": "PA", "street": "401 E MURPHY AVE", "postcode": "15425"}}},
{"geometry": {"type": "Point", "coordinates": [-79.59473126, 40.0172846824]}, "type": "Feature", "properties": {"collection_times": [{"days": "Mon-Fri", "time": "1:45pm"}, {"days": "Sat", "time": "1:00pm"}, {"days": "Sun", "time": "Closed"}], "id": "1542500027", "name": "USPS COLLECTION BOX - BLUE BOX", "address": {"city": "CONNELLSVILLE", "state": "PA", "street": "401 W CRAWFORD AVE", "postcode": "15425"}}},
{"geometry": {"type": "Point", "coordinates": [-79.5903025877, 40.0178446009]}, "type": "Feature", "properties": {"collection_times": [{"days": "Mon-Fri", "time": "5:00pm"}, {"days": "Sat", "time": "3:00pm"}, {"days": "Sun", "time": "Closed"}], "id": "1542500037", "name": "USPS COLLECTION BOX - BLUE BOX", "address": {"city": "CONNELLSVILLE", "state": "PA", "street": "110 N MEADOW LN", "postcode": "15425"}}},
{"geometry": {"type": "Point", "coordinates": [-79.5892692779, 40.0242497155]}, "type": "Feature", "properties": {"collection_times": [{"days": "Mon-Fri", "time": "1:30pm"}, {"days": "Sat", "time": "2:00pm"}, {"days": "Sun", "time": "Closed"}], "id": "1542500038", "name": "USPS COLLECTION BOX - BLUE BOX", "address": {"city": "CONNELLSVILLE", "state": "PA", "street": "717 MCCORMICK AVE", "postcode": "15425"}}},
{"geometry": {"type": "Point", "coordinates": [-79.591485325, 40.018287086]}, "type": "Feature", "properties": {"collection_times": [{"days": "Mon-Fri", "time": "5:00pm"}, {"days": "Sat", "time": "3:30pm"}, {"days": "Sun", "time": "Closed"}], "id": "1542500045", "name": "USPS COLLECTION BOX - PO LOBBY", "address": {"city": "CONNELLSVILLE", "state": "PA", "street": "115 N ARCH ST LBBY", "postcode": "15425"}}},
{"geometry": {"type": "Point", "coordinates": [-79.5614565346, 40.0275423959]}, "type": "Feature", "properties": {"collection_times": [{"days": "Mon-Sat", "time": "11:00am"}, {"days": "Sun", "time": "Closed"}], "id": "1542500047", "name": "USPS COLLECTION BOX - BLUE BOX", "address": {"city": "CONNELLSVILLE", "state": "PA", "street": "300 LAUREL DR", "postcode": "15425"}}},
{"geometry": {"type": "Point", "coordinates": [-79.5847051129, 40.0194014884]}, "type": "Feature", "properties": {"collection_times": [{"days": "Mon-Fri", "time": "1:30pm"}, {"days": "Sat", "time": "2:00pm"}, {"days": "Sun", "time": "Closed"}], "id": "1542500048", "name": "USPS COLLECTION BOX - BLUE BOX", "address": {"city": "CONNELLSVILLE", "state": "PA", "street": "302 E CRAWFORD AVE", "postcode": "15425"}}},
{"geometry": {"type": "Point", "coordinates": [-79.9324266883, 40.051082422]}, "type": "Feature", "properties": {"collection_times": [{"days": "Mon-Fri", "time": "11:55am"}, {"days": "Sat", "time": "11:15am"}, {"days": "Sun", "time": "Closed"}], "id": "1542700001", "name": "USPS COLLECTION BOX - BLUE BOX", "address": {"city": "DAISYTOWN", "state": "PA", "street": "545 PIKE RUN DR", "postcode": "15427"}}},
{"geometry": {"type": "Point", "coordinates": [-79.9324266883, 40.051082422]}, "type": "Feature", "properties": {"collection_times": [{"days": "Mon-Fri", "time": "11:55am"}, {"days": "Sat", "time": "11:15am"}, {"days": "Sun", "time": "Closed"}], "id": "1542700002", "name": "USPS COLLECTION BOX - PO LOBBY", "address": {"city": "DAISYTOWN", "state": "PA", "street": "545 PIKE RUN DR", "postcode": "15427"}}},
{"geometry": {"type": "Point", "coordinates": [-79.6544670143, 40.0456909751]}, "type": "Feature", "properties": {"collection_times": [{"days": "Mon-Fri", "time": "4:00pm"}, {"days": "Sat", "time": "11:00am"}, {"days": "Sun", "time": "Closed"}], "id": "1542800001", "name": "USPS COLLECTION BOX - BLUE BOX", "address": {"city": "DAWSON", "state": "PA", "street": "101 RAILROAD ST", "postcode": "15428"}}},
{"geometry": {"type": "Point", "coordinates": [-79.6544670143, 40.0456909751]}, "type": "Feature", "properties": {"collection_times": [{"days": "Mon-Fri", "time": "4:00pm"}, {"days": "Sat", "time": "11:00am"}, {"days": "Sun", "time": "Closed"}], "id": "1542800002", "name": "USPS COLLECTION BOX - PO LOBBY", "address": {"city": "DAWSON", "state": "PA", "street": "101 RAILROAD ST", "postcode": "15428"}}},
{"geometry": {"type": "Point", "coordinates": [-79.6605633932, 40.042425119]}, "type": "Feature", "properties": {"collection_times": [{"days": "Mon-Fri", "time": "12:25pm"}, {"days": "Sat", "time": "11:30am"}, {"days": "Sun", "time": "Closed"}], "id": "1543000001", "name": "USPS COLLECTION BOX - BLUE BOX", "address": {"city": "DICKERSON RUN", "state": "PA", "street": "232 MAIN ST", "postcode": "15430"}}},
{"geometry": {"type": "Point", "coordinates": [-79.6605633932, 40.042425119]}, "type": "Feature", "properties": {"collection_times": [{"days": "Mon-Fri", "time": "12:25pm"}, {"days": "Sat", "time": "11:30am"}, {"days": "Sun", "time": "Closed"}], "id": "1543000002", "name": "USPS COLLECTION BOX - PO LOBBY", "address": {"city": "DICKERSON RUN", "state": "PA", "street": "232 MAIN ST", "postcode": "15430"}}},
{"geometry": {"type": "Point", "coordinates": [-79.6166038323, 39.9763028607]}, "type": "Feature", "properties": {"collection_times": [{"days": "Mon-Fri", "time": "4:45pm"}, {"days": "Sat", "time": "11:45am"}, {"days": "Sun", "time": "Closed"}], "id": "1543100001", "name": "USPS COLLECTION BOX - BLUE BOX", "address": {"city": "DUNBAR", "state": "PA", "street": "27 CHURCH ST", "postcode": "15431"}}},
{"geometry": {"type": "Point", "coordinates": [-79.6166038323, 39.9763028607]}, "type": "Feature", "properties": {"collection_times": [{"days": "Mon-Fri", "time": "4:45pm"}, {"days": "Sat", "time": "11:45am"}, {"days": "Sun", "time": "Closed"}], "id": "1543100005", "name": "USPS COLLECTION BOX - PO LOBBY", "address": {"city": "DUNBAR", "state": "PA", "street": "27 CHURCH ST", "postcode": "15431"}}},
{"geometry": {"type": "Point", "coordinates": [-79.6166038323, 39.9763028607]}, "type": "Feature", "properties": {"collection_times": [{"days": "Mon-Fri", "time": "4:45pm"}, {"days": "Sat", "time": "11:45am"}, {"days": "Sun", "time": "Closed"}], "id": "1543100006", "name": "USPS COLLECTION BOX - PO LOBBY", "address": {"city": "DUNBAR", "state": "PA", "street": "27 CHURCH ST", "postcode": "15431"}}},
{"geometry": {"type": "Point", "coordinates": [-79.8629866833, 40.1159280629]}, "type": "Feature", "properties": {"collection_times": [{"days": "Mon-Fri", "time": "3:30pm"}, {"days": "Sat", "time": "11:45am"}, {"days": "Sun", "time": "Closed"}], "id": "1543200001", "name": "USPS COLLECTION BOX - BLUE BOX", "address": {"city": "DUNLEVY", "state": "PA", "street": "2216 ROUTE 88", "postcode": "15432"}}},
{"geometry": {"type": "Point", "coordinates": [-79.8629866833, 40.1159280629]}, "type": "Feature", "properties": {"collection_times": [{"days": "Mon-Fri", "time": "3:30pm"}, {"days": "Sat", "time": "11:45am"}, {"days": "Sun", "time": "Closed"}], "id": "1543200002", "name": "USPS COLLECTION BOX - PO LOBBY", "address": {"city": "DUNLEVY", "state": "PA", "street": "2216 ROUTE 88", "postcode": "15432"}}},
{"geometry": {"type": "Point", "coordinates": [-79.9570229731, 39.9713276161]}, "type": "Feature", "properties": {"collection_times": [{"days": "Mon-Fri", "time": "1:50pm"}, {"days": "Sat", "time": "11:30am"}, {"days": "Sun", "time": "Closed"}], "id": "1543300001", "name": "USPS COLLECTION BOX - BLUE BOX", "address": {"city": "EAST MILLSBORO", "state": "PA", "street": "326 MILLSBORO RD", "postcode": "15433"}}},
{"geometry": {"type": "Point", "coordinates": [-79.9570229731, 39.9713276161]}, "type": "Feature", "properties": {"collection_times": [{"days": "Mon-Fri", "time": "1:50pm"}, {"days": "Sat", "time": "11:30am"}, {"days": "Sun", "time": "Closed"}], "id": "1543300002", "name": "USPS COLLECTION BOX - PO LOBBY", "address": {"city": "EAST MILLSBORO", "state": "PA", "street": "326 MILLSBORO RD", "postcode": "15433"}}},
{"geometry": {"type": "Point", "coordinates": [-79.8553373898, 39.9440116035]}, "type": "Feature", "properties": {"collection_times": [{"days": "Mon-Fri", "time": "11:55am"}, {"days": "Sat", "time": "11:45am"}, {"days": "Sun", "time": "Closed"}], "id": "1543500001", "name": "USPS COLLECTION BOX - BLUE BOX", "address": {"city": "FAIRBANK", "state": "PA", "street": "650 FAIRBANK HERBERT RD", "postcode": "15435"}}},
{"geometry": {"type": "Point", "coordinates": [-79.8553373898, 39.9440116035]}, "type": "Feature", "properties": {"collection_times": [{"days": "Mon-Fri", "time": "11:55am"}, {"days": "Sat", "time": "11:45am"}, {"days": "Sun", "time": "Closed"}], "id": "1543500002", "name": "USPS COLLECTION BOX - PO LOBBY", "address": {"city": "FAIRBANK", "state": "PA", "street": "650 FAIRBANK HERBERT RD", "postcode": "15435"}}},
{"geometry": {"type": "Point", "coordinates": [-79.7544317708, 39.820181259]}, "type": "Feature", "properties": {"collection_times": [{"days": "Mon-Fri", "time": "4:30pm"}, {"days": "Sat", "time": "3:30pm"}, {"days": "Sun", "time": "Closed"}], "id": "1543600001", "name": "USPS COLLECTION BOX - BLUE BOX", "address": {"city": "FAIRCHANCE", "state": "PA", "street": "50 W CHURCH ST", "postcode": "15436"}}},
{"geometry": {"type": "Point", "coordinates": [-79.7522082438, 39.8198644873]}, "type": "Feature", "properties": {"collection_times": [{"days": "Mon-Sat", "time": "10:15am"}, {"days": "Sun", "time": "Closed"}], "id": "1543600002", "name": "USPS COLLECTION BOX - BLUE BOX", "address": {"city": "FAIRCHANCE", "state": "PA", "street": "2 S MAIN ST", "postcode": "15436"}}},
{"geometry": {"type": "Point", "coordinates": [-79.7593474666, 39.820839085]}, "type": "Feature", "properties": {"collection_times": [{"days": "Mon-Sat", "time": "12:30pm"}, {"days": "Sun", "time": "Closed"}], "id": "1543600004", "name": "USPS COLLECTION BOX - BLUE BOX", "address": {"city": "FAIRCHANCE", "state": "PA", "street": "125 W CHURCH ST", "postcode": "15436"}}},
{"geometry": {"type": "Point", "coordinates": [-79.7593692045, 39.8208212005]}, "type": "Feature", "properties": {"collection_times": [{"days": "Mon-Sat", "time": "2:00pm"}, {"days": "Sun", "time": "Closed"}], "id": "1543600006", "name": "USPS COLLECTION BOX - BLUE BOX", "address": {"city": "FAIRCHANCE", "state": "PA", "street": "2 KYLE AVE", "postcode": "15436"}}},
{"geometry": {"type": "Point", "coordinates": [-79.7594679951, 39.8182113361]}, "type": "Feature", "properties": {"collection_times": [{"days": "Mon-Sat", "time": "2:30pm"}, {"days": "Sun", "time": "Closed"}], "id": "1543600007", "name": "USPS COLLECTION BOX - BLUE BOX", "address": {"city": "FAIRCHANCE", "state": "PA", "street": "9 GUTHRIE AVE", "postcode": "15436"}}},
{"geometry": {"type": "Point", "coordinates": [-79.7544317708, 39.820181259]}, "type": "Feature", "properties": {"collection_times": [{"days": "Mon-Fri", "time": "4:30pm"}, {"days": "Sat", "time": "3:30pm"}, {"days": "Sun", "time": "Closed"}], "id": "1543600012", "name": "USPS COLLECTION BOX - PO LOBBY", "address": {"city": "FAIRCHANCE", "state": "PA", "street": "50 W CHURCH ST LBBY", "postcode": "15436"}}},
{"geometry": {"type": "Point", "coordinates": [-79.7544317708, 39.820181259]}, "type": "Feature", "properties": {"collection_times": [{"days": "Mon-Fri", "time": "4:30pm"}, {"days": "Sat", "time": "3:30pm"}, {"days": "Sun", "time": "Closed"}], "id": "1543600013", "name": "USPS COLLECTION BOX - PO LOBBY", "address": {"city": "FAIRCHANCE", "state": "PA", "street": "50 W CHURCH ST LBBY", "postcode": "15436"}}},
{"geometry": {"type": "Point", "coordinates": [-79.5790767451, 39.7875231921]}, "type": "Feature", "properties": {"collection_times": [{"days": "Mon-Fri", "time": "4:30pm"}, {"days": "Sat", "time": "11:30am"}, {"days": "Sun", "time": "Closed"}], "id": "1543700001", "name": "USPS COLLECTION BOX - BLUE BOX", "address": {"city": "FARMINGTON", "state": "PA", "street": "103 FARMINGTON OHIOPYLE RD", "postcode": "15437"}}},
{"geometry": {"type": "Point", "coordinates": [-79.5790767451, 39.7875231921]}, "type": "Feature", "properties": {"collection_times": [{"days": "Mon-Fri", "time": "4:30pm"}, {"days": "Sat", "time": "11:30am"}, {"days": "Sun", "time": "Closed"}], "id": "1543700002", "name": "USPS COLLECTION BOX - PO LOBBY", "address": {"city": "FARMINGTON", "state": "PA", "street": "103 FARMINGTON OHIOPYLE RD", "postcode": "15437"}}},
{"geometry": {"type": "Point", "coordinates": [-79.840839612, 40.1016144506]}, "type": "Feature", "properties": {"collection_times": [{"days": "Mon-Fri", "time": "4:15pm"}, {"days": "Sat", "time": "12:00pm"}, {"days": "Sun", "time": "Closed"}], "id": "1543800001", "name": "USPS COLLECTION BOX - BLUE BOX", "address": {"city": "FAYETTE CITY", "state": "PA", "street": "111 JOHNSON HOLLOW RD", "postcode": "15438"}}},
{"geometry": {"type": "Point", "coordinates": [-79.840839612, 40.1016144506]}, "type": "Feature", "properties": {"collection_times": [{"days": "Mon-Fri", "time": "4:15pm"}, {"days": "Sat", "time": "12:00pm"}, {"days": "Sun", "time": "Closed"}], "id": "1543800004", "name": "USPS COLLECTION BOX - PO LOBBY", "address": {"city": "FAYETTE CITY", "state": "PA", "street": "111 JOHNSON HOLLOW RD-LOBBY", "postcode": "15438"}}},
{"geometry": {"type": "Point", "coordinates": [-79.8301485429, 40.0859338249]}, "type": "Feature", "properties": {"collection_times": [{"days": "Mon-Fri", "time": "1:15pm"}, {"days": "Sat", "time": "12:00pm"}, {"days": "Sun", "time": "Closed"}], "id": "1543800005", "name": "USPS COLLECTION BOX - BLUE BOX", "address": {"city": "FAYETTE CITY", "state": "PA", "street": "302 MAIN ST", "postcode": "15438"}}},
{"geometry": {"type": "Point", "coordinates": [-79.5688375128, 39.7351178455]}, "type": "Feature", "properties": {"collection_times": [{"days": "Mon-Fri", "time": "10:50am"}, {"days": "Sat", "time": "11:45am"}, {"days": "Sun", "time": "Closed"}], "id": "1544000001", "name": "USPS COLLECTION BOX - BLUE BOX", "address": {"city": "GIBBON GLADE", "state": "PA", "street": "872 GIBBON GLADE RD", "postcode": "15440"}}},
{"geometry": {"type": "Point", "coordinates": [-79.5688375128, 39.7351178455]}, "type": "Feature", "properties": {"collection_times": [{"days": "Mon-Fri", "time": "10:50am"}, {"days": "Sat", "time": "11:45am"}, {"days": "Sun", "time": "Closed"}], "id": "1544000002", "name": "USPS COLLECTION BOX - PO LOBBY", "address": {"city": "GIBBON GLADE", "state": "PA", "street": "872 GIBBON GLADE RD", "postcode": "15440"}}},
{"geometry": {"type": "Point", "coordinates": [-79.8323671093, 40.0110650537]}, "type": "Feature", "properties": {"collection_times": [{"days": "Mon-Fri", "time": "11:55am"}, {"days": "Sat", "time": "11:45am"}, {"days": "Sun", "time": "Closed"}], "id": "1544200001", "name": "USPS COLLECTION BOX - BLUE BOX", "address": {"city": "GRINDSTONE", "state": "PA", "street": "563 GRINDSTONE RD", "postcode": "15442"}}},
{"geometry": {"type": "Point", "coordinates": [-79.8323671093, 40.0110650537]}, "type": "Feature", "properties": {"collection_times": [{"days": "Mon-Fri", "time": "11:55am"}, {"days": "Sat", "time": "11:45am"}, {"days": "Sun", "time": "Closed"}], "id": "1544200003", "name": "USPS COLLECTION BOX - PO LOBBY", "address": {"city": "GRINDSTONE", "state": "PA", "street": "563 GRINDSTONE RD", "postcode": "15442"}}},
{"geometry": {"type": "Point", "coordinates": [-79.8819771088, 39.9288092039]}, "type": "Feature", "properties": {"collection_times": [{"days": "Mon-Fri", "time": "11:55am"}, {"days": "Sat", "time": "11:45am"}, {"days": "Sun", "time": "Closed"}], "id": "1544300001", "name": "USPS COLLECTION BOX - BLUE BOX", "address": {"city": "HIBBS", "state": "PA", "street": "1006 RALPH NEW SALEM RD", "postcode": "15443"}}},
{"geometry": {"type": "Point", "coordinates": [-79.8819771088, 39.9288092039]}, "type": "Feature", "properties": {"collection_times": [{"days": "Mon-Fri", "time": "11:55am"}, {"days": "Sat", "time": "11:45am"}, {"days": "Sun", "time": "Closed"}], "id": "1544300002", "name": "USPS COLLECTION BOX - PO LOBBY", "address": {"city": "HIBBS", "state": "PA", "street": "1006 RALPH NEW SALEM RD", "postcode": "15443"}}},
{"geometry": {"type": "Point", "coordinates": [-79.900919682, 40.0119295872]}, "type": "Feature", "properties": {"collection_times": [{"days": "Mon-Fri", "time": "4:00pm"}, {"days": "Sat", "time": "12:00pm"}, {"days": "Sun", "time": "Closed"}], "id": "1544400001", "name": "USPS COLLECTION BOX - BLUE BOX", "address": {"city": "HILLER", "state": "PA", "street": "906 1ST ST", "postcode": "15444"}}},
{"geometry": {"type": "Point", "coordinates": [-79.9001890675, 40.0114888618]}, "type": "Feature", "properties": {"collection_times": [{"days": "Mon-Fri", "time": "4:00pm"}, {"days": "Sat", "time": "12:00pm"}, {"days": "Sun", "time": "Closed"}], "id": "1544400002", "name": "USPS COLLECTION BOX - PO LOBBY", "address": {"city": "HILLER", "state": "PA", "street": "906 1ST ST", "postcode": "15444"}}},
{"geometry": {"type": "Point", "coordinates": [-79.6992941775, 39.8735535494]}, "type": "Feature", "properties": {"collection_times": [{"days": "Mon-Fri", "time": "4:30pm"}, {"days": "Sat", "time": "12:00pm"}, {"days": "Sun", "time": "Closed"}], "id": "1544500001", "name": "USPS COLLECTION BOX - BLUE BOX", "address": {"city": "HOPWOOD", "state": "PA", "street": "108 PAULL ST", "postcode": "15445"}}},
{"geometry": {"type": "Point", "coordinates": [-79.6992941775, 39.8735535494]}, "type": "Feature", "properties": {"collection_times": [{"days": "Mon-Fri", "time": "4:30pm"}, {"days": "Sat", "time": "12:00pm"}, {"days": "Sun", "time": "Closed"}], "id": "1544500003", "name": "USPS COLLECTION BOX - PO LOBBY", "address": {"city": "HOPWOOD", "state": "PA", "street": "108 PAULL ST", "postcode": "15445"}}},
{"geometry": {"type": "Point", "coordinates": [-79.6992941775, 39.8735535494]}, "type": "Feature", "properties": {"collection_times": [{"days": "Mon-Fri", "time": "4:30pm"}, {"days": "Sat", "time": "12:00pm"}, {"days": "Sun", "time": "Closed"}], "id": "1544500004", "name": "USPS COLLECTION BOX - PO LOBBY", "address": {"city": "HOPWOOD", "state": "PA", "street": "108 PAULL ST", "postcode": "15445"}}},
{"geometry": {"type": "Point", "coordinates": [-79.4015187658, 40.061622766]}, "type": "Feature", "properties": {"collection_times": [{"days": "Mon-Fri", "time": "4:30pm"}, {"days": "Sat", "time": "11:45am"}, {"days": "Sun", "time": "Closed"}], "id": "1544600001", "name": "USPS COLLECTION BOX - BLUE BOX", "address": {"city": "INDIAN HEAD", "state": "PA", "street": "2072 INDIAN HEAD RD", "postcode": "15446"}}},
{"geometry": {"type": "Point", "coordinates": [-79.4015187658, 40.061622766]}, "type": "Feature", "properties": {"collection_times": [{"days": "Mon-Fri", "time": "4:30pm"}, {"days": "Sat", "time": "11:45am"}, {"days": "Sun", "time": "Closed"}], "id": "1544600002", "name": "USPS COLLECTION BOX - PO LOBBY", "address": {"city": "INDIAN HEAD", "state": "PA", "street": "2072 INDIAN HEAD RD", "postcode": "15446"}}},
{"geometry": {"type": "Point", "coordinates": [-79.9394933276, 39.9457279118]}, "type": "Feature", "properties": {"collection_times": [{"days": "Mon-Sat", "time": "10:55am"}, {"days": "Sun", "time": "Closed"}], "id": "1544700001", "name": "USPS COLLECTION BOX - BLUE BOX", "address": {"city": "ISABELLA", "state": "PA", "street": "107 1ST ST", "postcode": "15447"}}},
{"geometry": {"type": "Point", "coordinates": [-79.9394933276, 39.9457279118]}, "type": "Feature", "properties": {"collection_times": [{"days": "Mon-Sat", "time": "10:55am"}, {"days": "Sun", "time": "Closed"}], "id": "1544700002", "name": "USPS COLLECTION BOX - PO LOBBY", "address": {"city": "ISABELLA", "state": "PA", "street": "107 1ST ST", "postcode": "15447"}}},
{"geometry": {"type": "Point", "coordinates": [-79.7417527319, 40.1325611409]}, "type": "Feature", "properties": {"collection_times": [{"days": "Mon-Fri", "time": "10:50am"}, {"days": "Sat", "time": "11:45am"}, {"days": "Sun", "time": "Closed"}], "id": "1544800001", "name": "USPS COLLECTION BOX - BLUE BOX", "address": {"city": "JACOBS CREEK", "state": "PA", "street": "178 MAIN ST", "postcode": "15448"}}},
{"geometry": {"type": "Point", "coordinates": [-79.7417527319, 40.1325611409]}, "type": "Feature", "properties": {"collection_times": [{"days": "Mon-Fri", "time": "10:50am"}, {"days": "Sat", "time": "11:45am"}, {"days": "Sun", "time": "Closed"}], "id": "1544800002", "name": "USPS COLLECTION BOX - PO LOBBY", "address": {"city": "JACOBS CREEK", "state": "PA", "street": "178 MAIN ST", "postcode": "15448"}}},
{"geometry": {"type": "Point", "coordinates": [-79.7872562135, 39.9628739453]}, "type": "Feature", "properties": {"collection_times": [{"days": "Mon-Fri", "time": "11:55am"}, {"days": "Sat", "time": "11:30am"}, {"days": "Sun", "time": "Closed"}], "id": "1544900001", "name": "USPS COLLECTION BOX - BLUE BOX", "address": {"city": "KEISTERVILLE", "state": "PA", "street": "831 MAIN ST", "postcode": "15449"}}},
{"geometry": {"type": "Point", "coordinates": [-79.7872562135, 39.9628739453]}, "type": "Feature", "properties": {"collection_times": [{"days": "Mon-Fri", "time": "11:55am"}, {"days": "Sat", "time": "11:30am"}, {"days": "Sun", "time": "Closed"}], "id": "1544900002", "name": "USPS COLLECTION BOX - PO LOBBY", "address": {"city": "KEISTERVILLE", "state": "PA", "street": "831 MAIN ST", "postcode": "15449"}}},
{"geometry": {"type": "Point", "coordinates": [-79.9781568103, 40.009431313]}, "type": "Feature", "properties": {"collection_times": [{"days": "Mon-Fri", "time": "12:55pm"}, {"days": "Sat", "time": "11:45am"}, {"days": "Sun", "time": "Closed"}], "id": "1545000001", "name": "USPS COLLECTION BOX - BLUE BOX", "address": {"city": "LA BELLE", "state": "PA", "street": "1139 LABELLE RD", "postcode": "15450"}}},
{"geometry": {"type": "Point", "coordinates": [-79.9639122621, 40.0011329536]}, "type": "Feature", "properties": {"collection_times": [{"days": "Mon-Fri", "time": "12:55pm"}, {"days": "Sat", "time": "11:45am"}, {"days": "Sun", "time": "Closed"}], "id": "1545000002", "name": "USPS COLLECTION BOX - PO LOBBY", "address": {"city": "LA BELLE", "state": "PA", "street": "1139 LABELLE RD", "postcode": "15450"}}},
{"geometry": {"type": "Point", "coordinates": [-79.8701476527, 39.8637471958]}, "type": "Feature", "properties": {"collection_times": [{"days": "Mon-Fri", "time": "11:55am"}, {"days": "Sat", "time": "11:45am"}, {"days": "Sun", "time": "Closed"}], "id": "1545400001", "name": "USPS COLLECTION BOX - BLUE BOX", "address": {"city": "LECKRONE", "state": "PA", "street": "348 LECKRONE HIGH HOUSE RD", "postcode": "15454"}}},
{"geometry": {"type": "Point", "coordinates": [-79.870199185, 39.861291773]}, "type": "Feature", "properties": {"collection_times": [{"days": "Mon-Fri", "time": "11:55am"}, {"days": "Sat", "time": "11:45am"}, {"days": "Sun", "time": "Closed"}], "id": "1545400002", "name": "USPS COLLECTION BOX - PO LOBBY", "address": {"city": "LECKRONE", "state": "PA", "street": "348 LECKRONE HIGH HOUSE RD", "postcode": "15454"}}},
{"geometry": {"type": "Point", "coordinates": [-79.6436432645, 39.9976647079]}, "type": "Feature", "properties": {"collection_times": [{"days": "Mon-Fri", "time": "11:55am"}, {"days": "Sat", "time": "11:45am"}, {"days": "Sun", "time": "Closed"}], "id": "1545500001", "name": "USPS COLLECTION BOX - BLUE BOX", "address": {"city": "LEISENRING", "state": "PA", "street": "232 MAIN ST", "postcode": "15455"}}},
{"geometry": {"type": "Point", "coordinates": [-79.6436432645, 39.9976647079]}, "type": "Feature", "properties": {"collection_times": [{"days": "Mon-Fri", "time": "11:55am"}, {"days": "Sat", "time": "11:45am"}, {"days": "Sun", "time": "Closed"}], "id": "1545500002", "name": "USPS COLLECTION BOX - PO LOBBY", "address": {"city": "LEISENRING", "state": "PA", "street": "232 MAIN ST", "postcode": "15455"}}},
{"geometry": {"type": "Point", "coordinates": [-79.667595281, 39.9198524566]}, "type": "Feature", "properties": {"collection_times": [{"days": "Mon-Fri", "time": "4:30pm"}, {"days": "Sat", "time": "12:00pm"}, {"days": "Sun", "time": "Closed"}], "id": "1545600001", "name": "USPS COLLECTION BOX - BLUE BOX", "address": {"city": "LEMONT FURNACE", "state": "PA", "street": "265 STARLITE RD", "postcode": "15456"}}},
{"geometry": {"type": "Point", "coordinates": [-79.6499813864, 39.925589705]}, "type": "Feature", "properties": {"collection_times": [{"days": "Mon-Fri", "time": "1:00pm"}, {"days": "Sat", "time": "12:00pm"}, {"days": "Sun", "time": "Closed"}], "id": "1545600002", "name": "USPS COLLECTION BOX - BLUE BOX", "address": {"city": "LEMONT FURNACE", "state": "PA", "street": "3 NICKMAN PLZ", "postcode": "15456"}}},
{"geometry": {"type": "Point", "coordinates": [-79.667595281, 39.9198524566]}, "type": "Feature", "properties": {"collection_times": [{"days": "Mon-Fri", "time": "4:30pm"}, {"days": "Sat", "time": "12:00pm"}, {"days": "Sun", "time": "Closed"}], "id": "1545600003", "name": "USPS COLLECTION BOX - PO LOBBY", "address": {"city": "LEMONT FURNACE", "state": "PA", "street": "265 STARLITE RD", "postcode": "15456"}}},
{"geometry": {"type": "Point", "coordinates": [-79.8608997631, 39.8886393492]}, "type": "Feature", "properties": {"collection_times": [{"days": "Mon-Fri", "time": "4:00pm"}, {"days": "Sat", "time": "12:00pm"}, {"days": "Sun", "time": "Closed"}], "id": "1545800001", "name": "USPS COLLECTION BOX - BLUE BOX", "address": {"city": "MCCLELLANDTOWN", "state": "PA", "street": "109 MCKINLEY ST", "postcode": "15458"}}},
{"geometry": {"type": "Point", "coordinates": [-79.8608997631, 39.8886393492]}, "type": "Feature", "properties": {"collection_times": [{"days": "Mon-Fri", "time": "4:30pm"}, {"days": "Sat", "time": "12:00pm"}, {"days": "Sun", "time": "Closed"}], "id": "1545800003", "name": "USPS COLLECTION BOX - PO LOBBY", "address": {"city": "MCCLELLANDTOWN", "state": "PA", "street": "109 MCKINLEY ST", "postcode": "15458"}}},
{"geometry": {"type": "Point", "coordinates": [-79.4503932641, 39.7370519014]}, "type": "Feature", "properties": {"collection_times": [{"days": "Mon-Fri", "time": "4:00pm"}, {"days": "Sat", "time": "12:00pm"}, {"days": "Sun", "time": "Closed"}], "id": "1545900001", "name": "USPS COLLECTION BOX - BLUE BOX", "address": {"city": "MARKLEYSBURG", "state": "PA", "street": "173 MAIN ST", "postcode": "15459"}}},
{"geometry": {"type": "Point", "coordinates": [-79.4503932641, 39.7370519014]}, "type": "Feature", "properties": {"collection_times": [{"days": "Mon-Fri", "time": "4:00pm"}, {"days": "Sat", "time": "12:00pm"}, {"days": "Sun", "time": "Closed"}], "id": "1545900002", "name": "USPS COLLECTION BOX - PO LOBBY", "address": {"city": "MARKLEYSBURG", "state": "PA", "street": "173 MAIN ST", "postcode": "15459"}}},
{"geometry": {"type": "Point", "coordinates": [-79.4668365631, 39.7518115919]}, "type": "Feature", "properties": {"collection_times": [{"days": "Mon-Fri", "time": "1:30pm"}, {"days": "Sat", "time": "1:00pm"}, {"days": "Sun", "time": "Closed"}], "id": "1545900003", "name": "USPS COLLECTION BOX - BLUE BOX", "address": {"city": "MARKLEYSBURG", "state": "PA", "street": "4634 NATIONAL PIKE", "postcode": "15459"}}},
{"geometry": {"type": "Point", "coordinates": [-79.911994501, 39.8075396341]}, "type": "Feature", "properties": {"collection_times": [{"days": "Mon-Fri", "time": "10:50am"}, {"days": "Sat", "time": "12:00pm"}, {"days": "Sun", "time": "Closed"}], "id": "1546000001", "name": "USPS COLLECTION BOX - BLUE BOX", "address": {"city": "MARTIN", "state": "PA", "street": "107 NICHOLSON ST", "postcode": "15460"}}},
{"geometry": {"type": "Point", "coordinates": [-79.911994501, 39.8075396341]}, "type": "Feature", "properties": {"collection_times": [{"days": "Mon-Fri", "time": "10:50am"}, {"days": "Sat", "time": "12:00pm"}, {"days": "Sun", "time": "Closed"}], "id": "1546000002", "name": "USPS COLLECTION BOX - PO LOBBY", "address": {"city": "MARTIN", "state": "PA", "street": "107 NICHOLSON ST", "postcode": "15460"}}},
{"geometry": {"type": "Point", "coordinates": [-79.9024798495, 39.8460200012]}, "type": "Feature", "properties": {"collection_times": [{"days": "Mon-Fri", "time": "4:30pm"}, {"days": "Sat", "time": "3:30pm"}, {"days": "Sun", "time": "Closed"}], "id": "1546100001", "name": "USPS COLLECTION BOX - BLUE BOX", "address": {"city": "MASONTOWN", "state": "PA", "street": "11 E CHURCH AVE", "postcode": "15461"}}},
{"geometry": {"type": "Point", "coordinates": [-79.9040164392, 39.8429680787]}, "type": "Feature", "properties": {"collection_times": [{"days": "Mon-Sat", "time": "1:00pm"}, {"days": "Sun", "time": "Closed"}], "id": "1546100003", "name": "USPS COLLECTION BOX - BLUE BOX", "address": {"city": "MASONTOWN", "state": "PA", "street": "301 JEFFERSON AVE", "postcode": "15461"}}},
{"geometry": {"type": "Point", "coordinates": [-79.9049603463, 39.8450522002]}, "type": "Feature", "properties": {"collection_times": [{"days": "Mon-Sat", "time": "1:30pm"}, {"days": "Sun", "time": "Closed"}], "id": "1546100004", "name": "USPS COLLECTION BOX - BLUE BOX", "address": {"city": "MASONTOWN", "state": "PA", "street": "304 PROVINS AVE", "postcode": "15461"}}},
{"geometry": {"type": "Point", "coordinates": [-79.9010226597, 39.8539868449]}, "type": "Feature", "properties": {"collection_times": [{"days": "Mon-Sat", "time": "9:30am"}, {"days": "Sun", "time": "Closed"}], "id": "1546100009", "name": "USPS COLLECTION BOX - BLUE BOX", "address": {"city": "MASONTOWN", "state": "PA", "street": "610 N MAIN ST", "postcode": "15461"}}},
{"geometry": {"type": "Point", "coordinates": [-79.8993390862, 39.8451440871]}, "type": "Feature", "properties": {"collection_times": [{"days": "Mon-Sat", "time": "9:00am"}, {"days": "Sun", "time": "Closed"}], "id": "1546100010", "name": "USPS COLLECTION BOX - BLUE BOX", "address": {"city": "MASONTOWN", "state": "PA", "street": "202 S MAIN ST", "postcode": "15461"}}},
{"geometry": {"type": "Point", "coordinates": [-79.8997970092, 39.8467821151]}, "type": "Feature", "properties": {"collection_times": [{"days": "Mon-Sat", "time": "9:30am"}, {"days": "Sun", "time": "Closed"}], "id": "1546100011", "name": "USPS COLLECTION BOX - BLUE BOX", "address": {"city": "MASONTOWN", "state": "PA", "street": "1 N MAIN ST", "postcode": "15461"}}},
{"geometry": {"type": "Point", "coordinates": [-79.9034030757, 39.8464116659]}, "type": "Feature", "properties": {"collection_times": [{"days": "Mon-Sat", "time": "11:00am"}, {"days": "Sun", "time": "Closed"}], "id": "1546100013", "name": "USPS COLLECTION BOX - BLUE BOX", "address": {"city": "MASONTOWN", "state": "PA", "street": "102 W CHURCH AVE", "postcode": "15461"}}},
{"geometry": {"type": "Point", "coordinates": [-79.8969973267, 39.8470043485]}, "type": "Feature", "properties": {"collection_times": [{"days": "Mon-Sat", "time": "11:15am"}, {"days": "Sun", "time": "Closed"}], "id": "1546100014", "name": "USPS COLLECTION BOX - BLUE BOX", "address": {"city": "MASONTOWN", "state": "PA", "street": "308 E CHURCH AVE", "postcode": "15461"}}},
{"geometry": {"type": "Point", "coordinates": [-79.9024798494, 39.8460200472]}, "type": "Feature", "properties": {"collection_times": [{"days": "Mon-Fri", "time": "4:30pm"}, {"days": "Sat", "time": "3:30pm"}, {"days": "Sun", "time": "Closed"}], "id": "1546100017", "name": "USPS COLLECTION BOX - BLUE BOX", "address": {"city": "MASONTOWN", "state": "PA", "street": "11 E CHURCH AVE", "postcode": "15461"}}},
{"geometry": {"type": "Point", "coordinates": [-79.8996145868, 39.8468339769]}, "type": "Feature", "properties": {"collection_times": [{"days": "Mon-Fri", "time": "4:30pm"}, {"days": "Sat", "time": "3:30pm"}, {"days": "Sun", "time": "Closed"}], "id": "1546100018", "name": "USPS COLLECTION BOX - PO LOBBY", "address": {"city": "MASONTOWN", "state": "PA", "street": "11 E CHURCH AVE-LOBBY", "postcode": "15461"}}},
{"geometry": {"type": "Point", "coordinates": [-79.9120546965, 39.8503869473]}, "type": "Feature", "properties": {"collection_times": [{"days": "Mon-Sat", "time": "1:00pm"}, {"days": "Sun", "time": "Closed"}], "id": "1546100020", "name": "USPS COLLECTION BOX - BLUE BOX", "address": {"city": "MASONTOWN", "state": "PA", "street": "200 N REDWOOD ST", "postcode": "15461"}}},
{"geometry": {"type": "Point", "coordinates": [-79.3802110773, 40.0547510942]}, "type": "Feature", "properties": {"collection_times": [{"days": "Mon-Fri", "time": "11:55am"}, {"days": "Sat", "time": "11:45am"}, {"days": "Sun", "time": "Closed"}], "id": "1546200001", "name": "USPS COLLECTION BOX - BLUE BOX", "address": {"city": "MELCROFT", "state": "PA", "street": "1334 INDIAN CREEK VALLEY RD", "postcode": "15462"}}},
{"geometry": {"type": "Point", "coordinates": [-79.3802110773, 40.0547510942]}, "type": "Feature", "properties": {"collection_times": [{"days": "Mon-Fri", "time": "11:55am"}, {"days": "Sat", "time": "11:45am"}, {"days": "Sun", "time": "Closed"}], "id": "1546200002", "name": "USPS COLLECTION BOX - PO LOBBY", "address": {"city": "MELCROFT", "state": "PA", "street": "1334 INDIAN CREEK VALLEY RD", "postcode": "15462"}}},
{"geometry": {"type": "Point", "coordinates": [-79.8627396797, 39.9622260674]}, "type": "Feature", "properties": {"collection_times": [{"days": "Mon-Fri", "time": "11:55am"}, {"days": "Sat", "time": "11:45am"}, {"days": "Sun", "time": "Closed"}], "id": "1546300001", "name": "USPS COLLECTION BOX - BLUE BOX", "address": {"city": "MERRITTSTOWN", "state": "PA", "street": "151 ACADEMY RD", "postcode": "15463"}}},
{"geometry": {"type": "Point", "coordinates": [-79.8627396797, 39.9622260674]}, "type": "Feature", "properties": {"collection_times": [{"days": "Mon-Fri", "time": "11:55am"}, {"days": "Sat", "time": "11:45am"}, {"days": "Sun", "time": "Closed"}], "id": "1546300002", "name": "USPS COLLECTION BOX - PO LOBBY", "address": {"city": "MERRITTSTOWN", "state": "PA", "street": "151 ACADEMY RD", "postcode": "15463"}}},
{"geometry": {"type": "Point", "coordinates": [-79.4776673033, 39.9233545781]}, "type": "Feature", "properties": {"collection_times": [{"days": "Mon-Fri", "time": "4:30pm"}, {"days": "Sat", "time": "11:30am"}, {"days": "Sun", "time": "Closed"}], "id": "1546400001", "name": "USPS COLLECTION BOX - BLUE BOX", "address": {"city": "MILL RUN", "state": "PA", "street": "105 STEWARTON RD", "postcode": "15464"}}},
{"geometry": {"type": "Point", "coordinates": [-79.4776673033, 39.9233545781]}, "type": "Feature", "properties": {"collection_times": [{"days": "Mon-Fri", "time": "4:30pm"}, {"days": "Sat", "time": "11:30am"}, {"days": "Sun", "time": "Closed"}], "id": "1546400002", "name": "USPS COLLECTION BOX - PO LOBBY", "address": {"city": "MILL RUN", "state": "PA", "street": "105 STEWARTON RD", "postcode": "15464"}}},
{"geometry": {"type": "Point", "coordinates": [-79.6462148853, 39.9404212798]}, "type": "Feature", "properties": {"collection_times": [{"days": "Mon-Fri", "time": "11:55am"}, {"days": "Sat", "time": "11:45am"}, {"days": "Sun", "time": "Closed"}], "id": "1546500001", "name": "USPS COLLECTION BOX - BLUE BOX", "address": {"city": "MOUNT BRADDOCK", "state": "PA", "street": "5 FERGUSON RD", "postcode": "15465"}}},
{"geometry": {"type": "Point", "coordinates": [-79.6462148853, 39.9404212798]}, "type": "Feature", "properties": {"collection_times": [{"days": "Mon-Fri", "time": "11:55am"}, {"days": "Sat", "time": "11:45am"}, {"days": "Sun", "time": "Closed"}], "id": "1546500002", "name": "USPS COLLECTION BOX - PO LOBBY", "address": {"city": "MOUNT BRADDOCK", "state": "PA", "street": "5 FERGUSON RD", "postcode": "15465"}}},
{"geometry": {"type": "Point", "coordinates": [-79.897044997, 40.075494332]}, "type": "Feature", "properties": {"collection_times": [{"days": "Mon-Fri", "time": "11:55am"}, {"days": "Sat", "time": "11:25am"}, {"days": "Sun", "time": "Closed"}], "id": "1546600001", "name": "USPS COLLECTION BOX - BLUE BOX", "address": {"city": "NEWELL", "state": "PA", "street": "406 4TH ST", "postcode": "15466"}}},
{"geometry": {"type": "Point", "coordinates": [-79.897044997, 40.075494332]}, "type": "Feature", "properties": {"collection_times": [{"days": "Mon-Fri", "time": "11:55am"}, {"days": "Sat", "time": "11:25am"}, {"days": "Sun", "time": "Closed"}], "id": "1546600002", "name": "USPS COLLECTION BOX - PO LOBBY", "address": {"city": "NEWELL", "state": "PA", "street": "406 4TH ST", "postcode": "15466"}}},
{"geometry": {"type": "Point", "coordinates": [-79.8375486484, 39.9252020496]}, "type": "Feature", "properties": {"collection_times": [{"days": "Mon-Fri", "time": "4:30pm"}, {"days": "Sat", "time": "11:30am"}, {"days": "Sun", "time": "Closed"}], "id": "1546800001", "name": "USPS COLLECTION BOX - BLUE BOX", "address": {"city": "NEW SALEM", "state": "PA", "street": "9 W MAIN ST", "postcode": "15468"}}},
{"geometry": {"type": "Point", "coordinates": [-79.8375486484, 39.9252020496]}, "type": "Feature", "properties": {"collection_times": [{"days": "Mon-Fri", "time": "4:30pm"}, {"days": "Sat", "time": "11:30am"}, {"days": "Sun", "time": "Closed"}], "id": "1546800002", "name": "USPS COLLECTION BOX - PO LOBBY", "address": {"city": "NEW SALEM", "state": "PA", "street": "9 W MAIN ST", "postcode": "15468"}}},
{"geometry": {"type": "Point", "coordinates": [-79.4569829763, 40.003586471]}, "type": "Feature", "properties": {"collection_times": [{"days": "Mon-Fri", "time": "4:45pm"}, {"days": "Sat", "time": "11:45am"}, {"days": "Sun", "time": "Closed"}], "id": "1546900001", "name": "USPS COLLECTION BOX - BLUE BOX", "address": {"city": "NORMALVILLE", "state": "PA", "street": "3318 SPRINGFIELD PIKE", "postcode": "15469"}}},
{"geometry": {"type": "Point", "coordinates": [-79.4569829763, 40.003586471]}, "type": "Feature", "properties": {"collection_times": [{"days": "Mon-Fri", "time": "4:45pm"}, {"days": "Sat", "time": "11:45am"}, {"days": "Sun", "time": "Closed"}], "id": "1546900002", "name": "USPS COLLECTION BOX - PO LOBBY", "address": {"city": "NORMALVILLE", "state": "PA", "street": "3318 SPRINGFIELD PIKE", "postcode": "15469"}}},
{"geometry": {"type": "Point", "coordinates": [-79.4353092031, 40.0182603642]}, "type": "Feature", "properties": {"collection_times": [{"days": "Mon-Fri", "time": "4:45pm"}, {"days": "Sat", "time": "11:45am"}, {"days": "Sun", "time": "Closed"}], "id": "1546900003", "name": "USPS COLLECTION BOX - PO LOBBY", "address": {"city": "NORMALVILLE", "state": "PA", "street": "3318 SPRINGFIELD PIKE", "postcode": "15469"}}},
{"geometry": {"type": "Point", "coordinates": [-79.4930419943, 39.8672807057]}, "type": "Feature", "properties": {"collection_times": [{"days": "Mon-Fri", "time": "11:55am"}, {"days": "Sat", "time": "11:25am"}, {"days": "Sun", "time": "Closed"}], "id": "1547000001", "name": "USPS COLLECTION BOX - BLUE BOX", "address": {"city": "OHIOPYLE", "state": "PA", "street": "122 GRANT ST", "postcode": "15470"}}},
{"geometry": {"type": "Point", "coordinates": [-79.4930419943, 39.8672807057]}, "type": "Feature", "properties": {"collection_times": [{"days": "Mon-Fri", "time": "11:55am"}, {"days": "Sat", "time": "11:25am"}, {"days": "Sun", "time": "Closed"}], "id": "1547000002", "name": "USPS COLLECTION BOX - PO LOBBY", "address": {"city": "OHIOPYLE", "state": "PA", "street": "122 GRANT ST", "postcode": "15470"}}},
{"geometry": {"type": "Point", "coordinates": [-79.5485096314, 39.8399934785]}, "type": "Feature", "properties": {"collection_times": [{"days": "Mon-Fri", "time": "3:00pm"}, {"days": "Sat", "time": "2:00pm"}, {"days": "Sun", "time": "Closed"}], "id": "1547000003", "name": "USPS COLLECTION BOX - BLUE BOX", "address": {"city": "OHIOPYLE", "state": "PA", "street": "69 MAIN ST", "postcode": "15470"}}},
{"geometry": {"type": "Point", "coordinates": [-79.7172662382, 39.9199177038]}, "type": "Feature", "properties": {"collection_times": [{"days": "Mon-Fri", "time": "11:55am"}, {"days": "Sat", "time": "11:45am"}, {"days": "Sun", "time": "Closed"}], "id": "1547200001", "name": "USPS COLLECTION BOX - BLUE BOX", "address": {"city": "OLIVER", "state": "PA", "street": "169 MAIN ST", "postcode": "15472"}}},
{"geometry": {"type": "Point", "coordinates": [-79.7172662382, 39.9199177038]}, "type": "Feature", "properties": {"collection_times": [{"days": "Mon-Fri", "time": "11:55am"}, {"days": "Sat", "time": "11:45am"}, {"days": "Sun", "time": "Closed"}], "id": "1547200003", "name": "USPS COLLECTION BOX - PO LOBBY", "address": {"city": "OLIVER", "state": "PA", "street": "169 MAIN ST", "postcode": "15472"}}},
{"geometry": {"type": "Point", "coordinates": [-79.7485784204, 40.0860222901]}, "type": "Feature", "properties": {"collection_times": [{"days": "Mon-Fri", "time": "4:30pm"}, {"days": "Sat", "time": "11:30am"}, {"days": "Sun", "time": "Closed"}], "id": "1547300001", "name": "USPS COLLECTION BOX - BLUE BOX", "address": {"city": "PERRYOPOLIS", "state": "PA", "street": "221 REPUBLICAN ST", "postcode": "15473"}}},
{"geometry": {"type": "Point", "coordinates": [-79.7527332221, 40.087235584]}, "type": "Feature", "properties": {"collection_times": [{"days": "Mon-Fri", "time": "1:00pm"}, {"days": "Sat", "time": "11:30am"}, {"days": "Sun", "time": "Closed"}], "id": "1547300002", "name": "USPS COLLECTION BOX - BLUE BOX", "address": {"city": "PERRYOPOLIS", "state": "PA", "street": "223 INDEPENDENCE ST", "postcode": "15473"}}},
{"geometry": {"type": "Point", "coordinates": [-79.7485784204, 40.0860222901]}, "type": "Feature", "properties": {"collection_times": [{"days": "Mon-Fri", "time": "4:30pm"}, {"days": "Sat", "time": "11:30am"}, {"days": "Sun", "time": "Closed"}], "id": "1547300003", "name": "USPS COLLECTION BOX - PO LOBBY", "address": {"city": "PERRYOPOLIS", "state": "PA", "street": "221 REPUBLICAN ST", "postcode": "15473"}}},
{"geometry": {"type": "Point", "coordinates": [-79.9007148345, 39.739477472]}, "type": "Feature", "properties": {"collection_times": [{"days": "Mon-Fri", "time": "4:30pm"}, {"days": "Sat", "time": "2:00pm"}, {"days": "Sun", "time": "Closed"}], "id": "1547400002", "name": "USPS COLLECTION BOX - BLUE BOX", "address": {"city": "POINT MARION", "state": "PA", "street": "100 PENN ST", "postcode": "15474"}}},
{"geometry": {"type": "Point", "coordinates": [-79.8994274112, 39.7390496362]}, "type": "Feature", "properties": {"collection_times": [{"days": "Mon-Fri", "time": "2:15pm"}, {"days": "Sat", "time": "2:00pm"}, {"days": "Sun", "time": "Closed"}], "id": "1547400003", "name": "USPS COLLECTION BOX - BLUE BOX", "address": {"city": "POINT MARION", "state": "PA", "street": "200 PENN ST", "postcode": "15474"}}},
{"geometry": {"type": "Point", "coordinates": [-79.9007148345, 39.739477472]}, "type": "Feature", "properties": {"collection_times": [{"days": "Mon-Fri", "time": "4:30pm"}, {"days": "Sat", "time": "2:00pm"}, {"days": "Sun", "time": "Closed"}], "id": "1547400006", "name": "USPS COLLECTION BOX - PO LOBBY", "address": {"city": "POINT MARION", "state": "PA", "street": "100 PENN ST", "postcode": "15474"}}},
{"geometry": {"type": "Point", "coordinates": [-79.8795200478, 39.9629138686]}, "type": "Feature", "properties": {"collection_times": [{"days": "Mon-Fri", "time": "4:30pm"}, {"days": "Sat", "time": "11:30am"}, {"days": "Sun", "time": "Closed"}], "id": "1547500001", "name": "USPS COLLECTION BOX - BLUE BOX", "address": {"city": "REPUBLIC", "state": "PA", "street": "26 VAN KIRK ST", "postcode": "15475"}}},
{"geometry": {"type": "Point", "coordinates": [-79.8795200478, 39.9629138686]}, "type": "Feature", "properties": {"collection_times": [{"days": "Mon-Fri", "time": "4:30pm"}, {"days": "Sat", "time": "11:30am"}, {"days": "Sun", "time": "Closed"}], "id": "1547500002", "name": "USPS COLLECTION BOX - PO LOBBY", "address": {"city": "REPUBLIC", "state": "PA", "street": "26 VAN KIRK ST", "postcode": "15475"}}},
{"geometry": {"type": "Point", "coordinates": [-79.8842376493, 39.9635019449]}, "type": "Feature", "properties": {"collection_times": [{"days": "Mon-Sat", "time": "11:30am"}, {"days": "Sun", "time": "Closed"}], "id": "1547500004", "name": "USPS COLLECTION BOX - BLUE BOX", "address": {"city": "REPUBLIC", "state": "PA", "street": "234 TOWER HILL RD", "postcode": "15475"}}},
{"geometry": {"type": "Point", "coordinates": [-79.9201109785, 39.8701023671]}, "type": "Feature", "properties": {"collection_times": [{"days": "Mon-Fri", "time": "10:50am"}, {"days": "Sat", "time": "11:30am"}, {"days": "Sun", "time": "Closed"}], "id": "1547600001", "name": "USPS COLLECTION BOX - BLUE BOX", "address": {"city": "RONCO", "state": "PA", "street": "639 STEVENSON ST", "postcode": "15476"}}},
{"geometry": {"type": "Point", "coordinates": [-79.863617136, 40.0794851808]}, "type": "Feature", "properties": {"collection_times": [{"days": "Mon-Fri", "time": "3:30pm"}, {"days": "Sat", "time": "11:30am"}, {"days": "Sun", "time": "Closed"}], "id": "1547700001", "name": "USPS COLLECTION BOX - BLUE BOX", "address": {"city": "ROSCOE", "state": "PA", "street": "500 FURLONG AVE", "postcode": "15477"}}},
{"geometry": {"type": "Point", "coordinates": [-79.863617136, 40.0794851808]}, "type": "Feature", "properties": {"collection_times": [{"days": "Mon-Fri", "time": "3:30pm"}, {"days": "Sat", "time": "11:30am"}, {"days": "Sun", "time": "Closed"}], "id": "1547700002", "name": "USPS COLLECTION BOX - PO LOBBY", "address": {"city": "ROSCOE", "state": "PA", "street": "500 FURLONG AVE", "postcode": "15477"}}},
{"geometry": {"type": "Point", "coordinates": [-79.810567217, 39.8017664245]}, "type": "Feature", "properties": {"collection_times": [{"days": "Mon-Fri", "time": "5:00pm"}, {"days": "Sat", "time": "12:00pm"}, {"days": "Sun", "time": "Closed"}], "id": "1547800001", "name": "USPS COLLECTION BOX - BLUE BOX", "address": {"city": "SMITHFIELD", "state": "PA", "street": "91 MAIN ST", "postcode": "15478"}}},
{"geometry": {"type": "Point", "coordinates": [-79.810567217, 39.8017664245]}, "type": "Feature", "properties": {"collection_times": [{"days": "Mon-Fri", "time": "4:30pm"}, {"days": "Sat", "time": "12:00pm"}, {"days": "Sun", "time": "Closed"}], "id": "1547800002", "name": "USPS COLLECTION BOX - PO LOBBY", "address": {"city": "SMITHFIELD", "state": "PA", "street": "91 MAIN ST", "postcode": "15478"}}},
{"geometry": {"type": "Point", "coordinates": [-79.8029236478, 39.8050938634]}, "type": "Feature", "properties": {"collection_times": [{"days": "Mon-Sat", "time": "10:30am"}, {"days": "Sun", "time": "Closed"}], "id": "1547800003", "name": "USPS COLLECTION BOX - BLUE BOX", "address": {"city": "SMITHFIELD", "state": "PA", "street": "25 MAIN ST", "postcode": "15478"}}},
{"geometry": {"type": "Point", "coordinates": [-79.740698616, 40.1544634476]}, "type": "Feature", "properties": {"collection_times": [{"days": "Mon-Fri", "time": "4:15pm"}, {"days": "Sat", "time": "11:45am"}, {"days": "Sun", "time": "Closed"}], "id": "1547900001", "name": "USPS COLLECTION BOX - BLUE BOX", "address": {"city": "SMITHTON", "state": "PA", "street": "222 2ND ST", "postcode": "15479"}}},
{"geometry": {"type": "Point", "coordinates": [-79.7575703108, 40.1691790768]}, "type": "Feature", "properties": {"collection_times": [{"days": "Mon-Sat", "time": "10:00am"}, {"days": "Sun", "time": "Closed"}], "id": "1547900002", "name": "USPS COLLECTION BOX - BLUE BOX", "address": {"city": "SMITHTON", "state": "PA", "street": "122 FITZ HENRY RD", "postcode": "15479"}}},
{"geometry": {"type": "Point", "coordinates": [-79.740698616, 40.1544634476]}, "type": "Feature", "properties": {"collection_times": [{"days": "Mon-Fri", "time": "4:15pm"}, {"days": "Sat", "time": "11:45am"}, {"days": "Sun", "time": "Closed"}], "id": "1547900003", "name": "USPS COLLECTION BOX - PO LOBBY", "address": {"city": "SMITHTON", "state": "PA", "street": "222 2ND ST", "postcode": "15479"}}},
{"geometry": {"type": "Point", "coordinates": [-79.7856412514, 39.9984544197]}, "type": "Feature", "properties": {"collection_times": [{"days": "Mon-Fri", "time": "3:00pm"}, {"days": "Sat", "time": "11:45am"}, {"days": "Sun", "time": "Closed"}], "id": "1548000001", "name": "USPS COLLECTION BOX - BLUE BOX", "address": {"city": "SMOCK", "state": "PA", "street": "105 MAIN ST", "postcode": "15480"}}},
{"geometry": {"type": "Point", "coordinates": [-79.7856412514, 39.9984544197]}, "type": "Feature", "properties": {"collection_times": [{"days": "Mon-Fri", "time": "3:00pm"}, {"days": "Sat", "time": "11:45am"}, {"days": "Sun", "time": "Closed"}], "id": "1548000002", "name": "USPS COLLECTION BOX - PO LOBBY", "address": {"city": "SMOCK", "state": "PA", "street": "105 MAIN ST", "postcode": "15480"}}},
{"geometry": {"type": "Point", "coordinates": [-79.7484773074, 40.0708322945]}, "type": "Feature", "properties": {"collection_times": [{"days": "Mon-Fri", "time": "4:45pm"}, {"days": "Sat", "time": "11:45am"}, {"days": "Sun", "time": "Closed"}], "id": "1548200001", "name": "USPS COLLECTION BOX - BLUE BOX", "address": {"city": "STAR JUNCTION", "state": "PA", "street": "115 TONY ROW RD", "postcode": "15482"}}},
{"geometry": {"type": "Point", "coordinates": [-79.7484773074, 40.0708322945]}, "type": "Feature", "properties": {"collection_times": [{"days": "Mon-Fri", "time": "4:45pm"}, {"days": "Sat", "time": "11:45am"}, {"days": "Sun", "time": "Closed"}], "id": "1548200002", "name": "USPS COLLECTION BOX - PO LOBBY", "address": {"city": "STAR JUNCTION", "state": "PA", "street": "115 TONY ROW RD", "postcode": "15482"}}},
{"geometry": {"type": "Point", "coordinates": [-79.8481950346, 40.0834293218]}, "type": "Feature", "properties": {"collection_times": [{"days": "Mon-Fri", "time": "11:55am"}, {"days": "Sat", "time": "11:45am"}, {"days": "Sun", "time": "Closed"}], "id": "1548300001", "name": "USPS COLLECTION BOX - BLUE BOX", "address": {"city": "STOCKDALE", "state": "PA", "street": "398 RAILROAD ST", "postcode": "15483"}}},
{"geometry": {"type": "Point", "coordinates": [-79.8481950346, 40.0834293218]}, "type": "Feature", "properties": {"collection_times": [{"days": "Mon-Fri", "time": "11:55am"}, {"days": "Sat", "time": "11:45am"}, {"days": "Sun", "time": "Closed"}], "id": "1548300002", "name": "USPS COLLECTION BOX - PO LOBBY", "address": {"city": "STOCKDALE", "state": "PA", "street": "398 RAILROAD ST", "postcode": "15483"}}},
{"geometry": {"type": "Point", "coordinates": [-79.7882734956, 39.8945370278]}, "type": "Feature", "properties": {"collection_times": [{"days": "Mon-Fri", "time": "11:55am"}, {"days": "Sat", "time": "11:45am"}, {"days": "Sun", "time": "Closed"}], "id": "1548400001", "name": "USPS COLLECTION BOX - BLUE BOX", "address": {"city": "ULEDI", "state": "PA", "street": "100 RAINEY RD", "postcode": "15484"}}},
{"geometry": {"type": "Point", "coordinates": [-79.7882734956, 39.8945370278]}, "type": "Feature", "properties": {"collection_times": [{"days": "Mon-Fri", "time": "11:55am"}, {"days": "Sat", "time": "11:45am"}, {"days": "Sun", "time": "Closed"}], "id": "1548400002", "name": "USPS COLLECTION BOX - PO LOBBY", "address": {"city": "ULEDI", "state": "PA", "street": "100 RAINEY RD", "postcode": "15484"}}},
{"geometry": {"type": "Point", "coordinates": [-79.7082847202, 40.0307846273]}, "type": "Feature", "properties": {"collection_times": [{"days": "Mon-Fri", "time": "4:00pm"}, {"days": "Sat", "time": "11:45am"}, {"days": "Sun", "time": "Closed"}], "id": "1548600001", "name": "USPS COLLECTION BOX - BLUE BOX", "address": {"city": "VANDERBILT", "state": "PA", "street": "262 LIBERTY ST", "postcode": "15486"}}},
{"geometry": {"type": "Point", "coordinates": [-79.7082847202, 40.0307846273]}, "type": "Feature", "properties": {"collection_times": [{"days": "Mon-Fri", "time": "4:00pm"}, {"days": "Sat", "time": "11:45am"}, {"days": "Sun", "time": "Closed"}], "id": "1548600002", "name": "USPS COLLECTION BOX - PO LOBBY", "address": {"city": "VANDERBILT", "state": "PA", "street": "262 LIBERTY ST", "postcode": "15486"}}},
{"geometry": {"type": "Point", "coordinates": [-79.7648028979, 39.9831896608]}, "type": "Feature", "properties": {"collection_times": [{"days": "Mon-Sat", "time": "12:00pm"}, {"days": "Sun", "time": "Closed"}], "id": "1548800001", "name": "USPS COLLECTION BOX - BLUE BOX", "address": {"city": "WALTERSBURG", "state": "PA", "street": "1829 PITTSBURGH RD", "postcode": "15488"}}},
{"geometry": {"type": "Point", "coordinates": [-79.7648028979, 39.9831896608]}, "type": "Feature", "properties": {"collection_times": [{"days": "Mon-Sat", "time": "12:00pm"}, {"days": "Sun", "time": "Closed"}], "id": "1548800002", "name": "USPS COLLECTION BOX - PO LOBBY", "address": {"city": "WALTERSBURG", "state": "PA", "street": "1829 PITTSBURGH RD", "postcode": "15488"}}},
{"geometry": {"type": "Point", "coordinates": [-79.7022179682, 39.9570046824]}, "type": "Feature", "properties": {"collection_times": [{"days": "Mon-Fri", "time": "11:55am"}, {"days": "Sat", "time": "11:45am"}, {"days": "Sun", "time": "Closed"}], "id": "1548900001", "name": "USPS COLLECTION BOX - BLUE BOX", "address": {"city": "WEST LEISENRING", "state": "PA", "street": "114 POSTAL WAY", "postcode": "15489"}}},
{"geometry": {"type": "Point", "coordinates": [-79.7022179682, 39.9570046824]}, "type": "Feature", "properties": {"collection_times": [{"days": "Mon-Fri", "time": "11:55am"}, {"days": "Sat", "time": "11:45am"}, {"days": "Sun", "time": "Closed"}], "id": "1548900002", "name": "USPS COLLECTION BOX - PO LOBBY", "address": {"city": "WEST LEISENRING", "state": "PA", "street": "114 POSTAL WAY", "postcode": "15489"}}},
{"geometry": {"type": "Point", "coordinates": [-79.7022179682, 39.9570046824]}, "type": "Feature", "properties": {"collection_times": [{"days": "Mon-Fri", "time": "11:55am"}, {"days": "Sat", "time": "11:45am"}, {"days": "Sun", "time": "Closed"}], "id": "1548900003", "name": "USPS COLLECTION BOX - PO LOBBY", "address": {"city": "WEST LEISENRING", "state": "PA", "street": "114 POSTAL WAY", "postcode": "15489"}}},
{"geometry": {"type": "Point", "coordinates": [-79.4345490986, 40.0704782597]}, "type": "Feature", "properties": {"collection_times": [{"days": "Mon-Fri", "time": "12:05pm"}, {"days": "Sat", "time": "11:45am"}, {"days": "Sun", "time": "Closed"}], "id": "1549000001", "name": "USPS COLLECTION BOX - BLUE BOX", "address": {"city": "WHITE", "state": "PA", "street": "881 BUCHANAN RD", "postcode": "15490"}}},
{"geometry": {"type": "Point", "coordinates": [-79.770546361, 40.1210982475]}, "type": "Feature", "properties": {"collection_times": [{"days": "Mon-Fri", "time": "10:50am"}, {"days": "Sat", "time": "11:45am"}, {"days": "Sun", "time": "Closed"}], "id": "1549200001", "name": "USPS COLLECTION BOX - BLUE BOX", "address": {"city": "WICKHAVEN", "state": "PA", "street": "41 WICKHAVEN HOLLOW RD", "postcode": "15492"}}}
]}
