{"type": "FeatureCollection", "features": [
{"geometry": {"type": "Point", "coordinates": [-79.0785872212, 40.0095616484]}, "type": "Feature", "properties": {"collection_times": [{"days": "Mon-Sat", "time": "5:30pm"}, {"days": "Sun", "time": "Closed"}], "id": "1550100002", "name": "USPS COLLECTION BOX - BLUE BOX", "address": {"city": "SOMERSET", "state": "PA", "street": "201 N CENTER AVE", "postcode": "15501"}}},
{"geometry": {"type": "Point", "coordinates": [-79.0785872212, 40.0095616484]}, "type": "Feature", "properties": {"collection_times": [{"days": "Mon-Sat", "time": "5:30pm"}, {"days": "Sun", "time": "Closed"}], "id": "1550100004", "name": "USPS COLLECTION BOX - BLUE BOX", "address": {"city": "SOMERSET", "state": "PA", "street": "201 N CENTER AVE", "postcode": "15501"}}},
{"geometry": {"type": "Point", "coordinates": [-79.0843470484, 40.0093617283]}, "type": "Feature", "properties": {"collection_times": [{"days": "Mon-Sat", "time": "9:15am"}, {"days": "Sun", "time": "Closed"}], "id": "1550100005", "name": "USPS COLLECTION BOX - BLUE BOX", "address": {"city": "SOMERSET", "state": "PA", "street": "340 W UNION ST", "postcode": "15501"}}},
{"geometry": {"type": "Point", "coordinates": [-79.0705951504, 40.0072406829]}, "type": "Feature", "properties": {"collection_times": [{"days": "Mon-Sat", "time": "9:30am"}, {"days": "Sun", "time": "Closed"}], "id": "1550100009", "name": "USPS COLLECTION BOX - BLUE BOX", "address": {"city": "SOMERSET", "state": "PA", "street": "450 E MAIN ST", "postcode": "15501"}}},
{"geometry": {"type": "Point", "coordinates": [-79.0743321178, 40.0069579557]}, "type": "Feature", "properties": {"collection_times": [{"days": "Mon-Sat", "time": "8:45am"}, {"days": "Sun", "time": "Closed"}], "id": "1550100015", "name": "USPS COLLECTION BOX - BLUE BOX", "address": {"city": "SOMERSET", "state": "PA", "street": "223 S PLEASANT AVE", "postcode": "15501"}}},
{"geometry": {"type": "Point", "coordinates": [-79.0786676624, 40.0027572684]}, "type": "Feature", "properties": {"collection_times": [{"days": "Mon-Sat", "time": "2:30pm"}, {"days": "Sun", "time": "Closed"}], "id": "1550100016", "name": "USPS COLLECTION BOX - BLUE BOX", "address": {"city": "SOMERSET", "state": "PA", "street": "651 S CENTER AVE", "postcode": "15501"}}},
{"geometry": {"type": "Point", "coordinates": [-79.0796116637, 40.0084390203]}, "type": "Feature", "properties": {"collection_times": [{"days": "Mon-Sat", "time": "10:00am"}, {"days": "Sun", "time": "Closed"}], "id": "1550100021", "name": "USPS COLLECTION BOX - BLUE BOX", "address": {"city": "SOMERSET", "state": "PA", "street": "133 W MAIN ST", "postcode": "15501"}}},
{"geometry": {"type": "Point", "coordinates": [-79.0633577274, 40.0022452106]}, "type": "Feature", "properties": {"collection_times": [{"days": "Mon-Sat", "time": "2:15pm"}, {"days": "Sun", "time": "Closed"}], "id": "1550100033", "name": "USPS COLLECTION BOX - BLUE BOX", "address": {"city": "SOMERSET", "state": "PA", "street": "327 PLANK RD", "postcode": "15501"}}},
{"geometry": {"type": "Point", "coordinates": [-79.0766104968, 40.0093155929]}, "type": "Feature", "properties": {"collection_times": [{"days": "Mon-Fri", "time": "9:00am"}, {"days": "Sat", "time": "9:30am"}, {"days": "Sun", "time": "Closed"}], "id": "1550100035", "name": "USPS COLLECTION BOX - BLUE BOX", "address": {"city": "SOMERSET", "state": "PA", "street": "166 E UNION ST", "postcode": "15501"}}},
{"geometry": {"type": "Point", "coordinates": [-79.078609799, 40.0125216186]}, "type": "Feature", "properties": {"collection_times": [{"days": "Mon-Sat", "time": "10:30am"}, {"days": "Sun", "time": "Closed"}], "id": "1550100036", "name": "USPS COLLECTION BOX - BLUE BOX", "address": {"city": "SOMERSET", "state": "PA", "street": "101 HOUSTON ST", "postcode": "15501"}}},
{"geometry": {"type": "Point", "coordinates": [-79.078697048, 40.0073140984]}, "type": "Feature", "properties": {"collection_times": [{"days": "Mon-Sat", "time": "3:15pm"}, {"days": "Sun", "time": "Closed"}], "id": "1550100049", "name": "USPS COLLECTION BOX - BLUE BOX", "address": {"city": "SOMERSET", "state": "PA", "street": "224 S CENTER AVE", "postcode": "15501"}}},
{"geometry": {"type": "Point", "coordinates": [-79.0785872212, 40.0095616484]}, "type": "Feature", "properties": {"collection_times": [{"days": "Mon-Sat", "time": "5:45pm"}, {"days": "Sun", "time": "Closed"}], "id": "1550100050", "name": "USPS COLLECTION BOX - PO LOBBY", "address": {"city": "SOMERSET", "state": "PA", "street": "201 N CENTER AVE", "postcode": "15501"}}},
{"geometry": {"type": "Point", "coordinates": [-79.069599099, 40.1085930581]}, "type": "Feature", "properties": {"collection_times": [{"days": "Mon-Fri", "time": "4:15pm"}, {"days": "Sat", "time": "10:45am"}, {"days": "Sun", "time": "Closed"}], "id": "1552000000", "name": "USPS COLLECTION BOX - BLUE BOX", "address": {"city": "ACOSTA", "state": "PA", "street": "121 5TH ST", "postcode": "15520"}}},
{"geometry": {"type": "Point", "coordinates": [-79.069599099, 40.1085930581]}, "type": "Feature", "properties": {"collection_times": [{"days": "Mon-Fri", "time": "4:15pm"}, {"days": "Sat", "time": "10:45am"}, {"days": "Sun", "time": "Closed"}], "id": "1552000001", "name": "USPS COLLECTION BOX - PO LOBBY", "address": {"city": "ACOSTA", "state": "PA", "street": "121 5TH ST", "postcode": "15520"}}},
{"geometry": {"type": "Point", "coordinates": [-78.6060284643, 40.175879158]}, "type": "Feature", "properties": {"collection_times": [{"days": "Mon-Fri", "time": "4:00pm"}, {"days": "Sat", "time": "11:00am"}, {"days": "Sun", "time": "Closed"}], "id": "1552100000", "name": "USPS COLLECTION BOX - BLUE BOX", "address": {"city": "ALUM BANK", "state": "PA", "street": "113 FOLLMAR LN", "postcode": "15521"}}},
{"geometry": {"type": "Point", "coordinates": [-78.6060284643, 40.175879158]}, "type": "Feature", "properties": {"collection_times": [{"days": "Mon-Fri", "time": "2:45pm"}, {"days": "Sat", "time": "11:30am"}, {"days": "Sun", "time": "Closed"}], "id": "1552100001", "name": "USPS COLLECTION BOX - PO LOBBY", "address": {"city": "ALUM BANK", "state": "PA", "street": "113 FOLLMAR LN", "postcode": "15521"}}},
{"geometry": {"type": "Point", "coordinates": [-78.502106259, 40.021811025]}, "type": "Feature", "properties": {"collection_times": [{"days": "Mon-Sat", "time": "11:15am"}, {"days": "Sun", "time": "Closed"}], "id": "1552200005", "name": "USPS COLLECTION BOX - BLUE BOX", "address": {"city": "BEDFORD", "state": "PA", "street": "201 N RICHARD ST", "postcode": "15522"}}},
{"geometry": {"type": "Point", "coordinates": [-78.465979482, 40.0172624881]}, "type": "Feature", "properties": {"collection_times": [{"days": "Mon-Sat", "time": "11:30am"}, {"days": "Sun", "time": "Closed"}], "id": "1552200006", "name": "USPS COLLECTION BOX - BLUE BOX", "address": {"city": "BEDFORD", "state": "PA", "street": "9402 LINCOLN HWY", "postcode": "15522"}}},
{"geometry": {"type": "Point", "coordinates": [-78.5049025785, 40.0174272739]}, "type": "Feature", "properties": {"collection_times": [{"days": "Mon-Sat", "time": "3:00pm"}, {"days": "Sun", "time": "Closed"}], "id": "1552200007", "name": "USPS COLLECTION BOX - BLUE BOX", "address": {"city": "BEDFORD", "state": "PA", "street": "130 W PENN ST", "postcode": "15522"}}},
{"geometry": {"type": "Point", "coordinates": [-78.5034858056, 40.0148435601]}, "type": "Feature", "properties": {"collection_times": [{"days": "Mon-Sat", "time": "9:30am"}, {"days": "Sun", "time": "Closed"}], "id": "1552200009", "name": "USPS COLLECTION BOX - BLUE BOX", "address": {"city": "BEDFORD", "state": "PA", "street": "100 S JULIANA ST", "postcode": "15522"}}},
{"geometry": {"type": "Point", "coordinates": [-78.5034858056, 40.0148435601]}, "type": "Feature", "properties": {"collection_times": [{"days": "Mon-Sat", "time": "9:30am"}, {"days": "Sun", "time": "Closed"}], "id": "1552200010", "name": "USPS COLLECTION BOX - BLUE BOX", "address": {"city": "BEDFORD", "state": "PA", "street": "100 S JULIANA ST", "postcode": "15522"}}},
{"geometry": {"type": "Point", "coordinates": [-78.5025086815, 40.0174780098]}, "type": "Feature", "properties": {"collection_times": [{"days": "Mon-Fri", "time": "5:00pm"}, {"days": "Sat", "time": "3:30pm"}, {"days": "Sun", "time": "Closed"}], "id": "1552200011", "name": "USPS COLLECTION BOX - BLUE BOX", "address": {"city": "BEDFORD", "state": "PA", "street": "112 E PENN ST", "postcode": "15522"}}},
{"geometry": {"type": "Point", "coordinates": [-78.5025086815, 40.0174780098]}, "type": "Feature", "properties": {"collection_times": [{"days": "Mon-Fri", "time": "5:00pm"}, {"days": "Sat", "time": "3:30pm"}, {"days": "Sun", "time": "Closed"}], "id": "1552200013", "name": "USPS COLLECTION BOX - BLUE BOX", "address": {"city": "BEDFORD", "state": "PA", "street": "112 E PENN ST", "postcode": "15522"}}},
{"geometry": {"type": "Point", "coordinates": [-78.5311179036, 39.9842606962]}, "type": "Feature", "properties": {"collection_times": [{"days": "Mon-Fri", "time": "5:00pm"}, {"days": "Sat", "time": "3:30pm"}, {"days": "Sun", "time": "Closed"}], "id": "1552200016", "name": "USPS COLLECTION BOX - PO LOBBY", "address": {"city": "BEDFORD", "state": "PA", "street": "201 S JULIANA ST", "postcode": "15522"}}},
{"geometry": {"type": "Point", "coordinates": [-78.9577408652, 39.9207320767]}, "type": "Feature", "properties": {"collection_times": [{"days": "Mon-Fri", "time": "4:45pm"}, {"days": "Sat", "time": "12:00pm"}, {"days": "Sun", "time": "Closed"}], "id": "1553000000", "name": "USPS COLLECTION BOX - BLUE BOX", "address": {"city": "BERLIN", "state": "PA", "street": "531 MAIN ST", "postcode": "15530"}}},
{"geometry": {"type": "Point", "coordinates": [-78.9577408652, 39.9207320767]}, "type": "Feature", "properties": {"collection_times": [{"days": "Mon-Fri", "time": "4:45pm"}, {"days": "Sat", "time": "12:00pm"}, {"days": "Sun", "time": "Closed"}], "id": "1553000004", "name": "USPS COLLECTION BOX - PO LOBBY", "address": {"city": "BERLIN", "state": "PA", "street": "531 MAIN ST", "postcode": "15530"}}},
{"geometry": {"type": "Point", "coordinates": [-78.9577408652, 39.9207320767]}, "type": "Feature", "properties": {"collection_times": [{"days": "Mon-Fri", "time": "4:30pm"}, {"days": "Sat", "time": "12:00pm"}, {"days": "Sun", "time": "Closed"}], "id": "1553000005", "name": "USPS COLLECTION BOX - BLUE BOX", "address": {"city": "BERLIN", "state": "PA", "street": "531 MAIN ST", "postcode": "15530"}}},
{"geometry": {"type": "Point", "coordinates": [-78.9358595111, 39.9428615299]}, "type": "Feature", "properties": {"collection_times": [{"days": "Mon-Sat", "time": "11:00am"}, {"days": "Sun", "time": "Closed"}], "id": "1553000007", "name": "USPS COLLECTION BOX - BLUE BOX", "address": {"city": "BERLIN", "state": "PA", "street": "413 BROADWAY ST", "postcode": "15530"}}},
{"geometry": {"type": "Point", "coordinates": [-79.0329947997, 40.160976847]}, "type": "Feature", "properties": {"collection_times": [{"days": "Mon-Fri", "time": "5:00pm"}, {"days": "Sat", "time": "12:00pm"}, {"days": "Sun", "time": "Closed"}], "id": "1553100000", "name": "USPS COLLECTION BOX - BLUE BOX", "address": {"city": "BOSWELL", "state": "PA", "street": "908 ATKINSON WAY", "postcode": "15531"}}},
{"geometry": {"type": "Point", "coordinates": [-79.0329947997, 40.160976847]}, "type": "Feature", "properties": {"collection_times": [{"days": "Mon-Fri", "time": "5:00pm"}, {"days": "Sat", "time": "12:00pm"}, {"days": "Sun", "time": "Closed"}], "id": "1553100004", "name": "USPS COLLECTION BOX - PO LOBBY", "address": {"city": "BOSWELL", "state": "PA", "street": "908 ATKINSON WAY", "postcode": "15531"}}},
{"geometry": {"type": "Point", "coordinates": [-79.0662689134, 39.7676282481]}, "type": "Feature", "properties": {"collection_times": [{"days": "Mon-Fri", "time": "4:00pm"}, {"days": "Sat", "time": "11:00am"}, {"days": "Sun", "time": "Closed"}], "id": "1553200000", "name": "USPS COLLECTION BOX - BLUE BOX", "address": {"city": "BOYNTON", "state": "PA", "street": "102 POST OFFICE ST", "postcode": "15532"}}},
{"geometry": {"type": "Point", "coordinates": [-79.0662689134, 39.7676282481]}, "type": "Feature", "properties": {"collection_times": [{"days": "Mon-Fri", "time": "4:00pm"}, {"days": "Sat", "time": "11:00am"}, {"days": "Sun", "time": "Closed"}], "id": "1553200001", "name": "USPS COLLECTION BOX - PO LOBBY", "address": {"city": "BOYNTON", "state": "PA", "street": "102 POST OFFICE ST", "postcode": "15532"}}},
{"geometry": {"type": "Point", "coordinates": [-78.2345751038, 39.9994494318]}, "type": "Feature", "properties": {"collection_times": [{"days": "Mon-Fri", "time": "4:00pm"}, {"days": "Sat", "time": "12:00pm"}, {"days": "Sun", "time": "Closed"}], "id": "1553300000", "name": "USPS COLLECTION BOX - BLUE BOX", "address": {"city": "BREEZEWOOD", "state": "PA", "street": "16563 LINCOLN HWY", "postcode": "15533"}}},
{"geometry": {"type": "Point", "coordinates": [-78.243130632, 39.9972283271]}, "type": "Feature", "properties": {"collection_times": [{"days": "Mon-Fri", "time": "4:00pm"}, {"days": "Sat", "time": "11:45am"}, {"days": "Sun", "time": "Closed"}], "id": "1553300001", "name": "USPS COLLECTION BOX - BLUE BOX", "address": {"city": "BREEZEWOOD", "state": "PA", "street": "166 N MAIN ST", "postcode": "15533"}}},
{"geometry": {"type": "Point", "coordinates": [-78.2375850275, 40.0002325455]}, "type": "Feature", "properties": {"collection_times": [{"days": "Mon-Sat", "time": "12:00pm"}, {"days": "Sun", "time": "Closed"}], "id": "1553300002", "name": "USPS COLLECTION BOX - BLUE BOX", "address": {"city": "BREEZEWOOD", "state": "PA", "street": "121 N BREEZEWOOD RD", "postcode": "15533"}}},
{"geometry": {"type": "Point", "coordinates": [-78.2389824457, 39.9965307947]}, "type": "Feature", "properties": {"collection_times": [{"days": "Mon-Sat", "time": "11:00am"}, {"days": "Sun", "time": "Closed"}], "id": "1553300003", "name": "USPS COLLECTION BOX - BLUE BOX", "address": {"city": "BREEZEWOOD", "state": "PA", "street": "167 POST HOUSE RD", "postcode": "15533"}}},
{"geometry": {"type": "Point", "coordinates": [-78.243130632, 39.9972283271]}, "type": "Feature", "properties": {"collection_times": [{"days": "Mon-Fri", "time": "4:15pm"}, {"days": "Sat", "time": "11:45am"}, {"days": "Sun", "time": "Closed"}], "id": "1553300004", "name": "USPS COLLECTION BOX - PO LOBBY", "address": {"city": "BREEZEWOOD", "state": "PA", "street": "166 N MAIN ST", "postcode": "15533"}}},
{"geometry": {"type": "Point", "coordinates": [-78.6471055111, 39.9448285828]}, "type": "Feature", "properties": {"collection_times": [{"days": "Mon-Fri", "time": "11:55am"}, {"days": "Sat", "time": "10:45am"}, {"days": "Sun", "time": "Closed"}], "id": "1553400000", "name": "USPS COLLECTION BOX - BLUE BOX", "address": {"city": "BUFFALO MILLS", "state": "PA", "street": "8862 HYNDMAN RD", "postcode": "15534"}}},
{"geometry": {"type": "Point", "coordinates": [-78.6471055111, 39.9448285828]}, "type": "Feature", "properties": {"collection_times": [{"days": "Mon-Fri", "time": "11:55am"}, {"days": "Sat", "time": "10:45am"}, {"days": "Sun", "time": "Closed"}], "id": "1553400001", "name": "USPS COLLECTION BOX - PO LOBBY", "address": {"city": "BUFFALO MILLS", "state": "PA", "street": "8862 HYNDMAN RD", "postcode": "15534"}}},
{"geometry": {"type": "Point", "coordinates": [-78.3847101972, 39.9148079806]}, "type": "Feature", "properties": {"collection_times": [{"days": "Mon-Fri", "time": "4:15pm"}, {"days": "Sat", "time": "11:15am"}, {"days": "Sun", "time": "Closed"}], "id": "1553500000", "name": "USPS COLLECTION BOX - BLUE BOX", "address": {"city": "CLEARVILLE", "state": "PA", "street": "8156 CLEAR RIDGE RD", "postcode": "15535"}}},
{"geometry": {"type": "Point", "coordinates": [-78.3847101972, 39.9148079806]}, "type": "Feature", "properties": {"collection_times": [{"days": "Mon-Fri", "time": "4:15pm"}, {"days": "Sat", "time": "11:15am"}, {"days": "Sun", "time": "Closed"}], "id": "1553500001", "name": "USPS COLLECTION BOX - PO LOBBY", "address": {"city": "CLEARVILLE", "state": "PA", "street": "8156 CLEAR RIDGE RD", "postcode": "15535"}}},
{"geometry": {"type": "Point", "coordinates": [-78.2318260217, 39.9469434048]}, "type": "Feature", "properties": {"collection_times": [{"days": "Mon-Fri", "time": "3:45pm"}, {"days": "Sat", "time": "11:45am"}, {"days": "Sun", "time": "Closed"}], "id": "1553600000", "name": "USPS COLLECTION BOX - BLUE BOX", "address": {"city": "CRYSTAL SPRING", "state": "PA", "street": "14457 OLD 126 STE B", "postcode": "15536"}}},
{"geometry": {"type": "Point", "coordinates": [-78.2318260217, 39.9469434048]}, "type": "Feature", "properties": {"collection_times": [{"days": "Mon-Fri", "time": "11:55am"}, {"days": "Sat", "time": "11:45am"}, {"days": "Sun", "time": "Closed"}], "id": "1553600001", "name": "USPS COLLECTION BOX - PO LOBBY", "address": {"city": "CRYSTAL SPRING", "state": "PA", "street": "14457 OLD 126 STE B", "postcode": "15536"}}},
{"geometry": {"type": "Point", "coordinates": [-78.3722019407, 40.0120494076]}, "type": "Feature", "properties": {"collection_times": [{"days": "Mon-Sat", "time": "10:00am"}, {"days": "Sun", "time": "Closed"}], "id": "1553700000", "name": "USPS COLLECTION BOX - BLUE BOX", "address": {"city": "EVERETT", "state": "PA", "street": "33 WATER ST", "postcode": "15537"}}},
{"geometry": {"type": "Point", "coordinates": [-78.3742913081, 40.0156515211]}, "type": "Feature", "properties": {"collection_times": [{"days": "Mon-Sat", "time": "11:00am"}, {"days": "Sun", "time": "Closed"}], "id": "1553700001", "name": "USPS COLLECTION BOX - BLUE BOX", "address": {"city": "EVERETT", "state": "PA", "street": "402 N SPRING ST", "postcode": "15537"}}},
{"geometry": {"type": "Point", "coordinates": [-78.373487101, 40.0206244011]}, "type": "Feature", "properties": {"collection_times": [{"days": "Mon-Sat", "time": "12:30pm"}, {"days": "Sun", "time": "Closed"}], "id": "1553700002", "name": "USPS COLLECTION BOX - BLUE BOX", "address": {"city": "EVERETT", "state": "PA", "street": "734 N SPRING ST", "postcode": "15537"}}},
{"geometry": {"type": "Point", "coordinates": [-78.3760752102, 40.0100312831]}, "type": "Feature", "properties": {"collection_times": [{"days": "Mon-Sat", "time": "1:45pm"}, {"days": "Sun", "time": "Closed"}], "id": "1553700003", "name": "USPS COLLECTION BOX - BLUE BOX", "address": {"city": "EVERETT", "state": "PA", "street": "203 W MAIN ST", "postcode": "15537"}}},
{"geometry": {"type": "Point", "coordinates": [-78.3825933141, 40.0089275824]}, "type": "Feature", "properties": {"collection_times": [{"days": "Mon-Sat", "time": "1:15pm"}, {"days": "Sun", "time": "Closed"}], "id": "1553700004", "name": "USPS COLLECTION BOX - BLUE BOX", "address": {"city": "EVERETT", "state": "PA", "street": "523 W MAIN ST", "postcode": "15537"}}},
{"geometry": {"type": "Point", "coordinates": [-78.3699155429, 40.0061925812]}, "type": "Feature", "properties": {"collection_times": [{"days": "Mon-Sat", "time": "11:00am"}, {"days": "Sun", "time": "Closed"}], "id": "1553700005", "name": "USPS COLLECTION BOX - BLUE BOX", "address": {"city": "EVERETT", "state": "PA", "street": "2 E 4TH AVE", "postcode": "15537"}}},
{"geometry": {"type": "Point", "coordinates": [-78.368300395, 40.0120424596]}, "type": "Feature", "properties": {"collection_times": [{"days": "Mon-Sat", "time": "9:30am"}, {"days": "Sun", "time": "Closed"}], "id": "1553700006", "name": "USPS COLLECTION BOX - BLUE BOX", "address": {"city": "EVERETT", "state": "PA", "street": "259 E MAIN ST", "postcode": "15537"}}},
{"geometry": {"type": "Point", "coordinates": [-78.3729068168, 40.0113989042]}, "type": "Feature", "properties": {"collection_times": [{"days": "Mon-Fri", "time": "5:00pm"}, {"days": "Sat", "time": "3:45pm"}, {"days": "Sun", "time": "Closed"}], "id": "1553700007", "name": "USPS COLLECTION BOX - BLUE BOX", "address": {"city": "EVERETT", "state": "PA", "street": "17 E MAIN ST", "postcode": "15537"}}},
{"geometry": {"type": "Point", "coordinates": [-78.3729068168, 40.0113989042]}, "type": "Feature", "properties": {"collection_times": [{"days": "Mon-Fri", "time": "5:00pm"}, {"days": "Sat", "time": "3:45pm"}, {"days": "Sun", "time": "Closed"}], "id": "1553700008", "name": "USPS COLLECTION BOX - BLUE BOX", "address": {"city": "EVERETT", "state": "PA", "street": "17 E MAIN ST", "postcode": "15537"}}},
{"geometry": {"type": "Point", "coordinates": [-78.3710996848, 40.0118092704]}, "type": "Feature", "properties": {"collection_times": [{"days": "Mon-Fri", "time": "4:15pm"}, {"days": "Sat", "time": "3:45pm"}, {"days": "Sun", "time": "Closed"}], "id": "1553700009", "name": "USPS COLLECTION BOX - BLUE BOX", "address": {"city": "EVERETT", "state": "PA", "street": "140 E MAIN ST", "postcode": "15537"}}},
{"geometry": {"type": "Point", "coordinates": [-78.4627312866, 40.0186127656]}, "type": "Feature", "properties": {"collection_times": [{"days": "Mon-Sat", "time": "9:30am"}, {"days": "Sun", "time": "Closed"}], "id": "1553700010", "name": "USPS COLLECTION BOX - BLUE BOX", "address": {"city": "EVERETT", "state": "PA", "street": "72 BEDFORD SQ", "postcode": "15537"}}},
{"geometry": {"type": "Point", "coordinates": [-78.3729068168, 40.0113989042]}, "type": "Feature", "properties": {"collection_times": [{"days": "Mon-Fri", "time": "5:00pm"}, {"days": "Sat", "time": "3:45pm"}, {"days": "Sun", "time": "Closed"}], "id": "1553700011", "name": "USPS COLLECTION BOX - PO LOBBY", "address": {"city": "EVERETT", "state": "PA", "street": "17 E MAIN ST", "postcode": "15537"}}},
{"geometry": {"type": "Point", "coordinates": [-78.7933048372, 39.8416122323]}, "type": "Feature", "properties": {"collection_times": [{"days": "Mon-Fri", "time": "4:00pm"}, {"days": "Sat", "time": "11:00am"}, {"days": "Sun", "time": "Closed"}], "id": "1553800000", "name": "USPS COLLECTION BOX - BLUE BOX", "address": {"city": "FAIRHOPE", "state": "PA", "street": "1172 FAIRHOPE RD", "postcode": "15538"}}},
{"geometry": {"type": "Point", "coordinates": [-78.7933048372, 39.8416122323]}, "type": "Feature", "properties": {"collection_times": [{"days": "Mon-Fri", "time": "9:50am"}, {"days": "Sat", "time": "11:00am"}, {"days": "Sun", "time": "Closed"}], "id": "1553800001", "name": "USPS COLLECTION BOX - PO LOBBY", "address": {"city": "FAIRHOPE", "state": "PA", "street": "1172 FAIRHOPE RD", "postcode": "15538"}}},
{"geometry": {"type": "Point", "coordinates": [-78.5822581428, 40.1316757019]}, "type": "Feature", "properties": {"collection_times": [{"days": "Mon-Fri", "time": "4:30pm"}, {"days": "Sat", "time": "10:30am"}, {"days": "Sun", "time": "Closed"}], "id": "1553900000", "name": "USPS COLLECTION BOX - BLUE BOX", "address": {"city": "FISHERTOWN", "state": "PA", "street": "2240 QUAKER VALLEY RD", "postcode": "15539"}}},
{"geometry": {"type": "Point", "coordinates": [-78.5822581428, 40.1316757019]}, "type": "Feature", "properties": {"collection_times": [{"days": "Mon-Fri", "time": "4:30pm"}, {"days": "Sat", "time": "10:30am"}, {"days": "Sun", "time": "Closed"}], "id": "1553900001", "name": "USPS COLLECTION BOX - PO LOBBY", "address": {"city": "FISHERTOWN", "state": "PA", "street": "2240 QUAKER VALLEY RD", "postcode": "15539"}}},
{"geometry": {"type": "Point", "coordinates": [-79.274853465, 39.832377361]}, "type": "Feature", "properties": {"collection_times": [{"days": "Mon-Fri", "time": "3:45pm"}, {"days": "Sat", "time": "10:15am"}, {"days": "Sun", "time": "Closed"}], "id": "1554000000", "name": "USPS COLLECTION BOX - BLUE BOX", "address": {"city": "FORT HILL", "state": "PA", "street": "414 FORT HILL RD", "postcode": "15540"}}},
{"geometry": {"type": "Point", "coordinates": [-79.274853465, 39.832377361]}, "type": "Feature", "properties": {"collection_times": [{"days": "Mon-Fri", "time": "10:45am"}, {"days": "Sat", "time": "11:45am"}, {"days": "Sun", "time": "Closed"}], "id": "1554000001", "name": "USPS COLLECTION BOX - PO LOBBY", "address": {"city": "FORT HILL", "state": "PA", "street": "414 FORT HILL RD", "postcode": "15540"}}},
{"geometry": {"type": "Point", "coordinates": [-78.9928025859, 40.0520819254]}, "type": "Feature", "properties": {"collection_times": [{"days": "Mon-Fri", "time": "4:00pm"}, {"days": "Sat", "time": "11:15am"}, {"days": "Sun", "time": "Closed"}], "id": "1554100000", "name": "USPS COLLECTION BOX - BLUE BOX", "address": {"city": "FRIEDENS", "state": "PA", "street": "2247 STOYSTOWN RD", "postcode": "15541"}}},
{"geometry": {"type": "Point", "coordinates": [-78.9928025859, 40.0520819254]}, "type": "Feature", "properties": {"collection_times": [{"days": "Mon-Fri", "time": "4:00pm"}, {"days": "Sat", "time": "11:30am"}, {"days": "Sun", "time": "Closed"}], "id": "1554100001", "name": "USPS COLLECTION BOX - PO LOBBY", "address": {"city": "FRIEDENS", "state": "PA", "street": "2247 STOYSTOWN RD", "postcode": "15541"}}},
{"geometry": {"type": "Point", "coordinates": [-79.0132086281, 40.0289775539]}, "type": "Feature", "properties": {"collection_times": [{"days": "Mon-Fri", "time": "3:45pm"}, {"days": "Sat", "time": "11:30am"}, {"days": "Sun", "time": "Closed"}], "id": "1554100002", "name": "USPS COLLECTION BOX - BLUE BOX", "address": {"city": "FRIEDENS", "state": "PA", "street": "126 RAILROAD ST", "postcode": "15541"}}},
{"geometry": {"type": "Point", "coordinates": [-79.059653963, 39.8630285214]}, "type": "Feature", "properties": {"collection_times": [{"days": "Mon-Fri", "time": "4:15pm"}, {"days": "Sat", "time": "10:15am"}, {"days": "Sun", "time": "Closed"}], "id": "1554200000", "name": "USPS COLLECTION BOX - BLUE BOX", "address": {"city": "GARRETT", "state": "PA", "street": "419 JACKSON ST", "postcode": "15542"}}},
{"geometry": {"type": "Point", "coordinates": [-79.059653963, 39.8630285214]}, "type": "Feature", "properties": {"collection_times": [{"days": "Mon-Fri", "time": "11:55am"}, {"days": "Sat", "time": "10:15am"}, {"days": "Sun", "time": "Closed"}], "id": "1554200001", "name": "USPS COLLECTION BOX - PO LOBBY", "address": {"city": "GARRETT", "state": "PA", "street": "419 JACKSON ST", "postcode": "15542"}}},
{"geometry": {"type": "Point", "coordinates": [-79.0316870062, 40.1619202424]}, "type": "Feature", "properties": {"collection_times": [{"days": "Mon-Fri", "time": "4:00pm"}, {"days": "Sat", "time": "10:45am"}, {"days": "Sun", "time": "Closed"}], "id": "1554400000", "name": "USPS COLLECTION BOX - BLUE BOX", "address": {"city": "GRAY", "state": "PA", "street": "111 W 1ST ST", "postcode": "15544"}}},
{"geometry": {"type": "Point", "coordinates": [-79.0316870062, 40.1619202424]}, "type": "Feature", "properties": {"collection_times": [{"days": "Mon-Fri", "time": "9:50am"}, {"days": "Sat", "time": "10:45am"}, {"days": "Sun", "time": "Closed"}], "id": "1554400001", "name": "USPS COLLECTION BOX - PO LOBBY", "address": {"city": "GRAY", "state": "PA", "street": "111 W 1ST ST", "postcode": "15544"}}},
{"geometry": {"type": "Point", "coordinates": [-78.7201143662, 39.8199544588]}, "type": "Feature", "properties": {"collection_times": [{"days": "Mon-Fri", "time": "4:15pm"}, {"days": "Sat", "time": "11:45am"}, {"days": "Sun", "time": "Closed"}], "id": "1554500000", "name": "USPS COLLECTION BOX - BLUE BOX", "address": {"city": "HYNDMAN", "state": "PA", "street": "129 WASHINGTON ST", "postcode": "15545"}}},
{"geometry": {"type": "Point", "coordinates": [-78.7201143662, 39.8199544588]}, "type": "Feature", "properties": {"collection_times": [{"days": "Mon-Fri", "time": "4:15pm"}, {"days": "Sat", "time": "11:45am"}, {"days": "Sun", "time": "Closed"}], "id": "1554500002", "name": "USPS COLLECTION BOX - PO LOBBY", "address": {"city": "HYNDMAN", "state": "PA", "street": "129 WASHINGTON ST", "postcode": "15545"}}},
{"geometry": {"type": "Point", "coordinates": [-79.0675025151, 40.1603269962]}, "type": "Feature", "properties": {"collection_times": [{"days": "Mon-Fri", "time": "4:30pm"}, {"days": "Sat", "time": "11:00am"}, {"days": "Sun", "time": "Closed"}], "id": "1554700000", "name": "USPS COLLECTION BOX - BLUE BOX", "address": {"city": "JENNERSTOWN", "state": "PA", "street": "1596 PITT ST", "postcode": "15547"}}},
{"geometry": {"type": "Point", "coordinates": [-79.0675025151, 40.1603269962]}, "type": "Feature", "properties": {"collection_times": [{"days": "Mon-Fri", "time": "4:30pm"}, {"days": "Sat", "time": "11:00am"}, {"days": "Sun", "time": "Closed"}], "id": "1554700001", "name": "USPS COLLECTION BOX - PO LOBBY", "address": {"city": "JENNERSTOWN", "state": "PA", "street": "1596 PITT ST", "postcode": "15547"}}},
{"geometry": {"type": "Point", "coordinates": [-78.5896914857, 40.0044962378]}, "type": "Feature", "properties": {"collection_times": [{"days": "Mon-Fri", "time": "3:00pm"}, {"days": "Sat", "time": "11:00am"}, {"days": "Sun", "time": "Closed"}], "id": "1555000000", "name": "USPS COLLECTION BOX - BLUE BOX", "address": {"city": "MANNS CHOICE", "state": "PA", "street": "1 DOGWOOD LN", "postcode": "15550"}}},
{"geometry": {"type": "Point", "coordinates": [-78.5896914857, 40.0044962378]}, "type": "Feature", "properties": {"collection_times": [{"days": "Mon-Fri", "time": "3:00pm"}, {"days": "Sat", "time": "11:00am"}, {"days": "Sun", "time": "Closed"}], "id": "1555000001", "name": "USPS COLLECTION BOX - PO LOBBY", "address": {"city": "MANNS CHOICE", "state": "PA", "street": "1 DOGWOOD LN", "postcode": "15550"}}},
{"geometry": {"type": "Point", "coordinates": [-79.2290903585, 39.8599126075]}, "type": "Feature", "properties": {"collection_times": [{"days": "Mon-Fri", "time": "4:15pm"}, {"days": "Sat", "time": "10:45am"}, {"days": "Sun", "time": "Closed"}], "id": "1555100000", "name": "USPS COLLECTION BOX - BLUE BOX", "address": {"city": "MARKLETON", "state": "PA", "street": "1099 MARKLETON SCHOOL RD", "postcode": "15551"}}},
{"geometry": {"type": "Point", "coordinates": [-79.2290903585, 39.8599126075]}, "type": "Feature", "properties": {"collection_times": [{"days": "Mon-Fri", "time": "11:55am"}, {"days": "Sat", "time": "10:45am"}, {"days": "Sun", "time": "Closed"}], "id": "1555100001", "name": "USPS COLLECTION BOX - PO LOBBY", "address": {"city": "MARKLETON", "state": "PA", "street": "1099 MARKLETON SCHOOL RD", "postcode": "15551"}}},
{"geometry": {"type": "Point", "coordinates": [-79.026040516, 39.815547649]}, "type": "Feature", "properties": {"collection_times": [{"days": "Mon-Fri", "time": "4:30pm"}, {"days": "Sat", "time": "3:45pm"}, {"days": "Sun", "time": "Closed"}], "id": "1555200012", "name": "USPS COLLECTION BOX - BLUE BOX", "address": {"city": "MEYERSDALE", "state": "PA", "street": "239 CENTER ST", "postcode": "15552"}}},
{"geometry": {"type": "Point", "coordinates": [-79.026040516, 39.815547649]}, "type": "Feature", "properties": {"collection_times": [{"days": "Mon-Fri", "time": "4:45pm"}, {"days": "Sat", "time": "3:45pm"}, {"days": "Sun", "time": "Closed"}], "id": "1555200016", "name": "USPS COLLECTION BOX - PO LOBBY", "address": {"city": "MEYERSDALE", "state": "PA", "street": "239 CENTER ST", "postcode": "15552"}}},
{"geometry": {"type": "Point", "coordinates": [-78.7741941351, 39.9863981289]}, "type": "Feature", "properties": {"collection_times": [{"days": "Mon-Fri", "time": "11:15am"}, {"days": "Sat", "time": "11:30am"}, {"days": "Sun", "time": "Closed"}], "id": "1555300000", "name": "USPS COLLECTION BOX - BLUE BOX", "address": {"city": "NEW BALTIMORE", "state": "PA", "street": "251 JUNIATA ST", "postcode": "15553"}}},
{"geometry": {"type": "Point", "coordinates": [-78.6464526287, 40.1040651963]}, "type": "Feature", "properties": {"collection_times": [{"days": "Mon-Fri", "time": "11:55am"}, {"days": "Sat", "time": "11:30am"}, {"days": "Sun", "time": "Closed"}], "id": "1555400000", "name": "USPS COLLECTION BOX - BLUE BOX", "address": {"city": "NEW PARIS", "state": "PA", "street": "3822 CORTLAND RD", "postcode": "15554"}}},
{"geometry": {"type": "Point", "coordinates": [-78.6464526287, 40.1040651963]}, "type": "Feature", "properties": {"collection_times": [{"days": "Mon-Fri", "time": "11:55am"}, {"days": "Sat", "time": "11:30am"}, {"days": "Sun", "time": "Closed"}], "id": "1555400001", "name": "USPS COLLECTION BOX - PO LOBBY", "address": {"city": "NEW PARIS", "state": "PA", "street": "3822 CORTLAND RD", "postcode": "15554"}}},
{"geometry": {"type": "Point", "coordinates": [-79.1526440013, 39.9154395183]}, "type": "Feature", "properties": {"collection_times": [{"days": "Mon-Fri", "time": "5:00pm"}, {"days": "Sat", "time": "4:00pm"}, {"days": "Sun", "time": "Closed"}], "id": "1555700000", "name": "USPS COLLECTION BOX - BLUE BOX", "address": {"city": "ROCKWOOD", "state": "PA", "street": "690 MAIN ST", "postcode": "15557"}}},
{"geometry": {"type": "Point", "coordinates": [-79.1526440013, 39.9154395183]}, "type": "Feature", "properties": {"collection_times": [{"days": "Mon-Fri", "time": "5:00pm"}, {"days": "Sat", "time": "4:00pm"}, {"days": "Sun", "time": "Closed"}], "id": "1555700001", "name": "USPS COLLECTION BOX - PO LOBBY", "address": {"city": "ROCKWOOD", "state": "PA", "street": "690 MAIN ST", "postcode": "15557"}}},
{"geometry": {"type": "Point", "coordinates": [-79.08145544, 39.753050152]}, "type": "Feature", "properties": {"collection_times": [{"days": "Mon-Fri", "time": "4:00pm"}, {"days": "Sat", "time": "12:00pm"}, {"days": "Sun", "time": "Closed"}], "id": "1555800000", "name": "USPS COLLECTION BOX - BLUE BOX", "address": {"city": "SALISBURY", "state": "PA", "street": "96 GRANT ST", "postcode": "15558"}}},
{"geometry": {"type": "Point", "coordinates": [-79.08145544, 39.753050152]}, "type": "Feature", "properties": {"collection_times": [{"days": "Mon-Fri", "time": "4:00pm"}, {"days": "Sat", "time": "12:00pm"}, {"days": "Sun", "time": "Closed"}], "id": "1555800001", "name": "USPS COLLECTION BOX - PO LOBBY", "address": {"city": "SALISBURY", "state": "PA", "street": "96 GRANT ST", "postcode": "15558"}}},
{"geometry": {"type": "Point", "coordinates": [-78.6428953455, 40.0488906433]}, "type": "Feature", "properties": {"collection_times": [{"days": "Mon-Fri", "time": "4:00pm"}, {"days": "Sat", "time": "11:00am"}, {"days": "Sun", "time": "Closed"}], "id": "1555900000", "name": "USPS COLLECTION BOX - BLUE BOX", "address": {"city": "SCHELLSBURG", "state": "PA", "street": "3771 PITT ST", "postcode": "15559"}}},
{"geometry": {"type": "Point", "coordinates": [-78.6428953455, 40.0488906433]}, "type": "Feature", "properties": {"collection_times": [{"days": "Mon-Fri", "time": "4:00pm"}, {"days": "Sat", "time": "11:00am"}, {"days": "Sun", "time": "Closed"}], "id": "1555900001", "name": "USPS COLLECTION BOX - PO LOBBY", "address": {"city": "SCHELLSBURG", "state": "PA", "street": "3771 PITT ST", "postcode": "15559"}}},
{"geometry": {"type": "Point", "coordinates": [-78.9087916377, 40.0169055519]}, "type": "Feature", "properties": {"collection_times": [{"days": "Mon-Fri", "time": "3:45pm"}, {"days": "Sat", "time": "10:30am"}, {"days": "Sun", "time": "Closed"}], "id": "1556000000", "name": "USPS COLLECTION BOX - BLUE BOX", "address": {"city": "SHANKSVILLE", "state": "PA", "street": "442 STUTZMANTOWN RD", "postcode": "15560"}}},
{"geometry": {"type": "Point", "coordinates": [-78.9087916377, 40.0169055519]}, "type": "Feature", "properties": {"collection_times": [{"days": "Mon-Fri", "time": "11:45am"}, {"days": "Sat", "time": "10:15am"}, {"days": "Sun", "time": "Closed"}], "id": "1556000001", "name": "USPS COLLECTION BOX - PO LOBBY", "address": {"city": "SHANKSVILLE", "state": "PA", "street": "442 STUTZMANTOWN RD", "postcode": "15560"}}},
{"geometry": {"type": "Point", "coordinates": [-79.0914466447, 40.0987535616]}, "type": "Feature", "properties": {"collection_times": [{"days": "Mon-Fri", "time": "4:00pm"}, {"days": "Sat", "time": "10:45am"}, {"days": "Sun", "time": "Closed"}], "id": "1556100000", "name": "USPS COLLECTION BOX - BLUE BOX", "address": {"city": "SIPESVILLE", "state": "PA", "street": "601 SIPESVILLE RD", "postcode": "15561"}}},
{"geometry": {"type": "Point", "coordinates": [-79.0914466447, 40.0987535616]}, "type": "Feature", "properties": {"collection_times": [{"days": "Mon-Fri", "time": "12:55pm"}, {"days": "Sat", "time": "10:45am"}, {"days": "Sun", "time": "Closed"}], "id": "1556100001", "name": "USPS COLLECTION BOX - PO LOBBY", "address": {"city": "SIPESVILLE", "state": "PA", "street": "601 SIPESVILLE RD", "postcode": "15561"}}},
{"geometry": {"type": "Point", "coordinates": [-79.150037737, 39.732845529]}, "type": "Feature", "properties": {"collection_times": [{"days": "Mon-Fri", "time": "3:45pm"}, {"days": "Sat", "time": "10:30am"}, {"days": "Sun", "time": "Closed"}], "id": "1556200000", "name": "USPS COLLECTION BOX - BLUE BOX", "address": {"city": "SPRINGS", "state": "PA", "street": "1740 SPRINGS RD", "postcode": "15562"}}},
{"geometry": {"type": "Point", "coordinates": [-79.150037737, 39.732845529]}, "type": "Feature", "properties": {"collection_times": [{"days": "Mon-Fri", "time": "12:25pm"}, {"days": "Sat", "time": "10:30am"}, {"days": "Sun", "time": "Closed"}], "id": "1556200001", "name": "USPS COLLECTION BOX - PO LOBBY", "address": {"city": "SPRINGS", "state": "PA", "street": "1740 SPRINGS RD", "postcode": "15562"}}},
{"geometry": {"type": "Point", "coordinates": [-78.9556517596, 40.1041404006]}, "type": "Feature", "properties": {"collection_times": [{"days": "Mon-Fri", "time": "4:00pm"}, {"days": "Sat", "time": "11:30am"}, {"days": "Sun", "time": "Closed"}], "id": "1556300000", "name": "USPS COLLECTION BOX - BLUE BOX", "address": {"city": "STOYSTOWN", "state": "PA", "street": "209 W MAIN ST", "postcode": "15563"}}},
{"geometry": {"type": "Point", "coordinates": [-78.9556517596, 40.1041404006]}, "type": "Feature", "properties": {"collection_times": [{"days": "Mon-Fri", "time": "4:15pm"}, {"days": "Sat", "time": "11:30am"}, {"days": "Sun", "time": "Closed"}], "id": "1556300001", "name": "USPS COLLECTION BOX - PO LOBBY", "address": {"city": "STOYSTOWN", "state": "PA", "street": "209 W MAIN ST", "postcode": "15563"}}}
]}
