{"type": "FeatureCollection", "features": [
{"geometry": {"type": "Point", "coordinates": [-79.5382684537, 40.3008030825]}, "type": "Feature", "properties": {"collection_times": [{"days": "Mon-Fri", "time": "5:00pm"}, {"days": "Sat", "time": "4:00pm"}, {"days": "Sun", "time": "Closed"}], "id": "1560100001", "name": "USPS COLLECTION BOX - BLUE BOX", "address": {"city": "GREENSBURG", "state": "PA", "street": "238 S PENNSYLVANIA AVE", "postcode": "15601"}}},
{"geometry": {"type": "Point", "coordinates": [-79.5501897676, 40.3012012881]}, "type": "Feature", "properties": {"collection_times": [{"days": "Mon-Sat", "time": "1:30pm"}, {"days": "Sun", "time": "Closed"}], "id": "1560100034", "name": "USPS COLLECTION BOX - BLUE BOX", "address": {"city": "GREENSBURG", "state": "PA", "street": "330 W PITTSBURGH ST", "postcode": "15601"}}},
{"geometry": {"type": "Point", "coordinates": [-79.549415869, 40.2831435828]}, "type": "Feature", "properties": {"collection_times": [{"days": "Mon-Fri", "time": "4:00pm"}, {"days": "Sat", "time": "12:00pm"}, {"days": "Sun", "time": "Closed"}], "id": "1560100038", "name": "USPS COLLECTION BOX - BLUE BOX", "address": {"city": "GREENSBURG", "state": "PA", "street": "1225 S MAIN ST", "postcode": "15601"}}},
{"geometry": {"type": "Point", "coordinates": [-79.5500957871, 40.2820382561]}, "type": "Feature", "properties": {"collection_times": [{"days": "Mon-Sat", "time": "12:00pm"}, {"days": "Sun", "time": "Closed"}], "id": "1560100039", "name": "USPS COLLECTION BOX - BLUE BOX", "address": {"city": "GREENSBURG", "state": "PA", "street": "1275 S MAIN ST", "postcode": "15601"}}},
{"geometry": {"type": "Point", "coordinates": [-79.5432235895, 40.2992045837]}, "type": "Feature", "properties": {"collection_times": [{"days": "Mon-Sat", "time": "12:30pm"}, {"days": "Sun", "time": "Closed"}], "id": "1560100045", "name": "USPS COLLECTION BOX - BLUE BOX", "address": {"city": "GREENSBURG", "state": "PA", "street": "416 S MAIN ST", "postcode": "15601"}}},
{"geometry": {"type": "Point", "coordinates": [-79.543111611, 40.298883191]}, "type": "Feature", "properties": {"collection_times": [{"days": "Mon-Sat", "time": "12:30pm"}, {"days": "Sun", "time": "Closed"}], "id": "1560100046", "name": "USPS COLLECTION BOX - BLUE BOX", "address": {"city": "GREENSBURG", "state": "PA", "street": "450 S MAIN ST", "postcode": "15601"}}},
{"geometry": {"type": "Point", "coordinates": [-79.5554651722, 40.3033841351]}, "type": "Feature", "properties": {"collection_times": [{"days": "Mon-Sat", "time": "1:15pm"}, {"days": "Sun", "time": "Closed"}], "id": "1560100054", "name": "USPS COLLECTION BOX - BLUE BOX", "address": {"city": "GREENSBURG", "state": "PA", "street": "563 W OTTERMAN ST", "postcode": "15601"}}},
{"geometry": {"type": "Point", "coordinates": [-79.521640644, 40.2944392676]}, "type": "Feature", "properties": {"collection_times": [{"days": "Mon-Fri", "time": "4:00pm"}, {"days": "Sat", "time": "12:15pm"}, {"days": "Sun", "time": "Closed"}], "id": "1560100057", "name": "USPS COLLECTION BOX - BLUE BOX", "address": {"city": "GREENSBURG", "state": "PA", "street": "500 PELLIS RD", "postcode": "15601"}}},
{"geometry": {"type": "Point", "coordinates": [-79.5222828952, 40.3020950433]}, "type": "Feature", "properties": {"collection_times": [{"days": "Mon-Sat", "time": "12:15pm"}, {"days": "Sun", "time": "Closed"}], "id": "1560100059", "name": "USPS COLLECTION BOX - BLUE BOX", "address": {"city": "GREENSBURG", "state": "PA", "street": "970 E PITTSBURGH ST", "postcode": "15601"}}},
{"geometry": {"type": "Point", "coordinates": [-79.5426135807, 40.3038439765]}, "type": "Feature", "properties": {"collection_times": [{"days": "Mon-Sat", "time": "12:45pm"}, {"days": "Sun", "time": "Closed"}], "id": "1560100068", "name": "USPS COLLECTION BOX - BLUE BOX", "address": {"city": "GREENSBURG", "state": "PA", "street": "110 E OTTERMAN ST", "postcode": "15601"}}},
{"geometry": {"type": "Point", "coordinates": [-79.5067095343, 40.3058159768]}, "type": "Feature", "properties": {"collection_times": [{"days": "Mon-Sat", "time": "12:30pm"}, {"days": "Sun", "time": "Closed"}], "id": "1560100070", "name": "USPS COLLECTION BOX - BLUE BOX", "address": {"city": "GREENSBURG", "state": "PA", "street": "125 DONOHOE RD", "postcode": "15601"}}},
{"geometry": {"type": "Point", "coordinates": [-79.5281583007, 40.3024944013]}, "type": "Feature", "properties": {"collection_times": [{"days": "Mon-Sat", "time": "12:45pm"}, {"days": "Sun", "time": "Closed"}], "id": "1560100071", "name": "USPS COLLECTION BOX - BLUE BOX", "address": {"city": "GREENSBURG", "state": "PA", "street": "730 E PITTSBURGH ST", "postcode": "15601"}}},
{"geometry": {"type": "Point", "coordinates": [-79.533025685, 40.3031594752]}, "type": "Feature", "properties": {"collection_times": [{"days": "Mon-Sat", "time": "12:45pm"}, {"days": "Sun", "time": "Closed"}], "id": "1560100072", "name": "USPS COLLECTION BOX - BLUE BOX", "address": {"city": "GREENSBURG", "state": "PA", "street": "555 E PITTSBURGH ST", "postcode": "15601"}}},
{"geometry": {"type": "Point", "coordinates": [-79.5436389188, 40.3009017903]}, "type": "Feature", "properties": {"collection_times": [{"days": "Mon-Sat", "time": "12:30pm"}, {"days": "Sun", "time": "Closed"}], "id": "1560100076", "name": "USPS COLLECTION BOX - BLUE BOX", "address": {"city": "GREENSBURG", "state": "PA", "street": "247 S MAIN ST", "postcode": "15601"}}},
{"geometry": {"type": "Point", "coordinates": [-79.5445355858, 40.3035451153]}, "type": "Feature", "properties": {"collection_times": [{"days": "Mon-Fri", "time": "4:00pm"}, {"days": "Sat", "time": "12:45pm"}, {"days": "Sun", "time": "Closed"}], "id": "1560100080", "name": "USPS COLLECTION BOX - BLUE BOX", "address": {"city": "GREENSBURG", "state": "PA", "street": "101 N MAIN ST", "postcode": "15601"}}},
{"geometry": {"type": "Point", "coordinates": [-79.5450005999, 40.301730034]}, "type": "Feature", "properties": {"collection_times": [{"days": "Mon-Sat", "time": "1:45pm"}, {"days": "Sun", "time": "Closed"}], "id": "1560100087", "name": "USPS COLLECTION BOX - BLUE BOX", "address": {"city": "GREENSBURG", "state": "PA", "street": "101 S PENNSYLVANIA AVE", "postcode": "15601"}}},
{"geometry": {"type": "Point", "coordinates": [-79.5449426781, 40.3015385704]}, "type": "Feature", "properties": {"collection_times": [{"days": "Mon-Sat", "time": "1:45pm"}, {"days": "Sun", "time": "Closed"}], "id": "1560100088", "name": "USPS COLLECTION BOX - BLUE BOX", "address": {"city": "GREENSBURG", "state": "PA", "street": "139 S PENNSYLVANIA AVE", "postcode": "15601"}}},
{"geometry": {"type": "Point", "coordinates": [-79.5421231021, 40.2996051742]}, "type": "Feature", "properties": {"collection_times": [{"days": "Mon-Sat", "time": "12:30pm"}, {"days": "Sun", "time": "Closed"}], "id": "1560100089", "name": "USPS COLLECTION BOX - BLUE BOX", "address": {"city": "GREENSBURG", "state": "PA", "street": "401 S MAPLE AVE", "postcode": "15601"}}},
{"geometry": {"type": "Point", "coordinates": [-79.5427694788, 40.3009918785]}, "type": "Feature", "properties": {"collection_times": [{"days": "Mon-Fri", "time": "4:00pm"}, {"days": "Sat", "time": "12:30pm"}, {"days": "Sun", "time": "Closed"}], "id": "1560100090", "name": "USPS COLLECTION BOX - BLUE BOX", "address": {"city": "GREENSBURG", "state": "PA", "street": "218 S MAPLE AVE", "postcode": "15601"}}},
{"geometry": {"type": "Point", "coordinates": [-79.5457309342, 40.3033403361]}, "type": "Feature", "properties": {"collection_times": [{"days": "Mon-Fri", "time": "4:00pm"}, {"days": "Sat", "time": "1:00pm"}, {"days": "Sun", "time": "Closed"}], "id": "1560100091", "name": "USPS COLLECTION BOX - BLUE BOX", "address": {"city": "GREENSBURG", "state": "PA", "street": "39 W OTTERMAN ST", "postcode": "15601"}}},
{"geometry": {"type": "Point", "coordinates": [-79.5463545813, 40.3265380378]}, "type": "Feature", "properties": {"collection_times": [{"days": "Mon-Fri", "time": "1:30pm"}, {"days": "Sat", "time": "12:30pm"}, {"days": "Sun", "time": "Closed"}], "id": "1560100093", "name": "USPS COLLECTION BOX - BLUE BOX", "address": {"city": "GREENSBURG", "state": "PA", "street": "990 N MAIN ST", "postcode": "15601"}}},
{"geometry": {"type": "Point", "coordinates": [-79.5705681662, 40.2888946629]}, "type": "Feature", "properties": {"collection_times": [{"days": "Mon-Sat", "time": "10:00am"}, {"days": "Sun", "time": "Closed"}], "id": "1560100099", "name": "USPS COLLECTION BOX - BLUE BOX", "address": {"city": "GREENSBURG", "state": "PA", "street": "1132 WOODWARD DR", "postcode": "15601"}}},
{"geometry": {"type": "Point", "coordinates": [-79.5549162599, 40.2994643401]}, "type": "Feature", "properties": {"collection_times": [{"days": "Mon-Fri", "time": "4:00pm"}, {"days": "Sat", "time": "1:15pm"}, {"days": "Sun", "time": "Closed"}], "id": "1560100104", "name": "USPS COLLECTION BOX - BLUE BOX", "address": {"city": "GREENSBURG", "state": "PA", "street": "540 SOUTH ST", "postcode": "15601"}}},
{"geometry": {"type": "Point", "coordinates": [-79.5382684537, 40.3008030825]}, "type": "Feature", "properties": {"collection_times": [{"days": "Mon-Fri", "time": "5:00pm"}, {"days": "Sat", "time": "4:00pm"}, {"days": "Sun", "time": "Closed"}], "id": "1560100106", "name": "USPS COLLECTION BOX - BLUE BOX", "address": {"city": "GREENSBURG", "state": "PA", "street": "238 S PENNSYLVANIA AVE", "postcode": "15601"}}},
{"geometry": {"type": "Point", "coordinates": [-79.5448314455, 40.3007607165]}, "type": "Feature", "properties": {"collection_times": [{"days": "Mon-Fri", "time": "5:00pm"}, {"days": "Sat", "time": "4:00pm"}, {"days": "Sun", "time": "Closed"}], "id": "1560100115", "name": "USPS COLLECTION BOX - PO LOBBY", "address": {"city": "GREENSBURG", "state": "PA", "street": "238 S PENNSYLVANIA AVE LBBY", "postcode": "15601"}}},
{"geometry": {"type": "Point", "coordinates": [-79.5448314455, 40.3007607165]}, "type": "Feature", "properties": {"collection_times": [{"days": "Mon-Fri", "time": "5:00pm"}, {"days": "Sat", "time": "4:00pm"}, {"days": "Sun", "time": "Closed"}], "id": "1560100118", "name": "USPS COLLECTION BOX - PO LOBBY", "address": {"city": "GREENSBURG", "state": "PA", "street": "238 S PENNSYLVANIA AVE LBBY", "postcode": "15601"}}},
{"geometry": {"type": "Point", "coordinates": [-79.5480110776, 40.2888024636]}, "type": "Feature", "properties": {"collection_times": [{"days": "Mon-Fri", "time": "4:00pm"}, {"days": "Sat", "time": "12:00pm"}, {"days": "Sun", "time": "Closed"}], "id": "1560100121", "name": "USPS COLLECTION BOX - BLUE BOX", "address": {"city": "GREENSBURG", "state": "PA", "street": "600 RUGH ST", "postcode": "15601"}}},
{"geometry": {"type": "Point", "coordinates": [-79.5616165195, 40.3029214816]}, "type": "Feature", "properties": {"collection_times": [{"days": "Mon-Sat", "time": "12:30pm"}, {"days": "Sun", "time": "Closed"}], "id": "1560100125", "name": "USPS COLLECTION BOX - BLUE BOX", "address": {"city": "GREENSBURG", "state": "PA", "street": "1120 E PITTSBURGH ST", "postcode": "15601"}}},
{"geometry": {"type": "Point", "coordinates": [-79.5937717988, 40.3032689625]}, "type": "Feature", "properties": {"collection_times": [{"days": "Mon-Sat", "time": "1:45pm"}, {"days": "Sun", "time": "Closed"}], "id": "1560100140", "name": "USPS COLLECTION BOX - BLUE BOX", "address": {"city": "GREENSBURG", "state": "PA", "street": "1 HEMPFIELD SQ", "postcode": "15601"}}},
{"geometry": {"type": "Point", "coordinates": [-79.5382684537, 40.3008030825]}, "type": "Feature", "properties": {"collection_times": [{"days": "Mon-Fri", "time": "5:00pm"}, {"days": "Sat", "time": "4:00pm"}, {"days": "Sun", "time": "Closed"}], "id": "1560100141", "name": "USPS COLLECTION BOX - BLUE BOX", "address": {"city": "GREENSBURG", "state": "PA", "street": "238 S PENNSYLVANIA AVE", "postcode": "15601"}}},
{"geometry": {"type": "Point", "coordinates": [-79.5439689675, 40.3018787787]}, "type": "Feature", "properties": {"collection_times": [{"days": "Mon-Sat", "time": "12:30pm"}, {"days": "Sun", "time": "Closed"}], "id": "1560100145", "name": "USPS COLLECTION BOX - BLUE BOX", "address": {"city": "GREENSBURG", "state": "PA", "street": "111 S MAIN ST", "postcode": "15601"}}},
{"geometry": {"type": "Point", "coordinates": [-79.5542999769, 40.3009662909]}, "type": "Feature", "properties": {"collection_times": [{"days": "Mon-Sat", "time": "1:30pm"}, {"days": "Sun", "time": "Closed"}], "id": "1560100147", "name": "USPS COLLECTION BOX - BLUE BOX", "address": {"city": "GREENSBURG", "state": "PA", "street": "532 W PITTSBURGH ST", "postcode": "15601"}}},
{"geometry": {"type": "Point", "coordinates": [-79.5382684537, 40.3008030825]}, "type": "Feature", "properties": {"collection_times": [{"days": "Mon-Fri", "time": "5:00pm"}, {"days": "Sat", "time": "4:00pm"}, {"days": "Sun", "time": "Closed"}], "id": "1560100152", "name": "USPS COLLECTION BOX - APC", "address": {"city": "GREENSBURG", "state": "PA", "street": "238 PENN ST", "postcode": "15601"}}},
{"geometry": {"type": "Point", "coordinates": [-79.549415869, 40.2831435828]}, "type": "Feature", "properties": {"collection_times": [{"days": "Mon-Fri", "time": "4:00pm"}, {"days": "Sat", "time": "12:00pm"}, {"days": "Sun", "time": "Closed"}], "id": "1560100154", "name": "USPS COLLECTION BOX - BLUE BOX", "address": {"city": "GREENSBURG", "state": "PA", "street": "1225 S MAIN ST", "postcode": "15601"}}},
{"geometry": {"type": "Point", "coordinates": [-79.5382684537, 40.3008030825]}, "type": "Feature", "properties": {"collection_times": [{"days": "Mon-Fri", "time": "5:00pm"}, {"days": "Sat", "time": "4:00pm"}, {"days": "Sun", "time": "Closed"}], "id": "1560100155", "name": "USPS COLLECTION BOX - BLUE BOX", "address": {"city": "GREENSBURG", "state": "PA", "street": "238 S PENNSYLVANIA AVE", "postcode": "15601"}}},
{"geometry": {"type": "Point", "coordinates": [-79.4242925287, 40.1301571727]}, "type": "Feature", "properties": {"collection_times": [{"days": "Mon-Fri", "time": "4:30pm"}, {"days": "Sat", "time": "11:45am"}, {"days": "Sun", "time": "Closed"}], "id": "1561000001", "name": "USPS COLLECTION BOX - BLUE BOX", "address": {"city": "ACME", "state": "PA", "street": "1 US ROUTE 31 E", "postcode": "15610"}}},
{"geometry": {"type": "Point", "coordinates": [-79.4242925287, 40.1301571727]}, "type": "Feature", "properties": {"collection_times": [{"days": "Mon-Fri", "time": "4:30pm"}, {"days": "Sat", "time": "11:45am"}, {"days": "Sun", "time": "Closed"}], "id": "1561000002", "name": "USPS COLLECTION BOX - PO LOBBY", "address": {"city": "ACME", "state": "PA", "street": "1 US ROUTE 31 E", "postcode": "15610"}}},
{"geometry": {"type": "Point", "coordinates": [-79.6480860592, 40.2991837033]}, "type": "Feature", "properties": {"collection_times": [{"days": "Mon-Fri", "time": "4:00pm"}, {"days": "Sat", "time": "12:00pm"}, {"days": "Sun", "time": "Closed"}], "id": "1561100001", "name": "USPS COLLECTION BOX - BLUE BOX", "address": {"city": "ADAMSBURG", "state": "PA", "street": "184 MAIN ST", "postcode": "15611"}}},
{"geometry": {"type": "Point", "coordinates": [-79.6480860592, 40.2991837033]}, "type": "Feature", "properties": {"collection_times": [{"days": "Mon-Fri", "time": "4:00pm"}, {"days": "Sat", "time": "12:00pm"}, {"days": "Sun", "time": "Closed"}], "id": "1561100002", "name": "USPS COLLECTION BOX - PO LOBBY", "address": {"city": "ADAMSBURG", "state": "PA", "street": "184 MAIN ST", "postcode": "15611"}}},
{"geometry": {"type": "Point", "coordinates": [-79.590322001, 40.143764737]}, "type": "Feature", "properties": {"collection_times": [{"days": "Mon-Fri", "time": "1:00pm"}, {"days": "Sat", "time": "11:45am"}, {"days": "Sun", "time": "Closed"}], "id": "1561200001", "name": "USPS COLLECTION BOX - BLUE BOX", "address": {"city": "ALVERTON", "state": "PA", "street": "459 RUFFSDALE ALVERTON RD", "postcode": "15612"}}},
{"geometry": {"type": "Point", "coordinates": [-79.590322001, 40.143764737]}, "type": "Feature", "properties": {"collection_times": [{"days": "Mon-Fri", "time": "1:00pm"}, {"days": "Sat", "time": "11:45am"}, {"days": "Sun", "time": "Closed"}], "id": "1561200002", "name": "USPS COLLECTION BOX - PO LOBBY", "address": {"city": "ALVERTON", "state": "PA", "street": "459 RUFFSDALE ALVERTON RD", "postcode": "15612"}}},
{"geometry": {"type": "Point", "coordinates": [-79.5677734209, 40.5828742915]}, "type": "Feature", "properties": {"collection_times": [{"days": "Mon-Fri", "time": "4:30pm"}, {"days": "Sat", "time": "4:00pm"}, {"days": "Sun", "time": "Closed"}], "id": "1561300001", "name": "USPS COLLECTION BOX - BLUE BOX", "address": {"city": "APOLLO", "state": "PA", "street": "118 NORTH PLZ", "postcode": "15613"}}},
{"geometry": {"type": "Point", "coordinates": [-79.5677734209, 40.5828742915]}, "type": "Feature", "properties": {"collection_times": [{"days": "Mon-Fri", "time": "4:30pm"}, {"days": "Sat", "time": "4:00pm"}, {"days": "Sun", "time": "Closed"}], "id": "1561300022", "name": "USPS COLLECTION BOX - PO LOBBY", "address": {"city": "APOLLO", "state": "PA", "street": "118 NORTH PLZ LBBY", "postcode": "15613"}}},
{"geometry": {"type": "Point", "coordinates": [-79.7391325286, 40.3590168606]}, "type": "Feature", "properties": {"collection_times": [{"days": "Mon-Fri", "time": "11:55am"}, {"days": "Sat", "time": "11:45am"}, {"days": "Sun", "time": "Closed"}], "id": "1561500001", "name": "USPS COLLECTION BOX - BLUE BOX", "address": {"city": "ARDARA", "state": "PA", "street": "12889 ROUTE 993", "postcode": "15615"}}},
{"geometry": {"type": "Point", "coordinates": [-79.7391325286, 40.3590168606]}, "type": "Feature", "properties": {"collection_times": [{"days": "Mon-Fri", "time": "11:55am"}, {"days": "Sat", "time": "11:45am"}, {"days": "Sun", "time": "Closed"}], "id": "1561500002", "name": "USPS COLLECTION BOX - PO LOBBY", "address": {"city": "ARDARA", "state": "PA", "street": "12889 ROUTE 993 LBBY", "postcode": "15615"}}},
{"geometry": {"type": "Point", "coordinates": [-79.5698235376, 40.2456144252]}, "type": "Feature", "properties": {"collection_times": [{"days": "Mon-Fri", "time": "11:55am"}, {"days": "Sat", "time": "11:45am"}, {"days": "Sun", "time": "Closed"}], "id": "1561600001", "name": "USPS COLLECTION BOX - BLUE BOX", "address": {"city": "ARMBRUST", "state": "PA", "street": "7855 STATE ROUTE 819", "postcode": "15616"}}},
{"geometry": {"type": "Point", "coordinates": [-79.5698235376, 40.2456144252]}, "type": "Feature", "properties": {"collection_times": [{"days": "Mon-Fri", "time": "11:55am"}, {"days": "Sat", "time": "11:45am"}, {"days": "Sun", "time": "Closed"}], "id": "1561600002", "name": "USPS COLLECTION BOX - PO LOBBY", "address": {"city": "ARMBRUST", "state": "PA", "street": "7855 STATE ROUTE 819", "postcode": "15616"}}},
{"geometry": {"type": "Point", "coordinates": [-79.5698235376, 40.2456144252]}, "type": "Feature", "properties": {"collection_times": [{"days": "Mon-Fri", "time": "11:55am"}, {"days": "Sat", "time": "11:45am"}, {"days": "Sun", "time": "Closed"}], "id": "1561600003", "name": "USPS COLLECTION BOX - PO LOBBY", "address": {"city": "ARMBRUST", "state": "PA", "street": "7855 STATE ROUTE 819", "postcode": "15616"}}},
{"geometry": {"type": "Point", "coordinates": [-79.6615199732, 40.2688113364]}, "type": "Feature", "properties": {"collection_times": [{"days": "Mon-Fri", "time": "11:55am"}, {"days": "Sat", "time": "12:00pm"}, {"days": "Sun", "time": "Closed"}], "id": "1561700001", "name": "USPS COLLECTION BOX - BLUE BOX", "address": {"city": "ARONA", "state": "PA", "street": "2128 MAIN ST", "postcode": "15617"}}},
{"geometry": {"type": "Point", "coordinates": [-79.6615199732, 40.2688113364]}, "type": "Feature", "properties": {"collection_times": [{"days": "Mon-Fri", "time": "11:55am"}, {"days": "Sat", "time": "12:00pm"}, {"days": "Sun", "time": "Closed"}], "id": "1561700004", "name": "USPS COLLECTION BOX - PO LOBBY", "address": {"city": "ARONA", "state": "PA", "street": "2128 MAIN ST", "postcode": "15617"}}},
{"geometry": {"type": "Point", "coordinates": [-79.4618370262, 40.5312550381]}, "type": "Feature", "properties": {"collection_times": [{"days": "Mon-Fri", "time": "4:00pm"}, {"days": "Sat", "time": "12:00pm"}, {"days": "Sun", "time": "Closed"}], "id": "1561800001", "name": "USPS COLLECTION BOX - BLUE BOX", "address": {"city": "AVONMORE", "state": "PA", "street": "516 WESTMORELAND AVE", "postcode": "15618"}}},
{"geometry": {"type": "Point", "coordinates": [-79.4618370262, 40.5312550381]}, "type": "Feature", "properties": {"collection_times": [{"days": "Mon-Fri", "time": "4:00pm"}, {"days": "Sat", "time": "12:00pm"}, {"days": "Sun", "time": "Closed"}], "id": "1561800002", "name": "USPS COLLECTION BOX - PO LOBBY", "address": {"city": "AVONMORE", "state": "PA", "street": "516 WESTMORELAND AVE LBBY", "postcode": "15618"}}},
{"geometry": {"type": "Point", "coordinates": [-79.5448106174, 40.300844601]}, "type": "Feature", "properties": {"collection_times": [{"days": "Mon-Fri", "time": "3:30pm"}, {"days": "Sat", "time": "11:30am"}, {"days": "Sun", "time": "Closed"}], "id": "1561900001", "name": "USPS COLLECTION BOX - BLUE BOX", "address": {"city": "BOVARD", "state": "PA", "street": "3 JEFFERSON ST", "postcode": "15619"}}},
{"geometry": {"type": "Point", "coordinates": [-79.5448106174, 40.300844601]}, "type": "Feature", "properties": {"collection_times": [{"days": "Mon-Fri", "time": "3:30pm"}, {"days": "Sat", "time": "11:30am"}, {"days": "Sun", "time": "Closed"}], "id": "1561900002", "name": "USPS COLLECTION BOX - PO LOBBY", "address": {"city": "BOVARD", "state": "PA", "street": "3 JEFFERSON ST", "postcode": "15619"}}},
{"geometry": {"type": "Point", "coordinates": [-79.5448106174, 40.300844601]}, "type": "Feature", "properties": {"collection_times": [{"days": "Mon-Fri", "time": "3:30pm"}, {"days": "Sat", "time": "11:30am"}, {"days": "Sun", "time": "Closed"}], "id": "1561900003", "name": "USPS COLLECTION BOX - PO LOBBY", "address": {"city": "BOVARD", "state": "PA", "street": "3 JEFFERSON ST", "postcode": "15619"}}},
{"geometry": {"type": "Point", "coordinates": [-79.3415533413, 40.3216022882]}, "type": "Feature", "properties": {"collection_times": [{"days": "Mon-Fri", "time": "11:55am"}, {"days": "Sat", "time": "11:45am"}, {"days": "Sun", "time": "Closed"}], "id": "1562000001", "name": "USPS COLLECTION BOX - BLUE BOX", "address": {"city": "BRADENVILLE", "state": "PA", "street": "1303 HIGH ST", "postcode": "15620"}}},
{"geometry": {"type": "Point", "coordinates": [-79.3415533413, 40.3216022882]}, "type": "Feature", "properties": {"collection_times": [{"days": "Mon-Fri", "time": "11:55am"}, {"days": "Sat", "time": "11:45am"}, {"days": "Sun", "time": "Closed"}], "id": "1562000002", "name": "USPS COLLECTION BOX - PO LOBBY", "address": {"city": "BRADENVILLE", "state": "PA", "street": "1303 HIGH ST", "postcode": "15620"}}},
{"geometry": {"type": "Point", "coordinates": [-79.3415533413, 40.3216022882]}, "type": "Feature", "properties": {"collection_times": [{"days": "Mon-Fri", "time": "11:55am"}, {"days": "Sat", "time": "11:45am"}, {"days": "Sun", "time": "Closed"}], "id": "1562000004", "name": "USPS COLLECTION BOX - PO LOBBY", "address": {"city": "BRADENVILLE", "state": "PA", "street": "1303 HIGH ST", "postcode": "15620"}}},
{"geometry": {"type": "Point", "coordinates": [-79.259780493, 40.0030206528]}, "type": "Feature", "properties": {"collection_times": [{"days": "Mon-Fri", "time": "4:00pm"}, {"days": "Sat", "time": "11:45am"}, {"days": "Sun", "time": "Closed"}], "id": "1562200001", "name": "USPS COLLECTION BOX - BLUE BOX", "address": {"city": "CHAMPION", "state": "PA", "street": "1410 COUNTY LINE RD", "postcode": "15622"}}},
{"geometry": {"type": "Point", "coordinates": [-79.295109327, 40.022015093]}, "type": "Feature", "properties": {"collection_times": [{"days": "Mon-Sat", "time": "10:15am"}, {"days": "Sun", "time": "Closed"}], "id": "1562200002", "name": "USPS COLLECTION BOX - BLUE BOX", "address": {"city": "CHAMPION", "state": "PA", "street": "777 WATER WHEEL DR", "postcode": "15622"}}},
{"geometry": {"type": "Point", "coordinates": [-79.259780493, 40.0030206528]}, "type": "Feature", "properties": {"collection_times": [{"days": "Mon-Fri", "time": "4:00pm"}, {"days": "Sat", "time": "12:00pm"}, {"days": "Sun", "time": "Closed"}], "id": "1562200003", "name": "USPS COLLECTION BOX - PO LOBBY", "address": {"city": "CHAMPION", "state": "PA", "street": "1410 COUNTY LINE RD", "postcode": "15622"}}},
{"geometry": {"type": "Point", "coordinates": [-79.6145528037, 40.3673302212]}, "type": "Feature", "properties": {"collection_times": [{"days": "Mon-Fri", "time": "4:00pm"}, {"days": "Sat", "time": "11:30am"}, {"days": "Sun", "time": "Closed"}], "id": "1562300001", "name": "USPS COLLECTION BOX - BLUE BOX", "address": {"city": "CLARIDGE", "state": "PA", "street": "3162 MAIN ST", "postcode": "15623"}}},
{"geometry": {"type": "Point", "coordinates": [-79.6145528037, 40.3673302212]}, "type": "Feature", "properties": {"collection_times": [{"days": "Mon-Fri", "time": "4:00pm"}, {"days": "Sat", "time": "11:30am"}, {"days": "Sun", "time": "Closed"}], "id": "1562300002", "name": "USPS COLLECTION BOX - PO LOBBY", "address": {"city": "CLARIDGE", "state": "PA", "street": "3162 MAIN ST", "postcode": "15623"}}},
{"geometry": {"type": "Point", "coordinates": [-79.4710433307, 40.3621438785]}, "type": "Feature", "properties": {"collection_times": [{"days": "Mon-Fri", "time": "4:30pm"}, {"days": "Sat", "time": "11:45am"}, {"days": "Sun", "time": "Closed"}], "id": "1562400001", "name": "USPS COLLECTION BOX - BLUE BOX", "address": {"city": "CRABTREE", "state": "PA", "street": "2573 STATE ROUTE 119", "postcode": "15624"}}},
{"geometry": {"type": "Point", "coordinates": [-79.4710433307, 40.3621438785]}, "type": "Feature", "properties": {"collection_times": [{"days": "Mon-Fri", "time": "4:30pm"}, {"days": "Sat", "time": "11:45am"}, {"days": "Sun", "time": "Closed"}], "id": "1562400002", "name": "USPS COLLECTION BOX - PO LOBBY", "address": {"city": "CRABTREE", "state": "PA", "street": "2573 STATE ROUTE 119", "postcode": "15624"}}},
{"geometry": {"type": "Point", "coordinates": [-79.4710433307, 40.3621438785]}, "type": "Feature", "properties": {"collection_times": [{"days": "Mon-Fri", "time": "4:30pm"}, {"days": "Sat", "time": "11:45am"}, {"days": "Sun", "time": "Closed"}], "id": "1562400003", "name": "USPS COLLECTION BOX - PO LOBBY", "address": {"city": "CRABTREE", "state": "PA", "street": "2573 STATE ROUTE 119", "postcode": "15624"}}},
{"geometry": {"type": "Point", "coordinates": [-79.6847153176, 40.2579553638]}, "type": "Feature", "properties": {"collection_times": [{"days": "Mon-Fri", "time": "11:55am"}, {"days": "Sat", "time": "11:45am"}, {"days": "Sun", "time": "Closed"}], "id": "1562500001", "name": "USPS COLLECTION BOX - BLUE BOX", "address": {"city": "DARRAGH", "state": "PA", "street": "3206 ROUTE 136", "postcode": "15625"}}},
{"geometry": {"type": "Point", "coordinates": [-79.6847153176, 40.2579553638]}, "type": "Feature", "properties": {"collection_times": [{"days": "Mon-Fri", "time": "11:55am"}, {"days": "Sat", "time": "11:45am"}, {"days": "Sun", "time": "Closed"}], "id": "1562500002", "name": "USPS COLLECTION BOX - PO LOBBY", "address": {"city": "DARRAGH", "state": "PA", "street": "3206 ROUTE 136", "postcode": "15625"}}},
{"geometry": {"type": "Point", "coordinates": [-79.5708562282, 40.4127986016]}, "type": "Feature", "properties": {"collection_times": [{"days": "Mon-Fri", "time": "4:30pm"}, {"days": "Sat", "time": "3:00pm"}, {"days": "Sun", "time": "Closed"}], "id": "1562600001", "name": "USPS COLLECTION BOX - BLUE BOX", "address": {"city": "DELMONT", "state": "PA", "street": "48 GREENSBURG ST", "postcode": "15626"}}},
{"geometry": {"type": "Point", "coordinates": [-79.5706398826, 40.413072015]}, "type": "Feature", "properties": {"collection_times": [{"days": "Mon-Sat", "time": "2:00pm"}, {"days": "Sun", "time": "Closed"}], "id": "1562600002", "name": "USPS COLLECTION BOX - BLUE BOX", "address": {"city": "DELMONT", "state": "PA", "street": "6518 ROUTE 22 STE 430", "postcode": "15626"}}},
{"geometry": {"type": "Point", "coordinates": [-79.5855555179, 40.4005150079]}, "type": "Feature", "properties": {"collection_times": [{"days": "Mon-Sat", "time": "12:00pm"}, {"days": "Sun", "time": "Closed"}], "id": "1562600004", "name": "USPS COLLECTION BOX - BLUE BOX", "address": {"city": "DELMONT", "state": "PA", "street": "6700 HOLLYWOOD BLVD", "postcode": "15626"}}},
{"geometry": {"type": "Point", "coordinates": [-79.5779861485, 40.4101929416]}, "type": "Feature", "properties": {"collection_times": [{"days": "Mon-Fri", "time": "3:00pm"}, {"days": "Sat", "time": "2:30pm"}, {"days": "Sun", "time": "Closed"}], "id": "1562600007", "name": "USPS COLLECTION BOX - BLUE BOX", "address": {"city": "DELMONT", "state": "PA", "street": "77 GREENSBURG ST", "postcode": "15626"}}},
{"geometry": {"type": "Point", "coordinates": [-79.5708562282, 40.4127986016]}, "type": "Feature", "properties": {"collection_times": [{"days": "Mon-Fri", "time": "4:30pm"}, {"days": "Sat", "time": "3:00pm"}, {"days": "Sun", "time": "Closed"}], "id": "1562600009", "name": "USPS COLLECTION BOX - PO LOBBY", "address": {"city": "DELMONT", "state": "PA", "street": "48 GREENSBURG ST LBBY", "postcode": "15626"}}},
{"geometry": {"type": "Point", "coordinates": [-79.3001918449, 40.3336008425]}, "type": "Feature", "properties": {"collection_times": [{"days": "Mon-Fri", "time": "4:30pm"}, {"days": "Sat", "time": "12:00pm"}, {"days": "Sun", "time": "Closed"}], "id": "1562700001", "name": "USPS COLLECTION BOX - BLUE BOX", "address": {"city": "DERRY", "state": "PA", "street": "101 E 1ST AVE", "postcode": "15627"}}},
{"geometry": {"type": "Point", "coordinates": [-79.307218344, 40.3243849238]}, "type": "Feature", "properties": {"collection_times": [{"days": "Mon-Sat", "time": "2:00pm"}, {"days": "Sun", "time": "Closed"}], "id": "1562700003", "name": "USPS COLLECTION BOX - BLUE BOX", "address": {"city": "DERRY", "state": "PA", "street": "1015 W 4TH AVE", "postcode": "15627"}}},
{"geometry": {"type": "Point", "coordinates": [-79.315373403, 40.3388381072]}, "type": "Feature", "properties": {"collection_times": [{"days": "Mon-Sat", "time": "1:00pm"}, {"days": "Sun", "time": "Closed"}], "id": "1562700007", "name": "USPS COLLECTION BOX - BLUE BOX", "address": {"city": "DERRY", "state": "PA", "street": "5556 STATE ROUTE 982", "postcode": "15627"}}},
{"geometry": {"type": "Point", "coordinates": [-79.3001918449, 40.3336008425]}, "type": "Feature", "properties": {"collection_times": [{"days": "Mon-Fri", "time": "4:30pm"}, {"days": "Sat", "time": "12:00pm"}, {"days": "Sun", "time": "Closed"}], "id": "1562700009", "name": "USPS COLLECTION BOX - PO LOBBY", "address": {"city": "DERRY", "state": "PA", "street": "101 E 1ST AVE LBBY", "postcode": "15627"}}},
{"geometry": {"type": "Point", "coordinates": [-79.3782422515, 40.1084826831]}, "type": "Feature", "properties": {"collection_times": [{"days": "Mon-Fri", "time": "12:05pm"}, {"days": "Sat", "time": "11:30am"}, {"days": "Sun", "time": "Closed"}], "id": "1562800001", "name": "USPS COLLECTION BOX - BLUE BOX", "address": {"city": "DONEGAL", "state": "PA", "street": "154 MAIN ST", "postcode": "15628"}}},
{"geometry": {"type": "Point", "coordinates": [-79.3782422515, 40.1084826831]}, "type": "Feature", "properties": {"collection_times": [{"days": "Mon-Fri", "time": "12:05pm"}, {"days": "Sat", "time": "11:30am"}, {"days": "Sun", "time": "Closed"}], "id": "1562800002", "name": "USPS COLLECTION BOX - PO LOBBY", "address": {"city": "DONEGAL", "state": "PA", "street": "154 MAIN ST LBBY", "postcode": "15628"}}},
{"geometry": {"type": "Point", "coordinates": [-79.3782422515, 40.1084826831]}, "type": "Feature", "properties": {"collection_times": [{"days": "Mon-Fri", "time": "12:05pm"}, {"days": "Sat", "time": "11:30am"}, {"days": "Sun", "time": "Closed"}], "id": "1562800003", "name": "USPS COLLECTION BOX - PO LOBBY", "address": {"city": "DONEGAL", "state": "PA", "street": "154 MAIN ST LBBY", "postcode": "15628"}}},
{"geometry": {"type": "Point", "coordinates": [-79.5599807757, 40.5997437129]}, "type": "Feature", "properties": {"collection_times": [{"days": "Mon-Fri", "time": "11:55am"}, {"days": "Sat", "time": "11:50am"}, {"days": "Sun", "time": "Closed"}], "id": "1562900001", "name": "USPS COLLECTION BOX - BLUE BOX", "address": {"city": "E VANDERGRIFT", "state": "PA", "street": "252 MCKINLEY AVE", "postcode": "15629"}}},
{"geometry": {"type": "Point", "coordinates": [-79.5599807757, 40.5997437129]}, "type": "Feature", "properties": {"collection_times": [{"days": "Mon-Fri", "time": "11:55am"}, {"days": "Sat", "time": "11:50am"}, {"days": "Sun", "time": "Closed"}], "id": "1562900002", "name": "USPS COLLECTION BOX - PO LOBBY", "address": {"city": "E VANDERGRIFT", "state": "PA", "street": "252 MCKINLEY AVE LBBY", "postcode": "15629"}}},
{"geometry": {"type": "Point", "coordinates": [-79.5882540159, 40.0927063793]}, "type": "Feature", "properties": {"collection_times": [{"days": "Mon-Fri", "time": "4:30pm"}, {"days": "Sat", "time": "11:30am"}, {"days": "Sun", "time": "Closed"}], "id": "1563100001", "name": "USPS COLLECTION BOX - BLUE BOX", "address": {"city": "EVERSON", "state": "PA", "street": "328 BROWN ST", "postcode": "15631"}}},
{"geometry": {"type": "Point", "coordinates": [-79.5882540159, 40.0927063793]}, "type": "Feature", "properties": {"collection_times": [{"days": "Mon-Fri", "time": "4:30pm"}, {"days": "Sat", "time": "11:30am"}, {"days": "Sun", "time": "Closed"}], "id": "1563100002", "name": "USPS COLLECTION BOX - PO LOBBY", "address": {"city": "EVERSON", "state": "PA", "street": "328 BROWN ST LBBY", "postcode": "15631"}}},
{"geometry": {"type": "Point", "coordinates": [-79.6257576597, 40.4181889169]}, "type": "Feature", "properties": {"collection_times": [{"days": "Mon-Sat", "time": "2:30pm"}, {"days": "Sun", "time": "Closed"}], "id": "1563200001", "name": "USPS COLLECTION BOX - BLUE BOX", "address": {"city": "MURRYSVILLE", "state": "PA", "street": "5820 KENNEDY AVE", "postcode": "15632"}}},
{"geometry": {"type": "Point", "coordinates": [-79.6024689148, 40.4391367101]}, "type": "Feature", "properties": {"collection_times": [{"days": "Mon-Fri", "time": "11:15am"}, {"days": "Sat", "time": "10:45am"}, {"days": "Sun", "time": "Closed"}], "id": "1563200007", "name": "USPS COLLECTION BOX - BLUE BOX", "address": {"city": "MURRYSVILLE", "state": "PA", "street": "4810 OLD WM PENN HWY", "postcode": "15632"}}},
{"geometry": {"type": "Point", "coordinates": [-79.6057654166, 40.4028541351]}, "type": "Feature", "properties": {"collection_times": [{"days": "Mon-Fri", "time": "10:15am"}, {"days": "Sat", "time": "9:45am"}, {"days": "Sun", "time": "Closed"}], "id": "1563200008", "name": "USPS COLLECTION BOX - BLUE BOX", "address": {"city": "MURRYSVILLE", "state": "PA", "street": "1000 CORPORATE LN", "postcode": "15632"}}},
{"geometry": {"type": "Point", "coordinates": [-79.5234389497, 40.3548115011]}, "type": "Feature", "properties": {"collection_times": [{"days": "Mon-Fri", "time": "4:00pm"}, {"days": "Sat", "time": "11:45am"}, {"days": "Sun", "time": "Closed"}], "id": "1563300001", "name": "USPS COLLECTION BOX - BLUE BOX", "address": {"city": "FORBES ROAD", "state": "PA", "street": "344 FIRE STATION RD", "postcode": "15633"}}},
{"geometry": {"type": "Point", "coordinates": [-79.5234389497, 40.3548115011]}, "type": "Feature", "properties": {"collection_times": [{"days": "Mon-Fri", "time": "4:00pm"}, {"days": "Sat", "time": "11:45am"}, {"days": "Sun", "time": "Closed"}], "id": "1563300002", "name": "USPS COLLECTION BOX - PO LOBBY", "address": {"city": "FORBES ROAD", "state": "PA", "street": "344 FIRE STATION RD", "postcode": "15633"}}},
{"geometry": {"type": "Point", "coordinates": [-79.6055595531, 40.3246441279]}, "type": "Feature", "properties": {"collection_times": [{"days": "Mon-Fri", "time": "4:15pm"}, {"days": "Sat", "time": "12:15pm"}, {"days": "Sun", "time": "Closed"}], "id": "1563400001", "name": "USPS COLLECTION BOX - BLUE BOX", "address": {"city": "GRAPEVILLE", "state": "PA", "street": "2526 NEWARK ST", "postcode": "15634"}}},
{"geometry": {"type": "Point", "coordinates": [-79.6055595531, 40.3246441279]}, "type": "Feature", "properties": {"collection_times": [{"days": "Mon-Fri", "time": "4:15pm"}, {"days": "Sat", "time": "12:15pm"}, {"days": "Sun", "time": "Closed"}], "id": "1563400002", "name": "USPS COLLECTION BOX - PO LOBBY", "address": {"city": "GRAPEVILLE", "state": "PA", "street": "2526 NEWARK ST", "postcode": "15634"}}},
{"geometry": {"type": "Point", "coordinates": [-79.4967949695, 40.3527997143]}, "type": "Feature", "properties": {"collection_times": [{"days": "Mon-Fri", "time": "12:55pm"}, {"days": "Sat", "time": "11:45am"}, {"days": "Sun", "time": "Closed"}], "id": "1563500001", "name": "USPS COLLECTION BOX - BLUE BOX", "address": {"city": "HANNASTOWN", "state": "PA", "street": "189 FRONT ST", "postcode": "15635"}}},
{"geometry": {"type": "Point", "coordinates": [-79.4967949695, 40.3527997143]}, "type": "Feature", "properties": {"collection_times": [{"days": "Mon-Fri", "time": "12:55pm"}, {"days": "Sat", "time": "11:45am"}, {"days": "Sun", "time": "Closed"}], "id": "1563500002", "name": "USPS COLLECTION BOX - PO LOBBY", "address": {"city": "HANNASTOWN", "state": "PA", "street": "189 FRONT ST", "postcode": "15635"}}},
{"geometry": {"type": "Point", "coordinates": [-79.6708394794, 40.3366469436]}, "type": "Feature", "properties": {"collection_times": [{"days": "Mon-Fri", "time": "4:00pm"}, {"days": "Sat", "time": "1:00pm"}, {"days": "Sun", "time": "Closed"}], "id": "1563600001", "name": "USPS COLLECTION BOX - BLUE BOX", "address": {"city": "HARRISON CITY", "state": "PA", "street": "567 MANOR HARRISON CITY RD", "postcode": "15636"}}},
{"geometry": {"type": "Point", "coordinates": [-79.6516940984, 40.3635832199]}, "type": "Feature", "properties": {"collection_times": [{"days": "Mon-Sat", "time": "11:00am"}, {"days": "Sun", "time": "Closed"}], "id": "1563600002", "name": "USPS COLLECTION BOX - BLUE BOX", "address": {"city": "HARRISON CITY", "state": "PA", "street": "500 WAUGAMAN RD", "postcode": "15636"}}},
{"geometry": {"type": "Point", "coordinates": [-79.6708394794, 40.3366469436]}, "type": "Feature", "properties": {"collection_times": [{"days": "Mon-Fri", "time": "4:30pm"}, {"days": "Sat", "time": "1:00pm"}, {"days": "Sun", "time": "Closed"}], "id": "1563600005", "name": "USPS COLLECTION BOX - PO LOBBY", "address": {"city": "HARRISON CITY", "state": "PA", "street": "567 MANOR HARRISON CITY RD", "postcode": "15636"}}},
{"geometry": {"type": "Point", "coordinates": [-79.7159330303, 40.2613096012]}, "type": "Feature", "properties": {"collection_times": [{"days": "Mon-Fri", "time": "4:30pm"}, {"days": "Sat", "time": "12:00pm"}, {"days": "Sun", "time": "Closed"}], "id": "1563700001", "name": "USPS COLLECTION BOX - BLUE BOX", "address": {"city": "HERMINIE", "state": "PA", "street": "209 HIGHLAND AVE", "postcode": "15637"}}},
{"geometry": {"type": "Point", "coordinates": [-79.7148887781, 40.2635750789]}, "type": "Feature", "properties": {"collection_times": [{"days": "Mon-Sat", "time": "2:45pm"}, {"days": "Sun", "time": "Closed"}], "id": "1563700006", "name": "USPS COLLECTION BOX - BLUE BOX", "address": {"city": "HERMINIE", "state": "PA", "street": "314 SEWICKLEY AVE", "postcode": "15637"}}},
{"geometry": {"type": "Point", "coordinates": [-79.7159330303, 40.2613096012]}, "type": "Feature", "properties": {"collection_times": [{"days": "Mon-Fri", "time": "4:30pm"}, {"days": "Sat", "time": "12:00pm"}, {"days": "Sun", "time": "Closed"}], "id": "1563700007", "name": "USPS COLLECTION BOX - PO LOBBY", "address": {"city": "HERMINIE", "state": "PA", "street": "209 HIGHLAND AVE LBBY", "postcode": "15637"}}},
{"geometry": {"type": "Point", "coordinates": [-79.386046417, 40.3161109359]}, "type": "Feature", "properties": {"collection_times": [{"days": "Mon-Fri", "time": "12:00pm"}, {"days": "Sat", "time": "11:30am"}, {"days": "Sun", "time": "Closed"}], "id": "1563800001", "name": "USPS COLLECTION BOX - BLUE BOX", "address": {"city": "HOSTETTER", "state": "PA", "street": "126 SLOVAK CLUB RD", "postcode": "15638"}}},
{"geometry": {"type": "Point", "coordinates": [-79.386046417, 40.3161109359]}, "type": "Feature", "properties": {"collection_times": [{"days": "Mon-Fri", "time": "12:00pm"}, {"days": "Sat", "time": "11:30am"}, {"days": "Sun", "time": "Closed"}], "id": "1563800002", "name": "USPS COLLECTION BOX - PO LOBBY", "address": {"city": "HOSTETTER", "state": "PA", "street": "126 SLOVAK CLUB RD", "postcode": "15638"}}},
{"geometry": {"type": "Point", "coordinates": [-79.6182871803, 40.2049357884]}, "type": "Feature", "properties": {"collection_times": [{"days": "Mon-Sat", "time": "11:55am"}, {"days": "Sun", "time": "Closed"}], "id": "1563900001", "name": "USPS COLLECTION BOX - BLUE BOX", "address": {"city": "HUNKER", "state": "PA", "street": "331 DIVISION ST", "postcode": "15639"}}},
{"geometry": {"type": "Point", "coordinates": [-79.6182871803, 40.2049357884]}, "type": "Feature", "properties": {"collection_times": [{"days": "Mon-Sat", "time": "11:55am"}, {"days": "Sun", "time": "Closed"}], "id": "1563900003", "name": "USPS COLLECTION BOX - PO LOBBY", "address": {"city": "HUNKER", "state": "PA", "street": "331 DIVISION ST LBBY", "postcode": "15639"}}},
{"geometry": {"type": "Point", "coordinates": [-79.7159100734, 40.2613751933]}, "type": "Feature", "properties": {"collection_times": [{"days": "Mon-Fri", "time": "11:55am"}, {"days": "Sat", "time": "11:25am"}, {"days": "Sun", "time": "Closed"}], "id": "1564000001", "name": "USPS COLLECTION BOX - BLUE BOX", "address": {"city": "HUTCHINSON", "state": "PA", "street": "116 HOOD ST", "postcode": "15640"}}},
{"geometry": {"type": "Point", "coordinates": [-79.7159100734, 40.2613751933]}, "type": "Feature", "properties": {"collection_times": [{"days": "Mon-Fri", "time": "11:55am"}, {"days": "Sat", "time": "11:25am"}, {"days": "Sun", "time": "Closed"}], "id": "1564000002", "name": "USPS COLLECTION BOX - PO LOBBY", "address": {"city": "HUTCHINSON", "state": "PA", "street": "116 HOOD ST", "postcode": "15640"}}},
{"geometry": {"type": "Point", "coordinates": [-79.589035, 40.632343]}, "type": "Feature", "properties": {"collection_times": [{"days": "Mon-Fri", "time": "11:55am"}, {"days": "Sat", "time": "12:00pm"}, {"days": "Sun", "time": "Closed"}], "id": "1564100001", "name": "USPS COLLECTION BOX - BLUE BOX", "address": {"city": "HYDE PARK", "state": "PA", "street": "385 CHESTNUT ST", "postcode": "15641"}}},
{"geometry": {"type": "Point", "coordinates": [-79.5935650265, 40.6275190296]}, "type": "Feature", "properties": {"collection_times": [{"days": "Mon-Fri", "time": "11:55am"}, {"days": "Sat", "time": "12:00pm"}, {"days": "Sun", "time": "Closed"}], "id": "1564100002", "name": "USPS COLLECTION BOX - PO LOBBY", "address": {"city": "HYDE PARK", "state": "PA", "street": "385 CHESTNUT ST LBBY", "postcode": "15641"}}},
{"geometry": {"type": "Point", "coordinates": [-79.7365283823, 40.3285941665]}, "type": "Feature", "properties": {"collection_times": [{"days": "Mon-Sat", "time": "1:00pm"}, {"days": "Sun", "time": "Closed"}], "id": "1564200005", "name": "USPS COLLECTION BOX - BLUE BOX", "address": {"city": "IRWIN", "state": "PA", "street": "150 ROBBINS STATION RD", "postcode": "15642"}}},
{"geometry": {"type": "Point", "coordinates": [-79.6920394862, 40.319294402]}, "type": "Feature", "properties": {"collection_times": [{"days": "Mon-Sat", "time": "1:30pm"}, {"days": "Sun", "time": "Closed"}], "id": "1564200006", "name": "USPS COLLECTION BOX - BLUE BOX", "address": {"city": "IRWIN", "state": "PA", "street": "8775 NORWIN AVE", "postcode": "15642"}}},
{"geometry": {"type": "Point", "coordinates": [-79.7247423344, 40.3139159432]}, "type": "Feature", "properties": {"collection_times": [{"days": "Mon-Fri", "time": "4:45pm"}, {"days": "Sat", "time": "2:00pm"}, {"days": "Sun", "time": "Closed"}], "id": "1564200007", "name": "USPS COLLECTION BOX - BLUE BOX", "address": {"city": "IRWIN", "state": "PA", "street": "1101 MAIN ST", "postcode": "15642"}}},
{"geometry": {"type": "Point", "coordinates": [-79.7313639645, 40.3299123117]}, "type": "Feature", "properties": {"collection_times": [{"days": "Mon-Sat", "time": "1:15pm"}, {"days": "Sun", "time": "Closed"}], "id": "1564200017", "name": "USPS COLLECTION BOX - BLUE BOX", "address": {"city": "IRWIN", "state": "PA", "street": "11279 CENTER HWY", "postcode": "15642"}}},
{"geometry": {"type": "Point", "coordinates": [-79.6971896733, 40.322396043]}, "type": "Feature", "properties": {"collection_times": [{"days": "Mon-Sat", "time": "1:30pm"}, {"days": "Sun", "time": "Closed"}], "id": "1564200028", "name": "USPS COLLECTION BOX - BLUE BOX", "address": {"city": "IRWIN", "state": "PA", "street": "9350 ROUTE 30", "postcode": "15642"}}},
{"geometry": {"type": "Point", "coordinates": [-79.7223489566, 40.3254305743]}, "type": "Feature", "properties": {"collection_times": [{"days": "Mon-Fri", "time": "4:45pm"}, {"days": "Sat", "time": "12:00pm"}, {"days": "Sun", "time": "Closed"}], "id": "1564200037", "name": "USPS COLLECTION BOX - BLUE BOX", "address": {"city": "IRWIN", "state": "PA", "street": "140 MAIN ST", "postcode": "15642"}}},
{"geometry": {"type": "Point", "coordinates": [-79.7105989906, 40.3325640555]}, "type": "Feature", "properties": {"collection_times": [{"days": "Mon-Sat", "time": "1:15pm"}, {"days": "Sun", "time": "Closed"}], "id": "1564200039", "name": "USPS COLLECTION BOX - BLUE BOX", "address": {"city": "IRWIN", "state": "PA", "street": "335 MAIN ST", "postcode": "15642"}}},
{"geometry": {"type": "Point", "coordinates": [-79.6929609973, 40.28269795]}, "type": "Feature", "properties": {"collection_times": [{"days": "Mon-Sat", "time": "1:45pm"}, {"days": "Sun", "time": "Closed"}], "id": "1564200042", "name": "USPS COLLECTION BOX - BLUE BOX", "address": {"city": "IRWIN", "state": "PA", "street": "98 WENDEL RD", "postcode": "15642"}}},
{"geometry": {"type": "Point", "coordinates": [-79.6823164023, 40.370086486]}, "type": "Feature", "properties": {"collection_times": [{"days": "Mon-Sat", "time": "10:45am"}, {"days": "Sun", "time": "Closed"}], "id": "1564200043", "name": "USPS COLLECTION BOX - BLUE BOX", "address": {"city": "IRWIN", "state": "PA", "street": "4021 ROUTE 130", "postcode": "15642"}}},
{"geometry": {"type": "Point", "coordinates": [-79.7223489566, 40.3254305743]}, "type": "Feature", "properties": {"collection_times": [{"days": "Mon-Fri", "time": "4:45pm"}, {"days": "Sat", "time": "12:00pm"}, {"days": "Sun", "time": "Closed"}], "id": "1564200050", "name": "USPS COLLECTION BOX - BLUE BOX", "address": {"city": "IRWIN", "state": "PA", "street": "140 MAIN ST", "postcode": "15642"}}},
{"geometry": {"type": "Point", "coordinates": [-79.6932545717, 40.3210805693]}, "type": "Feature", "properties": {"collection_times": [{"days": "Mon-Sat", "time": "1:45pm"}, {"days": "Sun", "time": "Closed"}], "id": "1564200051", "name": "USPS COLLECTION BOX - BLUE BOX", "address": {"city": "IRWIN", "state": "PA", "street": "8931 ROUTE 30", "postcode": "15642"}}},
{"geometry": {"type": "Point", "coordinates": [-79.6618867711, 40.311433874]}, "type": "Feature", "properties": {"collection_times": [{"days": "Mon-Sat", "time": "1:00pm"}, {"days": "Sun", "time": "Closed"}], "id": "1564200052", "name": "USPS COLLECTION BOX - BLUE BOX", "address": {"city": "IRWIN", "state": "PA", "street": "12120 ROUTE 30", "postcode": "15642"}}},
{"geometry": {"type": "Point", "coordinates": [-79.6920394862, 40.319294402]}, "type": "Feature", "properties": {"collection_times": [{"days": "Mon-Sat", "time": "1:30pm"}, {"days": "Sun", "time": "Closed"}], "id": "1564200053", "name": "USPS COLLECTION BOX - BLUE BOX", "address": {"city": "IRWIN", "state": "PA", "street": "8775 NORWIN AVE", "postcode": "15642"}}},
{"geometry": {"type": "Point", "coordinates": [-79.6931982409, 40.316329258]}, "type": "Feature", "properties": {"collection_times": [{"days": "Mon-Sat", "time": "1:30pm"}, {"days": "Sun", "time": "Closed"}], "id": "1564200055", "name": "USPS COLLECTION BOX - BLUE BOX", "address": {"city": "IRWIN", "state": "PA", "street": "8981 NORWIN AVE", "postcode": "15642"}}},
{"geometry": {"type": "Point", "coordinates": [-79.7100731982, 40.3341629881]}, "type": "Feature", "properties": {"collection_times": [{"days": "Mon-Fri", "time": "4:45pm"}, {"days": "Sat", "time": "12:00pm"}, {"days": "Sun", "time": "Closed"}], "id": "1564200057", "name": "USPS COLLECTION BOX - PO LOBBY", "address": {"city": "IRWIN", "state": "PA", "street": "140 MAIN ST LBBY", "postcode": "15642"}}},
{"geometry": {"type": "Point", "coordinates": [-79.6156707928, 40.3358113335]}, "type": "Feature", "properties": {"collection_times": [{"days": "Mon-Sat", "time": "1:45pm"}, {"days": "Sun", "time": "Closed"}], "id": "1564400004", "name": "USPS COLLECTION BOX - BLUE BOX", "address": {"city": "JEANNETTE", "state": "PA", "street": "602 N 8TH ST", "postcode": "15644"}}},
{"geometry": {"type": "Point", "coordinates": [-79.6056305987, 40.3311102557]}, "type": "Feature", "properties": {"collection_times": [{"days": "Mon-Sat", "time": "1:45pm"}, {"days": "Sun", "time": "Closed"}], "id": "1564400007", "name": "USPS COLLECTION BOX - BLUE BOX", "address": {"city": "JEANNETTE", "state": "PA", "street": "420 HARRISON AVE", "postcode": "15644"}}},
{"geometry": {"type": "Point", "coordinates": [-79.6067218415, 40.3336048884]}, "type": "Feature", "properties": {"collection_times": [{"days": "Mon-Sat", "time": "1:45pm"}, {"days": "Sun", "time": "Closed"}], "id": "1564400009", "name": "USPS COLLECTION BOX - BLUE BOX", "address": {"city": "JEANNETTE", "state": "PA", "street": "700 ELLSWORTH AVE", "postcode": "15644"}}},
{"geometry": {"type": "Point", "coordinates": [-79.6163577525, 40.3232328193]}, "type": "Feature", "properties": {"collection_times": [{"days": "Mon-Sat", "time": "1:30pm"}, {"days": "Sun", "time": "Closed"}], "id": "1564400011", "name": "USPS COLLECTION BOX - BLUE BOX", "address": {"city": "JEANNETTE", "state": "PA", "street": "501 LOWRY AVE", "postcode": "15644"}}},
{"geometry": {"type": "Point", "coordinates": [-79.6139987331, 40.3204280682]}, "type": "Feature", "properties": {"collection_times": [{"days": "Mon-Sat", "time": "1:30pm"}, {"days": "Sun", "time": "Closed"}], "id": "1564400012", "name": "USPS COLLECTION BOX - BLUE BOX", "address": {"city": "JEANNETTE", "state": "PA", "street": "601 MICHIGAN AVE", "postcode": "15644"}}},
{"geometry": {"type": "Point", "coordinates": [-79.6118660913, 40.3197828331]}, "type": "Feature", "properties": {"collection_times": [{"days": "Mon-Sat", "time": "1:30pm"}, {"days": "Sun", "time": "Closed"}], "id": "1564400014", "name": "USPS COLLECTION BOX - BLUE BOX", "address": {"city": "JEANNETTE", "state": "PA", "street": "600 JEFFERSON AVE", "postcode": "15644"}}},
{"geometry": {"type": "Point", "coordinates": [-79.6186732155, 40.3181146144]}, "type": "Feature", "properties": {"collection_times": [{"days": "Mon-Sat", "time": "1:30pm"}, {"days": "Sun", "time": "Closed"}], "id": "1564400015", "name": "USPS COLLECTION BOX - BLUE BOX", "address": {"city": "JEANNETTE", "state": "PA", "street": "104 BAUGHMAN AVE", "postcode": "15644"}}},
{"geometry": {"type": "Point", "coordinates": [-79.6176775426, 40.3270966795]}, "type": "Feature", "properties": {"collection_times": [{"days": "Mon-Sat", "time": "1:30pm"}, {"days": "Sun", "time": "Closed"}], "id": "1564400019", "name": "USPS COLLECTION BOX - BLUE BOX", "address": {"city": "JEANNETTE", "state": "PA", "street": "400 CLAY AVE", "postcode": "15644"}}},
{"geometry": {"type": "Point", "coordinates": [-79.619292605, 40.3254593598]}, "type": "Feature", "properties": {"collection_times": [{"days": "Mon-Sat", "time": "1:30pm"}, {"days": "Sun", "time": "Closed"}], "id": "1564400020", "name": "USPS COLLECTION BOX - BLUE BOX", "address": {"city": "JEANNETTE", "state": "PA", "street": "401 S 4TH ST", "postcode": "15644"}}},
{"geometry": {"type": "Point", "coordinates": [-79.6191440179, 40.3369040329]}, "type": "Feature", "properties": {"collection_times": [{"days": "Mon-Sat", "time": "1:45pm"}, {"days": "Sun", "time": "Closed"}], "id": "1564400022", "name": "USPS COLLECTION BOX - BLUE BOX", "address": {"city": "JEANNETTE", "state": "PA", "street": "1618 HARRISON AVE", "postcode": "15644"}}},
{"geometry": {"type": "Point", "coordinates": [-79.6260721727, 40.331984383]}, "type": "Feature", "properties": {"collection_times": [{"days": "Mon-Sat", "time": "1:45pm"}, {"days": "Sun", "time": "Closed"}], "id": "1564400031", "name": "USPS COLLECTION BOX - BLUE BOX", "address": {"city": "JEANNETTE", "state": "PA", "street": "1108 GASKILL AVE", "postcode": "15644"}}},
{"geometry": {"type": "Point", "coordinates": [-79.6186354188, 40.3274113698]}, "type": "Feature", "properties": {"collection_times": [{"days": "Mon-Fri", "time": "5:00pm"}, {"days": "Sat", "time": "4:30pm"}, {"days": "Sun", "time": "Closed"}], "id": "1564400040", "name": "USPS COLLECTION BOX - BLUE BOX", "address": {"city": "JEANNETTE", "state": "PA", "street": "223 S 5TH ST", "postcode": "15644"}}},
{"geometry": {"type": "Point", "coordinates": [-79.6186354188, 40.3274113698]}, "type": "Feature", "properties": {"collection_times": [{"days": "Mon-Fri", "time": "5:00pm"}, {"days": "Sat", "time": "4:30pm"}, {"days": "Sun", "time": "Closed"}], "id": "1564400041", "name": "USPS COLLECTION BOX - BLUE BOX", "address": {"city": "JEANNETTE", "state": "PA", "street": "223 S 5TH ST", "postcode": "15644"}}},
{"geometry": {"type": "Point", "coordinates": [-79.6186354188, 40.3274113698]}, "type": "Feature", "properties": {"collection_times": [{"days": "Mon-Fri", "time": "5:00pm"}, {"days": "Sat", "time": "4:30pm"}, {"days": "Sun", "time": "Closed"}], "id": "1564400042", "name": "USPS COLLECTION BOX - PO LOBBY", "address": {"city": "JEANNETTE", "state": "PA", "street": "223 S 5TH ST LBBY", "postcode": "15644"}}},
{"geometry": {"type": "Point", "coordinates": [-79.6186354188, 40.3274113698]}, "type": "Feature", "properties": {"collection_times": [{"days": "Mon-Fri", "time": "5:00pm"}, {"days": "Sat", "time": "4:30pm"}, {"days": "Sun", "time": "Closed"}], "id": "1564400044", "name": "USPS COLLECTION BOX - PO LOBBY", "address": {"city": "JEANNETTE", "state": "PA", "street": "223 S 5TH ST LBBY", "postcode": "15644"}}},
{"geometry": {"type": "Point", "coordinates": [-79.6159266616, 40.326741302]}, "type": "Feature", "properties": {"collection_times": [{"days": "Mon-Sat", "time": "9:30am"}, {"days": "Sun", "time": "Closed"}], "id": "1564400045", "name": "USPS COLLECTION BOX - BLUE BOX", "address": {"city": "JEANNETTE", "state": "PA", "street": "2016 PENNY LANE DR", "postcode": "15644"}}},
{"geometry": {"type": "Point", "coordinates": [-79.3395136974, 40.0880735976]}, "type": "Feature", "properties": {"collection_times": [{"days": "Mon-Fri", "time": "12:05pm"}, {"days": "Sat", "time": "11:45am"}, {"days": "Sun", "time": "Closed"}], "id": "1564600001", "name": "USPS COLLECTION BOX - BLUE BOX", "address": {"city": "JONES MILLS", "state": "PA", "street": "4124 STATE ROUTE 31", "postcode": "15646"}}},
{"geometry": {"type": "Point", "coordinates": [-79.3395136974, 40.0880735976]}, "type": "Feature", "properties": {"collection_times": [{"days": "Mon-Fri", "time": "12:05pm"}, {"days": "Sat", "time": "11:45am"}, {"days": "Sun", "time": "Closed"}], "id": "1564600002", "name": "USPS COLLECTION BOX - PO LOBBY", "address": {"city": "JONES MILLS", "state": "PA", "street": "4124 STATE ROUTE 31", "postcode": "15646"}}},
{"geometry": {"type": "Point", "coordinates": [-79.7268907802, 40.3446400689]}, "type": "Feature", "properties": {"collection_times": [{"days": "Mon-Fri", "time": "4:30pm"}, {"days": "Sat", "time": "11:45am"}, {"days": "Sun", "time": "Closed"}], "id": "1564700001", "name": "USPS COLLECTION BOX - BLUE BOX", "address": {"city": "LARIMER", "state": "PA", "street": "1370 BROWNSTOWN RD", "postcode": "15647"}}},
{"geometry": {"type": "Point", "coordinates": [-79.7268907802, 40.3446400689]}, "type": "Feature", "properties": {"collection_times": [{"days": "Mon-Fri", "time": "4:30pm"}, {"days": "Sat", "time": "11:45am"}, {"days": "Sun", "time": "Closed"}], "id": "1564700002", "name": "USPS COLLECTION BOX - PO LOBBY", "address": {"city": "LARIMER", "state": "PA", "street": "1370 BROWNSTOWN RD LBBY", "postcode": "15647"}}},
{"geometry": {"type": "Point", "coordinates": [-79.393107809, 40.321864189]}, "type": "Feature", "properties": {"collection_times": [{"days": "Mon-Fri", "time": "1:00pm"}, {"days": "Sat", "time": "12:00pm"}, {"days": "Sun", "time": "Closed"}], "id": "1565000001", "name": "USPS COLLECTION BOX - BLUE BOX", "address": {"city": "LATROBE", "state": "PA", "street": "121 W 2ND AVE", "postcode": "15650"}}},
{"geometry": {"type": "Point", "coordinates": [-79.3820246032, 40.3180365686]}, "type": "Feature", "properties": {"collection_times": [{"days": "Mon-Fri", "time": "3:45pm"}, {"days": "Sat", "time": "12:00pm"}, {"days": "Sun", "time": "Closed"}], "id": "1565000003", "name": "USPS COLLECTION BOX - BLUE BOX", "address": {"city": "LATROBE", "state": "PA", "street": "355 MAIN ST", "postcode": "15650"}}},
{"geometry": {"type": "Point", "coordinates": [-79.381050456, 40.3137052406]}, "type": "Feature", "properties": {"collection_times": [{"days": "Mon-Fri", "time": "3:45pm"}, {"days": "Sat", "time": "12:00pm"}, {"days": "Sun", "time": "Closed"}], "id": "1565000004", "name": "USPS COLLECTION BOX - BLUE BOX", "address": {"city": "LATROBE", "state": "PA", "street": "1003 LIGONIER ST", "postcode": "15650"}}},
{"geometry": {"type": "Point", "coordinates": [-79.3801109891, 40.3125534081]}, "type": "Feature", "properties": {"collection_times": [{"days": "Mon-Fri", "time": "3:45pm"}, {"days": "Sat", "time": "12:00pm"}, {"days": "Sun", "time": "Closed"}], "id": "1565000006", "name": "USPS COLLECTION BOX - BLUE BOX", "address": {"city": "LATROBE", "state": "PA", "street": "1112 LIGONIER ST", "postcode": "15650"}}},
{"geometry": {"type": "Point", "coordinates": [-79.3699459713, 40.2993844809]}, "type": "Feature", "properties": {"collection_times": [{"days": "Mon-Fri", "time": "12:30pm"}, {"days": "Sat", "time": "12:00pm"}, {"days": "Sun", "time": "Closed"}], "id": "1565000008", "name": "USPS COLLECTION BOX - BLUE BOX", "address": {"city": "LATROBE", "state": "PA", "street": "2853 LIGONIER ST", "postcode": "15650"}}},
{"geometry": {"type": "Point", "coordinates": [-79.373828551, 40.30443458]}, "type": "Feature", "properties": {"collection_times": [{"days": "Mon-Fri", "time": "12:30pm"}, {"days": "Sat", "time": "12:00pm"}, {"days": "Sun", "time": "Closed"}], "id": "1565000009", "name": "USPS COLLECTION BOX - BLUE BOX", "address": {"city": "LATROBE", "state": "PA", "street": "1869 LIGONIER ST", "postcode": "15650"}}},
{"geometry": {"type": "Point", "coordinates": [-79.3851972452, 40.3170357882]}, "type": "Feature", "properties": {"collection_times": [{"days": "Mon-Fri", "time": "3:45pm"}, {"days": "Sat", "time": "12:00pm"}, {"days": "Sun", "time": "Closed"}], "id": "1565000010", "name": "USPS COLLECTION BOX - BLUE BOX", "address": {"city": "LATROBE", "state": "PA", "street": "304 DEPOT ST", "postcode": "15650"}}},
{"geometry": {"type": "Point", "coordinates": [-79.3823381255, 40.3145482715]}, "type": "Feature", "properties": {"collection_times": [{"days": "Mon-Fri", "time": "3:45pm"}, {"days": "Sat", "time": "12:00pm"}, {"days": "Sun", "time": "Closed"}], "id": "1565000011", "name": "USPS COLLECTION BOX - BLUE BOX", "address": {"city": "LATROBE", "state": "PA", "street": "900 LIGONIER ST", "postcode": "15650"}}},
{"geometry": {"type": "Point", "coordinates": [-79.3729271145, 40.3091790182]}, "type": "Feature", "properties": {"collection_times": [{"days": "Mon-Fri", "time": "3:45pm"}, {"days": "Sat", "time": "12:00pm"}, {"days": "Sun", "time": "Closed"}], "id": "1565000012", "name": "USPS COLLECTION BOX - BLUE BOX", "address": {"city": "LATROBE", "state": "PA", "street": "1910 DAILEY AVE", "postcode": "15650"}}},
{"geometry": {"type": "Point", "coordinates": [-79.3846519376, 40.3151242185]}, "type": "Feature", "properties": {"collection_times": [{"days": "Mon-Fri", "time": "12:15pm"}, {"days": "Sat", "time": "12:00pm"}, {"days": "Sun", "time": "Closed"}], "id": "1565000015", "name": "USPS COLLECTION BOX - BLUE BOX", "address": {"city": "LATROBE", "state": "PA", "street": "1013 JEFFERSON ST", "postcode": "15650"}}},
{"geometry": {"type": "Point", "coordinates": [-79.4172877318, 40.2887354988]}, "type": "Feature", "properties": {"collection_times": [{"days": "Mon-Fri", "time": "1:00pm"}, {"days": "Sat", "time": "12:00pm"}, {"days": "Sun", "time": "Closed"}], "id": "1565000016", "name": "USPS COLLECTION BOX - BLUE BOX", "address": {"city": "LATROBE", "state": "PA", "street": "103 YELLOWSTONE DR", "postcode": "15650"}}},
{"geometry": {"type": "Point", "coordinates": [-79.3892173845, 40.2944202702]}, "type": "Feature", "properties": {"collection_times": [{"days": "Mon-Fri", "time": "3:30pm"}, {"days": "Sat", "time": "12:00pm"}, {"days": "Sun", "time": "Closed"}], "id": "1565000017", "name": "USPS COLLECTION BOX - BLUE BOX", "address": {"city": "LATROBE", "state": "PA", "street": "1020 LATROBE THIRTY PLZ", "postcode": "15650"}}},
{"geometry": {"type": "Point", "coordinates": [-79.3743460748, 40.3050329591]}, "type": "Feature", "properties": {"collection_times": [{"days": "Mon-Fri", "time": "12:15pm"}, {"days": "Sat", "time": "12:00pm"}, {"days": "Sun", "time": "Closed"}], "id": "1565000019", "name": "USPS COLLECTION BOX - BLUE BOX", "address": {"city": "LATROBE", "state": "PA", "street": "1812 LIGONIER ST", "postcode": "15650"}}},
{"geometry": {"type": "Point", "coordinates": [-79.393137555, 40.2776701766]}, "type": "Feature", "properties": {"collection_times": [{"days": "Mon-Fri", "time": "3:30pm"}, {"days": "Sat", "time": "12:00pm"}, {"days": "Sun", "time": "Closed"}], "id": "1565000020", "name": "USPS COLLECTION BOX - BLUE BOX", "address": {"city": "LATROBE", "state": "PA", "street": "1050 MOUNTAIN LAUREL PLZ", "postcode": "15650"}}},
{"geometry": {"type": "Point", "coordinates": [-79.4051412855, 40.2711675283]}, "type": "Feature", "properties": {"collection_times": [{"days": "Mon-Fri", "time": "1:15pm"}, {"days": "Sat", "time": "12:00pm"}, {"days": "Sun", "time": "Closed"}], "id": "1565000021", "name": "USPS COLLECTION BOX - BLUE BOX", "address": {"city": "LATROBE", "state": "PA", "street": "148 AVIATION LN", "postcode": "15650"}}},
{"geometry": {"type": "Point", "coordinates": [-79.38689193, 40.3157514991]}, "type": "Feature", "properties": {"collection_times": [{"days": "Mon-Fri", "time": "5:00pm"}, {"days": "Sat", "time": "4:00pm"}, {"days": "Sun", "time": "Closed"}], "id": "1565000025", "name": "USPS COLLECTION BOX - BLUE BOX", "address": {"city": "LATROBE", "state": "PA", "street": "100 DEPOT ST", "postcode": "15650"}}},
{"geometry": {"type": "Point", "coordinates": [-79.3857823728, 40.3155499284]}, "type": "Feature", "properties": {"collection_times": [{"days": "Mon-Fri", "time": "5:00pm"}, {"days": "Sat", "time": "4:00pm"}, {"days": "Sun", "time": "Closed"}], "id": "1565000027", "name": "USPS COLLECTION BOX - BLUE BOX", "address": {"city": "LATROBE", "state": "PA", "street": "98 MAIN ST", "postcode": "15650"}}},
{"geometry": {"type": "Point", "coordinates": [-79.4183672214, 40.2850355335]}, "type": "Feature", "properties": {"collection_times": [{"days": "Mon-Fri", "time": "1:00pm"}, {"days": "Sat", "time": "12:00pm"}, {"days": "Sun", "time": "Closed"}], "id": "1565000028", "name": "USPS COLLECTION BOX - BLUE BOX", "address": {"city": "LATROBE", "state": "PA", "street": "700 S SHENANDOAH DR", "postcode": "15650"}}},
{"geometry": {"type": "Point", "coordinates": [-79.3839894369, 40.3146090799]}, "type": "Feature", "properties": {"collection_times": [{"days": "Mon-Fri", "time": "12:15pm"}, {"days": "Sat", "time": "12:00pm"}, {"days": "Sun", "time": "Closed"}], "id": "1565000031", "name": "USPS COLLECTION BOX - BLUE BOX", "address": {"city": "LATROBE", "state": "PA", "street": "1111 JEFFERSON ST", "postcode": "15650"}}},
{"geometry": {"type": "Point", "coordinates": [-79.386021509, 40.3161946461]}, "type": "Feature", "properties": {"collection_times": [{"days": "Mon-Fri", "time": "5:00pm"}, {"days": "Sat", "time": "4:00pm"}, {"days": "Sun", "time": "Closed"}], "id": "1565000036", "name": "USPS COLLECTION BOX - PO LOBBY", "address": {"city": "LATROBE", "state": "PA", "street": "811 JEFFERSON ST LBBY", "postcode": "15650"}}},
{"geometry": {"type": "Point", "coordinates": [-79.3940164773, 40.2934639927]}, "type": "Feature", "properties": {"collection_times": [{"days": "Mon-Fri", "time": "3:30pm"}, {"days": "Sat", "time": "12:00pm"}, {"days": "Sun", "time": "Closed"}], "id": "1565000039", "name": "USPS COLLECTION BOX - BLUE BOX", "address": {"city": "LATROBE", "state": "PA", "street": "1155 CLEARVIEW DR", "postcode": "15650"}}},
{"geometry": {"type": "Point", "coordinates": [-79.3855112145, 40.3170313527]}, "type": "Feature", "properties": {"collection_times": [{"days": "Mon-Fri", "time": "12:45pm"}, {"days": "Sat", "time": "12:00pm"}, {"days": "Sun", "time": "Closed"}], "id": "1565000041", "name": "USPS COLLECTION BOX - BLUE BOX", "address": {"city": "LATROBE", "state": "PA", "street": "600 LIGONIER ST", "postcode": "15650"}}},
{"geometry": {"type": "Point", "coordinates": [-79.384487084, 40.2841672064]}, "type": "Feature", "properties": {"collection_times": [{"days": "Mon-Fri", "time": "1:30pm"}, {"days": "Sat", "time": "12:00pm"}, {"days": "Sun", "time": "Closed"}], "id": "1565000043", "name": "USPS COLLECTION BOX - BLUE BOX", "address": {"city": "LATROBE", "state": "PA", "street": "100 COLONY LN", "postcode": "15650"}}},
{"geometry": {"type": "Point", "coordinates": [-79.1647861462, 40.1823482893]}, "type": "Feature", "properties": {"collection_times": [{"days": "Mon-Fri", "time": "4:30pm"}, {"days": "Sat", "time": "11:45am"}, {"days": "Sun", "time": "Closed"}], "id": "1565500001", "name": "USPS COLLECTION BOX - BLUE BOX", "address": {"city": "LAUGHLINTOWN", "state": "PA", "street": "1392 ROUTE 30", "postcode": "15655"}}},
{"geometry": {"type": "Point", "coordinates": [-79.1647861462, 40.1823482893]}, "type": "Feature", "properties": {"collection_times": [{"days": "Mon-Fri", "time": "4:30pm"}, {"days": "Sat", "time": "11:45am"}, {"days": "Sun", "time": "Closed"}], "id": "1565500002", "name": "USPS COLLECTION BOX - PO LOBBY", "address": {"city": "LAUGHLINTOWN", "state": "PA", "street": "1392 ROUTE 30", "postcode": "15655"}}},
{"geometry": {"type": "Point", "coordinates": [-79.6217273194, 40.6309626705]}, "type": "Feature", "properties": {"collection_times": [{"days": "Mon-Fri", "time": "4:15pm"}, {"days": "Sat", "time": "3:00pm"}, {"days": "Sun", "time": "Closed"}], "id": "1565600001", "name": "USPS COLLECTION BOX - BLUE BOX", "address": {"city": "LEECHBURG", "state": "PA", "street": "23 MAIN ST", "postcode": "15656"}}},
{"geometry": {"type": "Point", "coordinates": [-79.6060985399, 40.6268683279]}, "type": "Feature", "properties": {"collection_times": [{"days": "Mon-Sat", "time": "2:30pm"}, {"days": "Sun", "time": "Closed"}], "id": "1565600002", "name": "USPS COLLECTION BOX - BLUE BOX", "address": {"city": "LEECHBURG", "state": "PA", "street": "165 MARKET ST", "postcode": "15656"}}},
{"geometry": {"type": "Point", "coordinates": [-79.764158238, 40.5044405475]}, "type": "Feature", "properties": {"collection_times": [{"days": "Mon-Sat", "time": "12:00pm"}, {"days": "Sun", "time": "Closed"}], "id": "1565600005", "name": "USPS COLLECTION BOX - BLUE BOX", "address": {"city": "LEECHBURG", "state": "PA", "street": "306 BEALE AVE", "postcode": "15656"}}},
{"geometry": {"type": "Point", "coordinates": [-79.6048507714, 40.604656548]}, "type": "Feature", "properties": {"collection_times": [{"days": "Mon-Sat", "time": "10:00am"}, {"days": "Sun", "time": "Closed"}], "id": "1565600009", "name": "USPS COLLECTION BOX - BLUE BOX", "address": {"city": "LEECHBURG", "state": "PA", "street": "451 HYDE PARK RD", "postcode": "15656"}}},
{"geometry": {"type": "Point", "coordinates": [-79.764158238, 40.5044405475]}, "type": "Feature", "properties": {"collection_times": [{"days": "Mon-Sat", "time": "10:00am"}, {"days": "Sun", "time": "Closed"}], "id": "1565600010", "name": "USPS COLLECTION BOX - BLUE BOX", "address": {"city": "LEECHBURG", "state": "PA", "street": "500 HYDE PARK RD", "postcode": "15656"}}},
{"geometry": {"type": "Point", "coordinates": [-79.6267384146, 40.6160514883]}, "type": "Feature", "properties": {"collection_times": [{"days": "Mon-Fri", "time": "12:30pm"}, {"days": "Sat", "time": "12:00pm"}, {"days": "Sun", "time": "Closed"}], "id": "1565600011", "name": "USPS COLLECTION BOX - BLUE BOX", "address": {"city": "LEECHBURG", "state": "PA", "street": "1001 S LEECHBURG HILL RD", "postcode": "15656"}}},
{"geometry": {"type": "Point", "coordinates": [-79.6055330134, 40.6265741677]}, "type": "Feature", "properties": {"collection_times": [{"days": "Mon-Fri", "time": "9:00am"}, {"days": "Sat", "time": "8:30am"}, {"days": "Sun", "time": "Closed"}], "id": "1565600012", "name": "USPS COLLECTION BOX - BLUE BOX", "address": {"city": "LEECHBURG", "state": "PA", "street": "120 2ND ST", "postcode": "15656"}}},
{"geometry": {"type": "Point", "coordinates": [-79.6213227319, 40.6473769071]}, "type": "Feature", "properties": {"collection_times": [{"days": "Mon-Sat", "time": "10:00am"}, {"days": "Sun", "time": "Closed"}], "id": "1565600014", "name": "USPS COLLECTION BOX - BLUE BOX", "address": {"city": "LEECHBURG", "state": "PA", "street": "253 SANDALWOOD DR", "postcode": "15656"}}},
{"geometry": {"type": "Point", "coordinates": [-79.6026774534, 40.6267718437]}, "type": "Feature", "properties": {"collection_times": [{"days": "Mon-Fri", "time": "9:00am"}, {"days": "Sat", "time": "8:30am"}, {"days": "Sun", "time": "Closed"}], "id": "1565600015", "name": "USPS COLLECTION BOX - BLUE BOX", "address": {"city": "LEECHBURG", "state": "PA", "street": "330 MAIN ST", "postcode": "15656"}}},
{"geometry": {"type": "Point", "coordinates": [-79.6213227319, 40.6473769071]}, "type": "Feature", "properties": {"collection_times": [{"days": "Mon-Sat", "time": "10:00am"}, {"days": "Sun", "time": "Closed"}], "id": "1565600016", "name": "USPS COLLECTION BOX - BLUE BOX", "address": {"city": "LEECHBURG", "state": "PA", "street": "4950 MELWOOD RD", "postcode": "15656"}}},
{"geometry": {"type": "Point", "coordinates": [-79.6217273194, 40.6309626705]}, "type": "Feature", "properties": {"collection_times": [{"days": "Mon-Fri", "time": "4:15pm"}, {"days": "Sat", "time": "3:00pm"}, {"days": "Sun", "time": "Closed"}], "id": "1565600017", "name": "USPS COLLECTION BOX - BLUE BOX", "address": {"city": "LEECHBURG", "state": "PA", "street": "23 MAIN ST", "postcode": "15656"}}},
{"geometry": {"type": "Point", "coordinates": [-79.6083103803, 40.6283972547]}, "type": "Feature", "properties": {"collection_times": [{"days": "Mon-Fri", "time": "4:15pm"}, {"days": "Sat", "time": "3:00pm"}, {"days": "Sun", "time": "Closed"}], "id": "1565600018", "name": "USPS COLLECTION BOX - PO LOBBY", "address": {"city": "LEECHBURG", "state": "PA", "street": "23 MAIN ST LBBY", "postcode": "15656"}}},
{"geometry": {"type": "Point", "coordinates": [-79.6110571172, 40.6083909851]}, "type": "Feature", "properties": {"collection_times": [{"days": "Mon-Sat", "time": "10:00am"}, {"days": "Sun", "time": "Closed"}], "id": "1565600020", "name": "USPS COLLECTION BOX - BLUE BOX", "address": {"city": "LEECHBURG", "state": "PA", "street": "41 TOWNE CENTER DR", "postcode": "15656"}}},
{"geometry": {"type": "Point", "coordinates": [-79.238226905, 40.243341156]}, "type": "Feature", "properties": {"collection_times": [{"days": "Mon-Fri", "time": "4:30pm"}, {"days": "Sat", "time": "3:00pm"}, {"days": "Sun", "time": "Closed"}], "id": "1565800001", "name": "USPS COLLECTION BOX - BLUE BOX", "address": {"city": "LIGONIER", "state": "PA", "street": "130 W MAIN ST FRNT", "postcode": "15658"}}},
{"geometry": {"type": "Point", "coordinates": [-79.238226905, 40.243341156]}, "type": "Feature", "properties": {"collection_times": [{"days": "Mon-Fri", "time": "4:30pm"}, {"days": "Sat", "time": "3:00pm"}, {"days": "Sun", "time": "Closed"}], "id": "1565800002", "name": "USPS COLLECTION BOX - BLUE BOX", "address": {"city": "LIGONIER", "state": "PA", "street": "130 W MAIN ST REAR", "postcode": "15658"}}},
{"geometry": {"type": "Point", "coordinates": [-79.238226905, 40.243341156]}, "type": "Feature", "properties": {"collection_times": [{"days": "Mon-Fri", "time": "4:30pm"}, {"days": "Sat", "time": "3:00pm"}, {"days": "Sun", "time": "Closed"}], "id": "1565800003", "name": "USPS COLLECTION BOX - BLUE BOX", "address": {"city": "LIGONIER", "state": "PA", "street": "130 W MAIN ST FRNT", "postcode": "15658"}}},
{"geometry": {"type": "Point", "coordinates": [-79.238226905, 40.243341156]}, "type": "Feature", "properties": {"collection_times": [{"days": "Mon-Fri", "time": "4:30pm"}, {"days": "Sat", "time": "3:00pm"}, {"days": "Sun", "time": "Closed"}], "id": "1565800004", "name": "USPS COLLECTION BOX - BLUE BOX", "address": {"city": "LIGONIER", "state": "PA", "street": "130 W MAIN ST REAR", "postcode": "15658"}}},
{"geometry": {"type": "Point", "coordinates": [-79.242560725, 40.246123524]}, "type": "Feature", "properties": {"collection_times": [{"days": "Mon-Sat", "time": "11:00am"}, {"days": "Sun", "time": "Closed"}], "id": "1565800007", "name": "USPS COLLECTION BOX - BLUE BOX", "address": {"city": "LIGONIER", "state": "PA", "street": "358 W MAIN ST", "postcode": "15658"}}},
{"geometry": {"type": "Point", "coordinates": [-79.238483948, 40.2434102023]}, "type": "Feature", "properties": {"collection_times": [{"days": "Mon-Fri", "time": "4:30pm"}, {"days": "Sat", "time": "3:00pm"}, {"days": "Sun", "time": "Closed"}], "id": "1565800008", "name": "USPS COLLECTION BOX - PO LOBBY", "address": {"city": "LIGONIER", "state": "PA", "street": "130 W MAIN ST LBBY", "postcode": "15658"}}},
{"geometry": {"type": "Point", "coordinates": [-79.244350231, 40.245952845]}, "type": "Feature", "properties": {"collection_times": [{"days": "Mon-Sat", "time": "10:30am"}, {"days": "Sun", "time": "Closed"}], "id": "1565800009", "name": "USPS COLLECTION BOX - BLUE BOX", "address": {"city": "LIGONIER", "state": "PA", "street": "117 S WALNUT ST", "postcode": "15658"}}},
{"geometry": {"type": "Point", "coordinates": [-79.3623053351, 40.3221683266]}, "type": "Feature", "properties": {"collection_times": [{"days": "Mon-Fri", "time": "4:15pm"}, {"days": "Sat", "time": "11:15am"}, {"days": "Sun", "time": "Closed"}], "id": "1566100001", "name": "USPS COLLECTION BOX - BLUE BOX", "address": {"city": "LOYALHANNA", "state": "PA", "street": "1302 LATROBE DERRY RD", "postcode": "15661"}}},
{"geometry": {"type": "Point", "coordinates": [-79.3623053351, 40.3221683266]}, "type": "Feature", "properties": {"collection_times": [{"days": "Mon-Fri", "time": "4:15pm"}, {"days": "Sat", "time": "11:15am"}, {"days": "Sun", "time": "Closed"}], "id": "1566100002", "name": "USPS COLLECTION BOX - PO LOBBY", "address": {"city": "LOYALHANNA", "state": "PA", "street": "1302 LATROBE DERRY RD", "postcode": "15661"}}},
{"geometry": {"type": "Point", "coordinates": [-79.47654, 40.33342]}, "type": "Feature", "properties": {"collection_times": [{"days": "Mon-Fri", "time": "3:45pm"}, {"days": "Sat", "time": "11:30am"}, {"days": "Sun", "time": "Closed"}], "id": "1566200001", "name": "USPS COLLECTION BOX - BLUE BOX", "address": {"city": "LUXOR", "state": "PA", "street": "BOVARD LUXOR RD", "postcode": "15662"}}},
{"geometry": {"type": "Point", "coordinates": [-79.47654, 40.33342]}, "type": "Feature", "properties": {"collection_times": [{"days": "Mon-Fri", "time": "3:45pm"}, {"days": "Sat", "time": "11:45am"}, {"days": "Sun", "time": "Closed"}], "id": "1566200002", "name": "USPS COLLECTION BOX - PO LOBBY", "address": {"city": "LUXOR", "state": "PA", "street": "BOVARD LUXOR RD", "postcode": "15662"}}},
{"geometry": {"type": "Point", "coordinates": [-79.6722853718, 40.2393084207]}, "type": "Feature", "properties": {"collection_times": [{"days": "Mon-Fri", "time": "4:30pm"}, {"days": "Sat", "time": "12:00pm"}, {"days": "Sun", "time": "Closed"}], "id": "1566300001", "name": "USPS COLLECTION BOX - BLUE BOX", "address": {"city": "MADISON", "state": "PA", "street": "232 MAIN ST", "postcode": "15663"}}},
{"geometry": {"type": "Point", "coordinates": [-79.6722853718, 40.2393084207]}, "type": "Feature", "properties": {"collection_times": [{"days": "Mon-Fri", "time": "4:30pm"}, {"days": "Sat", "time": "12:00pm"}, {"days": "Sun", "time": "Closed"}], "id": "1566300002", "name": "USPS COLLECTION BOX - PO LOBBY", "address": {"city": "MADISON", "state": "PA", "street": "232 MAIN ST LBBY", "postcode": "15663"}}},
{"geometry": {"type": "Point", "coordinates": [-79.4635778764, 40.2008414469]}, "type": "Feature", "properties": {"collection_times": [{"days": "Mon-Fri", "time": "11:55am"}, {"days": "Sat", "time": "11:45am"}, {"days": "Sun", "time": "Closed"}], "id": "1566400001", "name": "USPS COLLECTION BOX - BLUE BOX", "address": {"city": "MAMMOTH", "state": "PA", "street": "2688 ROUTE 982", "postcode": "15664"}}},
{"geometry": {"type": "Point", "coordinates": [-79.4635778764, 40.2008414469]}, "type": "Feature", "properties": {"collection_times": [{"days": "Mon-Fri", "time": "11:55am"}, {"days": "Sat", "time": "11:45am"}, {"days": "Sun", "time": "Closed"}], "id": "1566400002", "name": "USPS COLLECTION BOX - PO LOBBY", "address": {"city": "MAMMOTH", "state": "PA", "street": "2688 ROUTE 982", "postcode": "15664"}}},
{"geometry": {"type": "Point", "coordinates": [-79.6694701886, 40.3340098558]}, "type": "Feature", "properties": {"collection_times": [{"days": "Mon-Fri", "time": "4:00pm"}, {"days": "Sat", "time": "12:00pm"}, {"days": "Sun", "time": "Closed"}], "id": "1566500001", "name": "USPS COLLECTION BOX - BLUE BOX", "address": {"city": "MANOR", "state": "PA", "street": "9 ATLANTIC AVE", "postcode": "15665"}}},
{"geometry": {"type": "Point", "coordinates": [-79.6694701886, 40.3340098558]}, "type": "Feature", "properties": {"collection_times": [{"days": "Mon-Fri", "time": "4:00pm"}, {"days": "Sat", "time": "12:00pm"}, {"days": "Sun", "time": "Closed"}], "id": "1566500002", "name": "USPS COLLECTION BOX - PO LOBBY", "address": {"city": "MANOR", "state": "PA", "street": "9 ATLANTIC AVE LBBY", "postcode": "15665"}}},
{"geometry": {"type": "Point", "coordinates": [-77.0058495186, 39.7799012159]}, "type": "Feature", "properties": {"collection_times": [{"days": "Mon-Fri", "time": "4:30pm"}, {"days": "Sat", "time": "3:30pm"}, {"days": "Sun", "time": "Closed"}], "id": "1566600001", "name": "USPS COLLECTION BOX - BLUE BOX", "address": {"city": "MT PLEASANT", "state": "PA", "street": "24 RUMBAUGH AVE", "postcode": "15666"}}},
{"geometry": {"type": "Point", "coordinates": [-79.5430588126, 40.149244436]}, "type": "Feature", "properties": {"collection_times": [{"days": "Mon-Sat", "time": "10:00am"}, {"days": "Sun", "time": "Closed"}], "id": "1566600005", "name": "USPS COLLECTION BOX - BLUE BOX", "address": {"city": "MT PLEASANT", "state": "PA", "street": "445 W MAIN ST", "postcode": "15666"}}},
{"geometry": {"type": "Point", "coordinates": [-79.5376160137, 40.1479203675]}, "type": "Feature", "properties": {"collection_times": [{"days": "Mon-Sat", "time": "9:30am"}, {"days": "Sun", "time": "Closed"}], "id": "1566600006", "name": "USPS COLLECTION BOX - BLUE BOX", "address": {"city": "MT PLEASANT", "state": "PA", "street": "114 W MAIN ST", "postcode": "15666"}}},
{"geometry": {"type": "Point", "coordinates": [-79.5475854557, 40.1485342646]}, "type": "Feature", "properties": {"collection_times": [{"days": "Mon-Sat", "time": "11:00am"}, {"days": "Sun", "time": "Closed"}], "id": "1566600008", "name": "USPS COLLECTION BOX - BLUE BOX", "address": {"city": "MT PLEASANT", "state": "PA", "street": "740 W WALNUT ST", "postcode": "15666"}}},
{"geometry": {"type": "Point", "coordinates": [-79.5462266736, 40.1509673568]}, "type": "Feature", "properties": {"collection_times": [{"days": "Mon-Sat", "time": "1:00pm"}, {"days": "Sun", "time": "Closed"}], "id": "1566600010", "name": "USPS COLLECTION BOX - BLUE BOX", "address": {"city": "MT PLEASANT", "state": "PA", "street": "656 W MAIN ST", "postcode": "15666"}}},
{"geometry": {"type": "Point", "coordinates": [-79.5454179156, 40.1504258558]}, "type": "Feature", "properties": {"collection_times": [{"days": "Mon-Sat", "time": "1:00pm"}, {"days": "Sun", "time": "Closed"}], "id": "1566600012", "name": "USPS COLLECTION BOX - BLUE BOX", "address": {"city": "MT PLEASANT", "state": "PA", "street": "601 W MAIN ST", "postcode": "15666"}}},
{"geometry": {"type": "Point", "coordinates": [-79.5304768012, 40.1473055516]}, "type": "Feature", "properties": {"collection_times": [{"days": "Mon-Sat", "time": "9:00am"}, {"days": "Sun", "time": "Closed"}], "id": "1566600018", "name": "USPS COLLECTION BOX - BLUE BOX", "address": {"city": "MT PLEASANT", "state": "PA", "street": "260 E MAIN ST", "postcode": "15666"}}},
{"geometry": {"type": "Point", "coordinates": [-79.5498614886, 40.1516024029]}, "type": "Feature", "properties": {"collection_times": [{"days": "Mon-Sat", "time": "9:00am"}, {"days": "Sun", "time": "Closed"}], "id": "1566600024", "name": "USPS COLLECTION BOX - BLUE BOX", "address": {"city": "MT PLEASANT", "state": "PA", "street": "905 WASHINGTON ST", "postcode": "15666"}}},
{"geometry": {"type": "Point", "coordinates": [-79.5476474233, 40.1449354995]}, "type": "Feature", "properties": {"collection_times": [{"days": "Mon-Sat", "time": "9:00am"}, {"days": "Sun", "time": "Closed"}], "id": "1566600027", "name": "USPS COLLECTION BOX - BLUE BOX", "address": {"city": "MT PLEASANT", "state": "PA", "street": "508 S CHURCH ST", "postcode": "15666"}}},
{"geometry": {"type": "Point", "coordinates": [-77.0058495186, 39.7799012159]}, "type": "Feature", "properties": {"collection_times": [{"days": "Mon-Fri", "time": "4:30pm"}, {"days": "Sat", "time": "3:30pm"}, {"days": "Sun", "time": "Closed"}], "id": "1566600031", "name": "USPS COLLECTION BOX - BLUE BOX", "address": {"city": "MT PLEASANT", "state": "PA", "street": "24 RUMBAUGH AVE", "postcode": "15666"}}},
{"geometry": {"type": "Point", "coordinates": [-79.5400938925, 40.1512655188]}, "type": "Feature", "properties": {"collection_times": [{"days": "Mon-Fri", "time": "4:30pm"}, {"days": "Sat", "time": "3:30pm"}, {"days": "Sun", "time": "Closed"}], "id": "1566600037", "name": "USPS COLLECTION BOX - PO LOBBY", "address": {"city": "MT PLEASANT", "state": "PA", "street": "24 RUMBAUGH AVE LBBY", "postcode": "15666"}}},
{"geometry": {"type": "Point", "coordinates": [-79.550559644, 40.1269926195]}, "type": "Feature", "properties": {"collection_times": [{"days": "Mon-Sat", "time": "10:00am"}, {"days": "Sun", "time": "Closed"}], "id": "1566600040", "name": "USPS COLLECTION BOX - BLUE BOX", "address": {"city": "MT PLEASANT", "state": "PA", "street": "396 COUNTRY SIDE PLZ", "postcode": "15666"}}},
{"geometry": {"type": "Point", "coordinates": [-79.5479426719, 40.1273294629]}, "type": "Feature", "properties": {"collection_times": [{"days": "Mon-Sat", "time": "10:00am"}, {"days": "Sun", "time": "Closed"}], "id": "1566600042", "name": "USPS COLLECTION BOX - BLUE BOX", "address": {"city": "MT PLEASANT", "state": "PA", "street": "2100 SUMMIT RIDGE PLZ", "postcode": "15666"}}},
{"geometry": {"type": "Point", "coordinates": [-79.6686334521, 40.4596130637]}, "type": "Feature", "properties": {"collection_times": [{"days": "Mon-Sat", "time": "2:00pm"}, {"days": "Sun", "time": "Closed"}], "id": "1566800002", "name": "USPS COLLECTION BOX - BLUE BOX", "address": {"city": "MURRYSVILLE", "state": "PA", "street": "3898 OLD WM PENN HWY", "postcode": "15668"}}},
{"geometry": {"type": "Point", "coordinates": [-79.6686334521, 40.4596130637]}, "type": "Feature", "properties": {"collection_times": [{"days": "Mon-Sat", "time": "2:00pm"}, {"days": "Sun", "time": "Closed"}], "id": "1566800003", "name": "USPS COLLECTION BOX - BLUE BOX", "address": {"city": "MURRYSVILLE", "state": "PA", "street": "4536 WM PENN HWY", "postcode": "15668"}}},
{"geometry": {"type": "Point", "coordinates": [-79.6686334521, 40.4596130637]}, "type": "Feature", "properties": {"collection_times": [{"days": "Mon-Sat", "time": "2:00pm"}, {"days": "Sun", "time": "Closed"}], "id": "1566800006", "name": "USPS COLLECTION BOX - BLUE BOX", "address": {"city": "MURRYSVILLE", "state": "PA", "street": "3907 OLD WM PENN HWY", "postcode": "15668"}}},
{"geometry": {"type": "Point", "coordinates": [-79.6735922269, 40.4491652147]}, "type": "Feature", "properties": {"collection_times": [{"days": "Mon-Fri", "time": "2:45pm"}, {"days": "Sat", "time": "12:00pm"}, {"days": "Sun", "time": "Closed"}], "id": "1566800010", "name": "USPS COLLECTION BOX - BLUE BOX", "address": {"city": "MURRYSVILLE", "state": "PA", "street": "4100 SARDIS RD", "postcode": "15668"}}},
{"geometry": {"type": "Point", "coordinates": [-79.6969471198, 40.4272609795]}, "type": "Feature", "properties": {"collection_times": [{"days": "Mon-Fri", "time": "4:45pm"}, {"days": "Sat", "time": "4:00pm"}, {"days": "Sun", "time": "Closed"}], "id": "1566800013", "name": "USPS COLLECTION BOX - BLUE BOX", "address": {"city": "MURRYSVILLE", "state": "PA", "street": "1 PRIORITY LN", "postcode": "15668"}}},
{"geometry": {"type": "Point", "coordinates": [-79.6969471198, 40.4272609795]}, "type": "Feature", "properties": {"collection_times": [{"days": "Mon-Fri", "time": "4:45pm"}, {"days": "Sat", "time": "4:00pm"}, {"days": "Sun", "time": "Closed"}], "id": "1566800014", "name": "USPS COLLECTION BOX - BLUE BOX", "address": {"city": "MURRYSVILLE", "state": "PA", "street": "1 PRIORITY LN", "postcode": "15668"}}},
{"geometry": {"type": "Point", "coordinates": [-79.6969471198, 40.4272609795]}, "type": "Feature", "properties": {"collection_times": [{"days": "Mon-Fri", "time": "4:45pm"}, {"days": "Sat", "time": "4:00pm"}, {"days": "Sun", "time": "Closed"}], "id": "1566800015", "name": "USPS COLLECTION BOX - BLUE BOX", "address": {"city": "MURRYSVILLE", "state": "PA", "street": "1 PRIORITY LN", "postcode": "15668"}}},
{"geometry": {"type": "Point", "coordinates": [-79.665624743, 40.4225667199]}, "type": "Feature", "properties": {"collection_times": [{"days": "Mon-Fri", "time": "4:45pm"}, {"days": "Sat", "time": "4:00pm"}, {"days": "Sun", "time": "Closed"}], "id": "1566800017", "name": "USPS COLLECTION BOX - PO LOBBY", "address": {"city": "MURRYSVILLE", "state": "PA", "street": "1 PRIORITY LN LBBY", "postcode": "15668"}}},
{"geometry": {"type": "Point", "coordinates": [-79.6969471198, 40.4272609795]}, "type": "Feature", "properties": {"collection_times": [{"days": "Mon-Fri", "time": "4:45pm"}, {"days": "Sat", "time": "4:00pm"}, {"days": "Sun", "time": "Closed"}], "id": "1566800018", "name": "USPS COLLECTION BOX - APC", "address": {"city": "MURRYSVILLE", "state": "PA", "street": "1 PRIORITY LN", "postcode": "15668"}}},
{"geometry": {"type": "Point", "coordinates": [-79.4377988909, 40.4068516319]}, "type": "Feature", "properties": {"collection_times": [{"days": "Mon-Fri", "time": "4:45pm"}, {"days": "Sat", "time": "12:00pm"}, {"days": "Sun", "time": "Closed"}], "id": "1567000001", "name": "USPS COLLECTION BOX - BLUE BOX", "address": {"city": "NEW ALEXANDRIA", "state": "PA", "street": "198 MAIN ST", "postcode": "15670"}}},
{"geometry": {"type": "Point", "coordinates": [-79.4183898848, 40.3983842125]}, "type": "Feature", "properties": {"collection_times": [{"days": "Mon-Fri", "time": "4:45pm"}, {"days": "Sat", "time": "12:00pm"}, {"days": "Sun", "time": "Closed"}], "id": "1567000003", "name": "USPS COLLECTION BOX - PO LOBBY", "address": {"city": "NEW ALEXANDRIA", "state": "PA", "street": "198 MAIN ST LBBY", "postcode": "15670"}}},
{"geometry": {"type": "Point", "coordinates": [-79.3151048813, 40.353070758]}, "type": "Feature", "properties": {"collection_times": [{"days": "Mon-Fri", "time": "11:55am"}, {"days": "Sat", "time": "11:45am"}, {"days": "Sun", "time": "Closed"}], "id": "1567100001", "name": "USPS COLLECTION BOX - BLUE BOX", "address": {"city": "NEW DERRY", "state": "PA", "street": "5754 ROUTE 982", "postcode": "15671"}}},
{"geometry": {"type": "Point", "coordinates": [-79.3151048813, 40.353070758]}, "type": "Feature", "properties": {"collection_times": [{"days": "Mon-Fri", "time": "11:55am"}, {"days": "Sat", "time": "11:45am"}, {"days": "Sun", "time": "Closed"}], "id": "1567100002", "name": "USPS COLLECTION BOX - PO LOBBY", "address": {"city": "NEW DERRY", "state": "PA", "street": "5754 ROUTE 982", "postcode": "15671"}}},
{"geometry": {"type": "Point", "coordinates": [-79.6087775295, 40.21790853]}, "type": "Feature", "properties": {"collection_times": [{"days": "Mon-Sat", "time": "11:45am"}, {"days": "Sun", "time": "Closed"}], "id": "1567200001", "name": "USPS COLLECTION BOX - BLUE BOX", "address": {"city": "NEW STANTON", "state": "PA", "street": "205 N CENTER AVE", "postcode": "15672"}}},
{"geometry": {"type": "Point", "coordinates": [-79.6100212027, 40.215960062]}, "type": "Feature", "properties": {"collection_times": [{"days": "Mon-Fri", "time": "4:45pm"}, {"days": "Sat", "time": "12:00pm"}, {"days": "Sun", "time": "Closed"}], "id": "1567200002", "name": "USPS COLLECTION BOX - BLUE BOX", "address": {"city": "NEW STANTON", "state": "PA", "street": "135 W PENNSYLVANIA AVE", "postcode": "15672"}}},
{"geometry": {"type": "Point", "coordinates": [-79.6100212027, 40.215960062]}, "type": "Feature", "properties": {"collection_times": [{"days": "Mon-Fri", "time": "5:00pm"}, {"days": "Sat", "time": "12:00pm"}, {"days": "Sun", "time": "Closed"}], "id": "1567200004", "name": "USPS COLLECTION BOX - PO LOBBY", "address": {"city": "NEW STANTON", "state": "PA", "street": "135 W PENNSYLVANIA AVE LBBY", "postcode": "15672"}}},
{"geometry": {"type": "Point", "coordinates": [-79.5577013999, 40.5923840024]}, "type": "Feature", "properties": {"collection_times": [{"days": "Mon-Fri", "time": "4:45pm"}, {"days": "Sat", "time": "12:30pm"}, {"days": "Sun", "time": "Closed"}], "id": "1567300001", "name": "USPS COLLECTION BOX - BLUE BOX", "address": {"city": "NORTH APOLLO", "state": "PA", "street": "312 16TH ST", "postcode": "15673"}}},
{"geometry": {"type": "Point", "coordinates": [-79.5577013999, 40.5923840024]}, "type": "Feature", "properties": {"collection_times": [{"days": "Mon-Fri", "time": "4:45pm"}, {"days": "Sat", "time": "12:30pm"}, {"days": "Sun", "time": "Closed"}], "id": "1567300002", "name": "USPS COLLECTION BOX - PO LOBBY", "address": {"city": "NORTH APOLLO", "state": "PA", "street": "312 16TH ST", "postcode": "15673"}}},
{"geometry": {"type": "Point", "coordinates": [-79.4974374549, 40.2076317465]}, "type": "Feature", "properties": {"collection_times": [{"days": "Mon-Fri", "time": "4:30pm"}, {"days": "Sat", "time": "11:30am"}, {"days": "Sun", "time": "Closed"}], "id": "1567400001", "name": "USPS COLLECTION BOX - BLUE BOX", "address": {"city": "NORVELT", "state": "PA", "street": "2333 MOUNT PLEASANT RD", "postcode": "15674"}}},
{"geometry": {"type": "Point", "coordinates": [-79.4974374549, 40.2076317465]}, "type": "Feature", "properties": {"collection_times": [{"days": "Mon-Fri", "time": "4:30pm"}, {"days": "Sat", "time": "11:30am"}, {"days": "Sun", "time": "Closed"}], "id": "1567400002", "name": "USPS COLLECTION BOX - PO LOBBY", "address": {"city": "NORVELT", "state": "PA", "street": "2333 MOUNT PLEASANT RD", "postcode": "15674"}}},
{"geometry": {"type": "Point", "coordinates": [-79.6378082417, 40.3286662685]}, "type": "Feature", "properties": {"collection_times": [{"days": "Mon-Fri", "time": "4:00pm"}, {"days": "Sat", "time": "11:30am"}, {"days": "Sun", "time": "Closed"}], "id": "1567500001", "name": "USPS COLLECTION BOX - BLUE BOX", "address": {"city": "PENN", "state": "PA", "street": "500 COAL ST", "postcode": "15675"}}},
{"geometry": {"type": "Point", "coordinates": [-79.6378082417, 40.3286662685]}, "type": "Feature", "properties": {"collection_times": [{"days": "Mon-Fri", "time": "4:00pm"}, {"days": "Sat", "time": "11:30am"}, {"days": "Sun", "time": "Closed"}], "id": "1567500002", "name": "USPS COLLECTION BOX - PO LOBBY", "address": {"city": "PENN", "state": "PA", "street": "500 COAL ST LBBY", "postcode": "15675"}}},
{"geometry": {"type": "Point", "coordinates": [-79.4614775655, 40.2455901183]}, "type": "Feature", "properties": {"collection_times": [{"days": "Mon-Fri", "time": "4:15pm"}, {"days": "Sat", "time": "11:45am"}, {"days": "Sun", "time": "Closed"}], "id": "1567600001", "name": "USPS COLLECTION BOX - BLUE BOX", "address": {"city": "PLEASANT UNITY", "state": "PA", "street": "2061 ROUTE 130", "postcode": "15676"}}},
{"geometry": {"type": "Point", "coordinates": [-79.4614791708, 40.2455892918]}, "type": "Feature", "properties": {"collection_times": [{"days": "Mon-Fri", "time": "4:15pm"}, {"days": "Sat", "time": "11:45am"}, {"days": "Sun", "time": "Closed"}], "id": "1567600002", "name": "USPS COLLECTION BOX - PO LOBBY", "address": {"city": "PLEASANT UNITY", "state": "PA", "street": "2061 ROUTE 130", "postcode": "15676"}}},
{"geometry": {"type": "Point", "coordinates": [-79.4614791708, 40.2455892918]}, "type": "Feature", "properties": {"collection_times": [{"days": "Mon-Fri", "time": "4:15pm"}, {"days": "Sat", "time": "11:45am"}, {"days": "Sun", "time": "Closed"}], "id": "1567600003", "name": "USPS COLLECTION BOX - PO LOBBY", "address": {"city": "PLEASANT UNITY", "state": "PA", "street": "2061 ROUTE 130", "postcode": "15676"}}},
{"geometry": {"type": "Point", "coordinates": [-79.2242090586, 40.1831254587]}, "type": "Feature", "properties": {"collection_times": [{"days": "Mon-Fri", "time": "4:00pm"}, {"days": "Sat", "time": "12:00pm"}, {"days": "Sun", "time": "Closed"}], "id": "1567700003", "name": "USPS COLLECTION BOX - BLUE BOX", "address": {"city": "RECTOR", "state": "PA", "street": "1534 LINN RUN RD", "postcode": "15677"}}},
{"geometry": {"type": "Point", "coordinates": [-79.7258860034, 40.2859234364]}, "type": "Feature", "properties": {"collection_times": [{"days": "Mon-Fri", "time": "4:30pm"}, {"days": "Sat", "time": "11:30am"}, {"days": "Sun", "time": "Closed"}], "id": "1567800001", "name": "USPS COLLECTION BOX - BLUE BOX", "address": {"city": "RILLTON", "state": "PA", "street": "1 MARS HILL RD", "postcode": "15678"}}},
{"geometry": {"type": "Point", "coordinates": [-79.7258860034, 40.2859234364]}, "type": "Feature", "properties": {"collection_times": [{"days": "Mon-Fri", "time": "4:30pm"}, {"days": "Sat", "time": "11:30am"}, {"days": "Sun", "time": "Closed"}], "id": "1567800002", "name": "USPS COLLECTION BOX - PO LOBBY", "address": {"city": "RILLTON", "state": "PA", "street": "1 MARS HILL RD", "postcode": "15678"}}},
{"geometry": {"type": "Point", "coordinates": [-79.608350931, 40.172047946]}, "type": "Feature", "properties": {"collection_times": [{"days": "Mon-Fri", "time": "4:00pm"}, {"days": "Sat", "time": "12:00pm"}, {"days": "Sun", "time": "Closed"}], "id": "1567900001", "name": "USPS COLLECTION BOX - BLUE BOX", "address": {"city": "RUFFSDALE", "state": "PA", "street": "875 STATE ROUTE 31", "postcode": "15679"}}},
{"geometry": {"type": "Point", "coordinates": [-79.608350931, 40.172047946]}, "type": "Feature", "properties": {"collection_times": [{"days": "Mon-Fri", "time": "4:00pm"}, {"days": "Sat", "time": "12:00pm"}, {"days": "Sun", "time": "Closed"}], "id": "1567900002", "name": "USPS COLLECTION BOX - PO LOBBY", "address": {"city": "RUFFSDALE", "state": "PA", "street": "875 STATE ROUTE 31", "postcode": "15679"}}},
{"geometry": {"type": "Point", "coordinates": [-79.6463765351, 40.1799902048]}, "type": "Feature", "properties": {"collection_times": [{"days": "Mon-Sat", "time": "1:00pm"}, {"days": "Sun", "time": "Closed"}], "id": "1567900004", "name": "USPS COLLECTION BOX - BLUE BOX", "address": {"city": "RUFFSDALE", "state": "PA", "street": "1132 NEW STANTON RUFFSDALE RD", "postcode": "15679"}}},
{"geometry": {"type": "Point", "coordinates": [-79.497720119, 40.5224231276]}, "type": "Feature", "properties": {"collection_times": [{"days": "Mon-Fri", "time": "11:55am"}, {"days": "Sat", "time": "11:30am"}, {"days": "Sun", "time": "Closed"}], "id": "1568000001", "name": "USPS COLLECTION BOX - BLUE BOX", "address": {"city": "SALINA", "state": "PA", "street": "194 MAIN ST", "postcode": "15680"}}},
{"geometry": {"type": "Point", "coordinates": [-79.497720119, 40.5224231276]}, "type": "Feature", "properties": {"collection_times": [{"days": "Mon-Fri", "time": "11:55am"}, {"days": "Sat", "time": "11:30am"}, {"days": "Sun", "time": "Closed"}], "id": "1568000002", "name": "USPS COLLECTION BOX - PO LOBBY", "address": {"city": "SALINA", "state": "PA", "street": "194 MAIN ST LBBY", "postcode": "15680"}}},
{"geometry": {"type": "Point", "coordinates": [-79.4486874815, 40.4856570429]}, "type": "Feature", "properties": {"collection_times": [{"days": "Mon-Fri", "time": "4:45pm"}, {"days": "Sat", "time": "4:00pm"}, {"days": "Sun", "time": "Closed"}], "id": "1568100001", "name": "USPS COLLECTION BOX - BLUE BOX", "address": {"city": "SALTSBURG", "state": "PA", "street": "207 POINT ST", "postcode": "15681"}}},
{"geometry": {"type": "Point", "coordinates": [-79.4508612699, 40.4858934558]}, "type": "Feature", "properties": {"collection_times": [{"days": "Mon-Fri", "time": "3:00pm"}, {"days": "Sat", "time": "12:30pm"}, {"days": "Sun", "time": "Closed"}], "id": "1568100004", "name": "USPS COLLECTION BOX - BLUE BOX", "address": {"city": "SALTSBURG", "state": "PA", "street": "602 SALT ST", "postcode": "15681"}}},
{"geometry": {"type": "Point", "coordinates": [-79.4486874815, 40.4856570429]}, "type": "Feature", "properties": {"collection_times": [{"days": "Mon-Fri", "time": "4:45pm"}, {"days": "Sat", "time": "4:00pm"}, {"days": "Sun", "time": "Closed"}], "id": "1568100005", "name": "USPS COLLECTION BOX - PO LOBBY", "address": {"city": "SALTSBURG", "state": "PA", "street": "207 POINT ST", "postcode": "15681"}}},
{"geometry": {"type": "Point", "coordinates": [-79.6082685592, 40.6283426503]}, "type": "Feature", "properties": {"collection_times": [{"days": "Mon-Fri", "time": "12:50pm"}, {"days": "Sat", "time": "12:15pm"}, {"days": "Sun", "time": "Closed"}], "id": "1568200001", "name": "USPS COLLECTION BOX - BLUE BOX", "address": {"city": "SCHENLEY", "state": "PA", "street": "105 RAILROAD ST", "postcode": "15682"}}},
{"geometry": {"type": "Point", "coordinates": [-79.6082685592, 40.6283426503]}, "type": "Feature", "properties": {"collection_times": [{"days": "Mon-Fri", "time": "12:50pm"}, {"days": "Sat", "time": "12:15pm"}, {"days": "Sun", "time": "Closed"}], "id": "1568200002", "name": "USPS COLLECTION BOX - PO LOBBY", "address": {"city": "SCHENLEY", "state": "PA", "street": "105 RAILROAD ST", "postcode": "15682"}}},
{"geometry": {"type": "Point", "coordinates": [-79.5872534835, 40.1012911334]}, "type": "Feature", "properties": {"collection_times": [{"days": "Mon-Fri", "time": "1:30pm"}, {"days": "Sat", "time": "3:00pm"}, {"days": "Sun", "time": "Closed"}], "id": "1568300003", "name": "USPS COLLECTION BOX - BLUE BOX", "address": {"city": "SCOTTDALE", "state": "PA", "street": "11 CENTENNIAL WAY", "postcode": "15683"}}},
{"geometry": {"type": "Point", "coordinates": [-79.5880089114, 40.1081483655]}, "type": "Feature", "properties": {"collection_times": [{"days": "Mon-Fri", "time": "11:00am"}, {"days": "Sat", "time": "9:00am"}, {"days": "Sun", "time": "Closed"}], "id": "1568300006", "name": "USPS COLLECTION BOX - BLUE BOX", "address": {"city": "SCOTTDALE", "state": "PA", "street": "608 PARKER AVE", "postcode": "15683"}}},
{"geometry": {"type": "Point", "coordinates": [-79.5880501528, 40.1044049701]}, "type": "Feature", "properties": {"collection_times": [{"days": "Mon-Fri", "time": "1:30pm"}, {"days": "Sat", "time": "9:00am"}, {"days": "Sun", "time": "Closed"}], "id": "1568300007", "name": "USPS COLLECTION BOX - BLUE BOX", "address": {"city": "SCOTTDALE", "state": "PA", "street": "314 N CHESTNUT ST", "postcode": "15683"}}},
{"geometry": {"type": "Point", "coordinates": [-79.5911295924, 40.0961712807]}, "type": "Feature", "properties": {"collection_times": [{"days": "Mon-Sat", "time": "2:00pm"}, {"days": "Sun", "time": "Closed"}], "id": "1568300013", "name": "USPS COLLECTION BOX - BLUE BOX", "address": {"city": "SCOTTDALE", "state": "PA", "street": "500 S BROADWAY ST", "postcode": "15683"}}},
{"geometry": {"type": "Point", "coordinates": [-79.5952531927, 40.1046057433]}, "type": "Feature", "properties": {"collection_times": [{"days": "Mon-Fri", "time": "1:00pm"}, {"days": "Sat", "time": "11:00am"}, {"days": "Sun", "time": "Closed"}], "id": "1568300021", "name": "USPS COLLECTION BOX - BLUE BOX", "address": {"city": "SCOTTDALE", "state": "PA", "street": "116 HOMESTEAD AVE", "postcode": "15683"}}},
{"geometry": {"type": "Point", "coordinates": [-79.5912267037, 40.1004953536]}, "type": "Feature", "properties": {"collection_times": [{"days": "Mon-Fri", "time": "1:00pm"}, {"days": "Sat", "time": "11:00am"}, {"days": "Sun", "time": "Closed"}], "id": "1568300026", "name": "USPS COLLECTION BOX - BLUE BOX", "address": {"city": "SCOTTDALE", "state": "PA", "street": "414 WALNUT AVE", "postcode": "15683"}}},
{"geometry": {"type": "Point", "coordinates": [-79.594483183, 40.1036753343]}, "type": "Feature", "properties": {"collection_times": [{"days": "Mon-Fri", "time": "1:00pm"}, {"days": "Sat", "time": "9:00am"}, {"days": "Sun", "time": "Closed"}], "id": "1568300034", "name": "USPS COLLECTION BOX - BLUE BOX", "address": {"city": "SCOTTDALE", "state": "PA", "street": "20 PEARL ST", "postcode": "15683"}}},
{"geometry": {"type": "Point", "coordinates": [-79.5881986386, 40.1011776011]}, "type": "Feature", "properties": {"collection_times": [{"days": "Mon-Fri", "time": "1:45pm"}, {"days": "Sat", "time": "3:00pm"}, {"days": "Sun", "time": "Closed"}], "id": "1568300036", "name": "USPS COLLECTION BOX - BLUE BOX", "address": {"city": "SCOTTDALE", "state": "PA", "street": "203 PITTSBURGH ST", "postcode": "15683"}}},
{"geometry": {"type": "Point", "coordinates": [-79.5849663705, 40.104249245]}, "type": "Feature", "properties": {"collection_times": [{"days": "Mon-Fri", "time": "1:30pm"}, {"days": "Sat", "time": "9:00am"}, {"days": "Sun", "time": "Closed"}], "id": "1568300039", "name": "USPS COLLECTION BOX - BLUE BOX", "address": {"city": "SCOTTDALE", "state": "PA", "street": "10 MOUNT PLEASANT RD", "postcode": "15683"}}},
{"geometry": {"type": "Point", "coordinates": [-79.5896468074, 40.1018250085]}, "type": "Feature", "properties": {"collection_times": [{"days": "Mon-Fri", "time": "4:45pm"}, {"days": "Sat", "time": "3:30pm"}, {"days": "Sun", "time": "Closed"}], "id": "1568300040", "name": "USPS COLLECTION BOX - PO LOBBY", "address": {"city": "SCOTTDALE", "state": "PA", "street": "7 N CHESTNUT ST LBBY", "postcode": "15683"}}},
{"geometry": {"type": "Point", "coordinates": [-79.5211773909, 40.4605654979]}, "type": "Feature", "properties": {"collection_times": [{"days": "Mon-Fri", "time": "4:15pm"}, {"days": "Sat", "time": "11:30am"}, {"days": "Sun", "time": "Closed"}], "id": "1568400001", "name": "USPS COLLECTION BOX - BLUE BOX", "address": {"city": "SLICKVILLE", "state": "PA", "street": "124 MAIN ST", "postcode": "15684"}}},
{"geometry": {"type": "Point", "coordinates": [-79.5211773909, 40.4605654979]}, "type": "Feature", "properties": {"collection_times": [{"days": "Mon-Fri", "time": "4:15pm"}, {"days": "Sat", "time": "11:30am"}, {"days": "Sun", "time": "Closed"}], "id": "1568400002", "name": "USPS COLLECTION BOX - PO LOBBY", "address": {"city": "SLICKVILLE", "state": "PA", "street": "124 MAIN ST", "postcode": "15684"}}},
{"geometry": {"type": "Point", "coordinates": [-79.5402456352, 40.151118014]}, "type": "Feature", "properties": {"collection_times": [{"days": "Mon-Fri", "time": "11:55am"}, {"days": "Sat", "time": "11:45am"}, {"days": "Sun", "time": "Closed"}], "id": "1568500001", "name": "USPS COLLECTION BOX - BLUE BOX", "address": {"city": "SOUTHWEST", "state": "PA", "street": "536 HECLA RD", "postcode": "15685"}}},
{"geometry": {"type": "Point", "coordinates": [-79.5402456352, 40.151118014]}, "type": "Feature", "properties": {"collection_times": [{"days": "Mon-Fri", "time": "11:55am"}, {"days": "Sat", "time": "11:45am"}, {"days": "Sun", "time": "Closed"}], "id": "1568500002", "name": "USPS COLLECTION BOX - PO LOBBY", "address": {"city": "SOUTHWEST", "state": "PA", "street": "536 HECLA RD", "postcode": "15685"}}},
{"geometry": {"type": "Point", "coordinates": [-79.4197531206, 40.6306059608]}, "type": "Feature", "properties": {"collection_times": [{"days": "Mon-Fri", "time": "4:45pm"}, {"days": "Sat", "time": "11:45am"}, {"days": "Sun", "time": "Closed"}], "id": "1568600001", "name": "USPS COLLECTION BOX - BLUE BOX", "address": {"city": "SPRING CHURCH", "state": "PA", "street": "1759 STATE ROUTE 56", "postcode": "15686"}}},
{"geometry": {"type": "Point", "coordinates": [-79.4197531206, 40.6306059608]}, "type": "Feature", "properties": {"collection_times": [{"days": "Mon-Fri", "time": "4:45pm"}, {"days": "Sat", "time": "11:45am"}, {"days": "Sun", "time": "Closed"}], "id": "1568600002", "name": "USPS COLLECTION BOX - PO LOBBY", "address": {"city": "SPRING CHURCH", "state": "PA", "street": "1759 STATE ROUTE 56", "postcode": "15686"}}},
{"geometry": {"type": "Point", "coordinates": [-79.3320785992, 40.1497461294]}, "type": "Feature", "properties": {"collection_times": [{"days": "Mon-Fri", "time": "4:15pm"}, {"days": "Sat", "time": "11:45am"}, {"days": "Sun", "time": "Closed"}], "id": "1568700001", "name": "USPS COLLECTION BOX - BLUE BOX", "address": {"city": "STAHLSTOWN", "state": "PA", "street": "4145 MAIN ST", "postcode": "15687"}}},
{"geometry": {"type": "Point", "coordinates": [-79.3320785992, 40.1497461294]}, "type": "Feature", "properties": {"collection_times": [{"days": "Mon-Fri", "time": "4:15pm"}, {"days": "Sat", "time": "11:45am"}, {"days": "Sun", "time": "Closed"}], "id": "1568700002", "name": "USPS COLLECTION BOX - PO LOBBY", "address": {"city": "STAHLSTOWN", "state": "PA", "street": "4145 MAIN ST LBBY", "postcode": "15687"}}},
{"geometry": {"type": "Point", "coordinates": [-79.3320785992, 40.1497461294]}, "type": "Feature", "properties": {"collection_times": [{"days": "Mon-Fri", "time": "4:15pm"}, {"days": "Sat", "time": "11:45am"}, {"days": "Sun", "time": "Closed"}], "id": "1568700003", "name": "USPS COLLECTION BOX - PO LOBBY", "address": {"city": "STAHLSTOWN", "state": "PA", "street": "4145 MAIN ST LBBY", "postcode": "15687"}}},
{"geometry": {"type": "Point", "coordinates": [-79.5691778323, 40.1635734127]}, "type": "Feature", "properties": {"collection_times": [{"days": "Mon-Fri", "time": "11:55am"}, {"days": "Sat", "time": "11:15am"}, {"days": "Sun", "time": "Closed"}], "id": "1568800001", "name": "USPS COLLECTION BOX - BLUE BOX", "address": {"city": "TARRS", "state": "PA", "street": "980 STATE ROUTE 31", "postcode": "15688"}}},
{"geometry": {"type": "Point", "coordinates": [-79.5691778323, 40.1635734127]}, "type": "Feature", "properties": {"collection_times": [{"days": "Mon-Fri", "time": "11:55am"}, {"days": "Sat", "time": "11:15am"}, {"days": "Sun", "time": "Closed"}], "id": "1568800002", "name": "USPS COLLECTION BOX - PO LOBBY", "address": {"city": "TARRS", "state": "PA", "street": "980 STATE ROUTE 31", "postcode": "15688"}}},
{"geometry": {"type": "Point", "coordinates": [-79.5663589136, 40.6126528181]}, "type": "Feature", "properties": {"collection_times": [{"days": "Mon-Fri", "time": "4:00pm"}, {"days": "Sat", "time": "1:00pm"}, {"days": "Sun", "time": "Closed"}], "id": "1569000001", "name": "USPS COLLECTION BOX - BLUE BOX", "address": {"city": "VANDERGRIFT", "state": "PA", "street": "142 FARRAGUT AVE", "postcode": "15690"}}},
{"geometry": {"type": "Point", "coordinates": [-79.5691031915, 40.5970157072]}, "type": "Feature", "properties": {"collection_times": [{"days": "Mon-Fri", "time": "10:00am"}, {"days": "Sat", "time": "9:30am"}, {"days": "Sun", "time": "Closed"}], "id": "1569000002", "name": "USPS COLLECTION BOX - BLUE BOX", "address": {"city": "VANDERGRIFT", "state": "PA", "street": "601 HANCOCK AVE", "postcode": "15690"}}},
{"geometry": {"type": "Point", "coordinates": [-79.5715313341, 40.5968492798]}, "type": "Feature", "properties": {"collection_times": [{"days": "Mon-Sat", "time": "9:30am"}, {"days": "Sun", "time": "Closed"}], "id": "1569000004", "name": "USPS COLLECTION BOX - BLUE BOX", "address": {"city": "VANDERGRIFT", "state": "PA", "street": "224 LONGFELLOW ST", "postcode": "15690"}}},
{"geometry": {"type": "Point", "coordinates": [-79.5650316967, 40.6046936442]}, "type": "Feature", "properties": {"collection_times": [{"days": "Mon-Sat", "time": "9:00am"}, {"days": "Sun", "time": "Closed"}], "id": "1569000012", "name": "USPS COLLECTION BOX - BLUE BOX", "address": {"city": "VANDERGRIFT", "state": "PA", "street": "169 LINCOLN AVE", "postcode": "15690"}}},
{"geometry": {"type": "Point", "coordinates": [-79.5738746944, 40.5989898103]}, "type": "Feature", "properties": {"collection_times": [{"days": "Mon-Fri", "time": "9:30am"}, {"days": "Sat", "time": "9:00am"}, {"days": "Sun", "time": "Closed"}], "id": "1569000014", "name": "USPS COLLECTION BOX - BLUE BOX", "address": {"city": "VANDERGRIFT", "state": "PA", "street": "418 WALNUT ST", "postcode": "15690"}}},
{"geometry": {"type": "Point", "coordinates": [-79.5715318214, 40.5923242371]}, "type": "Feature", "properties": {"collection_times": [{"days": "Mon-Sat", "time": "11:00am"}, {"days": "Sun", "time": "Closed"}], "id": "1569000017", "name": "USPS COLLECTION BOX - BLUE BOX", "address": {"city": "VANDERGRIFT", "state": "PA", "street": "1100 HANCOCK AVE", "postcode": "15690"}}},
{"geometry": {"type": "Point", "coordinates": [-79.5728941298, 40.5975430393]}, "type": "Feature", "properties": {"collection_times": [{"days": "Mon-Sat", "time": "9:30am"}, {"days": "Sun", "time": "Closed"}], "id": "1569000019", "name": "USPS COLLECTION BOX - BLUE BOX", "address": {"city": "VANDERGRIFT", "state": "PA", "street": "343 LONGFELLOW ST", "postcode": "15690"}}},
{"geometry": {"type": "Point", "coordinates": [-79.5630083739, 40.6031630547]}, "type": "Feature", "properties": {"collection_times": [{"days": "Mon-Fri", "time": "4:00pm"}, {"days": "Sat", "time": "12:00pm"}, {"days": "Sun", "time": "Closed"}], "id": "1569000021", "name": "USPS COLLECTION BOX - BLUE BOX", "address": {"city": "VANDERGRIFT", "state": "PA", "street": "152 GRANT AVE", "postcode": "15690"}}},
{"geometry": {"type": "Point", "coordinates": [-79.5749663699, 40.5950902594]}, "type": "Feature", "properties": {"collection_times": [{"days": "Mon-Fri", "time": "4:00pm"}, {"days": "Sat", "time": "1:00pm"}, {"days": "Sun", "time": "Closed"}], "id": "1569000024", "name": "USPS COLLECTION BOX - BLUE BOX", "address": {"city": "VANDERGRIFT", "state": "PA", "street": "142 FARRAGUT AVE", "postcode": "15690"}}},
{"geometry": {"type": "Point", "coordinates": [-79.5613255439, 40.6054971397]}, "type": "Feature", "properties": {"collection_times": [{"days": "Mon-Fri", "time": "4:00pm"}, {"days": "Sat", "time": "1:00pm"}, {"days": "Sun", "time": "Closed"}], "id": "1569000025", "name": "USPS COLLECTION BOX - PO LOBBY", "address": {"city": "VANDERGRIFT", "state": "PA", "street": "142 FARRAGUT AVE LBBY", "postcode": "15690"}}},
{"geometry": {"type": "Point", "coordinates": [-79.6690014354, 40.2877932698]}, "type": "Feature", "properties": {"collection_times": [{"days": "Mon-Fri", "time": "4:45pm"}, {"days": "Sat", "time": "11:45am"}, {"days": "Sun", "time": "Closed"}], "id": "1569100001", "name": "USPS COLLECTION BOX - BLUE BOX", "address": {"city": "WENDEL", "state": "PA", "street": "369 WENDEL RD", "postcode": "15691"}}},
{"geometry": {"type": "Point", "coordinates": [-79.6690014354, 40.2877932698]}, "type": "Feature", "properties": {"collection_times": [{"days": "Mon-Fri", "time": "4:45pm"}, {"days": "Sat", "time": "11:45am"}, {"days": "Sun", "time": "Closed"}], "id": "1569100002", "name": "USPS COLLECTION BOX - PO LOBBY", "address": {"city": "WENDEL", "state": "PA", "street": "369 WENDEL RD LBBY", "postcode": "15691"}}},
{"geometry": {"type": "Point", "coordinates": [-79.6794997258, 40.331380742]}, "type": "Feature", "properties": {"collection_times": [{"days": "Mon-Fri", "time": "4:15pm"}, {"days": "Sat", "time": "11:45am"}, {"days": "Sun", "time": "Closed"}], "id": "1569200001", "name": "USPS COLLECTION BOX - BLUE BOX", "address": {"city": "WESTMRLND CTY", "state": "PA", "street": "8880 WALNUT ST", "postcode": "15692"}}},
{"geometry": {"type": "Point", "coordinates": [-79.6794997258, 40.331380742]}, "type": "Feature", "properties": {"collection_times": [{"days": "Mon-Fri", "time": "4:15pm"}, {"days": "Sat", "time": "11:45am"}, {"days": "Sun", "time": "Closed"}], "id": "1569200002", "name": "USPS COLLECTION BOX - PO LOBBY", "address": {"city": "WESTMRLND CTY", "state": "PA", "street": "8880 WALNUT ST LBBY", "postcode": "15692"}}},
{"geometry": {"type": "Point", "coordinates": [-79.386046417, 40.3161109359]}, "type": "Feature", "properties": {"collection_times": [{"days": "Mon-Fri", "time": "12:00pm"}, {"days": "Sat", "time": "11:30am"}, {"days": "Sun", "time": "Closed"}], "id": "1569300001", "name": "USPS COLLECTION BOX - BLUE BOX", "address": {"city": "WHITNEY", "state": "PA", "street": "103 AUGUSTA LN", "postcode": "15693"}}},
{"geometry": {"type": "Point", "coordinates": [-79.386046417, 40.3161109359]}, "type": "Feature", "properties": {"collection_times": [{"days": "Mon-Fri", "time": "12:00pm"}, {"days": "Sat", "time": "11:30am"}, {"days": "Sun", "time": "Closed"}], "id": "1569300002", "name": "USPS COLLECTION BOX - PO LOBBY", "address": {"city": "WHITNEY", "state": "PA", "street": "103 AUGUSTA LN", "postcode": "15693"}}},
{"geometry": {"type": "Point", "coordinates": [-79.6970500925, 40.1948852882]}, "type": "Feature", "properties": {"collection_times": [{"days": "Mon-Fri", "time": "11:55am"}, {"days": "Sat", "time": "11:45am"}, {"days": "Sun", "time": "Closed"}], "id": "1569500001", "name": "USPS COLLECTION BOX - BLUE BOX", "address": {"city": "WYANO", "state": "PA", "street": "2202 1ST ST", "postcode": "15695"}}},
{"geometry": {"type": "Point", "coordinates": [-79.6970500925, 40.1948852882]}, "type": "Feature", "properties": {"collection_times": [{"days": "Mon-Fri", "time": "11:55am"}, {"days": "Sat", "time": "11:45am"}, {"days": "Sun", "time": "Closed"}], "id": "1569500002", "name": "USPS COLLECTION BOX - PO LOBBY", "address": {"city": "WYANO", "state": "PA", "street": "2202 1ST ST", "postcode": "15695"}}},
{"geometry": {"type": "Point", "coordinates": [-79.364732329, 40.2795422298]}, "type": "Feature", "properties": {"collection_times": [{"days": "Mon-Fri", "time": "4:00pm"}, {"days": "Sat", "time": "11:45am"}, {"days": "Sun", "time": "Closed"}], "id": "1569600001", "name": "USPS COLLECTION BOX - BLUE BOX", "address": {"city": "YOUNGSTOWN", "state": "PA", "street": "312 MAIN ST", "postcode": "15696"}}},
{"geometry": {"type": "Point", "coordinates": [-79.364732329, 40.2795422298]}, "type": "Feature", "properties": {"collection_times": [{"days": "Mon-Fri", "time": "4:00pm"}, {"days": "Sat", "time": "11:45am"}, {"days": "Sun", "time": "Closed"}], "id": "1569600002", "name": "USPS COLLECTION BOX - PO LOBBY", "address": {"city": "YOUNGSTOWN", "state": "PA", "street": "312 MAIN ST LBBY", "postcode": "15696"}}},
{"geometry": {"type": "Point", "coordinates": [-79.3648071437, 40.279551661]}, "type": "Feature", "properties": {"collection_times": [{"days": "Mon-Fri", "time": "4:00pm"}, {"days": "Sat", "time": "11:45am"}, {"days": "Sun", "time": "Closed"}], "id": "1569600003", "name": "USPS COLLECTION BOX - PO LOBBY", "address": {"city": "YOUNGSTOWN", "state": "PA", "street": "312 MAIN ST", "postcode": "15696"}}},
{"geometry": {"type": "Point", "coordinates": [-79.5780762221, 40.2394990367]}, "type": "Feature", "properties": {"collection_times": [{"days": "Mon-Fri", "time": "5:00pm"}, {"days": "Sat", "time": "12:00pm"}, {"days": "Sun", "time": "Closed"}], "id": "1569700001", "name": "USPS COLLECTION BOX - BLUE BOX", "address": {"city": "YOUNGWOOD", "state": "PA", "street": "26 S 3RD ST", "postcode": "15697"}}},
{"geometry": {"type": "Point", "coordinates": [-79.5788738302, 40.2399211063]}, "type": "Feature", "properties": {"collection_times": [{"days": "Mon-Fri", "time": "3:00pm"}, {"days": "Sat", "time": "1:30pm"}, {"days": "Sun", "time": "Closed"}], "id": "1569700002", "name": "USPS COLLECTION BOX - BLUE BOX", "address": {"city": "YOUNGWOOD", "state": "PA", "street": "12 S 4TH ST", "postcode": "15697"}}},
{"geometry": {"type": "Point", "coordinates": [-79.5799041951, 40.2384467603]}, "type": "Feature", "properties": {"collection_times": [{"days": "Mon-Fri", "time": "3:00pm"}, {"days": "Sat", "time": "11:30am"}, {"days": "Sun", "time": "Closed"}], "id": "1569700007", "name": "USPS COLLECTION BOX - BLUE BOX", "address": {"city": "YOUNGWOOD", "state": "PA", "street": "100 S 4TH ST", "postcode": "15697"}}},
{"geometry": {"type": "Point", "coordinates": [-79.576545871, 40.2432162031]}, "type": "Feature", "properties": {"collection_times": [{"days": "Mon-Fri", "time": "3:00pm"}, {"days": "Sat", "time": "2:00pm"}, {"days": "Sun", "time": "Closed"}], "id": "1569700008", "name": "USPS COLLECTION BOX - BLUE BOX", "address": {"city": "YOUNGWOOD", "state": "PA", "street": "300 N 4TH ST", "postcode": "15697"}}},
{"geometry": {"type": "Point", "coordinates": [-79.5780762221, 40.2394990367]}, "type": "Feature", "properties": {"collection_times": [{"days": "Mon-Fri", "time": "5:00pm"}, {"days": "Sat", "time": "12:00pm"}, {"days": "Sun", "time": "Closed"}], "id": "1569700012", "name": "USPS COLLECTION BOX - PO LOBBY", "address": {"city": "YOUNGWOOD", "state": "PA", "street": "26 S 3RD ST LBBY", "postcode": "15697"}}},
{"geometry": {"type": "Point", "coordinates": [-79.6813750521, 40.216523852]}, "type": "Feature", "properties": {"collection_times": [{"days": "Mon-Fri", "time": "4:30pm"}, {"days": "Sat", "time": "12:00pm"}, {"days": "Sun", "time": "Closed"}], "id": "1569800001", "name": "USPS COLLECTION BOX - BLUE BOX", "address": {"city": "YUKON", "state": "PA", "street": "137 HIGHWAY ST", "postcode": "15698"}}},
{"geometry": {"type": "Point", "coordinates": [-79.6813750521, 40.216523852]}, "type": "Feature", "properties": {"collection_times": [{"days": "Mon-Fri", "time": "4:30pm"}, {"days": "Sat", "time": "12:00pm"}, {"days": "Sun", "time": "Closed"}], "id": "1569800002", "name": "USPS COLLECTION BOX - PO LOBBY", "address": {"city": "YUKON", "state": "PA", "street": "137 HIGHWAY ST LBBY", "postcode": "15698"}}}
]}
