{"type": "FeatureCollection", "features": [
{"geometry": {"type": "Point", "coordinates": [-79.1532757237, 40.6226318535]}, "type": "Feature", "properties": {"collection_times": [{"days": "Mon-Sat", "time": "5:15pm"}, {"days": "Sun", "time": "Closed"}], "id": "1570100001", "name": "USPS COLLECTION BOX - BLUE BOX", "address": {"city": "INDIANA", "state": "PA", "street": "47 S 7TH ST", "postcode": "15701"}}},
{"geometry": {"type": "Point", "coordinates": [-79.1533954497, 40.6221920517]}, "type": "Feature", "properties": {"collection_times": [{"days": "Mon-Sat", "time": "5:15pm"}, {"days": "Sun", "time": "Closed"}], "id": "1570100002", "name": "USPS COLLECTION BOX - BLUE BOX", "address": {"city": "INDIANA", "state": "PA", "street": "700 GOMPERS AVE", "postcode": "15701"}}},
{"geometry": {"type": "Point", "coordinates": [-79.1533954497, 40.6221920517]}, "type": "Feature", "properties": {"collection_times": [{"days": "Mon-Sat", "time": "5:15pm"}, {"days": "Sun", "time": "Closed"}], "id": "1570100003", "name": "USPS COLLECTION BOX - BLUE BOX", "address": {"city": "INDIANA", "state": "PA", "street": "700 GOMPERS AVE", "postcode": "15701"}}},
{"geometry": {"type": "Point", "coordinates": [-79.1533954497, 40.6221920517]}, "type": "Feature", "properties": {"collection_times": [{"days": "Mon-Sat", "time": "5:15pm"}, {"days": "Sun", "time": "Closed"}], "id": "1570100004", "name": "USPS COLLECTION BOX - BLUE BOX", "address": {"city": "INDIANA", "state": "PA", "street": "700 GOMPERS AVE", "postcode": "15701"}}},
{"geometry": {"type": "Point", "coordinates": [-79.1533954497, 40.6221920517]}, "type": "Feature", "properties": {"collection_times": [{"days": "Mon-Sat", "time": "5:15pm"}, {"days": "Sun", "time": "Closed"}], "id": "1570100005", "name": "USPS COLLECTION BOX - BLUE BOX", "address": {"city": "INDIANA", "state": "PA", "street": "700 GOMPERS AVE", "postcode": "15701"}}},
{"geometry": {"type": "Point", "coordinates": [-79.1510412117, 40.6229032512]}, "type": "Feature", "properties": {"collection_times": [{"days": "Mon-Fri", "time": "4:45pm"}, {"days": "Sat", "time": "2:15pm"}, {"days": "Sun", "time": "Closed"}], "id": "1570100010", "name": "USPS COLLECTION BOX - BLUE BOX", "address": {"city": "INDIANA", "state": "PA", "street": "600 PHILADELPHIA ST", "postcode": "15701"}}},
{"geometry": {"type": "Point", "coordinates": [-79.1596272942, 40.6269130796]}, "type": "Feature", "properties": {"collection_times": [{"days": "Mon-Fri", "time": "3:45pm"}, {"days": "Sat", "time": "2:15pm"}, {"days": "Sun", "time": "Closed"}], "id": "1570100014", "name": "USPS COLLECTION BOX - BLUE BOX", "address": {"city": "INDIANA", "state": "PA", "street": "420 N 4TH ST", "postcode": "15701"}}},
{"geometry": {"type": "Point", "coordinates": [-79.1596272942, 40.6269130796]}, "type": "Feature", "properties": {"collection_times": [{"days": "Mon-Fri", "time": "2:30pm"}, {"days": "Sat", "time": "1:15pm"}, {"days": "Sun", "time": "Closed"}], "id": "1570100019", "name": "USPS COLLECTION BOX - BLUE BOX", "address": {"city": "INDIANA", "state": "PA", "street": "435 S 7TH ST", "postcode": "15701"}}},
{"geometry": {"type": "Point", "coordinates": [-79.1624385046, 40.6165820732]}, "type": "Feature", "properties": {"collection_times": [{"days": "Mon-Fri", "time": "2:30pm"}, {"days": "Sat", "time": "1:30pm"}, {"days": "Sun", "time": "Closed"}], "id": "1570100020", "name": "USPS COLLECTION BOX - BLUE BOX", "address": {"city": "INDIANA", "state": "PA", "street": "1156 GRANT ST", "postcode": "15701"}}},
{"geometry": {"type": "Point", "coordinates": [-79.1699057069, 40.6149638399]}, "type": "Feature", "properties": {"collection_times": [{"days": "Mon-Fri", "time": "3:00pm"}, {"days": "Sat", "time": "2:00pm"}, {"days": "Sun", "time": "Closed"}], "id": "1570100024", "name": "USPS COLLECTION BOX - BLUE BOX", "address": {"city": "INDIANA", "state": "PA", "street": "1544 OAKLAND AVE", "postcode": "15701"}}},
{"geometry": {"type": "Point", "coordinates": [-79.1817248199, 40.6067723952]}, "type": "Feature", "properties": {"collection_times": [{"days": "Mon-Fri", "time": "3:15pm"}, {"days": "Sat", "time": "1:45pm"}, {"days": "Sun", "time": "Closed"}], "id": "1570100027", "name": "USPS COLLECTION BOX - BLUE BOX", "address": {"city": "INDIANA", "state": "PA", "street": "2334 OAKLAND AVE", "postcode": "15701"}}},
{"geometry": {"type": "Point", "coordinates": [-79.1608187411, 40.6230332135]}, "type": "Feature", "properties": {"collection_times": [{"days": "Mon-Fri", "time": "3:30pm"}, {"days": "Sat", "time": "2:00pm"}, {"days": "Sun", "time": "Closed"}], "id": "1570100033", "name": "USPS COLLECTION BOX - BLUE BOX", "address": {"city": "INDIANA", "state": "PA", "street": "1102 PHILADELPHIA ST", "postcode": "15701"}}},
{"geometry": {"type": "Point", "coordinates": [-79.1571931124, 40.6229455736]}, "type": "Feature", "properties": {"collection_times": [{"days": "Mon-Fri", "time": "4:45pm"}, {"days": "Sat", "time": "2:00pm"}, {"days": "Sun", "time": "Closed"}], "id": "1570100034", "name": "USPS COLLECTION BOX - BLUE BOX", "address": {"city": "INDIANA", "state": "PA", "street": "942 PHILADELPHIA ST", "postcode": "15701"}}},
{"geometry": {"type": "Point", "coordinates": [-79.1589622476, 40.6077632736]}, "type": "Feature", "properties": {"collection_times": [{"days": "Mon-Fri", "time": "2:30pm"}, {"days": "Sat", "time": "1:15pm"}, {"days": "Sun", "time": "Closed"}], "id": "1570100035", "name": "USPS COLLECTION BOX - BLUE BOX", "address": {"city": "INDIANA", "state": "PA", "street": "835 HOSPITAL RD", "postcode": "15701"}}},
{"geometry": {"type": "Point", "coordinates": [-79.1621542153, 40.6080935771]}, "type": "Feature", "properties": {"collection_times": [{"days": "Mon-Fri", "time": "2:45pm"}, {"days": "Sat", "time": "1:30pm"}, {"days": "Sun", "time": "Closed"}], "id": "1570100036", "name": "USPS COLLECTION BOX - BLUE BOX", "address": {"city": "INDIANA", "state": "PA", "street": "1265 WAYNE AVE", "postcode": "15701"}}},
{"geometry": {"type": "Point", "coordinates": [-79.1907726145, 40.601636118]}, "type": "Feature", "properties": {"collection_times": [{"days": "Mon-Sat", "time": "10:00am"}, {"days": "Sun", "time": "Closed"}], "id": "1570100042", "name": "USPS COLLECTION BOX - BLUE BOX", "address": {"city": "INDIANA", "state": "PA", "street": "3100 OAKLAND AVE", "postcode": "15701"}}},
{"geometry": {"type": "Point", "coordinates": [-79.1583665482, 40.6248968133]}, "type": "Feature", "properties": {"collection_times": [{"days": "Mon-Fri", "time": "3:30pm"}, {"days": "Sat", "time": "2:00pm"}, {"days": "Sun", "time": "Closed"}], "id": "1570100043", "name": "USPS COLLECTION BOX - BLUE BOX", "address": {"city": "INDIANA", "state": "PA", "street": "160 N 10TH ST", "postcode": "15701"}}},
{"geometry": {"type": "Point", "coordinates": [-79.1547187925, 40.6240609238]}, "type": "Feature", "properties": {"collection_times": [{"days": "Mon-Fri", "time": "4:00pm"}, {"days": "Sat", "time": "2:30pm"}, {"days": "Sun", "time": "Closed"}], "id": "1570100045", "name": "USPS COLLECTION BOX - BLUE BOX", "address": {"city": "INDIANA", "state": "PA", "street": "80 N 8TH ST", "postcode": "15701"}}},
{"geometry": {"type": "Point", "coordinates": [-79.1529786085, 40.6229077298]}, "type": "Feature", "properties": {"collection_times": [{"days": "Mon-Fri", "time": "4:45pm"}, {"days": "Sat", "time": "2:00pm"}, {"days": "Sun", "time": "Closed"}], "id": "1570100051", "name": "USPS COLLECTION BOX - BLUE BOX", "address": {"city": "INDIANA", "state": "PA", "street": "682 PHILADELPHIA ST", "postcode": "15701"}}},
{"geometry": {"type": "Point", "coordinates": [-79.155004962, 40.6230513108]}, "type": "Feature", "properties": {"collection_times": [{"days": "Mon-Fri", "time": "4:45pm"}, {"days": "Sat", "time": "2:30pm"}, {"days": "Sun", "time": "Closed"}], "id": "1570100052", "name": "USPS COLLECTION BOX - BLUE BOX", "address": {"city": "INDIANA", "state": "PA", "street": "825 PHILADELPHIA ST", "postcode": "15701"}}},
{"geometry": {"type": "Point", "coordinates": [-79.1552175983, 40.6229397316]}, "type": "Feature", "properties": {"collection_times": [{"days": "Mon-Fri", "time": "4:45pm"}, {"days": "Sat", "time": "2:00pm"}, {"days": "Sun", "time": "Closed"}], "id": "1570100053", "name": "USPS COLLECTION BOX - BLUE BOX", "address": {"city": "INDIANA", "state": "PA", "street": "840 PHILADELPHIA ST", "postcode": "15701"}}},
{"geometry": {"type": "Point", "coordinates": [-79.1482401275, 40.622960711]}, "type": "Feature", "properties": {"collection_times": [{"days": "Mon-Fri", "time": "4:30pm"}, {"days": "Sat", "time": "2:30pm"}, {"days": "Sun", "time": "Closed"}], "id": "1570100060", "name": "USPS COLLECTION BOX - BLUE BOX", "address": {"city": "INDIANA", "state": "PA", "street": "501 PHILADELPHIA ST", "postcode": "15701"}}},
{"geometry": {"type": "Point", "coordinates": [-79.2011738428, 40.6369655205]}, "type": "Feature", "properties": {"collection_times": [{"days": "Mon-Fri", "time": "3:30pm"}, {"days": "Sat", "time": "2:00pm"}, {"days": "Sun", "time": "Closed"}], "id": "1570100063", "name": "USPS COLLECTION BOX - BLUE BOX", "address": {"city": "INDIANA", "state": "PA", "street": "525 BEN FRANKLIN RD", "postcode": "15701"}}},
{"geometry": {"type": "Point", "coordinates": [-79.1532757237, 40.6226318535]}, "type": "Feature", "properties": {"collection_times": [{"days": "Mon-Sat", "time": "5:15pm"}, {"days": "Sun", "time": "Closed"}], "id": "1570100064", "name": "USPS COLLECTION BOX - PO LOBBY", "address": {"city": "INDIANA", "state": "PA", "street": "47 S 7TH ST", "postcode": "15701"}}},
{"geometry": {"type": "Point", "coordinates": [-79.1532757237, 40.6226318535]}, "type": "Feature", "properties": {"collection_times": [{"days": "Mon-Sat", "time": "5:15pm"}, {"days": "Sun", "time": "Closed"}], "id": "1570100066", "name": "USPS COLLECTION BOX - APC", "address": {"city": "INDIANA", "state": "PA", "street": "47 S 7TH ST", "postcode": "15701"}}},
{"geometry": {"type": "Point", "coordinates": [-78.8571378843, 40.6287973015]}, "type": "Feature", "properties": {"collection_times": [{"days": "Mon-Fri", "time": "4:00pm"}, {"days": "Sat", "time": "11:00am"}, {"days": "Sun", "time": "Closed"}], "id": "1571000000", "name": "USPS COLLECTION BOX - BLUE BOX", "address": {"city": "ALVERDA", "state": "PA", "street": "11089 ROUTE 553 HWY", "postcode": "15710"}}},
{"geometry": {"type": "Point", "coordinates": [-78.8571378843, 40.6287973015]}, "type": "Feature", "properties": {"collection_times": [{"days": "Mon-Fri", "time": "10:50am"}, {"days": "Sat", "time": "11:30am"}, {"days": "Sun", "time": "Closed"}], "id": "1571000001", "name": "USPS COLLECTION BOX - PO LOBBY", "address": {"city": "ALVERDA", "state": "PA", "street": "11089 ROUTE 553 HWY", "postcode": "15710"}}},
{"geometry": {"type": "Point", "coordinates": [-78.9683372352, 40.9973845914]}, "type": "Feature", "properties": {"collection_times": [{"days": "Mon-Fri", "time": "1:00pm"}, {"days": "Sat", "time": "12:15pm"}, {"days": "Sun", "time": "Closed"}], "id": "1571100000", "name": "USPS COLLECTION BOX - BLUE BOX", "address": {"city": "ANITA", "state": "PA", "street": "222 MAIN ST", "postcode": "15711"}}},
{"geometry": {"type": "Point", "coordinates": [-78.9683372352, 40.9973845914]}, "type": "Feature", "properties": {"collection_times": [{"days": "Mon-Fri", "time": "1:00pm"}, {"days": "Sat", "time": "12:15pm"}, {"days": "Sun", "time": "Closed"}], "id": "1571100001", "name": "USPS COLLECTION BOX - PO LOBBY", "address": {"city": "ANITA", "state": "PA", "street": "222 MAIN ST", "postcode": "15711"}}},
{"geometry": {"type": "Point", "coordinates": [-78.8545449517, 40.7821610981]}, "type": "Feature", "properties": {"collection_times": [{"days": "Mon-Fri", "time": "2:15pm"}, {"days": "Sat", "time": "11:15am"}, {"days": "Sun", "time": "Closed"}], "id": "1571200000", "name": "USPS COLLECTION BOX - BLUE BOX", "address": {"city": "ARCADIA", "state": "PA", "street": "21832 ROUTE 286 HWY E", "postcode": "15712"}}},
{"geometry": {"type": "Point", "coordinates": [-78.8545449517, 40.7821610981]}, "type": "Feature", "properties": {"collection_times": [{"days": "Mon-Fri", "time": "10:50am"}, {"days": "Sat", "time": "11:15am"}, {"days": "Sun", "time": "Closed"}], "id": "1571200001", "name": "USPS COLLECTION BOX - PO LOBBY", "address": {"city": "ARCADIA", "state": "PA", "street": "21832 ROUTE 286 HWY E", "postcode": "15712"}}},
{"geometry": {"type": "Point", "coordinates": [-78.7820320215, 40.6609745668]}, "type": "Feature", "properties": {"collection_times": [{"days": "Mon-Sat", "time": "4:30pm"}, {"days": "Sun", "time": "Closed"}], "id": "1571400000", "name": "USPS COLLECTION BOX - BLUE BOX", "address": {"city": "N CAMBRIA", "state": "PA", "street": "4310 CRAWFORD AVE", "postcode": "15714"}}},
{"geometry": {"type": "Point", "coordinates": [-78.7823043967, 40.6602717489]}, "type": "Feature", "properties": {"collection_times": [{"days": "Mon-Sat", "time": "10:00am"}, {"days": "Sun", "time": "Closed"}], "id": "1571400003", "name": "USPS COLLECTION BOX - BLUE BOX", "address": {"city": "N CAMBRIA", "state": "PA", "street": "4025 CRAWFORD AVE", "postcode": "15714"}}},
{"geometry": {"type": "Point", "coordinates": [-78.7831631964, 40.6609896066]}, "type": "Feature", "properties": {"collection_times": [{"days": "Mon-Sat", "time": "9:30am"}, {"days": "Sun", "time": "Closed"}], "id": "1571400004", "name": "USPS COLLECTION BOX - BLUE BOX", "address": {"city": "N CAMBRIA", "state": "PA", "street": "7 COTTONWOOD ST", "postcode": "15714"}}},
{"geometry": {"type": "Point", "coordinates": [-78.7820320215, 40.6609745668]}, "type": "Feature", "properties": {"collection_times": [{"days": "Mon-Sat", "time": "4:45pm"}, {"days": "Sun", "time": "Closed"}], "id": "1571400005", "name": "USPS COLLECTION BOX - PO LOBBY", "address": {"city": "N CAMBRIA", "state": "PA", "street": "4310 CRAWFORD AVE", "postcode": "15714"}}},
{"geometry": {"type": "Point", "coordinates": [-78.8705800717, 40.9687032938]}, "type": "Feature", "properties": {"collection_times": [{"days": "Mon-Fri", "time": "4:45pm"}, {"days": "Sat", "time": "12:00pm"}, {"days": "Sun", "time": "Closed"}], "id": "1571500000", "name": "USPS COLLECTION BOX - BLUE BOX", "address": {"city": "BIG RUN", "state": "PA", "street": "401 E MAIN ST", "postcode": "15715"}}},
{"geometry": {"type": "Point", "coordinates": [-78.8705800717, 40.9687032938]}, "type": "Feature", "properties": {"collection_times": [{"days": "Mon-Fri", "time": "4:45pm"}, {"days": "Sat", "time": "12:00pm"}, {"days": "Sun", "time": "Closed"}], "id": "1571500001", "name": "USPS COLLECTION BOX - PO LOBBY", "address": {"city": "BIG RUN", "state": "PA", "street": "401 E MAIN ST", "postcode": "15715"}}},
{"geometry": {"type": "Point", "coordinates": [-79.1983365724, 40.4718512702]}, "type": "Feature", "properties": {"collection_times": [{"days": "Mon-Fri", "time": "4:30pm"}, {"days": "Sat", "time": "12:00pm"}, {"days": "Sun", "time": "Closed"}], "id": "1571600000", "name": "USPS COLLECTION BOX - BLUE BOX", "address": {"city": "BLACK LICK", "state": "PA", "street": "50 MAIN ST", "postcode": "15716"}}},
{"geometry": {"type": "Point", "coordinates": [-79.1983365724, 40.4718512702]}, "type": "Feature", "properties": {"collection_times": [{"days": "Mon-Fri", "time": "4:30pm"}, {"days": "Sat", "time": "12:00pm"}, {"days": "Sun", "time": "Closed"}], "id": "1571600001", "name": "USPS COLLECTION BOX - PO LOBBY", "address": {"city": "BLACK LICK", "state": "PA", "street": "50 MAIN ST", "postcode": "15716"}}},
{"geometry": {"type": "Point", "coordinates": [-79.2651904406, 40.4228165394]}, "type": "Feature", "properties": {"collection_times": [{"days": "Mon-Sat", "time": "11:00am"}, {"days": "Sun", "time": "Closed"}], "id": "1571700004", "name": "USPS COLLECTION BOX - BLUE BOX", "address": {"city": "BLAIRSVILLE", "state": "PA", "street": "435 S WALNUT ST", "postcode": "15717"}}},
{"geometry": {"type": "Point", "coordinates": [-79.2627257818, 40.4383260225]}, "type": "Feature", "properties": {"collection_times": [{"days": "Mon-Sat", "time": "12:00pm"}, {"days": "Sun", "time": "Closed"}], "id": "1571700005", "name": "USPS COLLECTION BOX - BLUE BOX", "address": {"city": "BLAIRSVILLE", "state": "PA", "street": "223 E CHESTNUT ST", "postcode": "15717"}}},
{"geometry": {"type": "Point", "coordinates": [-79.2670780645, 40.4306352705]}, "type": "Feature", "properties": {"collection_times": [{"days": "Mon-Sat", "time": "8:30am"}, {"days": "Sun", "time": "Closed"}], "id": "1571700009", "name": "USPS COLLECTION BOX - BLUE BOX", "address": {"city": "BLAIRSVILLE", "state": "PA", "street": "100 W MARKET ST", "postcode": "15717"}}},
{"geometry": {"type": "Point", "coordinates": [-79.2645251419, 40.431407382]}, "type": "Feature", "properties": {"collection_times": [{"days": "Mon-Fri", "time": "5:00pm"}, {"days": "Sat", "time": "3:45pm"}, {"days": "Sun", "time": "Closed"}], "id": "1571700013", "name": "USPS COLLECTION BOX - BLUE BOX", "address": {"city": "BLAIRSVILLE", "state": "PA", "street": "24 S WALNUT ST", "postcode": "15717"}}},
{"geometry": {"type": "Point", "coordinates": [-79.2645251419, 40.431407382]}, "type": "Feature", "properties": {"collection_times": [{"days": "Mon-Fri", "time": "5:00pm"}, {"days": "Sat", "time": "3:45pm"}, {"days": "Sun", "time": "Closed"}], "id": "1571700014", "name": "USPS COLLECTION BOX - BLUE BOX", "address": {"city": "BLAIRSVILLE", "state": "PA", "street": "24 S WALNUT ST", "postcode": "15717"}}},
{"geometry": {"type": "Point", "coordinates": [-79.2621043283, 40.431014349]}, "type": "Feature", "properties": {"collection_times": [{"days": "Mon-Sat", "time": "3:00pm"}, {"days": "Sun", "time": "Closed"}], "id": "1571700016", "name": "USPS COLLECTION BOX - BLUE BOX", "address": {"city": "BLAIRSVILLE", "state": "PA", "street": "135 E MARKET ST", "postcode": "15717"}}},
{"geometry": {"type": "Point", "coordinates": [-79.265096369, 40.4372150982]}, "type": "Feature", "properties": {"collection_times": [{"days": "Mon-Sat", "time": "2:30pm"}, {"days": "Sun", "time": "Closed"}], "id": "1571700017", "name": "USPS COLLECTION BOX - BLUE BOX", "address": {"city": "BLAIRSVILLE", "state": "PA", "street": "9 E BURRELL ST", "postcode": "15717"}}},
{"geometry": {"type": "Point", "coordinates": [-79.2648863878, 40.433483705]}, "type": "Feature", "properties": {"collection_times": [{"days": "Mon-Sat", "time": "3:00pm"}, {"days": "Sun", "time": "Closed"}], "id": "1571700018", "name": "USPS COLLECTION BOX - BLUE BOX", "address": {"city": "BLAIRSVILLE", "state": "PA", "street": "119 N WALNUT ST", "postcode": "15717"}}},
{"geometry": {"type": "Point", "coordinates": [-79.2600907551, 40.4311271679]}, "type": "Feature", "properties": {"collection_times": [{"days": "Mon-Sat", "time": "3:00pm"}, {"days": "Sun", "time": "Closed"}], "id": "1571700019", "name": "USPS COLLECTION BOX - BLUE BOX", "address": {"city": "BLAIRSVILLE", "state": "PA", "street": "231 E MARKET ST", "postcode": "15717"}}},
{"geometry": {"type": "Point", "coordinates": [-79.2645251419, 40.431407382]}, "type": "Feature", "properties": {"collection_times": [{"days": "Mon-Fri", "time": "5:00pm"}, {"days": "Sat", "time": "3:45pm"}, {"days": "Sun", "time": "Closed"}], "id": "1571700020", "name": "USPS COLLECTION BOX - PO LOBBY", "address": {"city": "BLAIRSVILLE", "state": "PA", "street": "24 S WALNUT ST", "postcode": "15717"}}},
{"geometry": {"type": "Point", "coordinates": [-79.2291557972, 40.4431902719]}, "type": "Feature", "properties": {"collection_times": [{"days": "Mon-Sat", "time": "10:00am"}, {"days": "Sun", "time": "Closed"}], "id": "1571700021", "name": "USPS COLLECTION BOX - BLUE BOX", "address": {"city": "BLAIRSVILLE", "state": "PA", "street": "210 RESORT PLAZA DR", "postcode": "15717"}}},
{"geometry": {"type": "Point", "coordinates": [-79.0725610544, 40.5404796634]}, "type": "Feature", "properties": {"collection_times": [{"days": "Mon-Fri", "time": "11:55am"}, {"days": "Sat", "time": "11:45am"}, {"days": "Sun", "time": "Closed"}], "id": "1572000000", "name": "USPS COLLECTION BOX - BLUE BOX", "address": {"city": "BRUSH VALLEY", "state": "PA", "street": "5515 ROUTE 56 HWY E", "postcode": "15720"}}},
{"geometry": {"type": "Point", "coordinates": [-79.0725610544, 40.5404796634]}, "type": "Feature", "properties": {"collection_times": [{"days": "Mon-Fri", "time": "11:55am"}, {"days": "Sat", "time": "11:45am"}, {"days": "Sun", "time": "Closed"}], "id": "1572000001", "name": "USPS COLLECTION BOX - PO LOBBY", "address": {"city": "BRUSH VALLEY", "state": "PA", "street": "5515 ROUTE 56 HWY E", "postcode": "15720"}}},
{"geometry": {"type": "Point", "coordinates": [-78.7841332122, 40.8133145991]}, "type": "Feature", "properties": {"collection_times": [{"days": "Mon-Sat", "time": "10:00am"}, {"days": "Sun", "time": "Closed"}], "id": "1572100000", "name": "USPS COLLECTION BOX - BLUE BOX", "address": {"city": "BURNSIDE", "state": "PA", "street": "124 PINE ST", "postcode": "15721"}}},
{"geometry": {"type": "Point", "coordinates": [-78.7087255055, 40.6063588975]}, "type": "Feature", "properties": {"collection_times": [{"days": "Mon-Fri", "time": "4:30pm"}, {"days": "Sat", "time": "12:00pm"}, {"days": "Sun", "time": "Closed"}], "id": "1572200000", "name": "USPS COLLECTION BOX - BLUE BOX", "address": {"city": "CARROLLTOWN", "state": "PA", "street": "130 N MAIN ST", "postcode": "15722"}}},
{"geometry": {"type": "Point", "coordinates": [-78.7087255055, 40.6063588975]}, "type": "Feature", "properties": {"collection_times": [{"days": "Mon-Fri", "time": "4:30pm"}, {"days": "Sat", "time": "12:00pm"}, {"days": "Sun", "time": "Closed"}], "id": "1572200001", "name": "USPS COLLECTION BOX - PO LOBBY", "address": {"city": "CARROLLTOWN", "state": "PA", "street": "130 N MAIN ST", "postcode": "15722"}}},
{"geometry": {"type": "Point", "coordinates": [-79.1473431686, 40.7046260184]}, "type": "Feature", "properties": {"collection_times": [{"days": "Mon-Fri", "time": "4:00pm"}, {"days": "Sat", "time": "11:45am"}, {"days": "Sun", "time": "Closed"}], "id": "1572300000", "name": "USPS COLLECTION BOX - BLUE BOX", "address": {"city": "CHAMBERSVILLE", "state": "PA", "street": "3503 CHAMBERSVILLE RD", "postcode": "15723"}}},
{"geometry": {"type": "Point", "coordinates": [-78.8011787684, 40.7211786711]}, "type": "Feature", "properties": {"collection_times": [{"days": "Mon-Fri", "time": "4:30pm"}, {"days": "Sat", "time": "11:30am"}, {"days": "Sun", "time": "Closed"}], "id": "1572400000", "name": "USPS COLLECTION BOX - BLUE BOX", "address": {"city": "CHERRY TREE", "state": "PA", "street": "550 S MAIN ST", "postcode": "15724"}}},
{"geometry": {"type": "Point", "coordinates": [-78.8011787684, 40.7211786711]}, "type": "Feature", "properties": {"collection_times": [{"days": "Mon-Fri", "time": "4:30pm"}, {"days": "Sat", "time": "11:30am"}, {"days": "Sun", "time": "Closed"}], "id": "1572400001", "name": "USPS COLLECTION BOX - PO LOBBY", "address": {"city": "CHERRY TREE", "state": "PA", "street": "550 S MAIN ST", "postcode": "15724"}}},
{"geometry": {"type": "Point", "coordinates": [-79.3807372485, 40.5328396906]}, "type": "Feature", "properties": {"collection_times": [{"days": "Mon-Fri", "time": "3:45pm"}, {"days": "Sat", "time": "10:45am"}, {"days": "Sun", "time": "Closed"}], "id": "1572500000", "name": "USPS COLLECTION BOX - BLUE BOX", "address": {"city": "CLARKSBURG", "state": "PA", "street": "15555 ROUTE 286 HWY W", "postcode": "15725"}}},
{"geometry": {"type": "Point", "coordinates": [-79.3807372485, 40.5328396906]}, "type": "Feature", "properties": {"collection_times": [{"days": "Mon-Fri", "time": "3:00pm"}, {"days": "Sat", "time": "10:45am"}, {"days": "Sun", "time": "Closed"}], "id": "1572500001", "name": "USPS COLLECTION BOX - PO LOBBY", "address": {"city": "CLARKSBURG", "state": "PA", "street": "15555 ROUTE 286 HWY W", "postcode": "15725"}}},
{"geometry": {"type": "Point", "coordinates": [-79.2997095741, 40.5578091991]}, "type": "Feature", "properties": {"collection_times": [{"days": "Mon-Fri", "time": "4:00pm"}, {"days": "Sat", "time": "11:15am"}, {"days": "Sun", "time": "Closed"}], "id": "1572700000", "name": "USPS COLLECTION BOX - BLUE BOX", "address": {"city": "CLUNE", "state": "PA", "street": "2021 COAL RUN RD", "postcode": "15727"}}},
{"geometry": {"type": "Point", "coordinates": [-79.2997095741, 40.5578091991]}, "type": "Feature", "properties": {"collection_times": [{"days": "Mon-Fri", "time": "1:50pm"}, {"days": "Sat", "time": "11:15am"}, {"days": "Sun", "time": "Closed"}], "id": "1572700001", "name": "USPS COLLECTION BOX - PO LOBBY", "address": {"city": "CLUNE", "state": "PA", "street": "2021 COAL RUN RD", "postcode": "15727"}}},
{"geometry": {"type": "Point", "coordinates": [-79.010994006, 40.6689899614]}, "type": "Feature", "properties": {"collection_times": [{"days": "Mon-Fri", "time": "4:30pm"}, {"days": "Sat", "time": "1:00pm"}, {"days": "Sun", "time": "Closed"}], "id": "1572800000", "name": "USPS COLLECTION BOX - BLUE BOX", "address": {"city": "CLYMER", "state": "PA", "street": "735 FRANKLIN ST", "postcode": "15728"}}},
{"geometry": {"type": "Point", "coordinates": [-79.0097609584, 40.6732829938]}, "type": "Feature", "properties": {"collection_times": [{"days": "Mon-Sat", "time": "9:30am"}, {"days": "Sun", "time": "Closed"}], "id": "1572800001", "name": "USPS COLLECTION BOX - BLUE BOX", "address": {"city": "CLYMER", "state": "PA", "street": "576 ADAMS ST", "postcode": "15728"}}},
{"geometry": {"type": "Point", "coordinates": [-79.0098130619, 40.6703493619]}, "type": "Feature", "properties": {"collection_times": [{"days": "Mon-Sat", "time": "1:00pm"}, {"days": "Sun", "time": "Closed"}], "id": "1572800004", "name": "USPS COLLECTION BOX - BLUE BOX", "address": {"city": "CLYMER", "state": "PA", "street": "120 4TH ST", "postcode": "15728"}}},
{"geometry": {"type": "Point", "coordinates": [-79.0122025813, 40.6677140058]}, "type": "Feature", "properties": {"collection_times": [{"days": "Mon-Sat", "time": "1:00pm"}, {"days": "Sun", "time": "Closed"}], "id": "1572800007", "name": "USPS COLLECTION BOX - BLUE BOX", "address": {"city": "CLYMER", "state": "PA", "street": "530 FRANKLIN ST", "postcode": "15728"}}},
{"geometry": {"type": "Point", "coordinates": [-79.010994006, 40.6689899614]}, "type": "Feature", "properties": {"collection_times": [{"days": "Mon-Fri", "time": "4:30pm"}, {"days": "Sat", "time": "1:00pm"}, {"days": "Sun", "time": "Closed"}], "id": "1572800011", "name": "USPS COLLECTION BOX - PO LOBBY", "address": {"city": "CLYMER", "state": "PA", "street": "735 FRANKLIN ST", "postcode": "15728"}}},
{"geometry": {"type": "Point", "coordinates": [-79.0078391298, 40.6824006784]}, "type": "Feature", "properties": {"collection_times": [{"days": "Mon-Sat", "time": "9:00am"}, {"days": "Sun", "time": "Closed"}], "id": "1572800012", "name": "USPS COLLECTION BOX - BLUE BOX", "address": {"city": "CLYMER", "state": "PA", "street": "9999 ROUTE 553", "postcode": "15728"}}},
{"geometry": {"type": "Point", "coordinates": [-78.9440065752, 40.7127067351]}, "type": "Feature", "properties": {"collection_times": [{"days": "Mon-Fri", "time": "4:15pm"}, {"days": "Sat", "time": "10:30am"}, {"days": "Sun", "time": "Closed"}], "id": "1572900000", "name": "USPS COLLECTION BOX - PO LOBBY", "address": {"city": "COMMODORE", "state": "PA", "street": "5 VANDERBILT ST", "postcode": "15729"}}},
{"geometry": {"type": "Point", "coordinates": [-78.9440065752, 40.7127067351]}, "type": "Feature", "properties": {"collection_times": [{"days": "Mon-Fri", "time": "4:15pm"}, {"days": "Sat", "time": "10:30am"}, {"days": "Sun", "time": "Closed"}], "id": "1572900001", "name": "USPS COLLECTION BOX - BLUE BOX", "address": {"city": "COMMODORE", "state": "PA", "street": "5 VANDERBILT ST", "postcode": "15729"}}},
{"geometry": {"type": "Point", "coordinates": [-79.1924974759, 40.6818542685]}, "type": "Feature", "properties": {"collection_times": [{"days": "Mon-Fri", "time": "3:30pm"}, {"days": "Sat", "time": "11:30am"}, {"days": "Sun", "time": "Closed"}], "id": "1573200000", "name": "USPS COLLECTION BOX - BLUE BOX", "address": {"city": "CREEKSIDE", "state": "PA", "street": "435 INDIANA RD", "postcode": "15732"}}},
{"geometry": {"type": "Point", "coordinates": [-79.1924974759, 40.6818542685]}, "type": "Feature", "properties": {"collection_times": [{"days": "Mon-Fri", "time": "3:45pm"}, {"days": "Sat", "time": "11:45am"}, {"days": "Sun", "time": "Closed"}], "id": "1573200001", "name": "USPS COLLECTION BOX - PO LOBBY", "address": {"city": "CREEKSIDE", "state": "PA", "street": "435 INDIANA RD", "postcode": "15732"}}},
{"geometry": {"type": "Point", "coordinates": [-78.9693401183, 40.9824150624]}, "type": "Feature", "properties": {"collection_times": [{"days": "Mon-Sat", "time": "9:15am"}, {"days": "Sun", "time": "Closed"}], "id": "1573300000", "name": "USPS COLLECTION BOX - BLUE BOX", "address": {"city": "DELANCEY", "state": "PA", "street": "493 ADRIAN RD", "postcode": "15733"}}},
{"geometry": {"type": "Point", "coordinates": [-78.9693401183, 40.9824150624]}, "type": "Feature", "properties": {"collection_times": [{"days": "Mon-Sat", "time": "9:15am"}, {"days": "Sun", "time": "Closed"}], "id": "1573300001", "name": "USPS COLLECTION BOX - PO LOBBY", "address": {"city": "DELANCEY", "state": "PA", "street": "493 ADRIAN RD", "postcode": "15733"}}},
{"geometry": {"type": "Point", "coordinates": [-79.0068119022, 40.7186662159]}, "type": "Feature", "properties": {"collection_times": [{"days": "Mon-Fri", "time": "3:00pm"}, {"days": "Sat", "time": "10:30am"}, {"days": "Sun", "time": "Closed"}], "id": "1573400000", "name": "USPS COLLECTION BOX - BLUE BOX", "address": {"city": "DIXONVILLE", "state": "PA", "street": "18050 ROUTE 403 HWY N", "postcode": "15734"}}},
{"geometry": {"type": "Point", "coordinates": [-79.0068119022, 40.7186662159]}, "type": "Feature", "properties": {"collection_times": [{"days": "Mon-Fri", "time": "11:55am"}, {"days": "Sat", "time": "10:30am"}, {"days": "Sun", "time": "Closed"}], "id": "1573400001", "name": "USPS COLLECTION BOX - PO LOBBY", "address": {"city": "DIXONVILLE", "state": "PA", "street": "18050 ROUTE 403 HWY N", "postcode": "15734"}}},
{"geometry": {"type": "Point", "coordinates": [-79.3431073333, 40.6948047163]}, "type": "Feature", "properties": {"collection_times": [{"days": "Mon-Fri", "time": "4:15pm"}, {"days": "Sat", "time": "11:15am"}, {"days": "Sun", "time": "Closed"}], "id": "1573600000", "name": "USPS COLLECTION BOX - PO LOBBY", "address": {"city": "ELDERTON", "state": "PA", "street": "201 E SALTWORK ST", "postcode": "15736"}}},
{"geometry": {"type": "Point", "coordinates": [-79.3431073333, 40.6948047163]}, "type": "Feature", "properties": {"collection_times": [{"days": "Mon-Fri", "time": "4:15pm"}, {"days": "Sat", "time": "11:15am"}, {"days": "Sun", "time": "Closed"}], "id": "1573600001", "name": "USPS COLLECTION BOX - BLUE BOX", "address": {"city": "ELDERTON", "state": "PA", "street": "201 E SALTWORK ST", "postcode": "15736"}}},
{"geometry": {"type": "Point", "coordinates": [-78.7449015515, 40.6013704676]}, "type": "Feature", "properties": {"collection_times": [{"days": "Mon-Fri", "time": "4:15pm"}, {"days": "Sat", "time": "11:45am"}, {"days": "Sun", "time": "Closed"}], "id": "1573700000", "name": "USPS COLLECTION BOX - BLUE BOX", "address": {"city": "ELMORA", "state": "PA", "street": "990 DEVEAUX ST", "postcode": "15737"}}},
{"geometry": {"type": "Point", "coordinates": [-78.7449015515, 40.6013704676]}, "type": "Feature", "properties": {"collection_times": [{"days": "Mon-Fri", "time": "11:55am"}, {"days": "Sat", "time": "11:45am"}, {"days": "Sun", "time": "Closed"}], "id": "1573700001", "name": "USPS COLLECTION BOX - PO LOBBY", "address": {"city": "ELMORA", "state": "PA", "street": "990 DEVEAUX ST", "postcode": "15737"}}},
{"geometry": {"type": "Point", "coordinates": [-78.7907062395, 40.6962746441]}, "type": "Feature", "properties": {"collection_times": [{"days": "Mon-Fri", "time": "4:45pm"}, {"days": "Sat", "time": "11:45am"}, {"days": "Sun", "time": "Closed"}], "id": "1573800000", "name": "USPS COLLECTION BOX - BLUE BOX", "address": {"city": "EMEIGH", "state": "PA", "street": "871 MAIN ST", "postcode": "15738"}}},
{"geometry": {"type": "Point", "coordinates": [-78.7907062395, 40.6962746441]}, "type": "Feature", "properties": {"collection_times": [{"days": "Mon-Fri", "time": "12:55pm"}, {"days": "Sat", "time": "11:45am"}, {"days": "Sun", "time": "Closed"}], "id": "1573800001", "name": "USPS COLLECTION BOX - PO LOBBY", "address": {"city": "EMEIGH", "state": "PA", "street": "871 MAIN ST", "postcode": "15738"}}},
{"geometry": {"type": "Point", "coordinates": [-78.8636536044, 40.8095893527]}, "type": "Feature", "properties": {"collection_times": [{"days": "Mon-Fri", "time": "3:15pm"}, {"days": "Sat", "time": "11:00am"}, {"days": "Sun", "time": "Closed"}], "id": "1574100000", "name": "USPS COLLECTION BOX - BLUE BOX", "address": {"city": "GIPSY", "state": "PA", "street": "3885 GIPSY RD", "postcode": "15741"}}},
{"geometry": {"type": "Point", "coordinates": [-78.8636536044, 40.8095893527]}, "type": "Feature", "properties": {"collection_times": [{"days": "Mon-Fri", "time": "3:15pm"}, {"days": "Sat", "time": "11:00am"}, {"days": "Sun", "time": "Closed"}], "id": "1574100001", "name": "USPS COLLECTION BOX - PO LOBBY", "address": {"city": "GIPSY", "state": "PA", "street": "3885 GIPSY RD", "postcode": "15741"}}},
{"geometry": {"type": "Point", "coordinates": [-78.8270809179, 40.8209849803]}, "type": "Feature", "properties": {"collection_times": [{"days": "Mon-Fri", "time": "3:30pm"}, {"days": "Sat", "time": "11:00am"}, {"days": "Sun", "time": "Closed"}], "id": "1574200000", "name": "USPS COLLECTION BOX - BLUE BOX", "address": {"city": "GLEN CAMPBELL", "state": "PA", "street": "455 GLENWOOD AVE", "postcode": "15742"}}},
{"geometry": {"type": "Point", "coordinates": [-78.8270809179, 40.8209849803]}, "type": "Feature", "properties": {"collection_times": [{"days": "Mon-Fri", "time": "11:55am"}, {"days": "Sat", "time": "11:00am"}, {"days": "Sun", "time": "Closed"}], "id": "1574200001", "name": "USPS COLLECTION BOX - PO LOBBY", "address": {"city": "GLEN CAMPBELL", "state": "PA", "street": "455 GLENWOOD AVE", "postcode": "15742"}}},
{"geometry": {"type": "Point", "coordinates": [-79.0834703576, 40.9179000566]}, "type": "Feature", "properties": {"collection_times": [{"days": "Mon-Fri", "time": "10:45am"}, {"days": "Sat", "time": "10:15am"}, {"days": "Sun", "time": "Closed"}], "id": "1574400000", "name": "USPS COLLECTION BOX - BLUE BOX", "address": {"city": "HAMILTON", "state": "PA", "street": "23 HAMILTON MARKTON RD", "postcode": "15744"}}},
{"geometry": {"type": "Point", "coordinates": [-79.0834703576, 40.9179000566]}, "type": "Feature", "properties": {"collection_times": [{"days": "Mon-Fri", "time": "10:45am"}, {"days": "Sat", "time": "10:15am"}, {"days": "Sun", "time": "Closed"}], "id": "1574400001", "name": "USPS COLLECTION BOX - PO LOBBY", "address": {"city": "HAMILTON", "state": "PA", "street": "23 HAMILTON MARKTON RD", "postcode": "15744"}}},
{"geometry": {"type": "Point", "coordinates": [-78.9168122756, 40.6205311743]}, "type": "Feature", "properties": {"collection_times": [{"days": "Mon-Fri", "time": "4:15pm"}, {"days": "Sat", "time": "11:15am"}, {"days": "Sun", "time": "Closed"}], "id": "1574500000", "name": "USPS COLLECTION BOX - BLUE BOX", "address": {"city": "HEILWOOD", "state": "PA", "street": "6521 ROUTE 403 HWY N", "postcode": "15745"}}},
{"geometry": {"type": "Point", "coordinates": [-78.9168122756, 40.6205311743]}, "type": "Feature", "properties": {"collection_times": [{"days": "Mon-Fri", "time": "11:55am"}, {"days": "Sat", "time": "11:30am"}, {"days": "Sun", "time": "Closed"}], "id": "1574500002", "name": "USPS COLLECTION BOX - PO LOBBY", "address": {"city": "HEILWOOD", "state": "PA", "street": "6521 ROUTE 403 HWY N", "postcode": "15745"}}},
{"geometry": {"type": "Point", "coordinates": [-78.8798291524, 40.7521978248]}, "type": "Feature", "properties": {"collection_times": [{"days": "Mon-Fri", "time": "2:30pm"}, {"days": "Sat", "time": "11:45am"}, {"days": "Sun", "time": "Closed"}], "id": "1574600000", "name": "USPS COLLECTION BOX - BLUE BOX", "address": {"city": "HILLSDALE", "state": "PA", "street": "14 WILGUS RD", "postcode": "15746"}}},
{"geometry": {"type": "Point", "coordinates": [-78.8798291524, 40.7521978248]}, "type": "Feature", "properties": {"collection_times": [{"days": "Mon-Sat", "time": "11:45am"}, {"days": "Sun", "time": "Closed"}], "id": "1574600001", "name": "USPS COLLECTION BOX - PO LOBBY", "address": {"city": "HILLSDALE", "state": "PA", "street": "14 WILGUS RD", "postcode": "15746"}}},
{"geometry": {"type": "Point", "coordinates": [-79.2128266723, 40.7968507041]}, "type": "Feature", "properties": {"collection_times": [{"days": "Mon-Fri", "time": "4:00pm"}, {"days": "Sat", "time": "11:15am"}, {"days": "Sun", "time": "Closed"}], "id": "1574700000", "name": "USPS COLLECTION BOX - BLUE BOX", "address": {"city": "HOME", "state": "PA", "street": "51 ROUTE 85 HWY", "postcode": "15747"}}},
{"geometry": {"type": "Point", "coordinates": [-79.2128266723, 40.7968507041]}, "type": "Feature", "properties": {"collection_times": [{"days": "Mon-Fri", "time": "4:00pm"}, {"days": "Sat", "time": "11:15am"}, {"days": "Sun", "time": "Closed"}], "id": "1574700001", "name": "USPS COLLECTION BOX - PO LOBBY", "address": {"city": "HOME", "state": "PA", "street": "51 ROUTE 85 HWY", "postcode": "15747"}}},
{"geometry": {"type": "Point", "coordinates": [-79.1613411648, 40.542348653]}, "type": "Feature", "properties": {"collection_times": [{"days": "Mon-Fri", "time": "4:30pm"}, {"days": "Sat", "time": "12:15pm"}, {"days": "Sun", "time": "Closed"}], "id": "1574800001", "name": "USPS COLLECTION BOX - BLUE BOX", "address": {"city": "HOMER CITY", "state": "PA", "street": "25 N MAIN ST", "postcode": "15748"}}},
{"geometry": {"type": "Point", "coordinates": [-79.1625499209, 40.5404318254]}, "type": "Feature", "properties": {"collection_times": [{"days": "Mon-Sat", "time": "8:30am"}, {"days": "Sun", "time": "Closed"}], "id": "1574800013", "name": "USPS COLLECTION BOX - BLUE BOX", "address": {"city": "HOMER CITY", "state": "PA", "street": "125 W ELM ST", "postcode": "15748"}}},
{"geometry": {"type": "Point", "coordinates": [-79.1613411648, 40.542348653]}, "type": "Feature", "properties": {"collection_times": [{"days": "Mon-Fri", "time": "4:30pm"}, {"days": "Sat", "time": "12:15pm"}, {"days": "Sun", "time": "Closed"}], "id": "1574800015", "name": "USPS COLLECTION BOX - PO LOBBY", "address": {"city": "HOMER CITY", "state": "PA", "street": "25 N MAIN ST", "postcode": "15748"}}},
{"geometry": {"type": "Point", "coordinates": [-79.2828505392, 40.5406063342]}, "type": "Feature", "properties": {"collection_times": [{"days": "Mon-Fri", "time": "9:50am"}, {"days": "Sat", "time": "11:15am"}, {"days": "Sun", "time": "Closed"}], "id": "1575200000", "name": "USPS COLLECTION BOX - BLUE BOX", "address": {"city": "KENT", "state": "PA", "street": "90 E JACKSON ST", "postcode": "15752"}}},
{"geometry": {"type": "Point", "coordinates": [-79.2828505392, 40.5406063342]}, "type": "Feature", "properties": {"collection_times": [{"days": "Mon-Fri", "time": "9:50am"}, {"days": "Sat", "time": "11:15am"}, {"days": "Sun", "time": "Closed"}], "id": "1575200001", "name": "USPS COLLECTION BOX - PO LOBBY", "address": {"city": "KENT", "state": "PA", "street": "90 E JACKSON ST", "postcode": "15752"}}},
{"geometry": {"type": "Point", "coordinates": [-78.6585482249, 40.7870743274]}, "type": "Feature", "properties": {"collection_times": [{"days": "Mon-Fri", "time": "3:45pm"}, {"days": "Sat", "time": "11:00am"}, {"days": "Sun", "time": "Closed"}], "id": "1575300000", "name": "USPS COLLECTION BOX - BLUE BOX", "address": {"city": "LA JOSE", "state": "PA", "street": "33 CECIL HURD HWY", "postcode": "15753"}}},
{"geometry": {"type": "Point", "coordinates": [-78.677148234, 40.835470762]}, "type": "Feature", "properties": {"collection_times": [{"days": "Mon-Fri", "time": "9:50am"}, {"days": "Sat", "time": "11:00am"}, {"days": "Sun", "time": "Closed"}], "id": "1575300001", "name": "USPS COLLECTION BOX - PO LOBBY", "address": {"city": "LA JOSE", "state": "PA", "street": "33 CECIL HURD HWY", "postcode": "15753"}}},
{"geometry": {"type": "Point", "coordinates": [-79.1519095716, 40.5484661169]}, "type": "Feature", "properties": {"collection_times": [{"days": "Mon-Fri", "time": "11:55am"}, {"days": "Sat", "time": "11:45am"}, {"days": "Sun", "time": "Closed"}], "id": "1575400000", "name": "USPS COLLECTION BOX - PO LOBBY", "address": {"city": "LUCERNEMINES", "state": "PA", "street": "161 6TH ST", "postcode": "15754"}}},
{"geometry": {"type": "Point", "coordinates": [-79.1519095716, 40.5484661169]}, "type": "Feature", "properties": {"collection_times": [{"days": "Mon-Fri", "time": "11:55am"}, {"days": "Sat", "time": "11:45am"}, {"days": "Sun", "time": "Closed"}], "id": "1575400001", "name": "USPS COLLECTION BOX - BLUE BOX", "address": {"city": "LUCERNEMINES", "state": "PA", "street": "161 6TH ST", "postcode": "15754"}}},
{"geometry": {"type": "Point", "coordinates": [-79.2920941665, 40.5657101846]}, "type": "Feature", "properties": {"collection_times": [{"days": "Mon-Fri", "time": "3:30pm"}, {"days": "Sat", "time": "11:15am"}, {"days": "Sun", "time": "Closed"}], "id": "1575600000", "name": "USPS COLLECTION BOX - BLUE BOX", "address": {"city": "MCINTYRE", "state": "PA", "street": "2576 MCINTYRE RD", "postcode": "15756"}}},
{"geometry": {"type": "Point", "coordinates": [-79.2920941665, 40.5657101846]}, "type": "Feature", "properties": {"collection_times": [{"days": "Mon-Fri", "time": "10:50am"}, {"days": "Sat", "time": "11:15am"}, {"days": "Sun", "time": "Closed"}], "id": "1575600001", "name": "USPS COLLECTION BOX - PO LOBBY", "address": {"city": "MCINTYRE", "state": "PA", "street": "2576 MCINTYRE RD", "postcode": "15756"}}},
{"geometry": {"type": "Point", "coordinates": [-78.7278337251, 40.877891002]}, "type": "Feature", "properties": {"collection_times": [{"days": "Mon-Fri", "time": "3:45pm"}, {"days": "Sat", "time": "11:30am"}, {"days": "Sun", "time": "Closed"}], "id": "1575700000", "name": "USPS COLLECTION BOX - BLUE BOX", "address": {"city": "MAHAFFEY", "state": "PA", "street": "10 E MAIN ST", "postcode": "15757"}}},
{"geometry": {"type": "Point", "coordinates": [-78.7278337251, 40.877891002]}, "type": "Feature", "properties": {"collection_times": [{"days": "Mon-Fri", "time": "3:45pm"}, {"days": "Sat", "time": "11:30am"}, {"days": "Sun", "time": "Closed"}], "id": "1575700001", "name": "USPS COLLECTION BOX - PO LOBBY", "address": {"city": "MAHAFFEY", "state": "PA", "street": "10 E MAIN ST", "postcode": "15757"}}},
{"geometry": {"type": "Point", "coordinates": [-79.0454168214, 40.7637212035]}, "type": "Feature", "properties": {"collection_times": [{"days": "Mon-Fri", "time": "3:00pm"}, {"days": "Sat", "time": "11:45am"}, {"days": "Sun", "time": "Closed"}], "id": "1575900000", "name": "USPS COLLECTION BOX - BLUE BOX", "address": {"city": "MARION CENTER", "state": "PA", "street": "204 MANOR ST", "postcode": "15759"}}},
{"geometry": {"type": "Point", "coordinates": [-79.0454168214, 40.7637212035]}, "type": "Feature", "properties": {"collection_times": [{"days": "Mon-Fri", "time": "3:00pm"}, {"days": "Sat", "time": "11:45am"}, {"days": "Sun", "time": "Closed"}], "id": "1575900001", "name": "USPS COLLECTION BOX - PO LOBBY", "address": {"city": "MARION CENTER", "state": "PA", "street": "204 MANOR ST", "postcode": "15759"}}},
{"geometry": {"type": "Point", "coordinates": [-78.8053188627, 40.6136266675]}, "type": "Feature", "properties": {"collection_times": [{"days": "Mon-Fri", "time": "4:00pm"}, {"days": "Sat", "time": "11:45am"}, {"days": "Sun", "time": "Closed"}], "id": "1576200000", "name": "USPS COLLECTION BOX - BLUE BOX", "address": {"city": "NICKTOWN", "state": "PA", "street": "3281 BLUE GOOSE RD", "postcode": "15762"}}},
{"geometry": {"type": "Point", "coordinates": [-78.8053188627, 40.6136266675]}, "type": "Feature", "properties": {"collection_times": [{"days": "Mon-Fri", "time": "4:00pm"}, {"days": "Sat", "time": "11:45am"}, {"days": "Sun", "time": "Closed"}], "id": "1576200001", "name": "USPS COLLECTION BOX - PO LOBBY", "address": {"city": "NICKTOWN", "state": "PA", "street": "3281 BLUE GOOSE RD", "postcode": "15762"}}},
{"geometry": {"type": "Point", "coordinates": [-79.0099233838, 40.6173906453]}, "type": "Feature", "properties": {"collection_times": [{"days": "Mon-Fri", "time": "4:45pm"}, {"days": "Sat", "time": "11:15am"}, {"days": "Sun", "time": "Closed"}], "id": "1576500000", "name": "USPS COLLECTION BOX - BLUE BOX", "address": {"city": "PENN RUN", "state": "PA", "street": "1417 N HARMONY RD", "postcode": "15765"}}},
{"geometry": {"type": "Point", "coordinates": [-79.0099233838, 40.6173906453]}, "type": "Feature", "properties": {"collection_times": [{"days": "Mon-Fri", "time": "3:45pm"}, {"days": "Sat", "time": "11:15am"}, {"days": "Sun", "time": "Closed"}], "id": "1576500001", "name": "USPS COLLECTION BOX - PO LOBBY", "address": {"city": "PENN RUN", "state": "PA", "street": "1417 N HARMONY RD", "postcode": "15765"}}},
{"geometry": {"type": "Point", "coordinates": [-78.9708159878, 40.9426587702]}, "type": "Feature", "properties": {"collection_times": [{"days": "Mon-Fri", "time": "3:00pm"}, {"days": "Sat", "time": "12:30pm"}, {"days": "Sun", "time": "Closed"}], "id": "1576700002", "name": "USPS COLLECTION BOX - BLUE BOX", "address": {"city": "PUNXSUTAWNEY", "state": "PA", "street": "200 S FINDLEY ST", "postcode": "15767"}}},
{"geometry": {"type": "Point", "coordinates": [-78.9683944361, 40.9442785909]}, "type": "Feature", "properties": {"collection_times": [{"days": "Mon-Fri", "time": "3:15pm"}, {"days": "Sat", "time": "12:30pm"}, {"days": "Sun", "time": "Closed"}], "id": "1576700003", "name": "USPS COLLECTION BOX - BLUE BOX", "address": {"city": "PUNXSUTAWNEY", "state": "PA", "street": "301 E MAHONING ST", "postcode": "15767"}}},
{"geometry": {"type": "Point", "coordinates": [-78.99169637, 40.943773668]}, "type": "Feature", "properties": {"collection_times": [{"days": "Mon-Fri", "time": "2:45pm"}, {"days": "Sat", "time": "12:00pm"}, {"days": "Sun", "time": "Closed"}], "id": "1576700004", "name": "USPS COLLECTION BOX - BLUE BOX", "address": {"city": "PUNXSUTAWNEY", "state": "PA", "street": "1028 W MAHONING ST", "postcode": "15767"}}},
{"geometry": {"type": "Point", "coordinates": [-78.9711014529, 40.9436087407]}, "type": "Feature", "properties": {"collection_times": [{"days": "Mon-Fri", "time": "2:30pm"}, {"days": "Sat", "time": "12:30pm"}, {"days": "Sun", "time": "Closed"}], "id": "1576700007", "name": "USPS COLLECTION BOX - BLUE BOX", "address": {"city": "PUNXSUTAWNEY", "state": "PA", "street": "102 N FINDLEY ST", "postcode": "15767"}}},
{"geometry": {"type": "Point", "coordinates": [-78.9676051663, 40.9472991622]}, "type": "Feature", "properties": {"collection_times": [{"days": "Mon-Fri", "time": "2:45pm"}, {"days": "Sat", "time": "12:30pm"}, {"days": "Sun", "time": "Closed"}], "id": "1576700014", "name": "USPS COLLECTION BOX - BLUE BOX", "address": {"city": "PUNXSUTAWNEY", "state": "PA", "street": "201 HAMPTON AVE", "postcode": "15767"}}},
{"geometry": {"type": "Point", "coordinates": [-78.9803712187, 40.9444046702]}, "type": "Feature", "properties": {"collection_times": [{"days": "Mon-Sat", "time": "1:30pm"}, {"days": "Sun", "time": "Closed"}], "id": "1576700017", "name": "USPS COLLECTION BOX - BLUE BOX", "address": {"city": "PUNXSUTAWNEY", "state": "PA", "street": "400 SUTTON ST", "postcode": "15767"}}},
{"geometry": {"type": "Point", "coordinates": [-78.9990594562, 40.961525144]}, "type": "Feature", "properties": {"collection_times": [{"days": "Mon-Fri", "time": "3:00pm"}, {"days": "Sat", "time": "12:00pm"}, {"days": "Sun", "time": "Closed"}], "id": "1576700021", "name": "USPS COLLECTION BOX - BLUE BOX", "address": {"city": "PUNXSUTAWNEY", "state": "PA", "street": "81 HILLCREST DR", "postcode": "15767"}}},
{"geometry": {"type": "Point", "coordinates": [-78.9741617671, 40.9429818808]}, "type": "Feature", "properties": {"collection_times": [{"days": "Mon-Fri", "time": "3:00pm"}, {"days": "Sat", "time": "12:15pm"}, {"days": "Sun", "time": "Closed"}], "id": "1576700023", "name": "USPS COLLECTION BOX - BLUE BOX", "address": {"city": "PUNXSUTAWNEY", "state": "PA", "street": "300 W MAHONING ST", "postcode": "15767"}}},
{"geometry": {"type": "Point", "coordinates": [-78.9638145572, 40.9497137661]}, "type": "Feature", "properties": {"collection_times": [{"days": "Mon-Sat", "time": "12:00pm"}, {"days": "Sun", "time": "Closed"}], "id": "1576700032", "name": "USPS COLLECTION BOX - BLUE BOX", "address": {"city": "PUNXSUTAWNEY", "state": "PA", "street": "100 ELK RUN AVE", "postcode": "15767"}}},
{"geometry": {"type": "Point", "coordinates": [-78.9734599675, 40.9440920277]}, "type": "Feature", "properties": {"collection_times": [{"days": "Mon-Fri", "time": "3:00pm"}, {"days": "Sat", "time": "12:00pm"}, {"days": "Sun", "time": "Closed"}], "id": "1576700035", "name": "USPS COLLECTION BOX - BLUE BOX", "address": {"city": "PUNXSUTAWNEY", "state": "PA", "street": "200 PINE ST", "postcode": "15767"}}},
{"geometry": {"type": "Point", "coordinates": [-78.9631763693, 40.9445046305]}, "type": "Feature", "properties": {"collection_times": [{"days": "Mon-Fri", "time": "4:45pm"}, {"days": "Sat", "time": "4:30pm"}, {"days": "Sun", "time": "Closed"}], "id": "1576700039", "name": "USPS COLLECTION BOX - BLUE BOX", "address": {"city": "PUNXSUTAWNEY", "state": "PA", "street": "553 E MAHONING ST", "postcode": "15767"}}},
{"geometry": {"type": "Point", "coordinates": [-78.9631763693, 40.9445046305]}, "type": "Feature", "properties": {"collection_times": [{"days": "Mon-Fri", "time": "4:45pm"}, {"days": "Sat", "time": "4:30pm"}, {"days": "Sun", "time": "Closed"}], "id": "1576700040", "name": "USPS COLLECTION BOX - BLUE BOX", "address": {"city": "PUNXSUTAWNEY", "state": "PA", "street": "553 E MAHONING ST", "postcode": "15767"}}},
{"geometry": {"type": "Point", "coordinates": [-78.9827035243, 40.9423290216]}, "type": "Feature", "properties": {"collection_times": [{"days": "Mon-Fri", "time": "3:00pm"}, {"days": "Sat", "time": "12:00pm"}, {"days": "Sun", "time": "Closed"}], "id": "1576700041", "name": "USPS COLLECTION BOX - BLUE BOX", "address": {"city": "PUNXSUTAWNEY", "state": "PA", "street": "555 W MAHONING ST", "postcode": "15767"}}},
{"geometry": {"type": "Point", "coordinates": [-78.9631763693, 40.9445046305]}, "type": "Feature", "properties": {"collection_times": [{"days": "Mon-Fri", "time": "4:45pm"}, {"days": "Sat", "time": "4:30pm"}, {"days": "Sun", "time": "Closed"}], "id": "1576700042", "name": "USPS COLLECTION BOX - PO LOBBY", "address": {"city": "PUNXSUTAWNEY", "state": "PA", "street": "553 E MAHONING ST", "postcode": "15767"}}},
{"geometry": {"type": "Point", "coordinates": [-78.9831603483, 40.928929382]}, "type": "Feature", "properties": {"collection_times": [{"days": "Mon-Sat", "time": "10:30am"}, {"days": "Sun", "time": "Closed"}], "id": "1576700043", "name": "USPS COLLECTION BOX - BLUE BOX", "address": {"city": "PUNXSUTAWNEY", "state": "PA", "street": "21920 ROUTE 119", "postcode": "15767"}}},
{"geometry": {"type": "Point", "coordinates": [-78.986545042, 40.8183422865]}, "type": "Feature", "properties": {"collection_times": [{"days": "Mon-Fri", "time": "4:00pm"}, {"days": "Sat", "time": "10:45am"}, {"days": "Sun", "time": "Closed"}], "id": "1577100000", "name": "USPS COLLECTION BOX - BLUE BOX", "address": {"city": "ROCHESTER MILLS", "state": "PA", "street": "4941 RICHMOND RD", "postcode": "15771"}}},
{"geometry": {"type": "Point", "coordinates": [-78.986545042, 40.8183422865]}, "type": "Feature", "properties": {"collection_times": [{"days": "Mon-Fri", "time": "11:55am"}, {"days": "Sat", "time": "10:45am"}, {"days": "Sun", "time": "Closed"}], "id": "1577100001", "name": "USPS COLLECTION BOX - PO LOBBY", "address": {"city": "ROCHESTER MILLS", "state": "PA", "street": "4941 RICHMOND RD", "postcode": "15771"}}},
{"geometry": {"type": "Point", "coordinates": [-78.9291363033, 40.8917733221]}, "type": "Feature", "properties": {"collection_times": [{"days": "Mon-Fri", "time": "4:30pm"}, {"days": "Sat", "time": "11:15am"}, {"days": "Sun", "time": "Closed"}], "id": "1577200000", "name": "USPS COLLECTION BOX - BLUE BOX", "address": {"city": "ROSSITER", "state": "PA", "street": "384 CENTRAL ST", "postcode": "15772"}}},
{"geometry": {"type": "Point", "coordinates": [-78.9291363033, 40.8917733221]}, "type": "Feature", "properties": {"collection_times": [{"days": "Mon-Fri", "time": "4:30pm"}, {"days": "Sat", "time": "11:15am"}, {"days": "Sun", "time": "Closed"}], "id": "1577200001", "name": "USPS COLLECTION BOX - PO LOBBY", "address": {"city": "ROSSITER", "state": "PA", "street": "384 CENTRAL ST", "postcode": "15772"}}},
{"geometry": {"type": "Point", "coordinates": [-78.7306270203, 40.6272075047]}, "type": "Feature", "properties": {"collection_times": [{"days": "Mon-Fri", "time": "4:45pm"}, {"days": "Sat", "time": "11:00am"}, {"days": "Sun", "time": "Closed"}], "id": "1577300000", "name": "USPS COLLECTION BOX - BLUE BOX", "address": {"city": "SAINT BENEDICT", "state": "PA", "street": "125 POST OFFICE RD", "postcode": "15773"}}},
{"geometry": {"type": "Point", "coordinates": [-78.7306270203, 40.6272075047]}, "type": "Feature", "properties": {"collection_times": [{"days": "Mon-Fri", "time": "12:50pm"}, {"days": "Sat", "time": "11:00am"}, {"days": "Sun", "time": "Closed"}], "id": "1577300001", "name": "USPS COLLECTION BOX - PO LOBBY", "address": {"city": "SAINT BENEDICT", "state": "PA", "street": "125 POST OFFICE RD", "postcode": "15773"}}},
{"geometry": {"type": "Point", "coordinates": [-79.2990197745, 40.6543806156]}, "type": "Feature", "properties": {"collection_times": [{"days": "Mon-Fri", "time": "4:15pm"}, {"days": "Sat", "time": "1:00pm"}, {"days": "Sun", "time": "Closed"}], "id": "1577400000", "name": "USPS COLLECTION BOX - BLUE BOX", "address": {"city": "SHELOCTA", "state": "PA", "street": "30 MAIN ST", "postcode": "15774"}}},
{"geometry": {"type": "Point", "coordinates": [-79.3158121034, 40.6644773207]}, "type": "Feature", "properties": {"collection_times": [{"days": "Mon-Sat", "time": "10:00am"}, {"days": "Sun", "time": "Closed"}], "id": "1577400001", "name": "USPS COLLECTION BOX - BLUE BOX", "address": {"city": "SHELOCTA", "state": "PA", "street": "11134 US ROUTE 422", "postcode": "15774"}}},
{"geometry": {"type": "Point", "coordinates": [-79.2990197745, 40.6543806156]}, "type": "Feature", "properties": {"collection_times": [{"days": "Mon-Fri", "time": "4:15pm"}, {"days": "Sat", "time": "11:00am"}, {"days": "Sun", "time": "Closed"}], "id": "1577400002", "name": "USPS COLLECTION BOX - PO LOBBY", "address": {"city": "SHELOCTA", "state": "PA", "street": "30 MAIN ST", "postcode": "15774"}}},
{"geometry": {"type": "Point", "coordinates": [-79.3183460001, 40.6468218948]}, "type": "Feature", "properties": {"collection_times": [{"days": "Mon-Sat", "time": "10:00am"}, {"days": "Sun", "time": "Closed"}], "id": "1577400003", "name": "USPS COLLECTION BOX - BLUE BOX", "address": {"city": "SHELOCTA", "state": "PA", "street": "9639 US ROUTE 422", "postcode": "15774"}}},
{"geometry": {"type": "Point", "coordinates": [-78.772455468, 40.6421936529]}, "type": "Feature", "properties": {"collection_times": [{"days": "Mon-Fri", "time": "4:30pm"}, {"days": "Sat", "time": "11:30am"}, {"days": "Sun", "time": "Closed"}], "id": "1577500000", "name": "USPS COLLECTION BOX - BLUE BOX", "address": {"city": "SPANGLER", "state": "PA", "street": "1904 BIGLER AVE", "postcode": "15775"}}},
{"geometry": {"type": "Point", "coordinates": [-78.772455468, 40.6421936529]}, "type": "Feature", "properties": {"collection_times": [{"days": "Mon-Fri", "time": "4:30pm"}, {"days": "Sat", "time": "11:30am"}, {"days": "Sun", "time": "Closed"}], "id": "1577500001", "name": "USPS COLLECTION BOX - PO LOBBY", "address": {"city": "SPANGLER", "state": "PA", "street": "1904 BIGLER AVE", "postcode": "15775"}}},
{"geometry": {"type": "Point", "coordinates": [-78.9592871391, 40.7078031145]}, "type": "Feature", "properties": {"collection_times": [{"days": "Mon-Fri", "time": "2:15pm"}, {"days": "Sat", "time": "11:45am"}, {"days": "Sun", "time": "Closed"}], "id": "1577700000", "name": "USPS COLLECTION BOX - BLUE BOX", "address": {"city": "STARFORD", "state": "PA", "street": "4218 STARFORD RD", "postcode": "15777"}}},
{"geometry": {"type": "Point", "coordinates": [-78.9592871391, 40.7078031145]}, "type": "Feature", "properties": {"collection_times": [{"days": "Mon-Fri", "time": "2:15pm"}, {"days": "Sat", "time": "11:45am"}, {"days": "Sun", "time": "Closed"}], "id": "1577700001", "name": "USPS COLLECTION BOX - PO LOBBY", "address": {"city": "STARFORD", "state": "PA", "street": "4218 STARFORD RD", "postcode": "15777"}}},
{"geometry": {"type": "Point", "coordinates": [-79.1981768238, 40.9662841807]}, "type": "Feature", "properties": {"collection_times": [{"days": "Mon-Fri", "time": "11:50am"}, {"days": "Sat", "time": "11:15am"}, {"days": "Sun", "time": "Closed"}], "id": "1577800000", "name": "USPS COLLECTION BOX - BLUE BOX", "address": {"city": "TIMBLIN", "state": "PA", "street": "9 E MARKET ST", "postcode": "15778"}}},
{"geometry": {"type": "Point", "coordinates": [-79.1981768238, 40.9662841807]}, "type": "Feature", "properties": {"collection_times": [{"days": "Mon-Fri", "time": "11:50am"}, {"days": "Sat", "time": "11:15am"}, {"days": "Sun", "time": "Closed"}], "id": "1577800001", "name": "USPS COLLECTION BOX - PO LOBBY", "address": {"city": "TIMBLIN", "state": "PA", "street": "9 E MARKET ST", "postcode": "15778"}}},
{"geometry": {"type": "Point", "coordinates": [-79.3002991999, 40.3334473546]}, "type": "Feature", "properties": {"collection_times": [{"days": "Mon-Fri", "time": "11:55am"}, {"days": "Sat", "time": "11:45am"}, {"days": "Sun", "time": "Closed"}], "id": "1577900000", "name": "USPS COLLECTION BOX - BLUE BOX", "address": {"city": "TORRANCE", "state": "PA", "street": "565 TORRANCE RD", "postcode": "15779"}}},
{"geometry": {"type": "Point", "coordinates": [-79.3002991999, 40.3334473546]}, "type": "Feature", "properties": {"collection_times": [{"days": "Mon-Fri", "time": "11:55am"}, {"days": "Sat", "time": "11:45am"}, {"days": "Sun", "time": "Closed"}], "id": "1577900001", "name": "USPS COLLECTION BOX - PO LOBBY", "address": {"city": "TORRANCE", "state": "PA", "street": "565 TORRANCE RD", "postcode": "15779"}}},
{"geometry": {"type": "Point", "coordinates": [-78.9718591702, 40.9451080896]}, "type": "Feature", "properties": {"collection_times": [{"days": "Mon-Fri", "time": "1:25pm"}, {"days": "Sat", "time": "12:15pm"}, {"days": "Sun", "time": "Closed"}], "id": "1578100000", "name": "USPS COLLECTION BOX - BLUE BOX", "address": {"city": "WALSTON", "state": "PA", "street": "1716 WALSTON RD", "postcode": "15781"}}},
{"geometry": {"type": "Point", "coordinates": [-78.9718591702, 40.9451080896]}, "type": "Feature", "properties": {"collection_times": [{"days": "Mon-Fri", "time": "1:25pm"}, {"days": "Sat", "time": "12:15pm"}, {"days": "Sun", "time": "Closed"}], "id": "1578100001", "name": "USPS COLLECTION BOX - PO LOBBY", "address": {"city": "WALSTON", "state": "PA", "street": "1716 WALSTON RD", "postcode": "15781"}}}
]}
