{"type": "FeatureCollection", "features": [
{"geometry": {"type": "Point", "coordinates": [-78.76095119, 41.1189411941]}, "type": "Feature", "properties": {"collection_times": [{"days": "Mon-Fri", "time": "3:00pm"}, {"days": "Sat", "time": "12:00pm"}, {"days": "Sun", "time": "Closed"}], "id": "1580100012", "name": "USPS COLLECTION BOX - BLUE BOX", "address": {"city": "DUBOIS", "state": "PA", "street": "28 E SCRIBNER AVE", "postcode": "15801"}}},
{"geometry": {"type": "Point", "coordinates": [-78.7624123481, 41.1186351747]}, "type": "Feature", "properties": {"collection_times": [{"days": "Mon-Sat", "time": "9:00am"}, {"days": "Sun", "time": "Closed"}], "id": "1580100018", "name": "USPS COLLECTION BOX - BLUE BOX", "address": {"city": "DUBOIS", "state": "PA", "street": "2 E LONG AVE", "postcode": "15801"}}},
{"geometry": {"type": "Point", "coordinates": [-78.7666563019, 41.1214452819]}, "type": "Feature", "properties": {"collection_times": [{"days": "Mon-Fri", "time": "11:00am"}, {"days": "Sat", "time": "10:00am"}, {"days": "Sun", "time": "Closed"}], "id": "1580100019", "name": "USPS COLLECTION BOX - BLUE BOX", "address": {"city": "DUBOIS", "state": "PA", "street": "327 W LONG AVE", "postcode": "15801"}}},
{"geometry": {"type": "Point", "coordinates": [-78.7297986924, 41.1211611655]}, "type": "Feature", "properties": {"collection_times": [{"days": "Mon-Sat", "time": "9:00am"}, {"days": "Sun", "time": "Closed"}], "id": "1580100024", "name": "USPS COLLECTION BOX - BLUE BOX", "address": {"city": "DUBOIS", "state": "PA", "street": "5522 SHAFFER RD", "postcode": "15801"}}},
{"geometry": {"type": "Point", "coordinates": [-78.6983534836, 41.1371672049]}, "type": "Feature", "properties": {"collection_times": [{"days": "Mon-Sat", "time": "2:00pm"}, {"days": "Sun", "time": "Closed"}], "id": "1580100025", "name": "USPS COLLECTION BOX - BLUE BOX", "address": {"city": "DUBOIS", "state": "PA", "street": "95 CORAL REEF RD", "postcode": "15801"}}},
{"geometry": {"type": "Point", "coordinates": [-78.7283549574, 41.1243250776]}, "type": "Feature", "properties": {"collection_times": [{"days": "Mon-Sat", "time": "10:00am"}, {"days": "Sun", "time": "Closed"}], "id": "1580100027", "name": "USPS COLLECTION BOX - BLUE BOX", "address": {"city": "DUBOIS", "state": "PA", "street": "5760 SHAFFER RD", "postcode": "15801"}}},
{"geometry": {"type": "Point", "coordinates": [-78.7477570641, 41.1225674262]}, "type": "Feature", "properties": {"collection_times": [{"days": "Mon-Fri", "time": "5:45pm"}, {"days": "Sat", "time": "5:00pm"}, {"days": "Sun", "time": "Closed"}], "id": "1580100029", "name": "USPS COLLECTION BOX - BLUE BOX", "address": {"city": "DUBOIS", "state": "PA", "street": "229 BEAVER DR", "postcode": "15801"}}},
{"geometry": {"type": "Point", "coordinates": [-78.7477570641, 41.1225674262]}, "type": "Feature", "properties": {"collection_times": [{"days": "Mon-Fri", "time": "5:45pm"}, {"days": "Sat", "time": "5:00pm"}, {"days": "Sun", "time": "Closed"}], "id": "1580100030", "name": "USPS COLLECTION BOX - BLUE BOX", "address": {"city": "DUBOIS", "state": "PA", "street": "229 BEAVER DR", "postcode": "15801"}}},
{"geometry": {"type": "Point", "coordinates": [-78.7674833072, 41.1231411942]}, "type": "Feature", "properties": {"collection_times": [{"days": "Mon-Fri", "time": "12:00pm"}, {"days": "Sat", "time": "11:00am"}, {"days": "Sun", "time": "Closed"}], "id": "1580100033", "name": "USPS COLLECTION BOX - BLUE BOX", "address": {"city": "DUBOIS", "state": "PA", "street": "100 N MAIN ST", "postcode": "15801"}}},
{"geometry": {"type": "Point", "coordinates": [-78.7528324506, 41.1218436835]}, "type": "Feature", "properties": {"collection_times": [{"days": "Mon-Fri", "time": "11:00am"}, {"days": "Sat", "time": "10:00am"}, {"days": "Sun", "time": "Closed"}], "id": "1580100039", "name": "USPS COLLECTION BOX - BLUE BOX", "address": {"city": "DUBOIS", "state": "PA", "street": "500 JEFFERS ST", "postcode": "15801"}}},
{"geometry": {"type": "Point", "coordinates": [-78.7325326004, 41.1262114569]}, "type": "Feature", "properties": {"collection_times": [{"days": "Mon-Fri", "time": "3:00pm"}, {"days": "Sat", "time": "10:00am"}, {"days": "Sun", "time": "Closed"}], "id": "1580100044", "name": "USPS COLLECTION BOX - BLUE BOX", "address": {"city": "DUBOIS", "state": "PA", "street": "200 COMMONS DR", "postcode": "15801"}}},
{"geometry": {"type": "Point", "coordinates": [-78.76095119, 41.1189411941]}, "type": "Feature", "properties": {"collection_times": [{"days": "Mon-Fri", "time": "3:00pm"}, {"days": "Sat", "time": "12:00pm"}, {"days": "Sun", "time": "Closed"}], "id": "1580100047", "name": "USPS COLLECTION BOX - BLUE BOX", "address": {"city": "DUBOIS", "state": "PA", "street": "28 E SCRIBNER AVE", "postcode": "15801"}}},
{"geometry": {"type": "Point", "coordinates": [-78.7574273888, 41.1211305439]}, "type": "Feature", "properties": {"collection_times": [{"days": "Mon-Fri", "time": "5:15pm"}, {"days": "Sat", "time": "12:00pm"}, {"days": "Sun", "time": "Closed"}], "id": "1580100048", "name": "USPS COLLECTION BOX - BLUE BOX", "address": {"city": "DUBOIS", "state": "PA", "street": "22 HOOVER AVE", "postcode": "15801"}}},
{"geometry": {"type": "Point", "coordinates": [-78.7574273888, 41.1211305439]}, "type": "Feature", "properties": {"collection_times": [{"days": "Mon-Fri", "time": "5:00pm"}, {"days": "Sat", "time": "12:00pm"}, {"days": "Sun", "time": "Closed"}], "id": "1580100049", "name": "USPS COLLECTION BOX - PO LOBBY", "address": {"city": "DUBOIS", "state": "PA", "street": "22 HOOVER AVE", "postcode": "15801"}}},
{"geometry": {"type": "Point", "coordinates": [-78.7748872222, 41.1139272983]}, "type": "Feature", "properties": {"collection_times": [{"days": "Mon-Sat", "time": "2:00pm"}, {"days": "Sun", "time": "Closed"}], "id": "1580100050", "name": "USPS COLLECTION BOX - BLUE BOX", "address": {"city": "DUBOIS", "state": "PA", "street": "100 HOSPITAL AVE", "postcode": "15801"}}},
{"geometry": {"type": "Point", "coordinates": [-78.3911452096, 41.3144511995]}, "type": "Feature", "properties": {"collection_times": [{"days": "Mon-Fri", "time": "10:50am"}, {"days": "Sat", "time": "12:15pm"}, {"days": "Sun", "time": "Closed"}], "id": "1582100000", "name": "USPS COLLECTION BOX - BLUE BOX", "address": {"city": "BENEZETT", "state": "PA", "street": "9689 ROUTE 555", "postcode": "15821"}}},
{"geometry": {"type": "Point", "coordinates": [-78.3911452096, 41.3144511995]}, "type": "Feature", "properties": {"collection_times": [{"days": "Mon-Fri", "time": "10:50am"}, {"days": "Sat", "time": "12:15pm"}, {"days": "Sun", "time": "Closed"}], "id": "1582100001", "name": "USPS COLLECTION BOX - PO LOBBY", "address": {"city": "BENEZETT", "state": "PA", "street": "9689 ROUTE 555", "postcode": "15821"}}},
{"geometry": {"type": "Point", "coordinates": [-78.7101419083, 41.2725527355]}, "type": "Feature", "properties": {"collection_times": [{"days": "Mon-Fri", "time": "4:00pm"}, {"days": "Sat", "time": "11:45am"}, {"days": "Sun", "time": "Closed"}], "id": "1582300000", "name": "USPS COLLECTION BOX - BLUE BOX", "address": {"city": "BROCKPORT", "state": "PA", "street": "5139 ROUTE 219", "postcode": "15823"}}},
{"geometry": {"type": "Point", "coordinates": [-78.7101419083, 41.2725527355]}, "type": "Feature", "properties": {"collection_times": [{"days": "Mon-Fri", "time": "11:55am"}, {"days": "Sat", "time": "11:45am"}, {"days": "Sun", "time": "Closed"}], "id": "1582300001", "name": "USPS COLLECTION BOX - PO LOBBY", "address": {"city": "BROCKPORT", "state": "PA", "street": "5139 ROUTE 219", "postcode": "15823"}}},
{"geometry": {"type": "Point", "coordinates": [-78.7894349238, 41.2474231489]}, "type": "Feature", "properties": {"collection_times": [{"days": "Mon-Sat", "time": "2:00pm"}, {"days": "Sun", "time": "Closed"}], "id": "1582400002", "name": "USPS COLLECTION BOX - BLUE BOX", "address": {"city": "BROCKWAY", "state": "PA", "street": "1201 MAIN ST", "postcode": "15824"}}},
{"geometry": {"type": "Point", "coordinates": [-78.7964539675, 41.2487644416]}, "type": "Feature", "properties": {"collection_times": [{"days": "Mon-Sat", "time": "10:00am"}, {"days": "Sun", "time": "Closed"}], "id": "1582400004", "name": "USPS COLLECTION BOX - BLUE BOX", "address": {"city": "BROCKWAY", "state": "PA", "street": "717 MAIN ST", "postcode": "15824"}}},
{"geometry": {"type": "Point", "coordinates": [-78.7989084144, 41.2491785497]}, "type": "Feature", "properties": {"collection_times": [{"days": "Mon-Sat", "time": "2:00pm"}, {"days": "Sun", "time": "Closed"}], "id": "1582400005", "name": "USPS COLLECTION BOX - BLUE BOX", "address": {"city": "BROCKWAY", "state": "PA", "street": "501 MAIN ST", "postcode": "15824"}}},
{"geometry": {"type": "Point", "coordinates": [-78.800752548, 41.2493479116]}, "type": "Feature", "properties": {"collection_times": [{"days": "Mon-Fri", "time": "5:00pm"}, {"days": "Sat", "time": "3:30pm"}, {"days": "Sun", "time": "Closed"}], "id": "1582400006", "name": "USPS COLLECTION BOX - BLUE BOX", "address": {"city": "BROCKWAY", "state": "PA", "street": "300 MAIN ST", "postcode": "15824"}}},
{"geometry": {"type": "Point", "coordinates": [-78.800752548, 41.2493479116]}, "type": "Feature", "properties": {"collection_times": [{"days": "Mon-Fri", "time": "5:00pm"}, {"days": "Sat", "time": "12:00pm"}, {"days": "Sun", "time": "Closed"}], "id": "1582400007", "name": "USPS COLLECTION BOX - PO LOBBY", "address": {"city": "BROCKWAY", "state": "PA", "street": "300 MAIN ST", "postcode": "15824"}}},
{"geometry": {"type": "Point", "coordinates": [-79.0835313328, 41.1621990961]}, "type": "Feature", "properties": {"collection_times": [{"days": "Mon-Fri", "time": "4:30pm"}, {"days": "Sat", "time": "3:30pm"}, {"days": "Sun", "time": "Closed"}], "id": "1582500000", "name": "USPS COLLECTION BOX - BLUE BOX", "address": {"city": "BROOKVILLE", "state": "PA", "street": "67 WHITE ST", "postcode": "15825"}}},
{"geometry": {"type": "Point", "coordinates": [-79.0798913567, 41.1605553318]}, "type": "Feature", "properties": {"collection_times": [{"days": "Mon-Fri", "time": "4:00pm"}, {"days": "Sat", "time": "3:30pm"}, {"days": "Sun", "time": "Closed"}], "id": "1582500002", "name": "USPS COLLECTION BOX - BLUE BOX", "address": {"city": "BROOKVILLE", "state": "PA", "street": "295 MAIN ST", "postcode": "15825"}}},
{"geometry": {"type": "Point", "coordinates": [-79.077981123, 41.1602698146]}, "type": "Feature", "properties": {"collection_times": [{"days": "Mon-Fri", "time": "4:00pm"}, {"days": "Sat", "time": "3:30pm"}, {"days": "Sun", "time": "Closed"}], "id": "1582500003", "name": "USPS COLLECTION BOX - BLUE BOX", "address": {"city": "BROOKVILLE", "state": "PA", "street": "199 MAIN ST", "postcode": "15825"}}},
{"geometry": {"type": "Point", "coordinates": [-79.0767940279, 41.1603491105]}, "type": "Feature", "properties": {"collection_times": [{"days": "Mon-Fri", "time": "4:00pm"}, {"days": "Sat", "time": "3:30pm"}, {"days": "Sun", "time": "Closed"}], "id": "1582500004", "name": "USPS COLLECTION BOX - BLUE BOX", "address": {"city": "BROOKVILLE", "state": "PA", "street": "132 MAIN ST", "postcode": "15825"}}},
{"geometry": {"type": "Point", "coordinates": [-79.079165899, 41.1603332445]}, "type": "Feature", "properties": {"collection_times": [{"days": "Mon-Fri", "time": "4:00pm"}, {"days": "Sat", "time": "3:30pm"}, {"days": "Sun", "time": "Closed"}], "id": "1582500006", "name": "USPS COLLECTION BOX - BLUE BOX", "address": {"city": "BROOKVILLE", "state": "PA", "street": "256 MAIN ST", "postcode": "15825"}}},
{"geometry": {"type": "Point", "coordinates": [-79.09828711, 41.1736099084]}, "type": "Feature", "properties": {"collection_times": [{"days": "Mon-Sat", "time": "9:30am"}, {"days": "Sun", "time": "Closed"}], "id": "1582500014", "name": "USPS COLLECTION BOX - BLUE BOX", "address": {"city": "BROOKVILLE", "state": "PA", "street": "245 ALLEGHENY BLVD", "postcode": "15825"}}},
{"geometry": {"type": "Point", "coordinates": [-79.0982558107, 41.1634206729]}, "type": "Feature", "properties": {"collection_times": [{"days": "Mon-Sat", "time": "9:30am"}, {"days": "Sun", "time": "Closed"}], "id": "1582500015", "name": "USPS COLLECTION BOX - BLUE BOX", "address": {"city": "BROOKVILLE", "state": "PA", "street": "301 W MAIN ST", "postcode": "15825"}}},
{"geometry": {"type": "Point", "coordinates": [-79.0834712896, 41.1617382003]}, "type": "Feature", "properties": {"collection_times": [{"days": "Mon-Fri", "time": "4:00pm"}, {"days": "Sat", "time": "3:30pm"}, {"days": "Sun", "time": "Closed"}], "id": "1582500016", "name": "USPS COLLECTION BOX - BLUE BOX", "address": {"city": "BROOKVILLE", "state": "PA", "street": "40 WHITE ST", "postcode": "15825"}}},
{"geometry": {"type": "Point", "coordinates": [-79.0835313328, 41.1621990961]}, "type": "Feature", "properties": {"collection_times": [{"days": "Mon-Fri", "time": "4:30pm"}, {"days": "Sat", "time": "3:30pm"}, {"days": "Sun", "time": "Closed"}], "id": "1582500018", "name": "USPS COLLECTION BOX - PO LOBBY", "address": {"city": "BROOKVILLE", "state": "PA", "street": "67 WHITE ST", "postcode": "15825"}}},
{"geometry": {"type": "Point", "coordinates": [-79.0980531879, 41.1732904194]}, "type": "Feature", "properties": {"collection_times": [{"days": "Mon-Sat", "time": "12:30pm"}, {"days": "Sun", "time": "Closed"}], "id": "1582500019", "name": "USPS COLLECTION BOX - BLUE BOX", "address": {"city": "BROOKVILLE", "state": "PA", "street": "240 ALLEGHENY BLVD", "postcode": "15825"}}},
{"geometry": {"type": "Point", "coordinates": [-79.0981418291, 41.1736179362]}, "type": "Feature", "properties": {"collection_times": [{"days": "Mon-Sat", "time": "9:00am"}, {"days": "Sun", "time": "Closed"}], "id": "1582500020", "name": "USPS COLLECTION BOX - BLUE BOX", "address": {"city": "BROOKVILLE", "state": "PA", "street": "246 ALLEGHENY BLVD", "postcode": "15825"}}},
{"geometry": {"type": "Point", "coordinates": [-79.081751974, 41.1614192038]}, "type": "Feature", "properties": {"collection_times": [{"days": "Mon-Fri", "time": "4:00pm"}, {"days": "Sat", "time": "3:30pm"}, {"days": "Sun", "time": "Closed"}], "id": "1582500021", "name": "USPS COLLECTION BOX - BLUE BOX", "address": {"city": "BROOKVILLE", "state": "PA", "street": "60 BARNETT ST", "postcode": "15825"}}},
{"geometry": {"type": "Point", "coordinates": [-78.5019405082, 41.2878201014]}, "type": "Feature", "properties": {"collection_times": [{"days": "Mon-Fri", "time": "11:55am"}, {"days": "Sat", "time": "11:15am"}, {"days": "Sun", "time": "Closed"}], "id": "1582700000", "name": "USPS COLLECTION BOX - BLUE BOX", "address": {"city": "BYRNEDALE", "state": "PA", "street": "19884 BENNETTS VALLEY HWY", "postcode": "15827"}}},
{"geometry": {"type": "Point", "coordinates": [-78.5019405082, 41.2878201014]}, "type": "Feature", "properties": {"collection_times": [{"days": "Mon-Fri", "time": "11:55am"}, {"days": "Sat", "time": "11:15am"}, {"days": "Sun", "time": "Closed"}], "id": "1582700001", "name": "USPS COLLECTION BOX - PO LOBBY", "address": {"city": "BYRNEDALE", "state": "PA", "street": "19884 BENNETTS VALLEY HWY", "postcode": "15827"}}},
{"geometry": {"type": "Point", "coordinates": [-79.1994023819, 41.1847712727]}, "type": "Feature", "properties": {"collection_times": [{"days": "Mon-Fri", "time": "4:00pm"}, {"days": "Sat", "time": "10:45am"}, {"days": "Sun", "time": "Closed"}], "id": "1582900000", "name": "USPS COLLECTION BOX - BLUE BOX", "address": {"city": "CORSICA", "state": "PA", "street": "446 OLEAN RD", "postcode": "15829"}}},
{"geometry": {"type": "Point", "coordinates": [-79.1994023819, 41.1847712727]}, "type": "Feature", "properties": {"collection_times": [{"days": "Mon-Fri", "time": "4:00pm"}, {"days": "Sat", "time": "10:45am"}, {"days": "Sun", "time": "Closed"}], "id": "1582900001", "name": "USPS COLLECTION BOX - PO LOBBY", "address": {"city": "CORSICA", "state": "PA", "street": "446 OLEAN RD", "postcode": "15829"}}},
{"geometry": {"type": "Point", "coordinates": [-78.6057939117, 41.3521743619]}, "type": "Feature", "properties": {"collection_times": [{"days": "Mon-Fri", "time": "10:20am"}, {"days": "Sat", "time": "11:15am"}, {"days": "Sun", "time": "Closed"}], "id": "1583100000", "name": "USPS COLLECTION BOX - BLUE BOX", "address": {"city": "DAGUS MINES", "state": "PA", "street": "176 DAGUS MINES RD", "postcode": "15831"}}},
{"geometry": {"type": "Point", "coordinates": [-78.6057939117, 41.3521743619]}, "type": "Feature", "properties": {"collection_times": [{"days": "Mon-Fri", "time": "10:20am"}, {"days": "Sat", "time": "11:15am"}, {"days": "Sun", "time": "Closed"}], "id": "1583100001", "name": "USPS COLLECTION BOX - PO LOBBY", "address": {"city": "DAGUS MINES", "state": "PA", "street": "176 DAGUS MINES RD", "postcode": "15831"}}},
{"geometry": {"type": "Point", "coordinates": [-78.1345833349, 41.339657111]}, "type": "Feature", "properties": {"collection_times": [{"days": "Mon-Fri", "time": "11:55am"}, {"days": "Sat", "time": "11:45am"}, {"days": "Sun", "time": "Closed"}], "id": "1583200000", "name": "USPS COLLECTION BOX - BLUE BOX", "address": {"city": "DRIFTWOOD", "state": "PA", "street": "7298 3RD ST", "postcode": "15832"}}},
{"geometry": {"type": "Point", "coordinates": [-78.1344805975, 41.3396344746]}, "type": "Feature", "properties": {"collection_times": [{"days": "Mon-Fri", "time": "11:55am"}, {"days": "Sat", "time": "11:45am"}, {"days": "Sun", "time": "Closed"}], "id": "1583200001", "name": "USPS COLLECTION BOX - PO LOBBY", "address": {"city": "DRIFTWOOD", "state": "PA", "street": "7298 3RD ST", "postcode": "15832"}}},
{"geometry": {"type": "Point", "coordinates": [-78.227325828, 41.5102308205]}, "type": "Feature", "properties": {"collection_times": [{"days": "Mon-Sat", "time": "9:30am"}, {"days": "Sun", "time": "Closed"}], "id": "1583400003", "name": "USPS COLLECTION BOX - BLUE BOX", "address": {"city": "EMPORIUM", "state": "PA", "street": "441 E 3RD ST", "postcode": "15834"}}},
{"geometry": {"type": "Point", "coordinates": [-78.2339567989, 41.5117098367]}, "type": "Feature", "properties": {"collection_times": [{"days": "Mon-Sat", "time": "9:00am"}, {"days": "Sun", "time": "Closed"}], "id": "1583400005", "name": "USPS COLLECTION BOX - BLUE BOX", "address": {"city": "EMPORIUM", "state": "PA", "street": "179 E 4TH ST", "postcode": "15834"}}},
{"geometry": {"type": "Point", "coordinates": [-78.237719229, 41.5116126387]}, "type": "Feature", "properties": {"collection_times": [{"days": "Mon-Sat", "time": "12:00pm"}, {"days": "Sun", "time": "Closed"}], "id": "1583400007", "name": "USPS COLLECTION BOX - BLUE BOX", "address": {"city": "EMPORIUM", "state": "PA", "street": "2 E 4TH ST", "postcode": "15834"}}},
{"geometry": {"type": "Point", "coordinates": [-78.2460029692, 41.5110116582]}, "type": "Feature", "properties": {"collection_times": [{"days": "Mon-Sat", "time": "4:15pm"}, {"days": "Sun", "time": "Closed"}], "id": "1583400013", "name": "USPS COLLECTION BOX - BLUE BOX", "address": {"city": "EMPORIUM", "state": "PA", "street": "11 W 4TH ST", "postcode": "15834"}}},
{"geometry": {"type": "Point", "coordinates": [-78.2460029692, 41.5110116582]}, "type": "Feature", "properties": {"collection_times": [{"days": "Mon-Sat", "time": "4:15pm"}, {"days": "Sun", "time": "Closed"}], "id": "1583400015", "name": "USPS COLLECTION BOX - PO LOBBY", "address": {"city": "EMPORIUM", "state": "PA", "street": "11 W 4TH ST", "postcode": "15834"}}},
{"geometry": {"type": "Point", "coordinates": [-78.7987842838, 41.1443074809]}, "type": "Feature", "properties": {"collection_times": [{"days": "Mon-Fri", "time": "4:30pm"}, {"days": "Sat", "time": "11:30am"}, {"days": "Sun", "time": "Closed"}], "id": "1584000000", "name": "USPS COLLECTION BOX - BLUE BOX", "address": {"city": "FALLS CREEK", "state": "PA", "street": "65 MAIN ST", "postcode": "15840"}}},
{"geometry": {"type": "Point", "coordinates": [-78.8233061516, 41.1761817224]}, "type": "Feature", "properties": {"collection_times": [{"days": "Mon-Sat", "time": "9:00am"}, {"days": "Sun", "time": "Closed"}], "id": "1584000001", "name": "USPS COLLECTION BOX - BLUE BOX", "address": {"city": "FALLS CREEK", "state": "PA", "street": "1867 RICH HWY", "postcode": "15840"}}},
{"geometry": {"type": "Point", "coordinates": [-78.7987842838, 41.1443074809]}, "type": "Feature", "properties": {"collection_times": [{"days": "Mon-Fri", "time": "5:00pm"}, {"days": "Sat", "time": "11:30am"}, {"days": "Sun", "time": "Closed"}], "id": "1584000002", "name": "USPS COLLECTION BOX - PO LOBBY", "address": {"city": "FALLS CREEK", "state": "PA", "street": "65 MAIN ST", "postcode": "15840"}}},
{"geometry": {"type": "Point", "coordinates": [-78.5023707083, 41.2558692914]}, "type": "Feature", "properties": {"collection_times": [{"days": "Mon-Fri", "time": "4:15pm"}, {"days": "Sat", "time": "11:45am"}, {"days": "Sun", "time": "Closed"}], "id": "1584100000", "name": "USPS COLLECTION BOX - BLUE BOX", "address": {"city": "FORCE", "state": "PA", "street": "17686 BENNETTS VALLEY HWY", "postcode": "15841"}}},
{"geometry": {"type": "Point", "coordinates": [-78.5023707083, 41.2558692914]}, "type": "Feature", "properties": {"collection_times": [{"days": "Mon-Fri", "time": "4:15pm"}, {"days": "Sat", "time": "11:45am"}, {"days": "Sun", "time": "Closed"}], "id": "1584100001", "name": "USPS COLLECTION BOX - PO LOBBY", "address": {"city": "FORCE", "state": "PA", "street": "17686 BENNETTS VALLEY HWY", "postcode": "15841"}}},
{"geometry": {"type": "Point", "coordinates": [-78.6749961727, 41.4888886972]}, "type": "Feature", "properties": {"collection_times": [{"days": "Mon-Sat", "time": "2:45pm"}, {"days": "Sun", "time": "Closed"}], "id": "1584500002", "name": "USPS COLLECTION BOX - BLUE BOX", "address": {"city": "JOHNSONBURG", "state": "PA", "street": "569 MARKET ST", "postcode": "15845"}}},
{"geometry": {"type": "Point", "coordinates": [-78.6843772464, 41.4998801505]}, "type": "Feature", "properties": {"collection_times": [{"days": "Mon-Sat", "time": "9:00am"}, {"days": "Sun", "time": "Closed"}], "id": "1584500005", "name": "USPS COLLECTION BOX - BLUE BOX", "address": {"city": "JOHNSONBURG", "state": "PA", "street": "134 MAIN ST", "postcode": "15845"}}},
{"geometry": {"type": "Point", "coordinates": [-78.6842790284, 41.4968079266]}, "type": "Feature", "properties": {"collection_times": [{"days": "Mon-Sat", "time": "11:00am"}, {"days": "Sun", "time": "Closed"}], "id": "1584500006", "name": "USPS COLLECTION BOX - BLUE BOX", "address": {"city": "JOHNSONBURG", "state": "PA", "street": "103 CUSHING AVE", "postcode": "15845"}}},
{"geometry": {"type": "Point", "coordinates": [-78.6768024815, 41.4872126264]}, "type": "Feature", "properties": {"collection_times": [{"days": "Mon-Sat", "time": "9:30am"}, {"days": "Sun", "time": "Closed"}], "id": "1584500007", "name": "USPS COLLECTION BOX - BLUE BOX", "address": {"city": "JOHNSONBURG", "state": "PA", "street": "236 GRANT ST", "postcode": "15845"}}},
{"geometry": {"type": "Point", "coordinates": [-78.6755855971, 41.4905435213]}, "type": "Feature", "properties": {"collection_times": [{"days": "Mon-Sat", "time": "4:15pm"}, {"days": "Sun", "time": "Closed"}], "id": "1584500010", "name": "USPS COLLECTION BOX - BLUE BOX", "address": {"city": "JOHNSONBURG", "state": "PA", "street": "420 MARKET ST", "postcode": "15845"}}},
{"geometry": {"type": "Point", "coordinates": [-78.6755855971, 41.4905435213]}, "type": "Feature", "properties": {"collection_times": [{"days": "Mon-Sat", "time": "4:15pm"}, {"days": "Sun", "time": "Closed"}], "id": "1584500011", "name": "USPS COLLECTION BOX - PO LOBBY", "address": {"city": "JOHNSONBURG", "state": "PA", "street": "420 MARKET ST", "postcode": "15845"}}},
{"geometry": {"type": "Point", "coordinates": [-78.6108187436, 41.3614423728]}, "type": "Feature", "properties": {"collection_times": [{"days": "Mon-Fri", "time": "4:15pm"}, {"days": "Sat", "time": "11:45am"}, {"days": "Sun", "time": "Closed"}], "id": "1584600000", "name": "USPS COLLECTION BOX - BLUE BOX", "address": {"city": "KERSEY", "state": "PA", "street": "377 MAIN ST", "postcode": "15846"}}},
{"geometry": {"type": "Point", "coordinates": [-78.6108187436, 41.3614423728]}, "type": "Feature", "properties": {"collection_times": [{"days": "Mon-Fri", "time": "4:15pm"}, {"days": "Sat", "time": "11:45am"}, {"days": "Sun", "time": "Closed"}], "id": "1584600001", "name": "USPS COLLECTION BOX - PO LOBBY", "address": {"city": "KERSEY", "state": "PA", "street": "377 MAIN ST", "postcode": "15846"}}},
{"geometry": {"type": "Point", "coordinates": [-79.0834334172, 41.1622452423]}, "type": "Feature", "properties": {"collection_times": [{"days": "Mon-Sat", "time": "11:50am"}, {"days": "Sun", "time": "Closed"}], "id": "1584700000", "name": "USPS COLLECTION BOX - BLUE BOX", "address": {"city": "KNOX DALE", "state": "PA", "street": "200 MAIN ST", "postcode": "15847"}}},
{"geometry": {"type": "Point", "coordinates": [-79.0834334172, 41.1622452423]}, "type": "Feature", "properties": {"collection_times": [{"days": "Mon-Sat", "time": "11:50am"}, {"days": "Sun", "time": "Closed"}], "id": "1584700001", "name": "USPS COLLECTION BOX - PO LOBBY", "address": {"city": "KNOX DALE", "state": "PA", "street": "200 MAIN ST", "postcode": "15847"}}},
{"geometry": {"type": "Point", "coordinates": [-78.7252657844, 41.031693792]}, "type": "Feature", "properties": {"collection_times": [{"days": "Mon-Fri", "time": "4:15pm"}, {"days": "Sat", "time": "10:15am"}, {"days": "Sun", "time": "Closed"}], "id": "1584800000", "name": "USPS COLLECTION BOX - BLUE BOX", "address": {"city": "LUTHERSBURG", "state": "PA", "street": "79 CHURCH ST", "postcode": "15848"}}},
{"geometry": {"type": "Point", "coordinates": [-78.7252657844, 41.031693792]}, "type": "Feature", "properties": {"collection_times": [{"days": "Mon-Fri", "time": "4:15pm"}, {"days": "Sat", "time": "10:15am"}, {"days": "Sun", "time": "Closed"}], "id": "1584800001", "name": "USPS COLLECTION BOX - PO LOBBY", "address": {"city": "LUTHERSBURG", "state": "PA", "street": "79 CHURCH ST", "postcode": "15848"}}},
{"geometry": {"type": "Point", "coordinates": [-78.5847847656, 41.2009199575]}, "type": "Feature", "properties": {"collection_times": [{"days": "Mon-Fri", "time": "4:15pm"}, {"days": "Sat", "time": "10:15am"}, {"days": "Sun", "time": "Closed"}], "id": "1584900000", "name": "USPS COLLECTION BOX - BLUE BOX", "address": {"city": "PENFIELD", "state": "PA", "street": "12336 BENNETTS VALLEY HWY", "postcode": "15849"}}},
{"geometry": {"type": "Point", "coordinates": [-78.5847847656, 41.2009199575]}, "type": "Feature", "properties": {"collection_times": [{"days": "Mon-Fri", "time": "11:55am"}, {"days": "Sat", "time": "10:15am"}, {"days": "Sun", "time": "Closed"}], "id": "1584900001", "name": "USPS COLLECTION BOX - PO LOBBY", "address": {"city": "PENFIELD", "state": "PA", "street": "12336 BENNETTS VALLEY HWY", "postcode": "15849"}}},
{"geometry": {"type": "Point", "coordinates": [-78.8893235133, 41.097493873]}, "type": "Feature", "properties": {"collection_times": [{"days": "Mon-Fri", "time": "4:30pm"}, {"days": "Sat", "time": "3:30pm"}, {"days": "Sun", "time": "Closed"}], "id": "1585100005", "name": "USPS COLLECTION BOX - BLUE BOX", "address": {"city": "REYNOLDSVILLE", "state": "PA", "street": "350 E MAIN ST", "postcode": "15851"}}},
{"geometry": {"type": "Point", "coordinates": [-78.8893235133, 41.097493873]}, "type": "Feature", "properties": {"collection_times": [{"days": "Mon-Fri", "time": "4:30pm"}, {"days": "Sat", "time": "3:30pm"}, {"days": "Sun", "time": "Closed"}], "id": "1585100006", "name": "USPS COLLECTION BOX - PO LOBBY", "address": {"city": "REYNOLDSVILLE", "state": "PA", "street": "350 E MAIN ST", "postcode": "15851"}}},
{"geometry": {"type": "Point", "coordinates": [-78.7320542746, 41.4197689371]}, "type": "Feature", "properties": {"collection_times": [{"days": "Mon-Sat", "time": "4:45pm"}, {"days": "Sun", "time": "Closed"}], "id": "1585300000", "name": "USPS COLLECTION BOX - BLUE BOX", "address": {"city": "RIDGWAY", "state": "PA", "street": "123 CENTER ST", "postcode": "15853"}}},
{"geometry": {"type": "Point", "coordinates": [-78.7465354164, 41.4213327045]}, "type": "Feature", "properties": {"collection_times": [{"days": "Mon-Sat", "time": "11:00am"}, {"days": "Sun", "time": "Closed"}], "id": "1585300002", "name": "USPS COLLECTION BOX - BLUE BOX", "address": {"city": "RIDGWAY", "state": "PA", "street": "608 W MAIN ST", "postcode": "15853"}}},
{"geometry": {"type": "Point", "coordinates": [-78.7316425621, 41.4212023153]}, "type": "Feature", "properties": {"collection_times": [{"days": "Mon-Sat", "time": "2:45pm"}, {"days": "Sun", "time": "Closed"}], "id": "1585300019", "name": "USPS COLLECTION BOX - BLUE BOX", "address": {"city": "RIDGWAY", "state": "PA", "street": "173 MAIN ST", "postcode": "15853"}}},
{"geometry": {"type": "Point", "coordinates": [-78.731014042, 41.4212633996]}, "type": "Feature", "properties": {"collection_times": [{"days": "Mon-Sat", "time": "4:45pm"}, {"days": "Sun", "time": "Closed"}], "id": "1585300023", "name": "USPS COLLECTION BOX - BLUE BOX", "address": {"city": "RIDGWAY", "state": "PA", "street": "18 S MILL AVE", "postcode": "15853"}}},
{"geometry": {"type": "Point", "coordinates": [-78.7283617761, 41.422399967]}, "type": "Feature", "properties": {"collection_times": [{"days": "Mon-Sat", "time": "9:15am"}, {"days": "Sun", "time": "Closed"}], "id": "1585300026", "name": "USPS COLLECTION BOX - BLUE BOX", "address": {"city": "RIDGWAY", "state": "PA", "street": "1 BAKER ALY", "postcode": "15853"}}},
{"geometry": {"type": "Point", "coordinates": [-78.731014042, 41.4212633996]}, "type": "Feature", "properties": {"collection_times": [{"days": "Mon-Sat", "time": "4:45pm"}, {"days": "Sun", "time": "Closed"}], "id": "1585300027", "name": "USPS COLLECTION BOX - PO LOBBY", "address": {"city": "RIDGWAY", "state": "PA", "street": "18 S MILL AVE", "postcode": "15853"}}},
{"geometry": {"type": "Point", "coordinates": [-78.6545292034, 41.0760542715]}, "type": "Feature", "properties": {"collection_times": [{"days": "Mon-Fri", "time": "11:55am"}, {"days": "Sat", "time": "10:15am"}, {"days": "Sun", "time": "Closed"}], "id": "1585600000", "name": "USPS COLLECTION BOX - BLUE BOX", "address": {"city": "ROCKTON", "state": "PA", "street": "21 OLD DUBOIS RD", "postcode": "15856"}}},
{"geometry": {"type": "Point", "coordinates": [-78.6545292034, 41.0760542715]}, "type": "Feature", "properties": {"collection_times": [{"days": "Mon-Fri", "time": "11:55am"}, {"days": "Sat", "time": "10:15am"}, {"days": "Sun", "time": "Closed"}], "id": "1585600001", "name": "USPS COLLECTION BOX - PO LOBBY", "address": {"city": "ROCKTON", "state": "PA", "street": "21 OLD DUBOIS RD", "postcode": "15856"}}},
{"geometry": {"type": "Point", "coordinates": [-78.5580669171, 41.39047523]}, "type": "Feature", "properties": {"collection_times": [{"days": "Mon-Sat", "time": "10:00am"}, {"days": "Sun", "time": "Closed"}], "id": "1585700003", "name": "USPS COLLECTION BOX - BLUE BOX", "address": {"city": "SAINT MARYS", "state": "PA", "street": "1102 MILLION DOLLAR HWY", "postcode": "15857"}}},
{"geometry": {"type": "Point", "coordinates": [-78.5605409536, 41.4081669467]}, "type": "Feature", "properties": {"collection_times": [{"days": "Mon-Sat", "time": "9:30am"}, {"days": "Sun", "time": "Closed"}], "id": "1585700004", "name": "USPS COLLECTION BOX - BLUE BOX", "address": {"city": "SAINT MARYS", "state": "PA", "street": "844 S SAINT MARYS ST", "postcode": "15857"}}},
{"geometry": {"type": "Point", "coordinates": [-78.5601412258, 41.4284662996]}, "type": "Feature", "properties": {"collection_times": [{"days": "Mon-Fri", "time": "3:00pm"}, {"days": "Sat", "time": "12:00pm"}, {"days": "Sun", "time": "Closed"}], "id": "1585700006", "name": "USPS COLLECTION BOX - BLUE BOX", "address": {"city": "SAINT MARYS", "state": "PA", "street": "30 ERIE AVE", "postcode": "15857"}}},
{"geometry": {"type": "Point", "coordinates": [-78.5610756694, 41.4275741013]}, "type": "Feature", "properties": {"collection_times": [{"days": "Mon-Fri", "time": "3:00pm"}, {"days": "Sat", "time": "12:00pm"}, {"days": "Sun", "time": "Closed"}], "id": "1585700013", "name": "USPS COLLECTION BOX - BLUE BOX", "address": {"city": "SAINT MARYS", "state": "PA", "street": "4 RAILROAD ST", "postcode": "15857"}}},
{"geometry": {"type": "Point", "coordinates": [-78.5571851239, 41.4295662016]}, "type": "Feature", "properties": {"collection_times": [{"days": "Mon-Fri", "time": "3:00pm"}, {"days": "Sat", "time": "12:00pm"}, {"days": "Sun", "time": "Closed"}], "id": "1585700014", "name": "USPS COLLECTION BOX - BLUE BOX", "address": {"city": "SAINT MARYS", "state": "PA", "street": "301 DEPOT ST", "postcode": "15857"}}},
{"geometry": {"type": "Point", "coordinates": [-78.5616220453, 41.4287363978]}, "type": "Feature", "properties": {"collection_times": [{"days": "Mon-Fri", "time": "3:00pm"}, {"days": "Sat", "time": "12:00pm"}, {"days": "Sun", "time": "Closed"}], "id": "1585700015", "name": "USPS COLLECTION BOX - BLUE BOX", "address": {"city": "SAINT MARYS", "state": "PA", "street": "10 N MICHAEL ST", "postcode": "15857"}}},
{"geometry": {"type": "Point", "coordinates": [-78.5626580745, 41.4316790205]}, "type": "Feature", "properties": {"collection_times": [{"days": "Mon-Sat", "time": "1:00pm"}, {"days": "Sun", "time": "Closed"}], "id": "1585700019", "name": "USPS COLLECTION BOX - BLUE BOX", "address": {"city": "SAINT MARYS", "state": "PA", "street": "123 E OILWELL ST", "postcode": "15857"}}},
{"geometry": {"type": "Point", "coordinates": [-78.5594717509, 41.4274827015]}, "type": "Feature", "properties": {"collection_times": [{"days": "Mon-Sat", "time": "5:00pm"}, {"days": "Sun", "time": "Closed"}], "id": "1585700021", "name": "USPS COLLECTION BOX - BLUE BOX", "address": {"city": "SAINT MARYS", "state": "PA", "street": "201 CHESTNUT ST", "postcode": "15857"}}},
{"geometry": {"type": "Point", "coordinates": [-78.5594717509, 41.4274827015]}, "type": "Feature", "properties": {"collection_times": [{"days": "Mon-Sat", "time": "5:00pm"}, {"days": "Sun", "time": "Closed"}], "id": "1585700022", "name": "USPS COLLECTION BOX - BLUE BOX", "address": {"city": "SAINT MARYS", "state": "PA", "street": "201 CHESTNUT ST", "postcode": "15857"}}},
{"geometry": {"type": "Point", "coordinates": [-78.5580860287, 41.4267406442]}, "type": "Feature", "properties": {"collection_times": [{"days": "Mon-Sat", "time": "5:00pm"}, {"days": "Sun", "time": "Closed"}], "id": "1585700024", "name": "USPS COLLECTION BOX - BLUE BOX", "address": {"city": "SAINT MARYS", "state": "PA", "street": "210 S MICHAEL ST", "postcode": "15857"}}},
{"geometry": {"type": "Point", "coordinates": [-78.5594717509, 41.4274827015]}, "type": "Feature", "properties": {"collection_times": [{"days": "Mon-Sat", "time": "5:00pm"}, {"days": "Sun", "time": "Closed"}], "id": "1585700027", "name": "USPS COLLECTION BOX - PO LOBBY", "address": {"city": "SAINT MARYS", "state": "PA", "street": "201 CHESTNUT ST", "postcode": "15857"}}},
{"geometry": {"type": "Point", "coordinates": [-78.5459243808, 41.420420203]}, "type": "Feature", "properties": {"collection_times": [{"days": "Mon-Sat", "time": "1:00pm"}, {"days": "Sun", "time": "Closed"}], "id": "1585700028", "name": "USPS COLLECTION BOX - BLUE BOX", "address": {"city": "SAINT MARYS", "state": "PA", "street": "808 S MICHAEL ST", "postcode": "15857"}}},
{"geometry": {"type": "Point", "coordinates": [-79.0246626451, 41.3610599514]}, "type": "Feature", "properties": {"collection_times": [{"days": "Mon-Fri", "time": "4:00pm"}, {"days": "Sat", "time": "11:30am"}, {"days": "Sun", "time": "Closed"}], "id": "1586000000", "name": "USPS COLLECTION BOX - BLUE BOX", "address": {"city": "SIGEL", "state": "PA", "street": "8517 ROUTE 949", "postcode": "15860"}}},
{"geometry": {"type": "Point", "coordinates": [-79.0246626451, 41.3610599514]}, "type": "Feature", "properties": {"collection_times": [{"days": "Mon-Fri", "time": "4:00pm"}, {"days": "Sat", "time": "11:30am"}, {"days": "Sun", "time": "Closed"}], "id": "1586000001", "name": "USPS COLLECTION BOX - PO LOBBY", "address": {"city": "SIGEL", "state": "PA", "street": "8517 ROUTE 949", "postcode": "15860"}}},
{"geometry": {"type": "Point", "coordinates": [-78.0507784544, 41.3838592885]}, "type": "Feature", "properties": {"collection_times": [{"days": "Mon-Fri", "time": "10:50am"}, {"days": "Sat", "time": "11:35am"}, {"days": "Sun", "time": "Closed"}], "id": "1586100000", "name": "USPS COLLECTION BOX - BLUE BOX", "address": {"city": "SINNAMAHONING", "state": "PA", "street": "186 RAILROAD ST UNIT 2", "postcode": "15861"}}},
{"geometry": {"type": "Point", "coordinates": [-78.0507784544, 41.3838592885]}, "type": "Feature", "properties": {"collection_times": [{"days": "Mon-Fri", "time": "10:50am"}, {"days": "Sat", "time": "11:35am"}, {"days": "Sun", "time": "Closed"}], "id": "1586100001", "name": "USPS COLLECTION BOX - PO LOBBY", "address": {"city": "SINNAMAHONING", "state": "PA", "street": "186 RAILROAD ST UNIT 2", "postcode": "15861"}}},
{"geometry": {"type": "Point", "coordinates": [-79.1863656977, 41.1168959298]}, "type": "Feature", "properties": {"collection_times": [{"days": "Mon-Fri", "time": "4:30pm"}, {"days": "Sat", "time": "11:00am"}, {"days": "Sun", "time": "Closed"}], "id": "1586400000", "name": "USPS COLLECTION BOX - BLUE BOX", "address": {"city": "SUMMERVILLE", "state": "PA", "street": "170 STATE ST", "postcode": "15864"}}},
{"geometry": {"type": "Point", "coordinates": [-79.1863656977, 41.1168959298]}, "type": "Feature", "properties": {"collection_times": [{"days": "Mon-Fri", "time": "4:30pm"}, {"days": "Sat", "time": "11:00am"}, {"days": "Sun", "time": "Closed"}], "id": "1586400001", "name": "USPS COLLECTION BOX - PO LOBBY", "address": {"city": "SUMMERVILLE", "state": "PA", "street": "170 STATE ST", "postcode": "15864"}}},
{"geometry": {"type": "Point", "coordinates": [-79.1875725383, 41.1151663853]}, "type": "Feature", "properties": {"collection_times": [{"days": "Mon-Sat", "time": "9:15am"}, {"days": "Sun", "time": "Closed"}], "id": "1586400003", "name": "USPS COLLECTION BOX - BLUE BOX", "address": {"city": "SUMMERVILLE", "state": "PA", "street": "114 2ND AVE", "postcode": "15864"}}},
{"geometry": {"type": "Point", "coordinates": [-78.8228573712, 41.0502206652]}, "type": "Feature", "properties": {"collection_times": [{"days": "Mon-Fri", "time": "4:00pm"}, {"days": "Sat", "time": "10:45am"}, {"days": "Sun", "time": "Closed"}], "id": "1586500001", "name": "USPS COLLECTION BOX - BLUE BOX", "address": {"city": "SYKESVILLE", "state": "PA", "street": "14 W MAIN ST", "postcode": "15865"}}},
{"geometry": {"type": "Point", "coordinates": [-78.819107383, 41.0528423741]}, "type": "Feature", "properties": {"collection_times": [{"days": "Mon-Sat", "time": "12:30pm"}, {"days": "Sun", "time": "Closed"}], "id": "1586500005", "name": "USPS COLLECTION BOX - BLUE BOX", "address": {"city": "SYKESVILLE", "state": "PA", "street": "40 SHAFFER ST", "postcode": "15865"}}},
{"geometry": {"type": "Point", "coordinates": [-78.8228573712, 41.0502206652]}, "type": "Feature", "properties": {"collection_times": [{"days": "Mon-Fri", "time": "4:00pm"}, {"days": "Sat", "time": "10:45am"}, {"days": "Sun", "time": "Closed"}], "id": "1586500006", "name": "USPS COLLECTION BOX - PO LOBBY", "address": {"city": "SYKESVILLE", "state": "PA", "street": "14 W MAIN ST", "postcode": "15865"}}},
{"geometry": {"type": "Point", "coordinates": [-78.4918978006, 41.2764640149]}, "type": "Feature", "properties": {"collection_times": [{"days": "Mon-Fri", "time": "3:00pm"}, {"days": "Sat", "time": "11:15am"}, {"days": "Sun", "time": "Closed"}], "id": "1586800000", "name": "USPS COLLECTION BOX - BLUE BOX", "address": {"city": "WEEDVILLE", "state": "PA", "street": "472 RIVER RD", "postcode": "15868"}}},
{"geometry": {"type": "Point", "coordinates": [-78.497414944, 41.2673687763]}, "type": "Feature", "properties": {"collection_times": [{"days": "Mon-Sat", "time": "11:00am"}, {"days": "Sun", "time": "Closed"}], "id": "1586800001", "name": "USPS COLLECTION BOX - BLUE BOX", "address": {"city": "WEEDVILLE", "state": "PA", "street": "18429 BENNETTS VALLEY HWY", "postcode": "15868"}}},
{"geometry": {"type": "Point", "coordinates": [-78.4918978006, 41.2764640149]}, "type": "Feature", "properties": {"collection_times": [{"days": "Mon-Fri", "time": "3:00pm"}, {"days": "Sat", "time": "11:15am"}, {"days": "Sun", "time": "Closed"}], "id": "1586800002", "name": "USPS COLLECTION BOX - PO LOBBY", "address": {"city": "WEEDVILLE", "state": "PA", "street": "472 RIVER RD", "postcode": "15868"}}},
{"geometry": {"type": "Point", "coordinates": [-78.6884981391, 41.5750737527]}, "type": "Feature", "properties": {"collection_times": [{"days": "Mon-Fri", "time": "2:25pm"}, {"days": "Sat", "time": "12:30pm"}, {"days": "Sun", "time": "Closed"}], "id": "1587000000", "name": "USPS COLLECTION BOX - BLUE BOX", "address": {"city": "WILCOX", "state": "PA", "street": "553 MARVIN ST", "postcode": "15870"}}},
{"geometry": {"type": "Point", "coordinates": [-78.6884981391, 41.5750737527]}, "type": "Feature", "properties": {"collection_times": [{"days": "Mon-Fri", "time": "2:25pm"}, {"days": "Sat", "time": "12:30pm"}, {"days": "Sun", "time": "Closed"}], "id": "1587000001", "name": "USPS COLLECTION BOX - PO LOBBY", "address": {"city": "WILCOX", "state": "PA", "street": "553 MARVIN ST", "postcode": "15870"}}}
]}
