{"type": "FeatureCollection", "features": [
{"geometry": {"type": "Point", "coordinates": [-78.9152163898, 40.3256825383]}, "type": "Feature", "properties": {"collection_times": [{"days": "Mon-Fri", "time": "5:00pm"}, {"days": "Sat", "time": "3:15pm"}, {"days": "Sun", "time": "Closed"}], "id": "1590100000", "name": "USPS COLLECTION BOX - BLUE BOX", "address": {"city": "JOHNSTOWN", "state": "PA", "street": "516 LOCUST ST", "postcode": "15901"}}},
{"geometry": {"type": "Point", "coordinates": [-78.9152163898, 40.3256825383]}, "type": "Feature", "properties": {"collection_times": [{"days": "Mon-Fri", "time": "5:00pm"}, {"days": "Sat", "time": "3:15pm"}, {"days": "Sun", "time": "Closed"}], "id": "1590100001", "name": "USPS COLLECTION BOX - BLUE BOX", "address": {"city": "JOHNSTOWN", "state": "PA", "street": "422 LOCUST ST", "postcode": "15901"}}},
{"geometry": {"type": "Point", "coordinates": [-78.9152163898, 40.3256825383]}, "type": "Feature", "properties": {"collection_times": [{"days": "Mon-Sat", "time": "3:15pm"}, {"days": "Sun", "time": "Closed"}], "id": "1590100005", "name": "USPS COLLECTION BOX - BLUE BOX", "address": {"city": "JOHNSTOWN", "state": "PA", "street": "701 FRANKLIN ST", "postcode": "15901"}}},
{"geometry": {"type": "Point", "coordinates": [-78.9152163898, 40.3256825383]}, "type": "Feature", "properties": {"collection_times": [{"days": "Mon-Fri", "time": "5:00pm"}, {"days": "Sat", "time": "3:15pm"}, {"days": "Sun", "time": "Closed"}], "id": "1590100006", "name": "USPS COLLECTION BOX - BLUE BOX", "address": {"city": "JOHNSTOWN", "state": "PA", "street": "498 MAIN ST", "postcode": "15901"}}},
{"geometry": {"type": "Point", "coordinates": [-78.9152163898, 40.3256825383]}, "type": "Feature", "properties": {"collection_times": [{"days": "Mon-Fri", "time": "5:00pm"}, {"days": "Sat", "time": "3:15pm"}, {"days": "Sun", "time": "Closed"}], "id": "1590100011", "name": "USPS COLLECTION BOX - BLUE BOX", "address": {"city": "JOHNSTOWN", "state": "PA", "street": "406 MAIN ST", "postcode": "15901"}}},
{"geometry": {"type": "Point", "coordinates": [-78.9152163898, 40.3256825383]}, "type": "Feature", "properties": {"collection_times": [{"days": "Mon-Fri", "time": "5:00pm"}, {"days": "Sat", "time": "3:15pm"}, {"days": "Sun", "time": "Closed"}], "id": "1590100013", "name": "USPS COLLECTION BOX - BLUE BOX", "address": {"city": "JOHNSTOWN", "state": "PA", "street": "206 MAIN ST", "postcode": "15901"}}},
{"geometry": {"type": "Point", "coordinates": [-78.9152163898, 40.3256825383]}, "type": "Feature", "properties": {"collection_times": [{"days": "Mon-Fri", "time": "5:00pm"}, {"days": "Sat", "time": "3:15pm"}, {"days": "Sun", "time": "Closed"}], "id": "1590100014", "name": "USPS COLLECTION BOX - BLUE BOX", "address": {"city": "JOHNSTOWN", "state": "PA", "street": "302 MAIN ST", "postcode": "15901"}}},
{"geometry": {"type": "Point", "coordinates": [-78.9152163898, 40.3256825383]}, "type": "Feature", "properties": {"collection_times": [{"days": "Mon-Sat", "time": "3:15pm"}, {"days": "Sun", "time": "Closed"}], "id": "1590100017", "name": "USPS COLLECTION BOX - BLUE BOX", "address": {"city": "JOHNSTOWN", "state": "PA", "street": "299 MARKET ST", "postcode": "15901"}}},
{"geometry": {"type": "Point", "coordinates": [-78.917439247, 40.329678001]}, "type": "Feature", "properties": {"collection_times": [{"days": "Mon-Sat", "time": "10:00am"}, {"days": "Sun", "time": "Closed"}], "id": "1590100020", "name": "USPS COLLECTION BOX - BLUE BOX", "address": {"city": "JOHNSTOWN", "state": "PA", "street": "110 WILLIAM PENN AVE", "postcode": "15901"}}},
{"geometry": {"type": "Point", "coordinates": [-78.854777765, 40.4030859052]}, "type": "Feature", "properties": {"collection_times": [{"days": "Mon-Sat", "time": "10:00am"}, {"days": "Sun", "time": "Closed"}], "id": "1590100021", "name": "USPS COLLECTION BOX - BLUE BOX", "address": {"city": "JOHNSTOWN", "state": "PA", "street": "2690 WILLIAM PENN AVE", "postcode": "15901"}}},
{"geometry": {"type": "Point", "coordinates": [-78.9152163898, 40.3256825383]}, "type": "Feature", "properties": {"collection_times": [{"days": "Mon-Fri", "time": "5:00pm"}, {"days": "Sat", "time": "3:15pm"}, {"days": "Sun", "time": "Closed"}], "id": "1590100027", "name": "USPS COLLECTION BOX - BLUE BOX", "address": {"city": "JOHNSTOWN", "state": "PA", "street": "422 LOCUST ST", "postcode": "15901"}}},
{"geometry": {"type": "Point", "coordinates": [-78.9152163898, 40.3256825383]}, "type": "Feature", "properties": {"collection_times": [{"days": "Mon-Sat", "time": "5:15pm"}, {"days": "Sun", "time": "Closed"}], "id": "1590100028", "name": "USPS COLLECTION BOX - BLUE BOX", "address": {"city": "JOHNSTOWN", "state": "PA", "street": "111 FRANKLIN ST", "postcode": "15901"}}},
{"geometry": {"type": "Point", "coordinates": [-78.9152163898, 40.3256825383]}, "type": "Feature", "properties": {"collection_times": [{"days": "Mon-Sat", "time": "5:15pm"}, {"days": "Sun", "time": "Closed"}], "id": "1590100029", "name": "USPS COLLECTION BOX - BLUE BOX", "address": {"city": "JOHNSTOWN", "state": "PA", "street": "111 FRANKLIN ST", "postcode": "15901"}}},
{"geometry": {"type": "Point", "coordinates": [-78.9152163898, 40.3256825383]}, "type": "Feature", "properties": {"collection_times": [{"days": "Mon-Fri", "time": "5:00pm"}, {"days": "Sat", "time": "3:15pm"}, {"days": "Sun", "time": "Closed"}], "id": "1590100042", "name": "USPS COLLECTION BOX - BLUE BOX", "address": {"city": "JOHNSTOWN", "state": "PA", "street": "101 MARKET ST", "postcode": "15901"}}},
{"geometry": {"type": "Point", "coordinates": [-78.9152163898, 40.3256825383]}, "type": "Feature", "properties": {"collection_times": [{"days": "Mon-Fri", "time": "5:00pm"}, {"days": "Sat", "time": "3:15pm"}, {"days": "Sun", "time": "Closed"}], "id": "1590100043", "name": "USPS COLLECTION BOX - BLUE BOX", "address": {"city": "JOHNSTOWN", "state": "PA", "street": "101 MARKET ST", "postcode": "15901"}}},
{"geometry": {"type": "Point", "coordinates": [-78.9152163898, 40.3256825383]}, "type": "Feature", "properties": {"collection_times": [{"days": "Mon-Fri", "time": "5:00pm"}, {"days": "Sat", "time": "3:15pm"}, {"days": "Sun", "time": "Closed"}], "id": "1590100045", "name": "USPS COLLECTION BOX - BLUE BOX", "address": {"city": "JOHNSTOWN", "state": "PA", "street": "206 MAIN ST", "postcode": "15901"}}},
{"geometry": {"type": "Point", "coordinates": [-78.9152163898, 40.3256825383]}, "type": "Feature", "properties": {"collection_times": [{"days": "Mon-Fri", "time": "5:00pm"}, {"days": "Sat", "time": "3:15pm"}, {"days": "Sun", "time": "Closed"}], "id": "1590100049", "name": "USPS COLLECTION BOX - BLUE BOX", "address": {"city": "JOHNSTOWN", "state": "PA", "street": "206 MAIN ST", "postcode": "15901"}}},
{"geometry": {"type": "Point", "coordinates": [-78.9152163898, 40.3256825383]}, "type": "Feature", "properties": {"collection_times": [{"days": "Mon-Sat", "time": "5:00pm"}, {"days": "Sun", "time": "Closed"}], "id": "1590100050", "name": "USPS COLLECTION BOX - PO LOBBY", "address": {"city": "JOHNSTOWN", "state": "PA", "street": "111 FRANKLIN ST", "postcode": "15901"}}},
{"geometry": {"type": "Point", "coordinates": [-78.9152163898, 40.3256825383]}, "type": "Feature", "properties": {"collection_times": [{"days": "Mon-Fri", "time": "5:00pm"}, {"days": "Sat", "time": "3:15pm"}, {"days": "Sun", "time": "Closed"}], "id": "1590100051", "name": "USPS COLLECTION BOX - BLUE BOX", "address": {"city": "JOHNSTOWN", "state": "PA", "street": "602 MAIN ST", "postcode": "15901"}}},
{"geometry": {"type": "Point", "coordinates": [-78.9152163898, 40.3256825383]}, "type": "Feature", "properties": {"collection_times": [{"days": "Mon-Fri", "time": "5:00pm"}, {"days": "Sat", "time": "3:15pm"}, {"days": "Sun", "time": "Closed"}], "id": "1590100052", "name": "USPS COLLECTION BOX - BLUE BOX", "address": {"city": "JOHNSTOWN", "state": "PA", "street": "602 MAIN ST", "postcode": "15901"}}},
{"geometry": {"type": "Point", "coordinates": [-78.9152163898, 40.3256825383]}, "type": "Feature", "properties": {"collection_times": [{"days": "Mon-Fri", "time": "5:00pm"}, {"days": "Sat", "time": "3:15pm"}, {"days": "Sun", "time": "Closed"}], "id": "1590100053", "name": "USPS COLLECTION BOX - BLUE BOX", "address": {"city": "JOHNSTOWN", "state": "PA", "street": "516 LOCUST ST", "postcode": "15901"}}},
{"geometry": {"type": "Point", "coordinates": [-78.9127176245, 40.2981572758]}, "type": "Feature", "properties": {"collection_times": [{"days": "Mon-Sat", "time": "12:45pm"}, {"days": "Sun", "time": "Closed"}], "id": "1590200005", "name": "USPS COLLECTION BOX - BLUE BOX", "address": {"city": "JOHNSTOWN", "state": "PA", "street": "570 CENTRAL AVE", "postcode": "15902"}}},
{"geometry": {"type": "Point", "coordinates": [-78.909804474, 40.2988360847]}, "type": "Feature", "properties": {"collection_times": [{"days": "Mon-Sat", "time": "12:45pm"}, {"days": "Sun", "time": "Closed"}], "id": "1590200010", "name": "USPS COLLECTION BOX - BLUE BOX", "address": {"city": "JOHNSTOWN", "state": "PA", "street": "175 OHIO ST", "postcode": "15902"}}},
{"geometry": {"type": "Point", "coordinates": [-78.9122375888, 40.3102480035]}, "type": "Feature", "properties": {"collection_times": [{"days": "Mon-Sat", "time": "1:00pm"}, {"days": "Sun", "time": "Closed"}], "id": "1590200012", "name": "USPS COLLECTION BOX - BLUE BOX", "address": {"city": "JOHNSTOWN", "state": "PA", "street": "645 HORNER ST", "postcode": "15902"}}},
{"geometry": {"type": "Point", "coordinates": [-78.9060325612, 40.2973857657]}, "type": "Feature", "properties": {"collection_times": [{"days": "Mon-Sat", "time": "12:45pm"}, {"days": "Sun", "time": "Closed"}], "id": "1590200015", "name": "USPS COLLECTION BOX - BLUE BOX", "address": {"city": "JOHNSTOWN", "state": "PA", "street": "245 OHIO ST", "postcode": "15902"}}},
{"geometry": {"type": "Point", "coordinates": [-78.8674433441, 40.289181722]}, "type": "Feature", "properties": {"collection_times": [{"days": "Mon-Fri", "time": "5:00pm"}, {"days": "Sat", "time": "3:30pm"}, {"days": "Sun", "time": "Closed"}], "id": "1590400000", "name": "USPS COLLECTION BOX - BLUE BOX", "address": {"city": "JOHNSTOWN", "state": "PA", "street": "856 SCALP AVE", "postcode": "15904"}}},
{"geometry": {"type": "Point", "coordinates": [-78.8720381148, 40.295441829]}, "type": "Feature", "properties": {"collection_times": [{"days": "Mon-Sat", "time": "12:30pm"}, {"days": "Sun", "time": "Closed"}], "id": "1590400005", "name": "USPS COLLECTION BOX - BLUE BOX", "address": {"city": "JOHNSTOWN", "state": "PA", "street": "2449 BEDFORD ST", "postcode": "15904"}}},
{"geometry": {"type": "Point", "coordinates": [-78.848360091, 40.2764660479]}, "type": "Feature", "properties": {"collection_times": [{"days": "Mon-Sat", "time": "4:00pm"}, {"days": "Sun", "time": "Closed"}], "id": "1590400006", "name": "USPS COLLECTION BOX - BLUE BOX", "address": {"city": "JOHNSTOWN", "state": "PA", "street": "111 COLLEGE PARK PLZ", "postcode": "15904"}}},
{"geometry": {"type": "Point", "coordinates": [-78.8674433441, 40.289181722]}, "type": "Feature", "properties": {"collection_times": [{"days": "Mon-Fri", "time": "5:00pm"}, {"days": "Sat", "time": "3:30pm"}, {"days": "Sun", "time": "Closed"}], "id": "1590400013", "name": "USPS COLLECTION BOX - BLUE BOX", "address": {"city": "JOHNSTOWN", "state": "PA", "street": "856 SCALP AVE", "postcode": "15904"}}},
{"geometry": {"type": "Point", "coordinates": [-78.8580744862, 40.2711847536]}, "type": "Feature", "properties": {"collection_times": [{"days": "Mon-Sat", "time": "4:15pm"}, {"days": "Sun", "time": "Closed"}], "id": "1590400016", "name": "USPS COLLECTION BOX - BLUE BOX", "address": {"city": "JOHNSTOWN", "state": "PA", "street": "1450 SCALP AVE", "postcode": "15904"}}},
{"geometry": {"type": "Point", "coordinates": [-78.848360091, 40.2764660479]}, "type": "Feature", "properties": {"collection_times": [{"days": "Mon-Sat", "time": "4:00pm"}, {"days": "Sun", "time": "Closed"}], "id": "1590400019", "name": "USPS COLLECTION BOX - BLUE BOX", "address": {"city": "JOHNSTOWN", "state": "PA", "street": "111 COLLEGE PARK PLZ", "postcode": "15904"}}},
{"geometry": {"type": "Point", "coordinates": [-78.8479432523, 40.2723156766]}, "type": "Feature", "properties": {"collection_times": [{"days": "Mon-Sat", "time": "4:00pm"}, {"days": "Sun", "time": "Closed"}], "id": "1590400020", "name": "USPS COLLECTION BOX - BLUE BOX", "address": {"city": "JOHNSTOWN", "state": "PA", "street": "1401 EISENHOWER BLVD", "postcode": "15904"}}},
{"geometry": {"type": "Point", "coordinates": [-78.8575918851, 40.2707965377]}, "type": "Feature", "properties": {"collection_times": [{"days": "Mon-Sat", "time": "4:00pm"}, {"days": "Sun", "time": "Closed"}], "id": "1590400026", "name": "USPS COLLECTION BOX - BLUE BOX", "address": {"city": "JOHNSTOWN", "state": "PA", "street": "1449 SCALP AVE", "postcode": "15904"}}},
{"geometry": {"type": "Point", "coordinates": [-78.8294689636, 40.2910654432]}, "type": "Feature", "properties": {"collection_times": [{"days": "Mon-Sat", "time": "6:00pm"}, {"days": "Sun", "time": "Closed"}], "id": "1590400029", "name": "USPS COLLECTION BOX - BLUE BOX", "address": {"city": "JOHNSTOWN", "state": "PA", "street": "235 JARI DR", "postcode": "15904"}}},
{"geometry": {"type": "Point", "coordinates": [-78.8294689636, 40.2910654432]}, "type": "Feature", "properties": {"collection_times": [{"days": "Mon-Sat", "time": "6:00pm"}, {"days": "Sun", "time": "Closed"}], "id": "1590400030", "name": "USPS COLLECTION BOX - BLUE BOX", "address": {"city": "JOHNSTOWN", "state": "PA", "street": "235 JARI DR", "postcode": "15904"}}},
{"geometry": {"type": "Point", "coordinates": [-78.8294689636, 40.2910654432]}, "type": "Feature", "properties": {"collection_times": [{"days": "Mon-Sat", "time": "6:00pm"}, {"days": "Sun", "time": "Closed"}], "id": "1590400031", "name": "USPS COLLECTION BOX - BLUE BOX", "address": {"city": "JOHNSTOWN", "state": "PA", "street": "235 JARI DR", "postcode": "15904"}}},
{"geometry": {"type": "Point", "coordinates": [-78.8611365903, 40.2676365519]}, "type": "Feature", "properties": {"collection_times": [{"days": "Mon-Sat", "time": "4:15pm"}, {"days": "Sun", "time": "Closed"}], "id": "1590400036", "name": "USPS COLLECTION BOX - BLUE BOX", "address": {"city": "JOHNSTOWN", "state": "PA", "street": "969 EISENHOWER BLVD", "postcode": "15904"}}},
{"geometry": {"type": "Point", "coordinates": [-78.8362065681, 40.296784393]}, "type": "Feature", "properties": {"collection_times": [{"days": "Mon-Sat", "time": "3:45pm"}, {"days": "Sun", "time": "Closed"}], "id": "1590400037", "name": "USPS COLLECTION BOX - BLUE BOX", "address": {"city": "JOHNSTOWN", "state": "PA", "street": "510 GALLERIA DR", "postcode": "15904"}}},
{"geometry": {"type": "Point", "coordinates": [-78.8674433441, 40.289181722]}, "type": "Feature", "properties": {"collection_times": [{"days": "Mon-Fri", "time": "5:00pm"}, {"days": "Sat", "time": "3:30pm"}, {"days": "Sun", "time": "Closed"}], "id": "1590400046", "name": "USPS COLLECTION BOX - PO LOBBY", "address": {"city": "JOHNSTOWN", "state": "PA", "street": "856 SCALP AVE", "postcode": "15904"}}},
{"geometry": {"type": "Point", "coordinates": [-78.9303552088, 40.2860364616]}, "type": "Feature", "properties": {"collection_times": [{"days": "Mon-Sat", "time": "2:45pm"}, {"days": "Sun", "time": "Closed"}], "id": "1590500000", "name": "USPS COLLECTION BOX - BLUE BOX", "address": {"city": "JOHNSTOWN", "state": "PA", "street": "1601 FERNDALE AVE", "postcode": "15905"}}},
{"geometry": {"type": "Point", "coordinates": [-78.9166357723, 40.3099182519]}, "type": "Feature", "properties": {"collection_times": [{"days": "Mon-Sat", "time": "3:00pm"}, {"days": "Sun", "time": "Closed"}], "id": "1590500001", "name": "USPS COLLECTION BOX - BLUE BOX", "address": {"city": "JOHNSTOWN", "state": "PA", "street": "1029 FRANKLIN ST", "postcode": "15905"}}},
{"geometry": {"type": "Point", "coordinates": [-78.9317074273, 40.2921938556]}, "type": "Feature", "properties": {"collection_times": [{"days": "Mon-Sat", "time": "2:30pm"}, {"days": "Sun", "time": "Closed"}], "id": "1590500002", "name": "USPS COLLECTION BOX - BLUE BOX", "address": {"city": "JOHNSTOWN", "state": "PA", "street": "344 GOUCHER ST", "postcode": "15905"}}},
{"geometry": {"type": "Point", "coordinates": [-78.9159369428, 40.2895615974]}, "type": "Feature", "properties": {"collection_times": [{"days": "Mon-Sat", "time": "2:45pm"}, {"days": "Sun", "time": "Closed"}], "id": "1590500004", "name": "USPS COLLECTION BOX - BLUE BOX", "address": {"city": "JOHNSTOWN", "state": "PA", "street": "561 FERNDALE AVE", "postcode": "15905"}}},
{"geometry": {"type": "Point", "coordinates": [-78.9168179445, 40.3079306102]}, "type": "Feature", "properties": {"collection_times": [{"days": "Mon-Sat", "time": "3:00pm"}, {"days": "Sun", "time": "Closed"}], "id": "1590500005", "name": "USPS COLLECTION BOX - BLUE BOX", "address": {"city": "JOHNSTOWN", "state": "PA", "street": "1111 FRANKLIN ST", "postcode": "15905"}}},
{"geometry": {"type": "Point", "coordinates": [-78.9225595204, 40.3029533969]}, "type": "Feature", "properties": {"collection_times": [{"days": "Mon-Sat", "time": "2:45pm"}, {"days": "Sun", "time": "Closed"}], "id": "1590500006", "name": "USPS COLLECTION BOX - BLUE BOX", "address": {"city": "JOHNSTOWN", "state": "PA", "street": "1429 FRANKLIN ST", "postcode": "15905"}}},
{"geometry": {"type": "Point", "coordinates": [-78.9167909969, 40.3083242157]}, "type": "Feature", "properties": {"collection_times": [{"days": "Mon-Sat", "time": "3:00pm"}, {"days": "Sun", "time": "Closed"}], "id": "1590500008", "name": "USPS COLLECTION BOX - BLUE BOX", "address": {"city": "JOHNSTOWN", "state": "PA", "street": "1093 FRANKLIN ST", "postcode": "15905"}}},
{"geometry": {"type": "Point", "coordinates": [-78.9560371797, 40.3219310416]}, "type": "Feature", "properties": {"collection_times": [{"days": "Mon-Sat", "time": "1:45pm"}, {"days": "Sun", "time": "Closed"}], "id": "1590500025", "name": "USPS COLLECTION BOX - BLUE BOX", "address": {"city": "JOHNSTOWN", "state": "PA", "street": "1739 LYTER DR", "postcode": "15905"}}},
{"geometry": {"type": "Point", "coordinates": [-78.9460485121, 40.3021677837]}, "type": "Feature", "properties": {"collection_times": [{"days": "Mon-Sat", "time": "2:30pm"}, {"days": "Sun", "time": "Closed"}], "id": "1590500032", "name": "USPS COLLECTION BOX - BLUE BOX", "address": {"city": "JOHNSTOWN", "state": "PA", "street": "727 GOUCHER ST", "postcode": "15905"}}},
{"geometry": {"type": "Point", "coordinates": [-78.9403941167, 40.3085234065]}, "type": "Feature", "properties": {"collection_times": [{"days": "Mon-Sat", "time": "2:30pm"}, {"days": "Sun", "time": "Closed"}], "id": "1590500035", "name": "USPS COLLECTION BOX - BLUE BOX", "address": {"city": "JOHNSTOWN", "state": "PA", "street": "316 STATE ST", "postcode": "15905"}}},
{"geometry": {"type": "Point", "coordinates": [-78.9532352498, 40.3158618313]}, "type": "Feature", "properties": {"collection_times": [{"days": "Mon-Sat", "time": "2:00pm"}, {"days": "Sun", "time": "Closed"}], "id": "1590500037", "name": "USPS COLLECTION BOX - BLUE BOX", "address": {"city": "JOHNSTOWN", "state": "PA", "street": "1541 MENOHER BLVD", "postcode": "15905"}}},
{"geometry": {"type": "Point", "coordinates": [-78.9401335182, 40.315608463]}, "type": "Feature", "properties": {"collection_times": [{"days": "Mon-Sat", "time": "2:15pm"}, {"days": "Sun", "time": "Closed"}], "id": "1590500040", "name": "USPS COLLECTION BOX - BLUE BOX", "address": {"city": "JOHNSTOWN", "state": "PA", "street": "1003 MENOHER BLVD", "postcode": "15905"}}},
{"geometry": {"type": "Point", "coordinates": [-78.969936848, 40.2919675362]}, "type": "Feature", "properties": {"collection_times": [{"days": "Mon-Sat", "time": "2:00pm"}, {"days": "Sun", "time": "Closed"}], "id": "1590500041", "name": "USPS COLLECTION BOX - BLUE BOX", "address": {"city": "JOHNSTOWN", "state": "PA", "street": "1910 MINNO DR STE 350", "postcode": "15905"}}},
{"geometry": {"type": "Point", "coordinates": [-78.9439396148, 40.350588451]}, "type": "Feature", "properties": {"collection_times": [{"days": "Mon-Sat", "time": "1:45pm"}, {"days": "Sun", "time": "Closed"}], "id": "1590600004", "name": "USPS COLLECTION BOX - BLUE BOX", "address": {"city": "JOHNSTOWN", "state": "PA", "street": "350 SHERIDAN ST", "postcode": "15906"}}},
{"geometry": {"type": "Point", "coordinates": [-78.9372950639, 40.3536960238]}, "type": "Feature", "properties": {"collection_times": [{"days": "Mon-Sat", "time": "1:30pm"}, {"days": "Sun", "time": "Closed"}], "id": "1590600009", "name": "USPS COLLECTION BOX - BLUE BOX", "address": {"city": "JOHNSTOWN", "state": "PA", "street": "200 COOPER AVE", "postcode": "15906"}}},
{"geometry": {"type": "Point", "coordinates": [-78.9345988124, 40.3426922821]}, "type": "Feature", "properties": {"collection_times": [{"days": "Mon-Sat", "time": "1:15pm"}, {"days": "Sun", "time": "Closed"}], "id": "1590600010", "name": "USPS COLLECTION BOX - BLUE BOX", "address": {"city": "JOHNSTOWN", "state": "PA", "street": "1000 BROAD ST", "postcode": "15906"}}},
{"geometry": {"type": "Point", "coordinates": [-78.9345988124, 40.3426922821]}, "type": "Feature", "properties": {"collection_times": [{"days": "Mon-Sat", "time": "1:15pm"}, {"days": "Sun", "time": "Closed"}], "id": "1590600011", "name": "USPS COLLECTION BOX - BLUE BOX", "address": {"city": "JOHNSTOWN", "state": "PA", "street": "1000 BROAD ST", "postcode": "15906"}}},
{"geometry": {"type": "Point", "coordinates": [-78.8677993448, 40.3839838221]}, "type": "Feature", "properties": {"collection_times": [{"days": "Mon-Sat", "time": "1:00pm"}, {"days": "Sun", "time": "Closed"}], "id": "1590900002", "name": "USPS COLLECTION BOX - BLUE BOX", "address": {"city": "JOHNSTOWN", "state": "PA", "street": "50 MAIN ST", "postcode": "15909"}}},
{"geometry": {"type": "Point", "coordinates": [-78.8677993448, 40.3839838221]}, "type": "Feature", "properties": {"collection_times": [{"days": "Mon-Sat", "time": "1:15pm"}, {"days": "Sun", "time": "Closed"}], "id": "1590900003", "name": "USPS COLLECTION BOX - BLUE BOX", "address": {"city": "JOHNSTOWN", "state": "PA", "street": "125 MAIN ST", "postcode": "15909"}}},
{"geometry": {"type": "Point", "coordinates": [-79.0471264118, 40.4638232982]}, "type": "Feature", "properties": {"collection_times": [{"days": "Mon-Fri", "time": "3:45pm"}, {"days": "Sat", "time": "10:45am"}, {"days": "Sun", "time": "Closed"}], "id": "1592000000", "name": "USPS COLLECTION BOX - BLUE BOX", "address": {"city": "ARMAGH", "state": "PA", "street": "35 E PHILADELPHIA ST", "postcode": "15920"}}},
{"geometry": {"type": "Point", "coordinates": [-79.0309818385, 40.453890175]}, "type": "Feature", "properties": {"collection_times": [{"days": "Mon-Fri", "time": "3:45pm"}, {"days": "Sat", "time": "10:45am"}, {"days": "Sun", "time": "Closed"}], "id": "1592000001", "name": "USPS COLLECTION BOX - PO LOBBY", "address": {"city": "ARMAGH", "state": "PA", "street": "35 E PHILADELPHIA ST", "postcode": "15920"}}},
{"geometry": {"type": "Point", "coordinates": [-78.697526896, 40.318945402]}, "type": "Feature", "properties": {"collection_times": [{"days": "Mon-Fri", "time": "4:30pm"}, {"days": "Sat", "time": "11:30am"}, {"days": "Sun", "time": "Closed"}], "id": "1592100000", "name": "USPS COLLECTION BOX - BLUE BOX", "address": {"city": "BEAVERDALE", "state": "PA", "street": "316 CEDAR ST", "postcode": "15921"}}},
{"geometry": {"type": "Point", "coordinates": [-78.697526896, 40.318945402]}, "type": "Feature", "properties": {"collection_times": [{"days": "Mon-Fri", "time": "4:30pm"}, {"days": "Sat", "time": "11:30am"}, {"days": "Sun", "time": "Closed"}], "id": "1592100001", "name": "USPS COLLECTION BOX - PO LOBBY", "address": {"city": "BEAVERDALE", "state": "PA", "street": "316 CEDAR ST", "postcode": "15921"}}},
{"geometry": {"type": "Point", "coordinates": [-78.8716980891, 40.5193329202]}, "type": "Feature", "properties": {"collection_times": [{"days": "Mon-Fri", "time": "3:30pm"}, {"days": "Sat", "time": "11:45am"}, {"days": "Sun", "time": "Closed"}], "id": "1592200000", "name": "USPS COLLECTION BOX - BLUE BOX", "address": {"city": "BELSANO", "state": "PA", "street": "3806 BEN FRANKLIN HWY", "postcode": "15922"}}},
{"geometry": {"type": "Point", "coordinates": [-78.8716980891, 40.5193329202]}, "type": "Feature", "properties": {"collection_times": [{"days": "Mon-Fri", "time": "11:55am"}, {"days": "Sat", "time": "11:45am"}, {"days": "Sun", "time": "Closed"}], "id": "1592200001", "name": "USPS COLLECTION BOX - PO LOBBY", "address": {"city": "BELSANO", "state": "PA", "street": "3806 BEN FRANKLIN HWY", "postcode": "15922"}}},
{"geometry": {"type": "Point", "coordinates": [-79.169393752, 40.354156717]}, "type": "Feature", "properties": {"collection_times": [{"days": "Mon-Fri", "time": "4:15pm"}, {"days": "Sat", "time": "11:45am"}, {"days": "Sun", "time": "Closed"}], "id": "1592300000", "name": "USPS COLLECTION BOX - BLUE BOX", "address": {"city": "BOLIVAR", "state": "PA", "street": "308 4TH ST", "postcode": "15923"}}},
{"geometry": {"type": "Point", "coordinates": [-79.169393752, 40.354156717]}, "type": "Feature", "properties": {"collection_times": [{"days": "Mon-Fri", "time": "11:55am"}, {"days": "Sat", "time": "11:45am"}, {"days": "Sun", "time": "Closed"}], "id": "1592300001", "name": "USPS COLLECTION BOX - PO LOBBY", "address": {"city": "BOLIVAR", "state": "PA", "street": "308 4TH ST", "postcode": "15923"}}},
{"geometry": {"type": "Point", "coordinates": [-78.81382795, 40.121617297]}, "type": "Feature", "properties": {"collection_times": [{"days": "Mon-Fri", "time": "4:15pm"}, {"days": "Sat", "time": "11:00am"}, {"days": "Sun", "time": "Closed"}], "id": "1592400000", "name": "USPS COLLECTION BOX - BLUE BOX", "address": {"city": "CAIRNBROOK", "state": "PA", "street": "1 2ND ST", "postcode": "15924"}}},
{"geometry": {"type": "Point", "coordinates": [-78.81382795, 40.121617297]}, "type": "Feature", "properties": {"collection_times": [{"days": "Mon-Fri", "time": "11:55am"}, {"days": "Sat", "time": "11:00am"}, {"days": "Sun", "time": "Closed"}], "id": "1592400001", "name": "USPS COLLECTION BOX - PO LOBBY", "address": {"city": "CAIRNBROOK", "state": "PA", "street": "1 2ND ST", "postcode": "15924"}}},
{"geometry": {"type": "Point", "coordinates": [-78.810788305, 40.122363395]}, "type": "Feature", "properties": {"collection_times": [{"days": "Mon-Sat", "time": "2:00pm"}, {"days": "Sun", "time": "Closed"}], "id": "1592400003", "name": "USPS COLLECTION BOX - BLUE BOX", "address": {"city": "CAIRNBROOK", "state": "PA", "street": "5338 DARK SHADE DR", "postcode": "15924"}}},
{"geometry": {"type": "Point", "coordinates": [-78.6386083623, 40.4077515692]}, "type": "Feature", "properties": {"collection_times": [{"days": "Mon-Fri", "time": "9:50am"}, {"days": "Sat", "time": "12:00pm"}, {"days": "Sun", "time": "Closed"}], "id": "1592500000", "name": "USPS COLLECTION BOX - BLUE BOX", "address": {"city": "CASSANDRA", "state": "PA", "street": "156 MAIN ST", "postcode": "15925"}}},
{"geometry": {"type": "Point", "coordinates": [-78.6386083623, 40.4077515692]}, "type": "Feature", "properties": {"collection_times": [{"days": "Mon-Fri", "time": "9:50am"}, {"days": "Sat", "time": "12:00pm"}, {"days": "Sun", "time": "Closed"}], "id": "1592500001", "name": "USPS COLLECTION BOX - PO LOBBY", "address": {"city": "CASSANDRA", "state": "PA", "street": "156 MAIN ST", "postcode": "15925"}}},
{"geometry": {"type": "Point", "coordinates": [-78.807435965, 40.107139205]}, "type": "Feature", "properties": {"collection_times": [{"days": "Mon-Sat", "time": "4:30pm"}, {"days": "Sun", "time": "Closed"}], "id": "1592600006", "name": "USPS COLLECTION BOX - BLUE BOX", "address": {"city": "CENTRAL CITY", "state": "PA", "street": "1 SUNSHINE AVE", "postcode": "15926"}}},
{"geometry": {"type": "Point", "coordinates": [-78.807435965, 40.107139205]}, "type": "Feature", "properties": {"collection_times": [{"days": "Mon-Fri", "time": "4:30pm"}, {"days": "Sat", "time": "12:30pm"}, {"days": "Sun", "time": "Closed"}], "id": "1592600007", "name": "USPS COLLECTION BOX - PO LOBBY", "address": {"city": "CENTRAL CITY", "state": "PA", "street": "1 SUNSHINE AVE", "postcode": "15926"}}},
{"geometry": {"type": "Point", "coordinates": [-78.7894559271, 40.5425746989]}, "type": "Feature", "properties": {"collection_times": [{"days": "Mon-Fri", "time": "3:45pm"}, {"days": "Sat", "time": "11:45am"}, {"days": "Sun", "time": "Closed"}], "id": "1592700000", "name": "USPS COLLECTION BOX - BLUE BOX", "address": {"city": "COLVER", "state": "PA", "street": "43 REESE AVE", "postcode": "15927"}}},
{"geometry": {"type": "Point", "coordinates": [-78.7894559271, 40.5425746989]}, "type": "Feature", "properties": {"collection_times": [{"days": "Mon-Fri", "time": "4:00pm"}, {"days": "Sat", "time": "11:45am"}, {"days": "Sun", "time": "Closed"}], "id": "1592700001", "name": "USPS COLLECTION BOX - PO LOBBY", "address": {"city": "COLVER", "state": "PA", "street": "43 REESE AVE", "postcode": "15927"}}},
{"geometry": {"type": "Point", "coordinates": [-78.9376175502, 40.2259863569]}, "type": "Feature", "properties": {"collection_times": [{"days": "Mon-Fri", "time": "4:30pm"}, {"days": "Sat", "time": "11:30am"}, {"days": "Sun", "time": "Closed"}], "id": "1592800000", "name": "USPS COLLECTION BOX - BLUE BOX", "address": {"city": "DAVIDSVILLE", "state": "PA", "street": "113 S MAIN ST", "postcode": "15928"}}},
{"geometry": {"type": "Point", "coordinates": [-78.9196874005, 40.2370400811]}, "type": "Feature", "properties": {"collection_times": [{"days": "Mon-Fri", "time": "4:45pm"}, {"days": "Sat", "time": "11:45am"}, {"days": "Sun", "time": "Closed"}], "id": "1592800001", "name": "USPS COLLECTION BOX - PO LOBBY", "address": {"city": "DAVIDSVILLE", "state": "PA", "street": "113 S MAIN ST", "postcode": "15928"}}},
{"geometry": {"type": "Point", "coordinates": [-78.9920613122, 40.4770503582]}, "type": "Feature", "properties": {"collection_times": [{"days": "Mon-Fri", "time": "3:45pm"}, {"days": "Sat", "time": "11:45am"}, {"days": "Sun", "time": "Closed"}], "id": "1592900000", "name": "USPS COLLECTION BOX - BLUE BOX", "address": {"city": "DILLTOWN", "state": "PA", "street": "7491 ROUTE 403 HWY S", "postcode": "15929"}}},
{"geometry": {"type": "Point", "coordinates": [-78.9920613122, 40.4770503582]}, "type": "Feature", "properties": {"collection_times": [{"days": "Mon-Fri", "time": "10:50am"}, {"days": "Sat", "time": "11:45am"}, {"days": "Sun", "time": "Closed"}], "id": "1592900001", "name": "USPS COLLECTION BOX - PO LOBBY", "address": {"city": "DILLTOWN", "state": "PA", "street": "7491 ROUTE 403 HWY S", "postcode": "15929"}}},
{"geometry": {"type": "Point", "coordinates": [-78.7214841729, 40.2947465917]}, "type": "Feature", "properties": {"collection_times": [{"days": "Mon-Fri", "time": "4:00pm"}, {"days": "Sat", "time": "11:30am"}, {"days": "Sun", "time": "Closed"}], "id": "1593000000", "name": "USPS COLLECTION BOX - BLUE BOX", "address": {"city": "DUNLO", "state": "PA", "street": "207 HUFF ST", "postcode": "15930"}}},
{"geometry": {"type": "Point", "coordinates": [-78.7214841729, 40.2947465917]}, "type": "Feature", "properties": {"collection_times": [{"days": "Mon-Fri", "time": "11:55am"}, {"days": "Sat", "time": "11:30am"}, {"days": "Sun", "time": "Closed"}], "id": "1593000001", "name": "USPS COLLECTION BOX - PO LOBBY", "address": {"city": "DUNLO", "state": "PA", "street": "207 HUFF ST", "postcode": "15930"}}},
{"geometry": {"type": "Point", "coordinates": [-78.7291727655, 40.4898155039]}, "type": "Feature", "properties": {"collection_times": [{"days": "Mon-Sat", "time": "2:30pm"}, {"days": "Sun", "time": "Closed"}], "id": "1593100007", "name": "USPS COLLECTION BOX - BLUE BOX", "address": {"city": "EBENSBURG", "state": "PA", "street": "320 W HIGHLAND AVE", "postcode": "15931"}}},
{"geometry": {"type": "Point", "coordinates": [-78.7249819401, 40.4842386785]}, "type": "Feature", "properties": {"collection_times": [{"days": "Mon-Sat", "time": "2:30pm"}, {"days": "Sun", "time": "Closed"}], "id": "1593100018", "name": "USPS COLLECTION BOX - BLUE BOX", "address": {"city": "EBENSBURG", "state": "PA", "street": "100 E LLOYD ST", "postcode": "15931"}}},
{"geometry": {"type": "Point", "coordinates": [-78.7271899164, 40.485254213]}, "type": "Feature", "properties": {"collection_times": [{"days": "Mon-Sat", "time": "2:30pm"}, {"days": "Sun", "time": "Closed"}], "id": "1593100019", "name": "USPS COLLECTION BOX - BLUE BOX", "address": {"city": "EBENSBURG", "state": "PA", "street": "300 W HIGH ST", "postcode": "15931"}}},
{"geometry": {"type": "Point", "coordinates": [-78.7249971054, 40.4852361117]}, "type": "Feature", "properties": {"collection_times": [{"days": "Mon-Sat", "time": "2:30pm"}, {"days": "Sun", "time": "Closed"}], "id": "1593100020", "name": "USPS COLLECTION BOX - BLUE BOX", "address": {"city": "EBENSBURG", "state": "PA", "street": "100 W HIGH ST", "postcode": "15931"}}},
{"geometry": {"type": "Point", "coordinates": [-78.7100752692, 40.5015176969]}, "type": "Feature", "properties": {"collection_times": [{"days": "Mon-Sat", "time": "9:30am"}, {"days": "Sun", "time": "Closed"}], "id": "1593100022", "name": "USPS COLLECTION BOX - BLUE BOX", "address": {"city": "EBENSBURG", "state": "PA", "street": "881 HILLS PLZ", "postcode": "15931"}}},
{"geometry": {"type": "Point", "coordinates": [-78.7249830061, 40.4861421183]}, "type": "Feature", "properties": {"collection_times": [{"days": "Mon-Fri", "time": "4:30pm"}, {"days": "Sat", "time": "3:30pm"}, {"days": "Sun", "time": "Closed"}], "id": "1593100025", "name": "USPS COLLECTION BOX - BLUE BOX", "address": {"city": "EBENSBURG", "state": "PA", "street": "100 W SAMPLE ST", "postcode": "15931"}}},
{"geometry": {"type": "Point", "coordinates": [-78.7249069755, 40.4853804598]}, "type": "Feature", "properties": {"collection_times": [{"days": "Mon-Fri", "time": "4:30pm"}, {"days": "Sat", "time": "3:30pm"}, {"days": "Sun", "time": "Closed"}], "id": "1593100026", "name": "USPS COLLECTION BOX - BLUE BOX", "address": {"city": "EBENSBURG", "state": "PA", "street": "121 N CENTER ST", "postcode": "15931"}}},
{"geometry": {"type": "Point", "coordinates": [-78.7460272777, 40.4701705568]}, "type": "Feature", "properties": {"collection_times": [{"days": "Mon-Sat", "time": "9:30am"}, {"days": "Sun", "time": "Closed"}], "id": "1593100028", "name": "USPS COLLECTION BOX - BLUE BOX", "address": {"city": "EBENSBURG", "state": "PA", "street": "3133 NEW GERMANY RD", "postcode": "15931"}}},
{"geometry": {"type": "Point", "coordinates": [-78.7597111545, 40.4604852587]}, "type": "Feature", "properties": {"collection_times": [{"days": "Mon-Sat", "time": "10:00am"}, {"days": "Sun", "time": "Closed"}], "id": "1593100029", "name": "USPS COLLECTION BOX - BLUE BOX", "address": {"city": "EBENSBURG", "state": "PA", "street": "325 INDUSTRIAL PARK RD", "postcode": "15931"}}},
{"geometry": {"type": "Point", "coordinates": [-78.7415161049, 40.5000910591]}, "type": "Feature", "properties": {"collection_times": [{"days": "Mon-Fri", "time": "4:30pm"}, {"days": "Sat", "time": "3:30pm"}, {"days": "Sun", "time": "Closed"}], "id": "1593100033", "name": "USPS COLLECTION BOX - PO LOBBY", "address": {"city": "EBENSBURG", "state": "PA", "street": "121 N CENTER ST", "postcode": "15931"}}},
{"geometry": {"type": "Point", "coordinates": [-78.7459824458, 40.4702016541]}, "type": "Feature", "properties": {"collection_times": [{"days": "Mon-Sat", "time": "9:30am"}, {"days": "Sun", "time": "Closed"}], "id": "1593100034", "name": "USPS COLLECTION BOX - BLUE BOX", "address": {"city": "EBENSBURG", "state": "PA", "street": "3135 NEW GERMANY RD", "postcode": "15931"}}},
{"geometry": {"type": "Point", "coordinates": [-78.7481661571, 40.4730815867]}, "type": "Feature", "properties": {"collection_times": [{"days": "Mon-Sat", "time": "10:00am"}, {"days": "Sun", "time": "Closed"}], "id": "1593100035", "name": "USPS COLLECTION BOX - BLUE BOX", "address": {"city": "EBENSBURG", "state": "PA", "street": "300 WALMART DR", "postcode": "15931"}}},
{"geometry": {"type": "Point", "coordinates": [-78.8110447769, 40.2770180363]}, "type": "Feature", "properties": {"collection_times": [{"days": "Mon-Fri", "time": "4:30pm"}, {"days": "Sat", "time": "11:00am"}, {"days": "Sun", "time": "Closed"}], "id": "1593400000", "name": "USPS COLLECTION BOX - BLUE BOX", "address": {"city": "ELTON", "state": "PA", "street": "4690 ELTON RD", "postcode": "15934"}}},
{"geometry": {"type": "Point", "coordinates": [-78.8110447769, 40.2770180363]}, "type": "Feature", "properties": {"collection_times": [{"days": "Mon-Fri", "time": "4:30pm"}, {"days": "Sat", "time": "11:00am"}, {"days": "Sun", "time": "Closed"}], "id": "1593400001", "name": "USPS COLLECTION BOX - PO LOBBY", "address": {"city": "ELTON", "state": "PA", "street": "4690 ELTON RD", "postcode": "15934"}}},
{"geometry": {"type": "Point", "coordinates": [-78.9278451262, 40.2081816416]}, "type": "Feature", "properties": {"collection_times": [{"days": "Mon-Fri", "time": "4:15pm"}, {"days": "Sat", "time": "11:45am"}, {"days": "Sun", "time": "Closed"}], "id": "1593500000", "name": "USPS COLLECTION BOX - BLUE BOX", "address": {"city": "HOLLSOPPLE", "state": "PA", "street": "121 MAIN ST", "postcode": "15935"}}},
{"geometry": {"type": "Point", "coordinates": [-78.9278451262, 40.2081816416]}, "type": "Feature", "properties": {"collection_times": [{"days": "Mon-Fri", "time": "4:15pm"}, {"days": "Sat", "time": "11:45am"}, {"days": "Sun", "time": "Closed"}], "id": "1593500001", "name": "USPS COLLECTION BOX - PO LOBBY", "address": {"city": "HOLLSOPPLE", "state": "PA", "street": "121 MAIN ST", "postcode": "15935"}}},
{"geometry": {"type": "Point", "coordinates": [-78.9132012772, 40.1452837134]}, "type": "Feature", "properties": {"collection_times": [{"days": "Mon-Fri", "time": "3:15pm"}, {"days": "Sat", "time": "11:30am"}, {"days": "Sun", "time": "Closed"}], "id": "1593600002", "name": "USPS COLLECTION BOX - PO LOBBY", "address": {"city": "HOOVERSVILLE", "state": "PA", "street": "964 BARN ST", "postcode": "15936"}}},
{"geometry": {"type": "Point", "coordinates": [-78.9103926848, 40.1510531249]}, "type": "Feature", "properties": {"collection_times": [{"days": "Mon-Sat", "time": "2:00pm"}, {"days": "Sun", "time": "Closed"}], "id": "1593600004", "name": "USPS COLLECTION BOX - BLUE BOX", "address": {"city": "HOOVERSVILLE", "state": "PA", "street": "801 BARN ST", "postcode": "15936"}}},
{"geometry": {"type": "Point", "coordinates": [-78.9904851693, 40.2083519876]}, "type": "Feature", "properties": {"collection_times": [{"days": "Mon-Fri", "time": "4:30pm"}, {"days": "Sat", "time": "11:30am"}, {"days": "Sun", "time": "Closed"}], "id": "1593700000", "name": "USPS COLLECTION BOX - BLUE BOX", "address": {"city": "JEROME", "state": "PA", "street": "1901 PENN AVE", "postcode": "15937"}}},
{"geometry": {"type": "Point", "coordinates": [-78.9904851693, 40.2083519876]}, "type": "Feature", "properties": {"collection_times": [{"days": "Mon-Fri", "time": "4:30pm"}, {"days": "Sat", "time": "11:30am"}, {"days": "Sun", "time": "Closed"}], "id": "1593700001", "name": "USPS COLLECTION BOX - PO LOBBY", "address": {"city": "JEROME", "state": "PA", "street": "1901 PENN AVE", "postcode": "15937"}}},
{"geometry": {"type": "Point", "coordinates": [-78.620004474, 40.425351548]}, "type": "Feature", "properties": {"collection_times": [{"days": "Mon-Fri", "time": "4:15pm"}, {"days": "Sat", "time": "3:45pm"}, {"days": "Sun", "time": "Closed"}], "id": "1593800000", "name": "USPS COLLECTION BOX - BLUE BOX", "address": {"city": "LILLY", "state": "PA", "street": "513 CLEVELAND ST", "postcode": "15938"}}},
{"geometry": {"type": "Point", "coordinates": [-78.620244371, 40.425187735]}, "type": "Feature", "properties": {"collection_times": [{"days": "Mon-Sat", "time": "1:45pm"}, {"days": "Sun", "time": "Closed"}], "id": "1593800003", "name": "USPS COLLECTION BOX - BLUE BOX", "address": {"city": "LILLY", "state": "PA", "street": "500 MAIN ST", "postcode": "15938"}}},
{"geometry": {"type": "Point", "coordinates": [-78.620004474, 40.425351548]}, "type": "Feature", "properties": {"collection_times": [{"days": "Mon-Fri", "time": "4:15pm"}, {"days": "Sat", "time": "12:15pm"}, {"days": "Sun", "time": "Closed"}], "id": "1593800006", "name": "USPS COLLECTION BOX - PO LOBBY", "address": {"city": "LILLY", "state": "PA", "street": "513 CLEVELAND ST", "postcode": "15938"}}},
{"geometry": {"type": "Point", "coordinates": [-78.632826163, 40.504410486]}, "type": "Feature", "properties": {"collection_times": [{"days": "Mon-Fri", "time": "4:00pm"}, {"days": "Sat", "time": "12:00pm"}, {"days": "Sun", "time": "Closed"}], "id": "1594000000", "name": "USPS COLLECTION BOX - BLUE BOX", "address": {"city": "LORETTO", "state": "PA", "street": "245 SAINT MARY ST", "postcode": "15940"}}},
{"geometry": {"type": "Point", "coordinates": [-78.6352959832, 40.5074437954]}, "type": "Feature", "properties": {"collection_times": [{"days": "Mon-Fri", "time": "3:00pm"}, {"days": "Sat", "time": "12:00pm"}, {"days": "Sun", "time": "Closed"}], "id": "1594000001", "name": "USPS COLLECTION BOX - PO LOBBY", "address": {"city": "LORETTO", "state": "PA", "street": "245 SAINT MARY ST", "postcode": "15940"}}},
{"geometry": {"type": "Point", "coordinates": [-78.8358757998, 40.3793488428]}, "type": "Feature", "properties": {"collection_times": [{"days": "Mon-Fri", "time": "11:55am"}, {"days": "Sat", "time": "12:00pm"}, {"days": "Sun", "time": "Closed"}], "id": "1594200000", "name": "USPS COLLECTION BOX - BLUE BOX", "address": {"city": "MINERAL POINT", "state": "PA", "street": "784 MINERAL POINT RD", "postcode": "15942"}}},
{"geometry": {"type": "Point", "coordinates": [-78.8358757998, 40.3793488428]}, "type": "Feature", "properties": {"collection_times": [{"days": "Mon-Fri", "time": "11:55am"}, {"days": "Sat", "time": "12:00pm"}, {"days": "Sun", "time": "Closed"}], "id": "1594200001", "name": "USPS COLLECTION BOX - PO LOBBY", "address": {"city": "MINERAL POINT", "state": "PA", "street": "784 MINERAL POINT RD", "postcode": "15942"}}},
{"geometry": {"type": "Point", "coordinates": [-78.8341914975, 40.4716446699]}, "type": "Feature", "properties": {"collection_times": [{"days": "Mon-Sat", "time": "4:45pm"}, {"days": "Sun", "time": "Closed"}], "id": "1594300000", "name": "USPS COLLECTION BOX - BLUE BOX", "address": {"city": "NANTY GLO", "state": "PA", "street": "950 CHESTNUT ST", "postcode": "15943"}}},
{"geometry": {"type": "Point", "coordinates": [-78.8367403224, 40.465570582]}, "type": "Feature", "properties": {"collection_times": [{"days": "Mon-Sat", "time": "9:30am"}, {"days": "Sun", "time": "Closed"}], "id": "1594300003", "name": "USPS COLLECTION BOX - BLUE BOX", "address": {"city": "NANTY GLO", "state": "PA", "street": "1309 SHOEMAKER ST", "postcode": "15943"}}},
{"geometry": {"type": "Point", "coordinates": [-78.8386486124, 40.4508953269]}, "type": "Feature", "properties": {"collection_times": [{"days": "Mon-Sat", "time": "12:00pm"}, {"days": "Sun", "time": "Closed"}], "id": "1594300012", "name": "USPS COLLECTION BOX - BLUE BOX", "address": {"city": "NANTY GLO", "state": "PA", "street": "115 PACE ST", "postcode": "15943"}}},
{"geometry": {"type": "Point", "coordinates": [-78.8341914975, 40.4716446699]}, "type": "Feature", "properties": {"collection_times": [{"days": "Mon-Sat", "time": "4:45pm"}, {"days": "Sun", "time": "Closed"}], "id": "1594300013", "name": "USPS COLLECTION BOX - PO LOBBY", "address": {"city": "NANTY GLO", "state": "PA", "street": "950 CHESTNUT ST", "postcode": "15943"}}},
{"geometry": {"type": "Point", "coordinates": [-79.0758648804, 40.3779214595]}, "type": "Feature", "properties": {"collection_times": [{"days": "Mon-Fri", "time": "4:30pm"}, {"days": "Sat", "time": "11:45am"}, {"days": "Sun", "time": "Closed"}], "id": "1594400000", "name": "USPS COLLECTION BOX - BLUE BOX", "address": {"city": "NEW FLORENCE", "state": "PA", "street": "185 LIGONIER ST", "postcode": "15944"}}},
{"geometry": {"type": "Point", "coordinates": [-79.0758648804, 40.3779214595]}, "type": "Feature", "properties": {"collection_times": [{"days": "Mon-Fri", "time": "4:30pm"}, {"days": "Sat", "time": "11:45am"}, {"days": "Sun", "time": "Closed"}], "id": "1594400001", "name": "USPS COLLECTION BOX - PO LOBBY", "address": {"city": "NEW FLORENCE", "state": "PA", "street": "185 LIGONIER ST", "postcode": "15944"}}},
{"geometry": {"type": "Point", "coordinates": [-78.6731953049, 40.3866213179]}, "type": "Feature", "properties": {"collection_times": [{"days": "Mon-Sat", "time": "9:00am"}, {"days": "Sun", "time": "Closed"}], "id": "1594600001", "name": "USPS COLLECTION BOX - BLUE BOX", "address": {"city": "PORTAGE", "state": "PA", "street": "816 GILLESPIE AVE", "postcode": "15946"}}},
{"geometry": {"type": "Point", "coordinates": [-78.6785501618, 40.3829777402]}, "type": "Feature", "properties": {"collection_times": [{"days": "Mon-Sat", "time": "10:00am"}, {"days": "Sun", "time": "Closed"}], "id": "1594600004", "name": "USPS COLLECTION BOX - BLUE BOX", "address": {"city": "PORTAGE", "state": "PA", "street": "1100 JOHNSON AVE", "postcode": "15946"}}},
{"geometry": {"type": "Point", "coordinates": [-78.6728838758, 40.3874474514]}, "type": "Feature", "properties": {"collection_times": [{"days": "Mon-Fri", "time": "4:30pm"}, {"days": "Sat", "time": "3:30pm"}, {"days": "Sun", "time": "Closed"}], "id": "1594600010", "name": "USPS COLLECTION BOX - BLUE BOX", "address": {"city": "PORTAGE", "state": "PA", "street": "600 MAIN ST", "postcode": "15946"}}},
{"geometry": {"type": "Point", "coordinates": [-78.6791670777, 40.390365233]}, "type": "Feature", "properties": {"collection_times": [{"days": "Mon-Sat", "time": "1:45pm"}, {"days": "Sun", "time": "Closed"}], "id": "1594600015", "name": "USPS COLLECTION BOX - BLUE BOX", "address": {"city": "PORTAGE", "state": "PA", "street": "1046 WASHINGTON AVE", "postcode": "15946"}}},
{"geometry": {"type": "Point", "coordinates": [-78.6728838758, 40.3874474514]}, "type": "Feature", "properties": {"collection_times": [{"days": "Mon-Fri", "time": "4:30pm"}, {"days": "Sat", "time": "3:30pm"}, {"days": "Sun", "time": "Closed"}], "id": "1594600016", "name": "USPS COLLECTION BOX - PO LOBBY", "address": {"city": "PORTAGE", "state": "PA", "street": "600 MAIN ST", "postcode": "15946"}}},
{"geometry": {"type": "Point", "coordinates": [-78.7635394093, 40.4912994111]}, "type": "Feature", "properties": {"collection_times": [{"days": "Mon-Fri", "time": "3:30pm"}, {"days": "Sat", "time": "10:45am"}, {"days": "Sun", "time": "Closed"}], "id": "1594800000", "name": "USPS COLLECTION BOX - BLUE BOX", "address": {"city": "REVLOC", "state": "PA", "street": "552 CAMBRIA AVE", "postcode": "15948"}}},
{"geometry": {"type": "Point", "coordinates": [-78.7635394093, 40.4912994111]}, "type": "Feature", "properties": {"collection_times": [{"days": "Mon-Fri", "time": "11:25am"}, {"days": "Sat", "time": "10:45am"}, {"days": "Sun", "time": "Closed"}], "id": "1594800001", "name": "USPS COLLECTION BOX - PO LOBBY", "address": {"city": "REVLOC", "state": "PA", "street": "552 CAMBRIA AVE", "postcode": "15948"}}},
{"geometry": {"type": "Point", "coordinates": [-79.1441136935, 40.3989181024]}, "type": "Feature", "properties": {"collection_times": [{"days": "Mon-Fri", "time": "4:15pm"}, {"days": "Sat", "time": "11:45am"}, {"days": "Sun", "time": "Closed"}], "id": "1594900000", "name": "USPS COLLECTION BOX - BLUE BOX", "address": {"city": "ROBINSON", "state": "PA", "street": "45 FRONT ST", "postcode": "15949"}}},
{"geometry": {"type": "Point", "coordinates": [-79.1434641834, 40.3990454966]}, "type": "Feature", "properties": {"collection_times": [{"days": "Mon-Fri", "time": "11:55am"}, {"days": "Sat", "time": "11:45am"}, {"days": "Sun", "time": "Closed"}], "id": "1594900001", "name": "USPS COLLECTION BOX - PO LOBBY", "address": {"city": "ROBINSON", "state": "PA", "street": "45 FRONT ST", "postcode": "15949"}}},
{"geometry": {"type": "Point", "coordinates": [-78.7736782287, 40.3399052903]}, "type": "Feature", "properties": {"collection_times": [{"days": "Mon-Fri", "time": "4:30pm"}, {"days": "Sat", "time": "11:45am"}, {"days": "Sun", "time": "Closed"}], "id": "1595100000", "name": "USPS COLLECTION BOX - BLUE BOX", "address": {"city": "SAINT MICHAEL", "state": "PA", "street": "983 LOCUST ST", "postcode": "15951"}}},
{"geometry": {"type": "Point", "coordinates": [-78.7736782287, 40.3399052903]}, "type": "Feature", "properties": {"collection_times": [{"days": "Mon-Fri", "time": "4:30pm"}, {"days": "Sat", "time": "11:45am"}, {"days": "Sun", "time": "Closed"}], "id": "1595100001", "name": "USPS COLLECTION BOX - PO LOBBY", "address": {"city": "SAINT MICHAEL", "state": "PA", "street": "983 LOCUST ST", "postcode": "15951"}}},
{"geometry": {"type": "Point", "coordinates": [-78.7558048804, 40.3039552291]}, "type": "Feature", "properties": {"collection_times": [{"days": "Mon-Fri", "time": "4:45pm"}, {"days": "Sat", "time": "12:00pm"}, {"days": "Sun", "time": "Closed"}], "id": "1595200000", "name": "USPS COLLECTION BOX - BLUE BOX", "address": {"city": "SALIX", "state": "PA", "street": "1108 FOREST HILLS DR", "postcode": "15952"}}},
{"geometry": {"type": "Point", "coordinates": [-78.7558048804, 40.3039552291]}, "type": "Feature", "properties": {"collection_times": [{"days": "Mon-Fri", "time": "5:00pm"}, {"days": "Sat", "time": "12:00pm"}, {"days": "Sun", "time": "Closed"}], "id": "1595200001", "name": "USPS COLLECTION BOX - PO LOBBY", "address": {"city": "SALIX", "state": "PA", "street": "1108 FOREST HILLS DR", "postcode": "15952"}}},
{"geometry": {"type": "Point", "coordinates": [-78.7715183679, 40.2994908452]}, "type": "Feature", "properties": {"collection_times": [{"days": "Mon-Sat", "time": "10:00am"}, {"days": "Sun", "time": "Closed"}], "id": "1595200002", "name": "USPS COLLECTION BOX - BLUE BOX", "address": {"city": "SALIX", "state": "PA", "street": "120 TAYLOR LN", "postcode": "15952"}}},
{"geometry": {"type": "Point", "coordinates": [-79.0257751536, 40.415921722]}, "type": "Feature", "properties": {"collection_times": [{"days": "Mon-Fri", "time": "4:45pm"}, {"days": "Sat", "time": "11:45am"}, {"days": "Sun", "time": "Closed"}], "id": "1595400000", "name": "USPS COLLECTION BOX - BLUE BOX", "address": {"city": "SEWARD", "state": "PA", "street": "224 INDIANA ST", "postcode": "15954"}}},
{"geometry": {"type": "Point", "coordinates": [-79.0257751536, 40.415921722]}, "type": "Feature", "properties": {"collection_times": [{"days": "Mon-Fri", "time": "4:45pm"}, {"days": "Sat", "time": "11:45am"}, {"days": "Sun", "time": "Closed"}], "id": "1595400001", "name": "USPS COLLECTION BOX - PO LOBBY", "address": {"city": "SEWARD", "state": "PA", "street": "224 INDIANA ST", "postcode": "15954"}}},
{"geometry": {"type": "Point", "coordinates": [-79.0077389369, 40.4029541161]}, "type": "Feature", "properties": {"collection_times": [{"days": "Mon-Sat", "time": "9:30am"}, {"days": "Sun", "time": "Closed"}], "id": "1595400002", "name": "USPS COLLECTION BOX - BLUE BOX", "address": {"city": "SEWARD", "state": "PA", "street": "6858 ROUTE 711", "postcode": "15954"}}},
{"geometry": {"type": "Point", "coordinates": [-78.7521494092, 40.3325046792]}, "type": "Feature", "properties": {"collection_times": [{"days": "Mon-Fri", "time": "4:30pm"}, {"days": "Sat", "time": "11:30am"}, {"days": "Sun", "time": "Closed"}], "id": "1595500000", "name": "USPS COLLECTION BOX - BLUE BOX", "address": {"city": "SIDMAN", "state": "PA", "street": "367 LOCUST ST", "postcode": "15955"}}},
{"geometry": {"type": "Point", "coordinates": [-78.7521494092, 40.3325046792]}, "type": "Feature", "properties": {"collection_times": [{"days": "Mon-Fri", "time": "4:45pm"}, {"days": "Sat", "time": "11:30am"}, {"days": "Sun", "time": "Closed"}], "id": "1595500001", "name": "USPS COLLECTION BOX - PO LOBBY", "address": {"city": "SIDMAN", "state": "PA", "street": "367 LOCUST ST", "postcode": "15955"}}},
{"geometry": {"type": "Point", "coordinates": [-78.794399922, 40.364657599]}, "type": "Feature", "properties": {"collection_times": [{"days": "Mon-Fri", "time": "4:30pm"}, {"days": "Sat", "time": "11:30am"}, {"days": "Sun", "time": "Closed"}], "id": "1595600000", "name": "USPS COLLECTION BOX - BLUE BOX", "address": {"city": "SOUTH FORK", "state": "PA", "street": "331 MAPLE ST", "postcode": "15956"}}},
{"geometry": {"type": "Point", "coordinates": [-78.792088695, 40.36547696]}, "type": "Feature", "properties": {"collection_times": [{"days": "Mon-Fri", "time": "2:15pm"}, {"days": "Sat", "time": "2:00pm"}, {"days": "Sun", "time": "Closed"}], "id": "1595600001", "name": "USPS COLLECTION BOX - BLUE BOX", "address": {"city": "SOUTH FORK", "state": "PA", "street": "427 MAPLE ST", "postcode": "15956"}}},
{"geometry": {"type": "Point", "coordinates": [-78.791292207, 40.36500342]}, "type": "Feature", "properties": {"collection_times": [{"days": "Mon-Fri", "time": "2:15pm"}, {"days": "Sat", "time": "2:00pm"}, {"days": "Sun", "time": "Closed"}], "id": "1595600003", "name": "USPS COLLECTION BOX - BLUE BOX", "address": {"city": "SOUTH FORK", "state": "PA", "street": "329 MAIN ST", "postcode": "15956"}}},
{"geometry": {"type": "Point", "coordinates": [-78.794399922, 40.364657599]}, "type": "Feature", "properties": {"collection_times": [{"days": "Mon-Fri", "time": "4:30pm"}, {"days": "Sat", "time": "12:15pm"}, {"days": "Sun", "time": "Closed"}], "id": "1595600009", "name": "USPS COLLECTION BOX - PO LOBBY", "address": {"city": "SOUTH FORK", "state": "PA", "street": "331 MAPLE ST", "postcode": "15956"}}},
{"geometry": {"type": "Point", "coordinates": [-78.9574999821, 40.5709126359]}, "type": "Feature", "properties": {"collection_times": [{"days": "Mon-Fri", "time": "3:30pm"}, {"days": "Sat", "time": "11:00am"}, {"days": "Sun", "time": "Closed"}], "id": "1595700000", "name": "USPS COLLECTION BOX - BLUE BOX", "address": {"city": "STRONGSTOWN", "state": "PA", "street": "14574 ROUTE 422 HWY E", "postcode": "15957"}}},
{"geometry": {"type": "Point", "coordinates": [-78.9574999821, 40.5709126359]}, "type": "Feature", "properties": {"collection_times": [{"days": "Mon-Fri", "time": "3:30pm"}, {"days": "Sat", "time": "11:00am"}, {"days": "Sun", "time": "Closed"}], "id": "1595700001", "name": "USPS COLLECTION BOX - PO LOBBY", "address": {"city": "STRONGSTOWN", "state": "PA", "street": "14574 ROUTE 422 HWY E", "postcode": "15957"}}},
{"geometry": {"type": "Point", "coordinates": [-78.7697971077, 40.3705052372]}, "type": "Feature", "properties": {"collection_times": [{"days": "Mon-Fri", "time": "4:45pm"}, {"days": "Sat", "time": "11:45am"}, {"days": "Sun", "time": "Closed"}], "id": "1595800000", "name": "USPS COLLECTION BOX - BLUE BOX", "address": {"city": "SUMMERHILL", "state": "PA", "street": "1314 RAILROAD ST", "postcode": "15958"}}},
{"geometry": {"type": "Point", "coordinates": [-78.7697971077, 40.3705052372]}, "type": "Feature", "properties": {"collection_times": [{"days": "Mon-Fri", "time": "4:45pm"}, {"days": "Sat", "time": "11:45am"}, {"days": "Sun", "time": "Closed"}], "id": "1595800001", "name": "USPS COLLECTION BOX - PO LOBBY", "address": {"city": "SUMMERHILL", "state": "PA", "street": "1314 RAILROAD ST", "postcode": "15958"}}},
{"geometry": {"type": "Point", "coordinates": [-78.8973191053, 40.273808483]}, "type": "Feature", "properties": {"collection_times": [{"days": "Mon-Fri", "time": "4:30pm"}, {"days": "Sat", "time": "11:30am"}, {"days": "Sun", "time": "Closed"}], "id": "1595900000", "name": "USPS COLLECTION BOX - BLUE BOX", "address": {"city": "TIRE HILL", "state": "PA", "street": "1969 KRING ST", "postcode": "15959"}}},
{"geometry": {"type": "Point", "coordinates": [-78.8973191053, 40.273808483]}, "type": "Feature", "properties": {"collection_times": [{"days": "Mon-Fri", "time": "4:30pm"}, {"days": "Sat", "time": "11:30am"}, {"days": "Sun", "time": "Closed"}], "id": "1595900001", "name": "USPS COLLECTION BOX - PO LOBBY", "address": {"city": "TIRE HILL", "state": "PA", "street": "1969 KRING ST", "postcode": "15959"}}},
{"geometry": {"type": "Point", "coordinates": [-78.8662148194, 40.4983721263]}, "type": "Feature", "properties": {"collection_times": [{"days": "Mon-Fri", "time": "12:55pm"}, {"days": "Sat", "time": "11:45am"}, {"days": "Sun", "time": "Closed"}], "id": "1596000001", "name": "USPS COLLECTION BOX - PO LOBBY", "address": {"city": "TWIN ROCKS", "state": "PA", "street": "997 STATION RD", "postcode": "15960"}}},
{"geometry": {"type": "Point", "coordinates": [-78.9132775272, 40.4787051432]}, "type": "Feature", "properties": {"collection_times": [{"days": "Mon-Fri", "time": "3:00pm"}, {"days": "Sat", "time": "11:00am"}, {"days": "Sun", "time": "Closed"}], "id": "1596100000", "name": "USPS COLLECTION BOX - BLUE BOX", "address": {"city": "VINTONDALE", "state": "PA", "street": "195 MAIN ST", "postcode": "15961"}}},
{"geometry": {"type": "Point", "coordinates": [-78.9132775272, 40.4787051432]}, "type": "Feature", "properties": {"collection_times": [{"days": "Mon-Fri", "time": "3:00pm"}, {"days": "Sat", "time": "11:00am"}, {"days": "Sun", "time": "Closed"}], "id": "1596100001", "name": "USPS COLLECTION BOX - PO LOBBY", "address": {"city": "VINTONDALE", "state": "PA", "street": "195 MAIN ST", "postcode": "15961"}}},
{"geometry": {"type": "Point", "coordinates": [-78.7207062359, 40.3806459428]}, "type": "Feature", "properties": {"collection_times": [{"days": "Mon-Fri", "time": "11:55am"}, {"days": "Sat", "time": "11:45am"}, {"days": "Sun", "time": "Closed"}], "id": "1596200000", "name": "USPS COLLECTION BOX - BLUE BOX", "address": {"city": "WILMORE", "state": "PA", "street": "885 MAIN ST", "postcode": "15962"}}},
{"geometry": {"type": "Point", "coordinates": [-78.7207062359, 40.3806459428]}, "type": "Feature", "properties": {"collection_times": [{"days": "Mon-Fri", "time": "11:55am"}, {"days": "Sat", "time": "11:45am"}, {"days": "Sun", "time": "Closed"}], "id": "1596200001", "name": "USPS COLLECTION BOX - PO LOBBY", "address": {"city": "WILMORE", "state": "PA", "street": "885 MAIN ST", "postcode": "15962"}}},
{"geometry": {"type": "Point", "coordinates": [-78.8301480942, 40.2346775565]}, "type": "Feature", "properties": {"collection_times": [{"days": "Mon-Fri", "time": "5:15pm"}, {"days": "Sat", "time": "4:15pm"}, {"days": "Sun", "time": "Closed"}], "id": "1596300000", "name": "USPS COLLECTION BOX - BLUE BOX", "address": {"city": "WINDBER", "state": "PA", "street": "1600 GRAHAM AVE", "postcode": "15963"}}},
{"geometry": {"type": "Point", "coordinates": [-78.8301480942, 40.2346775565]}, "type": "Feature", "properties": {"collection_times": [{"days": "Mon-Fri", "time": "5:15pm"}, {"days": "Sat", "time": "4:15pm"}, {"days": "Sun", "time": "Closed"}], "id": "1596300002", "name": "USPS COLLECTION BOX - BLUE BOX", "address": {"city": "WINDBER", "state": "PA", "street": "1600 GRAHAM AVE", "postcode": "15963"}}},
{"geometry": {"type": "Point", "coordinates": [-78.8301480942, 40.2346775565]}, "type": "Feature", "properties": {"collection_times": [{"days": "Mon-Fri", "time": "5:15pm"}, {"days": "Sat", "time": "4:15pm"}, {"days": "Sun", "time": "Closed"}], "id": "1596300003", "name": "USPS COLLECTION BOX - BLUE BOX", "address": {"city": "WINDBER", "state": "PA", "street": "1600 GRAHAM AVE", "postcode": "15963"}}},
{"geometry": {"type": "Point", "coordinates": [-78.8301480942, 40.2346775565]}, "type": "Feature", "properties": {"collection_times": [{"days": "Mon-Fri", "time": "5:15pm"}, {"days": "Sat", "time": "4:15pm"}, {"days": "Sun", "time": "Closed"}], "id": "1596300018", "name": "USPS COLLECTION BOX - PO LOBBY", "address": {"city": "WINDBER", "state": "PA", "street": "1600 GRAHAM AVE", "postcode": "15963"}}}
]}
