{"type": "FeatureCollection", "features": [
{"geometry": {"type": "Point", "coordinates": [-79.8953207418, 40.8608835618]}, "type": "Feature", "properties": {"collection_times": [{"days": "Mon-Sat", "time": "2:30pm"}, {"days": "Sun", "time": "Closed"}], "id": "1600100000", "name": "USPS COLLECTION BOX - BLUE BOX", "address": {"city": "BUTLER", "state": "PA", "street": "106 S MAIN ST", "postcode": "16001"}}},
{"geometry": {"type": "Point", "coordinates": [-79.8951726412, 40.8610284949]}, "type": "Feature", "properties": {"collection_times": [{"days": "Mon-Sat", "time": "2:30pm"}, {"days": "Sun", "time": "Closed"}], "id": "1600100002", "name": "USPS COLLECTION BOX - BLUE BOX", "address": {"city": "BUTLER", "state": "PA", "street": "101 N MAIN ST", "postcode": "16001"}}},
{"geometry": {"type": "Point", "coordinates": [-79.8865279096, 40.8556503118]}, "type": "Feature", "properties": {"collection_times": [{"days": "Mon-Sat", "time": "11:00am"}, {"days": "Sun", "time": "Closed"}], "id": "1600100004", "name": "USPS COLLECTION BOX - BLUE BOX", "address": {"city": "BUTLER", "state": "PA", "street": "200 LINCOLN AVE", "postcode": "16001"}}},
{"geometry": {"type": "Point", "coordinates": [-79.8952231183, 40.8650450943]}, "type": "Feature", "properties": {"collection_times": [{"days": "Mon-Sat", "time": "1:30pm"}, {"days": "Sun", "time": "Closed"}], "id": "1600100005", "name": "USPS COLLECTION BOX - BLUE BOX", "address": {"city": "BUTLER", "state": "PA", "street": "400 N MAIN ST", "postcode": "16001"}}},
{"geometry": {"type": "Point", "coordinates": [-79.8952534714, 40.8575967433]}, "type": "Feature", "properties": {"collection_times": [{"days": "Mon-Fri", "time": "5:30pm"}, {"days": "Sat", "time": "5:00pm"}, {"days": "Sun", "time": "Closed"}], "id": "1600100009", "name": "USPS COLLECTION BOX - BLUE BOX", "address": {"city": "BUTLER", "state": "PA", "street": "345 S MAIN ST", "postcode": "16001"}}},
{"geometry": {"type": "Point", "coordinates": [-79.8952534714, 40.8575967433]}, "type": "Feature", "properties": {"collection_times": [{"days": "Mon-Fri", "time": "5:30pm"}, {"days": "Sat", "time": "5:00pm"}, {"days": "Sun", "time": "Closed"}], "id": "1600100010", "name": "USPS COLLECTION BOX - BLUE BOX", "address": {"city": "BUTLER", "state": "PA", "street": "345 S MAIN ST", "postcode": "16001"}}},
{"geometry": {"type": "Point", "coordinates": [-79.9172963183, 40.8791232689]}, "type": "Feature", "properties": {"collection_times": [{"days": "Mon-Fri", "time": "5:30pm"}, {"days": "Sat", "time": "5:00pm"}, {"days": "Sun", "time": "Closed"}], "id": "1600100011", "name": "USPS COLLECTION BOX - EXPRESS", "address": {"city": "BUTLER", "state": "PA", "street": "345 S MAIN ST", "postcode": "16001"}}},
{"geometry": {"type": "Point", "coordinates": [-79.8941175533, 40.8570902502]}, "type": "Feature", "properties": {"collection_times": [{"days": "Mon-Fri", "time": "5:30pm"}, {"days": "Sat", "time": "5:00pm"}, {"days": "Sun", "time": "Closed"}], "id": "1600100012", "name": "USPS COLLECTION BOX - BLUE BOX", "address": {"city": "BUTLER", "state": "PA", "street": "120 E WAYNE ST", "postcode": "16001"}}},
{"geometry": {"type": "Point", "coordinates": [-79.8941175533, 40.8570902502]}, "type": "Feature", "properties": {"collection_times": [{"days": "Mon-Fri", "time": "5:30pm"}, {"days": "Sat", "time": "5:00pm"}, {"days": "Sun", "time": "Closed"}], "id": "1600100013", "name": "USPS COLLECTION BOX - BLUE BOX", "address": {"city": "BUTLER", "state": "PA", "street": "120 E WAYNE ST", "postcode": "16001"}}},
{"geometry": {"type": "Point", "coordinates": [-79.8952430642, 40.8586388188]}, "type": "Feature", "properties": {"collection_times": [{"days": "Mon-Fri", "time": "4:30pm"}, {"days": "Sat", "time": "3:30pm"}, {"days": "Sun", "time": "Closed"}], "id": "1600100014", "name": "USPS COLLECTION BOX - BLUE BOX", "address": {"city": "BUTLER", "state": "PA", "street": "259 S MAIN ST", "postcode": "16001"}}},
{"geometry": {"type": "Point", "coordinates": [-79.8937026809, 40.860433571]}, "type": "Feature", "properties": {"collection_times": [{"days": "Mon-Sat", "time": "4:30pm"}, {"days": "Sun", "time": "Closed"}], "id": "1600100016", "name": "USPS COLLECTION BOX - BLUE BOX", "address": {"city": "BUTLER", "state": "PA", "street": "114 S MCKEAN ST", "postcode": "16001"}}},
{"geometry": {"type": "Point", "coordinates": [-79.8953140598, 40.8582017907]}, "type": "Feature", "properties": {"collection_times": [{"days": "Mon-Sat", "time": "9:30am"}, {"days": "Sun", "time": "Closed"}], "id": "1600100020", "name": "USPS COLLECTION BOX - BLUE BOX", "address": {"city": "BUTLER", "state": "PA", "street": "101 E DIAMOND ST", "postcode": "16001"}}},
{"geometry": {"type": "Point", "coordinates": [-79.9428847415, 40.9104395145]}, "type": "Feature", "properties": {"collection_times": [{"days": "Mon-Sat", "time": "2:30pm"}, {"days": "Sun", "time": "Closed"}], "id": "1600100023", "name": "USPS COLLECTION BOX - BLUE BOX", "address": {"city": "BUTLER", "state": "PA", "street": "1 HOSPITAL WAY", "postcode": "16001"}}},
{"geometry": {"type": "Point", "coordinates": [-79.8953904265, 40.8581322335]}, "type": "Feature", "properties": {"collection_times": [{"days": "Mon-Sat", "time": "4:30pm"}, {"days": "Sun", "time": "Closed"}], "id": "1600100024", "name": "USPS COLLECTION BOX - BLUE BOX", "address": {"city": "BUTLER", "state": "PA", "street": "300 S MAIN ST", "postcode": "16001"}}},
{"geometry": {"type": "Point", "coordinates": [-79.8968393485, 40.8610711134]}, "type": "Feature", "properties": {"collection_times": [{"days": "Mon-Fri", "time": "4:30pm"}, {"days": "Sat", "time": "4:00pm"}, {"days": "Sun", "time": "Closed"}], "id": "1600100027", "name": "USPS COLLECTION BOX - BLUE BOX", "address": {"city": "BUTLER", "state": "PA", "street": "101 N WASHINGTON ST", "postcode": "16001"}}},
{"geometry": {"type": "Point", "coordinates": [-79.8969381395, 40.8609980218]}, "type": "Feature", "properties": {"collection_times": [{"days": "Mon-Fri", "time": "4:30pm"}, {"days": "Sat", "time": "4:00pm"}, {"days": "Sun", "time": "Closed"}], "id": "1600100045", "name": "USPS COLLECTION BOX - BLUE BOX", "address": {"city": "BUTLER", "state": "PA", "street": "201 W JEFFERSON ST", "postcode": "16001"}}},
{"geometry": {"type": "Point", "coordinates": [-79.9428847415, 40.9104395145]}, "type": "Feature", "properties": {"collection_times": [{"days": "Mon-Sat", "time": "9:00am"}, {"days": "Sun", "time": "Closed"}], "id": "1600100054", "name": "USPS COLLECTION BOX - BLUE BOX", "address": {"city": "BUTLER", "state": "PA", "street": "150 POINT PLZ", "postcode": "16001"}}},
{"geometry": {"type": "Point", "coordinates": [-79.946093865, 40.8761721859]}, "type": "Feature", "properties": {"collection_times": [{"days": "Mon-Sat", "time": "10:00am"}, {"days": "Sun", "time": "Closed"}], "id": "1600100056", "name": "USPS COLLECTION BOX - BLUE BOX", "address": {"city": "BUTLER", "state": "PA", "street": "270 BUTLER CMNS", "postcode": "16001"}}},
{"geometry": {"type": "Point", "coordinates": [-79.9506526969, 40.874953436]}, "type": "Feature", "properties": {"collection_times": [{"days": "Mon-Sat", "time": "10:00am"}, {"days": "Sun", "time": "Closed"}], "id": "1600100057", "name": "USPS COLLECTION BOX - BLUE BOX", "address": {"city": "BUTLER", "state": "PA", "street": "700 MORAINE POINTE PLZ", "postcode": "16001"}}},
{"geometry": {"type": "Point", "coordinates": [-79.9500139928, 40.8636770439]}, "type": "Feature", "properties": {"collection_times": [{"days": "Mon-Sat", "time": "2:30pm"}, {"days": "Sun", "time": "Closed"}], "id": "1600100060", "name": "USPS COLLECTION BOX - BLUE BOX", "address": {"city": "BUTLER", "state": "PA", "street": "500 STIRLING VLG", "postcode": "16001"}}},
{"geometry": {"type": "Point", "coordinates": [-79.8989681512, 40.8808484552]}, "type": "Feature", "properties": {"collection_times": [{"days": "Mon-Sat", "time": "2:30pm"}, {"days": "Sun", "time": "Closed"}], "id": "1600100061", "name": "USPS COLLECTION BOX - BLUE BOX", "address": {"city": "BUTLER", "state": "PA", "street": "1 ARMSTRONG PL", "postcode": "16001"}}},
{"geometry": {"type": "Point", "coordinates": [-79.8926750431, 40.8605888514]}, "type": "Feature", "properties": {"collection_times": [{"days": "Mon-Sat", "time": "10:00am"}, {"days": "Sun", "time": "Closed"}], "id": "1600100062", "name": "USPS COLLECTION BOX - BLUE BOX", "address": {"city": "BUTLER", "state": "PA", "street": "111 S CLIFF ST", "postcode": "16001"}}},
{"geometry": {"type": "Point", "coordinates": [-79.9076982565, 40.9004349005]}, "type": "Feature", "properties": {"collection_times": [{"days": "Mon-Sat", "time": "2:00pm"}, {"days": "Sun", "time": "Closed"}], "id": "1600100063", "name": "USPS COLLECTION BOX - BLUE BOX", "address": {"city": "BUTLER", "state": "PA", "street": "101 CLEARVIEW CIR", "postcode": "16001"}}},
{"geometry": {"type": "Point", "coordinates": [-79.8955566447, 40.881128238]}, "type": "Feature", "properties": {"collection_times": [{"days": "Mon-Sat", "time": "2:30pm"}, {"days": "Sun", "time": "Closed"}], "id": "1600100070", "name": "USPS COLLECTION BOX - BLUE BOX", "address": {"city": "BUTLER", "state": "PA", "street": "160 BON AIRE PLZ", "postcode": "16001"}}},
{"geometry": {"type": "Point", "coordinates": [-79.8995991302, 40.8514232505]}, "type": "Feature", "properties": {"collection_times": [{"days": "Mon-Sat", "time": "1:30pm"}, {"days": "Sun", "time": "Closed"}], "id": "1600100071", "name": "USPS COLLECTION BOX - BLUE BOX", "address": {"city": "BUTLER", "state": "PA", "street": "105 GREENVIEW DR", "postcode": "16001"}}},
{"geometry": {"type": "Point", "coordinates": [-79.8936612761, 40.85805661]}, "type": "Feature", "properties": {"collection_times": [{"days": "Mon-Sat", "time": "9:00am"}, {"days": "Sun", "time": "Closed"}], "id": "1600100072", "name": "USPS COLLECTION BOX - BLUE BOX", "address": {"city": "BUTLER", "state": "PA", "street": "325 S MCKEAN ST", "postcode": "16001"}}},
{"geometry": {"type": "Point", "coordinates": [-79.9063104641, 40.8600165941]}, "type": "Feature", "properties": {"collection_times": [{"days": "Mon-Sat", "time": "9:00am"}, {"days": "Sun", "time": "Closed"}], "id": "1600100073", "name": "USPS COLLECTION BOX - BLUE BOX", "address": {"city": "BUTLER", "state": "PA", "street": "235 PULLMAN SQ", "postcode": "16001"}}},
{"geometry": {"type": "Point", "coordinates": [-79.9321343087, 40.8731275487]}, "type": "Feature", "properties": {"collection_times": [{"days": "Mon-Sat", "time": "11:00am"}, {"days": "Sun", "time": "Closed"}], "id": "1600100076", "name": "USPS COLLECTION BOX - BLUE BOX", "address": {"city": "BUTLER", "state": "PA", "street": "400 PARK MNR", "postcode": "16001"}}},
{"geometry": {"type": "Point", "coordinates": [-79.9076982565, 40.9004349005]}, "type": "Feature", "properties": {"collection_times": [{"days": "Mon-Sat", "time": "2:00pm"}, {"days": "Sun", "time": "Closed"}], "id": "1600100079", "name": "USPS COLLECTION BOX - BLUE BOX", "address": {"city": "BUTLER", "state": "PA", "street": "101 CLEARVIEW CIR", "postcode": "16001"}}},
{"geometry": {"type": "Point", "coordinates": [-79.9171372212, 40.8450029322]}, "type": "Feature", "properties": {"collection_times": [{"days": "Mon-Sat", "time": "1:00pm"}, {"days": "Sun", "time": "Closed"}], "id": "1600100082", "name": "USPS COLLECTION BOX - BLUE BOX", "address": {"city": "BUTLER", "state": "PA", "street": "220 GREATER BUTLER MART", "postcode": "16001"}}},
{"geometry": {"type": "Point", "coordinates": [-79.8895684415, 40.8552095013]}, "type": "Feature", "properties": {"collection_times": [{"days": "Mon-Sat", "time": "2:30pm"}, {"days": "Sun", "time": "Closed"}], "id": "1600100083", "name": "USPS COLLECTION BOX - BLUE BOX", "address": {"city": "BUTLER", "state": "PA", "street": "329 CENTER AVE", "postcode": "16001"}}},
{"geometry": {"type": "Point", "coordinates": [-79.8952534714, 40.8575967433]}, "type": "Feature", "properties": {"collection_times": [{"days": "Mon-Fri", "time": "5:30pm"}, {"days": "Sat", "time": "5:15pm"}, {"days": "Sun", "time": "Closed"}], "id": "1600100084", "name": "USPS COLLECTION BOX - PO LOBBY", "address": {"city": "BUTLER", "state": "PA", "street": "345 S MAIN ST", "postcode": "16001"}}},
{"geometry": {"type": "Point", "coordinates": [-79.8900151435, 40.8611768203]}, "type": "Feature", "properties": {"collection_times": [{"days": "Mon-Sat", "time": "9:00am"}, {"days": "Sun", "time": "Closed"}], "id": "1600100085", "name": "USPS COLLECTION BOX - BLUE BOX", "address": {"city": "BUTLER", "state": "PA", "street": "112 WOODY DR", "postcode": "16001"}}},
{"geometry": {"type": "Point", "coordinates": [-79.9102749085, 40.8542686483]}, "type": "Feature", "properties": {"collection_times": [{"days": "Mon-Sat", "time": "9:00am"}, {"days": "Sun", "time": "Closed"}], "id": "1600100086", "name": "USPS COLLECTION BOX - BLUE BOX", "address": {"city": "BUTLER", "state": "PA", "street": "120 HOLLYWOOD DR", "postcode": "16001"}}},
{"geometry": {"type": "Point", "coordinates": [-79.8961958688, 40.8585179158]}, "type": "Feature", "properties": {"collection_times": [{"days": "Mon-Sat", "time": "4:30pm"}, {"days": "Sun", "time": "Closed"}], "id": "1600100089", "name": "USPS COLLECTION BOX - BLUE BOX", "address": {"city": "BUTLER", "state": "PA", "street": "124 W DIAMOND ST", "postcode": "16001"}}},
{"geometry": {"type": "Point", "coordinates": [-79.8998616721, 41.1085635459]}, "type": "Feature", "properties": {"collection_times": [{"days": "Mon-Fri", "time": "4:00pm"}, {"days": "Sat", "time": "12:00pm"}, {"days": "Sun", "time": "Closed"}], "id": "1602000000", "name": "USPS COLLECTION BOX - BLUE BOX", "address": {"city": "BOYERS", "state": "PA", "street": "1188 BOYERS RD", "postcode": "16020"}}},
{"geometry": {"type": "Point", "coordinates": [-79.8998616721, 41.1085635459]}, "type": "Feature", "properties": {"collection_times": [{"days": "Mon-Fri", "time": "4:15pm"}, {"days": "Sat", "time": "12:00pm"}, {"days": "Sun", "time": "Closed"}], "id": "1602000001", "name": "USPS COLLECTION BOX - PO LOBBY", "address": {"city": "BOYERS", "state": "PA", "street": "1188 BOYERS RD", "postcode": "16020"}}},
{"geometry": {"type": "Point", "coordinates": [-79.7313184868, 41.0529698254]}, "type": "Feature", "properties": {"collection_times": [{"days": "Mon-Fri", "time": "11:55am"}, {"days": "Sat", "time": "11:45am"}, {"days": "Sun", "time": "Closed"}], "id": "1602200000", "name": "USPS COLLECTION BOX - BLUE BOX", "address": {"city": "BRUIN", "state": "PA", "street": "105 WASHINGTON ST", "postcode": "16022"}}},
{"geometry": {"type": "Point", "coordinates": [-79.7313184868, 41.0529698254]}, "type": "Feature", "properties": {"collection_times": [{"days": "Mon-Fri", "time": "11:55am"}, {"days": "Sat", "time": "11:45am"}, {"days": "Sun", "time": "Closed"}], "id": "1602200001", "name": "USPS COLLECTION BOX - PO LOBBY", "address": {"city": "BRUIN", "state": "PA", "street": "105 WASHINGTON ST", "postcode": "16022"}}},
{"geometry": {"type": "Point", "coordinates": [-79.7694234827, 40.763307533]}, "type": "Feature", "properties": {"collection_times": [{"days": "Mon-Fri", "time": "4:30pm"}, {"days": "Sat", "time": "11:30am"}, {"days": "Sun", "time": "Closed"}], "id": "1602300004", "name": "USPS COLLECTION BOX - BLUE BOX", "address": {"city": "CABOT", "state": "PA", "street": "452 WINFIELD RD", "postcode": "16023"}}},
{"geometry": {"type": "Point", "coordinates": [-79.7694234827, 40.763307533]}, "type": "Feature", "properties": {"collection_times": [{"days": "Mon-Fri", "time": "4:30pm"}, {"days": "Sat", "time": "11:30am"}, {"days": "Sun", "time": "Closed"}], "id": "1602300005", "name": "USPS COLLECTION BOX - PO LOBBY", "address": {"city": "CABOT", "state": "PA", "street": "452 WINFIELD RD", "postcode": "16023"}}},
{"geometry": {"type": "Point", "coordinates": [-80.0324773864, 40.7344772117]}, "type": "Feature", "properties": {"collection_times": [{"days": "Mon-Fri", "time": "11:55am"}, {"days": "Sat", "time": "12:00pm"}, {"days": "Sun", "time": "Closed"}], "id": "1602400000", "name": "USPS COLLECTION BOX - BLUE BOX", "address": {"city": "CALLERY", "state": "PA", "street": "172 RAILROAD ST", "postcode": "16024"}}},
{"geometry": {"type": "Point", "coordinates": [-80.0324773864, 40.7344772117]}, "type": "Feature", "properties": {"collection_times": [{"days": "Mon-Fri", "time": "11:55am"}, {"days": "Sat", "time": "12:00pm"}, {"days": "Sun", "time": "Closed"}], "id": "1602400001", "name": "USPS COLLECTION BOX - PO LOBBY", "address": {"city": "CALLERY", "state": "PA", "street": "172 RAILROAD ST", "postcode": "16024"}}},
{"geometry": {"type": "Point", "coordinates": [-79.7438776313, 40.9485033362]}, "type": "Feature", "properties": {"collection_times": [{"days": "Mon-Fri", "time": "4:45pm"}, {"days": "Sat", "time": "11:45am"}, {"days": "Sun", "time": "Closed"}], "id": "1602500000", "name": "USPS COLLECTION BOX - BLUE BOX", "address": {"city": "CHICORA", "state": "PA", "street": "132 W SLIPPERY ROCK ST", "postcode": "16025"}}},
{"geometry": {"type": "Point", "coordinates": [-79.7438776313, 40.9485033362]}, "type": "Feature", "properties": {"collection_times": [{"days": "Mon-Fri", "time": "4:45pm"}, {"days": "Sat", "time": "11:45am"}, {"days": "Sun", "time": "Closed"}], "id": "1602500001", "name": "USPS COLLECTION BOX - PO LOBBY", "address": {"city": "CHICORA", "state": "PA", "street": "132 W SLIPPERY ROCK ST", "postcode": "16025"}}},
{"geometry": {"type": "Point", "coordinates": [-80.0142073209, 40.817611026]}, "type": "Feature", "properties": {"collection_times": [{"days": "Mon-Fri", "time": "4:45pm"}, {"days": "Sat", "time": "11:15am"}, {"days": "Sun", "time": "Closed"}], "id": "1602700000", "name": "USPS COLLECTION BOX - BLUE BOX", "address": {"city": "CONNOQUENESSING", "state": "PA", "street": "175 CONNOQUENESSING MAIN ST", "postcode": "16027"}}},
{"geometry": {"type": "Point", "coordinates": [-80.0142073209, 40.817611026]}, "type": "Feature", "properties": {"collection_times": [{"days": "Mon-Fri", "time": "4:45pm"}, {"days": "Sat", "time": "11:30am"}, {"days": "Sun", "time": "Closed"}], "id": "1602700001", "name": "USPS COLLECTION BOX - PO LOBBY", "address": {"city": "CONNOQUENESSING", "state": "PA", "street": "175 CONNOQUENESSING MAIN ST", "postcode": "16027"}}},
{"geometry": {"type": "Point", "coordinates": [-79.6161618317, 40.9872505588]}, "type": "Feature", "properties": {"collection_times": [{"days": "Mon-Fri", "time": "4:00pm"}, {"days": "Sat", "time": "12:00pm"}, {"days": "Sun", "time": "Closed"}], "id": "1602800000", "name": "USPS COLLECTION BOX - BLUE BOX", "address": {"city": "EAST BRADY", "state": "PA", "street": "422 KELLYS WAY", "postcode": "16028"}}},
{"geometry": {"type": "Point", "coordinates": [-79.6161618317, 40.9872505588]}, "type": "Feature", "properties": {"collection_times": [{"days": "Mon-Fri", "time": "4:00pm"}, {"days": "Sat", "time": "12:00pm"}, {"days": "Sun", "time": "Closed"}], "id": "1602800001", "name": "USPS COLLECTION BOX - PO LOBBY", "address": {"city": "EAST BRADY", "state": "PA", "street": "422 KELLYS WAY", "postcode": "16028"}}},
{"geometry": {"type": "Point", "coordinates": [-79.6127766078, 40.9839421816]}, "type": "Feature", "properties": {"collection_times": [{"days": "Mon-Sat", "time": "12:00pm"}, {"days": "Sun", "time": "Closed"}], "id": "1602800002", "name": "USPS COLLECTION BOX - BLUE BOX", "address": {"city": "EAST BRADY", "state": "PA", "street": "323 KELLYS WAY", "postcode": "16028"}}},
{"geometry": {"type": "Point", "coordinates": [-79.8516376044, 40.8850038658]}, "type": "Feature", "properties": {"collection_times": [{"days": "Mon-Fri", "time": "4:00pm"}, {"days": "Sat", "time": "12:00pm"}, {"days": "Sun", "time": "Closed"}], "id": "1602900000", "name": "USPS COLLECTION BOX - BLUE BOX", "address": {"city": "EAST BUTLER", "state": "PA", "street": "720 GRANT AVE", "postcode": "16029"}}},
{"geometry": {"type": "Point", "coordinates": [-79.8516376044, 40.8850038658]}, "type": "Feature", "properties": {"collection_times": [{"days": "Mon-Fri", "time": "4:00pm"}, {"days": "Sat", "time": "12:00pm"}, {"days": "Sun", "time": "Closed"}], "id": "1602900001", "name": "USPS COLLECTION BOX - PO LOBBY", "address": {"city": "EAST BUTLER", "state": "PA", "street": "720 GRANT AVE", "postcode": "16029"}}},
{"geometry": {"type": "Point", "coordinates": [-79.7984975689, 41.1354959298]}, "type": "Feature", "properties": {"collection_times": [{"days": "Mon-Fri", "time": "11:55am"}, {"days": "Sat", "time": "11:45am"}, {"days": "Sun", "time": "Closed"}], "id": "1603000000", "name": "USPS COLLECTION BOX - BLUE BOX", "address": {"city": "EAU CLAIRE", "state": "PA", "street": "205 S WASHINGTON ST", "postcode": "16030"}}},
{"geometry": {"type": "Point", "coordinates": [-79.7984975689, 41.1354959298]}, "type": "Feature", "properties": {"collection_times": [{"days": "Mon-Fri", "time": "11:55am"}, {"days": "Sat", "time": "11:45am"}, {"days": "Sun", "time": "Closed"}], "id": "1603000001", "name": "USPS COLLECTION BOX - PO LOBBY", "address": {"city": "EAU CLAIRE", "state": "PA", "street": "205 S WASHINGTON ST", "postcode": "16030"}}},
{"geometry": {"type": "Point", "coordinates": [-80.0651111704, 40.7688504262]}, "type": "Feature", "properties": {"collection_times": [{"days": "Mon-Sat", "time": "11:00am"}, {"days": "Sun", "time": "Closed"}], "id": "1603300004", "name": "USPS COLLECTION BOX - BLUE BOX", "address": {"city": "EVANS CITY", "state": "PA", "street": "169 W MAIN ST", "postcode": "16033"}}},
{"geometry": {"type": "Point", "coordinates": [-80.063003983, 40.7690682619]}, "type": "Feature", "properties": {"collection_times": [{"days": "Mon-Fri", "time": "1:45pm"}, {"days": "Sat", "time": "1:00pm"}, {"days": "Sun", "time": "Closed"}], "id": "1603300006", "name": "USPS COLLECTION BOX - BLUE BOX", "address": {"city": "EVANS CITY", "state": "PA", "street": "201 E MAIN ST", "postcode": "16033"}}},
{"geometry": {"type": "Point", "coordinates": [-80.0598852901, 40.7684868988]}, "type": "Feature", "properties": {"collection_times": [{"days": "Mon-Sat", "time": "11:30am"}, {"days": "Sun", "time": "Closed"}], "id": "1603300007", "name": "USPS COLLECTION BOX - BLUE BOX", "address": {"city": "EVANS CITY", "state": "PA", "street": "200 JEFFERSON ST", "postcode": "16033"}}},
{"geometry": {"type": "Point", "coordinates": [-80.0613450147, 40.7691858601]}, "type": "Feature", "properties": {"collection_times": [{"days": "Mon-Fri", "time": "4:30pm"}, {"days": "Sat", "time": "12:00pm"}, {"days": "Sun", "time": "Closed"}], "id": "1603300008", "name": "USPS COLLECTION BOX - BLUE BOX", "address": {"city": "EVANS CITY", "state": "PA", "street": "126 S JACKSON ST", "postcode": "16033"}}},
{"geometry": {"type": "Point", "coordinates": [-80.0613450147, 40.7691858601]}, "type": "Feature", "properties": {"collection_times": [{"days": "Mon-Fri", "time": "4:30pm"}, {"days": "Sat", "time": "12:00pm"}, {"days": "Sun", "time": "Closed"}], "id": "1603300009", "name": "USPS COLLECTION BOX - PO LOBBY", "address": {"city": "EVANS CITY", "state": "PA", "street": "126 S JACKSON ST", "postcode": "16033"}}},
{"geometry": {"type": "Point", "coordinates": [-79.7261683673, 40.8699704806]}, "type": "Feature", "properties": {"collection_times": [{"days": "Mon-Fri", "time": "2:15pm"}, {"days": "Sat", "time": "11:30am"}, {"days": "Sun", "time": "Closed"}], "id": "1603400000", "name": "USPS COLLECTION BOX - BLUE BOX", "address": {"city": "FENELTON", "state": "PA", "street": "811 CLEARFIELD RD", "postcode": "16034"}}},
{"geometry": {"type": "Point", "coordinates": [-79.7261683673, 40.8699704806]}, "type": "Feature", "properties": {"collection_times": [{"days": "Mon-Fri", "time": "2:15pm"}, {"days": "Sat", "time": "11:30am"}, {"days": "Sun", "time": "Closed"}], "id": "1603400001", "name": "USPS COLLECTION BOX - PO LOBBY", "address": {"city": "FENELTON", "state": "PA", "street": "811 CLEARFIELD RD", "postcode": "16034"}}},
{"geometry": {"type": "Point", "coordinates": [-80.0103791335, 41.1060446703]}, "type": "Feature", "properties": {"collection_times": [{"days": "Mon-Fri", "time": "11:55am"}, {"days": "Sat", "time": "11:45am"}, {"days": "Sun", "time": "Closed"}], "id": "1603500000", "name": "USPS COLLECTION BOX - BLUE BOX", "address": {"city": "FORESTVILLE", "state": "PA", "street": "4114 WILLIAM FLYNN HWY", "postcode": "16035"}}},
{"geometry": {"type": "Point", "coordinates": [-80.0103791335, 41.1060446703]}, "type": "Feature", "properties": {"collection_times": [{"days": "Mon-Fri", "time": "11:55am"}, {"days": "Sat", "time": "11:45am"}, {"days": "Sun", "time": "Closed"}], "id": "1603500001", "name": "USPS COLLECTION BOX - PO LOBBY", "address": {"city": "FORESTVILLE", "state": "PA", "street": "4114 WILLIAM FLYNN HWY", "postcode": "16035"}}},
{"geometry": {"type": "Point", "coordinates": [-79.6621358703, 41.1795934342]}, "type": "Feature", "properties": {"collection_times": [{"days": "Mon-Fri", "time": "11:55am"}, {"days": "Sat", "time": "11:45am"}, {"days": "Sun", "time": "Closed"}], "id": "1603600000", "name": "USPS COLLECTION BOX - BLUE BOX", "address": {"city": "FOXBURG", "state": "PA", "street": "105 RAILROAD ST", "postcode": "16036"}}},
{"geometry": {"type": "Point", "coordinates": [-79.6621358703, 41.1795934342]}, "type": "Feature", "properties": {"collection_times": [{"days": "Mon-Fri", "time": "11:55am"}, {"days": "Sat", "time": "11:45am"}, {"days": "Sun", "time": "Closed"}], "id": "1603600001", "name": "USPS COLLECTION BOX - PO LOBBY", "address": {"city": "FOXBURG", "state": "PA", "street": "105 RAILROAD ST", "postcode": "16036"}}},
{"geometry": {"type": "Point", "coordinates": [-80.1214768167, 40.8392621884]}, "type": "Feature", "properties": {"collection_times": [{"days": "Mon-Sat", "time": "12:30pm"}, {"days": "Sun", "time": "Closed"}], "id": "1603700000", "name": "USPS COLLECTION BOX - BLUE BOX", "address": {"city": "HARMONY", "state": "PA", "street": "13 NORTHGATE PLZ", "postcode": "16037"}}},
{"geometry": {"type": "Point", "coordinates": [-80.1275288107, 40.799952411]}, "type": "Feature", "properties": {"collection_times": [{"days": "Mon-Sat", "time": "9:15am"}, {"days": "Sun", "time": "Closed"}], "id": "1603700001", "name": "USPS COLLECTION BOX - BLUE BOX", "address": {"city": "HARMONY", "state": "PA", "street": "222 MERCER ST", "postcode": "16037"}}},
{"geometry": {"type": "Point", "coordinates": [-80.0093206228, 41.1364414057]}, "type": "Feature", "properties": {"collection_times": [{"days": "Mon-Fri", "time": "4:45pm"}, {"days": "Sat", "time": "12:00pm"}, {"days": "Sun", "time": "Closed"}], "id": "1603800000", "name": "USPS COLLECTION BOX - BLUE BOX", "address": {"city": "HARRISVILLE", "state": "PA", "street": "115 S MAIN ST", "postcode": "16038"}}},
{"geometry": {"type": "Point", "coordinates": [-79.9748903868, 41.1985395086]}, "type": "Feature", "properties": {"collection_times": [{"days": "Mon-Sat", "time": "12:15pm"}, {"days": "Sun", "time": "Closed"}], "id": "1603800002", "name": "USPS COLLECTION BOX - BLUE BOX", "address": {"city": "HARRISVILLE", "state": "PA", "street": "5618 STATE ROUTE 8", "postcode": "16038"}}},
{"geometry": {"type": "Point", "coordinates": [-80.0093206228, 41.1364414057]}, "type": "Feature", "properties": {"collection_times": [{"days": "Mon-Fri", "time": "4:45pm"}, {"days": "Sat", "time": "12:00pm"}, {"days": "Sun", "time": "Closed"}], "id": "1603800004", "name": "USPS COLLECTION BOX - PO LOBBY", "address": {"city": "HARRISVILLE", "state": "PA", "street": "115 S MAIN ST", "postcode": "16038"}}},
{"geometry": {"type": "Point", "coordinates": [-79.8949247226, 40.8576900293]}, "type": "Feature", "properties": {"collection_times": [{"days": "Mon-Sat", "time": "11:55am"}, {"days": "Sun", "time": "Closed"}], "id": "1603900000", "name": "USPS COLLECTION BOX - BLUE BOX", "address": {"city": "HERMAN", "state": "PA", "street": "102 GEIBEL RD", "postcode": "16039"}}},
{"geometry": {"type": "Point", "coordinates": [-79.8949247226, 40.8576900293]}, "type": "Feature", "properties": {"collection_times": [{"days": "Mon-Sat", "time": "11:55am"}, {"days": "Sun", "time": "Closed"}], "id": "1603900001", "name": "USPS COLLECTION BOX - PO LOBBY", "address": {"city": "HERMAN", "state": "PA", "street": "102 GEIBEL RD", "postcode": "16039"}}},
{"geometry": {"type": "Point", "coordinates": [-79.8346621494, 41.0843411505]}, "type": "Feature", "properties": {"collection_times": [{"days": "Mon-Fri", "time": "11:55am"}, {"days": "Sat", "time": "10:45am"}, {"days": "Sun", "time": "Closed"}], "id": "1604000000", "name": "USPS COLLECTION BOX - BLUE BOX", "address": {"city": "HILLIARDS", "state": "PA", "street": "128 OLD MILL ST", "postcode": "16040"}}},
{"geometry": {"type": "Point", "coordinates": [-79.8346621494, 41.0843411505]}, "type": "Feature", "properties": {"collection_times": [{"days": "Mon-Fri", "time": "11:55am"}, {"days": "Sat", "time": "10:45am"}, {"days": "Sun", "time": "Closed"}], "id": "1604000001", "name": "USPS COLLECTION BOX - PO LOBBY", "address": {"city": "HILLIARDS", "state": "PA", "street": "128 OLD MILL ST", "postcode": "16040"}}},
{"geometry": {"type": "Point", "coordinates": [-79.7253208416, 40.9949930315]}, "type": "Feature", "properties": {"collection_times": [{"days": "Mon-Fri", "time": "3:00pm"}, {"days": "Sat", "time": "11:00am"}, {"days": "Sun", "time": "Closed"}], "id": "1604100000", "name": "USPS COLLECTION BOX - BLUE BOX", "address": {"city": "KARNS CITY", "state": "PA", "street": "108 PETROLIA ST", "postcode": "16041"}}},
{"geometry": {"type": "Point", "coordinates": [-79.7253208416, 40.9949930315]}, "type": "Feature", "properties": {"collection_times": [{"days": "Mon-Fri", "time": "3:00pm"}, {"days": "Sat", "time": "11:00am"}, {"days": "Sun", "time": "Closed"}], "id": "1604100001", "name": "USPS COLLECTION BOX - PO LOBBY", "address": {"city": "KARNS CITY", "state": "PA", "street": "108 PETROLIA ST", "postcode": "16041"}}},
{"geometry": {"type": "Point", "coordinates": [-79.9128624974, 40.8510355738]}, "type": "Feature", "properties": {"collection_times": [{"days": "Mon-Fri", "time": "4:45pm"}, {"days": "Sat", "time": "12:00pm"}, {"days": "Sun", "time": "Closed"}], "id": "1604500000", "name": "USPS COLLECTION BOX - BLUE BOX", "address": {"city": "LYNDORA", "state": "PA", "street": "110 WHITESTOWN RD", "postcode": "16045"}}},
{"geometry": {"type": "Point", "coordinates": [-79.9215145521, 40.8480796711]}, "type": "Feature", "properties": {"collection_times": [{"days": "Mon-Sat", "time": "9:30am"}, {"days": "Sun", "time": "Closed"}], "id": "1604500001", "name": "USPS COLLECTION BOX - BLUE BOX", "address": {"city": "LYNDORA", "state": "PA", "street": "1 ARMCO DR", "postcode": "16045"}}},
{"geometry": {"type": "Point", "coordinates": [-79.9157262851, 40.8497270137]}, "type": "Feature", "properties": {"collection_times": [{"days": "Mon-Sat", "time": "10:00am"}, {"days": "Sun", "time": "Closed"}], "id": "1604500002", "name": "USPS COLLECTION BOX - BLUE BOX", "address": {"city": "LYNDORA", "state": "PA", "street": "219 PENN AVE", "postcode": "16045"}}},
{"geometry": {"type": "Point", "coordinates": [-79.9138538361, 40.8491062822]}, "type": "Feature", "properties": {"collection_times": [{"days": "Mon-Fri", "time": "12:00pm"}, {"days": "Sat", "time": "11:00am"}, {"days": "Sun", "time": "Closed"}], "id": "1604500003", "name": "USPS COLLECTION BOX - BLUE BOX", "address": {"city": "LYNDORA", "state": "PA", "street": "100 BESSEMER AVE", "postcode": "16045"}}},
{"geometry": {"type": "Point", "coordinates": [-79.9117389973, 40.8546270297]}, "type": "Feature", "properties": {"collection_times": [{"days": "Mon-Sat", "time": "12:00pm"}, {"days": "Sun", "time": "Closed"}], "id": "1604500004", "name": "USPS COLLECTION BOX - BLUE BOX", "address": {"city": "LYNDORA", "state": "PA", "street": "554 HANSEN AVE", "postcode": "16045"}}},
{"geometry": {"type": "Point", "coordinates": [-79.9128624974, 40.8510355738]}, "type": "Feature", "properties": {"collection_times": [{"days": "Mon-Fri", "time": "5:00pm"}, {"days": "Sat", "time": "12:00pm"}, {"days": "Sun", "time": "Closed"}], "id": "1604500007", "name": "USPS COLLECTION BOX - PO LOBBY", "address": {"city": "LYNDORA", "state": "PA", "street": "110 WHITESTOWN RD", "postcode": "16045"}}},
{"geometry": {"type": "Point", "coordinates": [-80.0386175618, 40.6954642314]}, "type": "Feature", "properties": {"collection_times": [{"days": "Mon-Fri", "time": "4:45pm"}, {"days": "Sat", "time": "1:30pm"}, {"days": "Sun", "time": "Closed"}], "id": "1604600000", "name": "USPS COLLECTION BOX - BLUE BOX", "address": {"city": "MARS", "state": "PA", "street": "111 GRAND AVE", "postcode": "16046"}}},
{"geometry": {"type": "Point", "coordinates": [-80.0386175618, 40.6954642314]}, "type": "Feature", "properties": {"collection_times": [{"days": "Mon-Fri", "time": "4:45pm"}, {"days": "Sat", "time": "1:30pm"}, {"days": "Sun", "time": "Closed"}], "id": "1604600002", "name": "USPS COLLECTION BOX - PO LOBBY", "address": {"city": "MARS", "state": "PA", "street": "111 GRAND AVE", "postcode": "16046"}}},
{"geometry": {"type": "Point", "coordinates": [-80.0386175618, 40.6954642314]}, "type": "Feature", "properties": {"collection_times": [{"days": "Mon-Sat", "time": "11:00am"}, {"days": "Sun", "time": "Closed"}], "id": "1604600003", "name": "USPS COLLECTION BOX - BLUE BOX", "address": {"city": "MARS", "state": "PA", "street": "2200 GARDEN DR", "postcode": "16046"}}},
{"geometry": {"type": "Point", "coordinates": [-80.057358763, 40.689192555]}, "type": "Feature", "properties": {"collection_times": [{"days": "Mon-Fri", "time": "4:00pm"}, {"days": "Sat", "time": "2:00pm"}, {"days": "Sun", "time": "Closed"}], "id": "1604600006", "name": "USPS COLLECTION BOX - BLUE BOX", "address": {"city": "MARS", "state": "PA", "street": "206 SEVEN FIELDS BLVD", "postcode": "16046"}}},
{"geometry": {"type": "Point", "coordinates": [-79.8131400749, 41.0478393707]}, "type": "Feature", "properties": {"collection_times": [{"days": "Mon-Fri", "time": "11:55am"}, {"days": "Sat", "time": "10:30am"}, {"days": "Sun", "time": "Closed"}], "id": "1604800000", "name": "USPS COLLECTION BOX - BLUE BOX", "address": {"city": "N WASHINGTON", "state": "PA", "street": "739 FAIRVIEW RD", "postcode": "16048"}}},
{"geometry": {"type": "Point", "coordinates": [-79.8131400749, 41.0478393707]}, "type": "Feature", "properties": {"collection_times": [{"days": "Mon-Fri", "time": "11:55am"}, {"days": "Sat", "time": "10:30am"}, {"days": "Sun", "time": "Closed"}], "id": "1604800001", "name": "USPS COLLECTION BOX - PO LOBBY", "address": {"city": "N WASHINGTON", "state": "PA", "street": "739 FAIRVIEW RD", "postcode": "16048"}}},
{"geometry": {"type": "Point", "coordinates": [-79.6832915221, 41.0915187893]}, "type": "Feature", "properties": {"collection_times": [{"days": "Mon-Fri", "time": "3:00pm"}, {"days": "Sat", "time": "12:00pm"}, {"days": "Sun", "time": "Closed"}], "id": "1604900000", "name": "USPS COLLECTION BOX - BLUE BOX", "address": {"city": "PARKER", "state": "PA", "street": "208 WASHINGTON ST", "postcode": "16049"}}},
{"geometry": {"type": "Point", "coordinates": [-79.6832915221, 41.0915187893]}, "type": "Feature", "properties": {"collection_times": [{"days": "Mon-Fri", "time": "3:00pm"}, {"days": "Sat", "time": "12:00pm"}, {"days": "Sun", "time": "Closed"}], "id": "1604900001", "name": "USPS COLLECTION BOX - PO LOBBY", "address": {"city": "PARKER", "state": "PA", "street": "208 WASHINGTON ST", "postcode": "16049"}}},
{"geometry": {"type": "Point", "coordinates": [-79.7181685333, 41.0166896221]}, "type": "Feature", "properties": {"collection_times": [{"days": "Mon-Fri", "time": "3:00pm"}, {"days": "Sat", "time": "11:00am"}, {"days": "Sun", "time": "Closed"}], "id": "1605000000", "name": "USPS COLLECTION BOX - BLUE BOX", "address": {"city": "PETROLIA", "state": "PA", "street": "115 MAIN ST", "postcode": "16050"}}},
{"geometry": {"type": "Point", "coordinates": [-79.7181685333, 41.0166896221]}, "type": "Feature", "properties": {"collection_times": [{"days": "Mon-Fri", "time": "3:00pm"}, {"days": "Sat", "time": "11:00am"}, {"days": "Sun", "time": "Closed"}], "id": "1605000001", "name": "USPS COLLECTION BOX - PO LOBBY", "address": {"city": "PETROLIA", "state": "PA", "street": "115 MAIN ST", "postcode": "16050"}}},
{"geometry": {"type": "Point", "coordinates": [-80.143965376, 40.9255403104]}, "type": "Feature", "properties": {"collection_times": [{"days": "Mon-Fri", "time": "4:30pm"}, {"days": "Sat", "time": "11:30am"}, {"days": "Sun", "time": "Closed"}], "id": "1605100000", "name": "USPS COLLECTION BOX - BLUE BOX", "address": {"city": "PORTERSVILLE", "state": "PA", "street": "1272 PERRY HWY", "postcode": "16051"}}},
{"geometry": {"type": "Point", "coordinates": [-80.143965376, 40.9255403104]}, "type": "Feature", "properties": {"collection_times": [{"days": "Mon-Fri", "time": "4:45pm"}, {"days": "Sat", "time": "11:45am"}, {"days": "Sun", "time": "Closed"}], "id": "1605100001", "name": "USPS COLLECTION BOX - PO LOBBY", "address": {"city": "PORTERSVILLE", "state": "PA", "street": "1272 PERRY HWY", "postcode": "16051"}}},
{"geometry": {"type": "Point", "coordinates": [-80.1460368277, 40.9651693259]}, "type": "Feature", "properties": {"collection_times": [{"days": "Mon-Sat", "time": "10:00am"}, {"days": "Sun", "time": "Closed"}], "id": "1605100002", "name": "USPS COLLECTION BOX - BLUE BOX", "address": {"city": "PORTERSVILLE", "state": "PA", "street": "2010 NEW CASTLE RD", "postcode": "16051"}}},
{"geometry": {"type": "Point", "coordinates": [-80.0467078673, 40.9041971014]}, "type": "Feature", "properties": {"collection_times": [{"days": "Mon-Fri", "time": "4:30pm"}, {"days": "Sat", "time": "12:00pm"}, {"days": "Sun", "time": "Closed"}], "id": "1605200000", "name": "USPS COLLECTION BOX - BLUE BOX", "address": {"city": "PROSPECT", "state": "PA", "street": "106 S FRANKLIN ST", "postcode": "16052"}}},
{"geometry": {"type": "Point", "coordinates": [-80.0467078673, 40.9041971014]}, "type": "Feature", "properties": {"collection_times": [{"days": "Mon-Fri", "time": "4:45pm"}, {"days": "Sat", "time": "12:00pm"}, {"days": "Sun", "time": "Closed"}], "id": "1605200001", "name": "USPS COLLECTION BOX - PO LOBBY", "address": {"city": "PROSPECT", "state": "PA", "street": "106 S FRANKLIN ST", "postcode": "16052"}}},
{"geometry": {"type": "Point", "coordinates": [-79.9647881323, 40.8063717493]}, "type": "Feature", "properties": {"collection_times": [{"days": "Mon-Fri", "time": "4:30pm"}, {"days": "Sat", "time": "11:45am"}, {"days": "Sun", "time": "Closed"}], "id": "1605300002", "name": "USPS COLLECTION BOX - BLUE BOX", "address": {"city": "RENFREW", "state": "PA", "street": "102 E MAIN ST", "postcode": "16053"}}},
{"geometry": {"type": "Point", "coordinates": [-79.9647881323, 40.8063717493]}, "type": "Feature", "properties": {"collection_times": [{"days": "Mon-Fri", "time": "4:30pm"}, {"days": "Sat", "time": "11:45am"}, {"days": "Sun", "time": "Closed"}], "id": "1605300003", "name": "USPS COLLECTION BOX - PO LOBBY", "address": {"city": "RENFREW", "state": "PA", "street": "102 E MAIN ST", "postcode": "16053"}}},
{"geometry": {"type": "Point", "coordinates": [-79.6561419102, 41.1610304711]}, "type": "Feature", "properties": {"collection_times": [{"days": "Mon-Fri", "time": "11:55am"}, {"days": "Sat", "time": "11:45am"}, {"days": "Sun", "time": "Closed"}], "id": "1605400000", "name": "USPS COLLECTION BOX - BLUE BOX", "address": {"city": "ST PETERSBURG", "state": "PA", "street": "711 MAIN ST", "postcode": "16054"}}},
{"geometry": {"type": "Point", "coordinates": [-79.6561419102, 41.1610304711]}, "type": "Feature", "properties": {"collection_times": [{"days": "Mon-Fri", "time": "11:55am"}, {"days": "Sat", "time": "11:45am"}, {"days": "Sun", "time": "Closed"}], "id": "1605400001", "name": "USPS COLLECTION BOX - PO LOBBY", "address": {"city": "ST PETERSBURG", "state": "PA", "street": "711 MAIN ST", "postcode": "16054"}}},
{"geometry": {"type": "Point", "coordinates": [-79.7773983384, 40.7116473503]}, "type": "Feature", "properties": {"collection_times": [{"days": "Mon-Fri", "time": "4:00pm"}, {"days": "Sat", "time": "12:00pm"}, {"days": "Sun", "time": "Closed"}], "id": "1605500000", "name": "USPS COLLECTION BOX - BLUE BOX", "address": {"city": "SARVER", "state": "PA", "street": "705 EKASTOWN RD", "postcode": "16055"}}},
{"geometry": {"type": "Point", "coordinates": [-79.7300600566, 40.7089284874]}, "type": "Feature", "properties": {"collection_times": [{"days": "Mon-Sat", "time": "10:30am"}, {"days": "Sun", "time": "Closed"}], "id": "1605500002", "name": "USPS COLLECTION BOX - BLUE BOX", "address": {"city": "SARVER", "state": "PA", "street": "551 S PIKE RD", "postcode": "16055"}}},
{"geometry": {"type": "Point", "coordinates": [-79.7773983384, 40.7116473503]}, "type": "Feature", "properties": {"collection_times": [{"days": "Mon-Fri", "time": "4:30pm"}, {"days": "Sat", "time": "12:00pm"}, {"days": "Sun", "time": "Closed"}], "id": "1605500003", "name": "USPS COLLECTION BOX - PO LOBBY", "address": {"city": "SARVER", "state": "PA", "street": "705 EKASTOWN RD", "postcode": "16055"}}},
{"geometry": {"type": "Point", "coordinates": [-79.724034199, 40.7060819004]}, "type": "Feature", "properties": {"collection_times": [{"days": "Mon-Sat", "time": "9:30am"}, {"days": "Sun", "time": "Closed"}], "id": "1605500004", "name": "USPS COLLECTION BOX - BLUE BOX", "address": {"city": "SARVER", "state": "PA", "street": "100 BUFFALO PLZ", "postcode": "16055"}}},
{"geometry": {"type": "Point", "coordinates": [-79.8142339332, 40.7500415987]}, "type": "Feature", "properties": {"collection_times": [{"days": "Mon-Fri", "time": "4:30pm"}, {"days": "Sat", "time": "11:30am"}, {"days": "Sun", "time": "Closed"}], "id": "1605600001", "name": "USPS COLLECTION BOX - BLUE BOX", "address": {"city": "SAXONBURG", "state": "PA", "street": "120 PITTSBURGH ST", "postcode": "16056"}}},
{"geometry": {"type": "Point", "coordinates": [-79.8142339332, 40.7500415987]}, "type": "Feature", "properties": {"collection_times": [{"days": "Mon-Fri", "time": "4:30pm"}, {"days": "Sat", "time": "11:30am"}, {"days": "Sun", "time": "Closed"}], "id": "1605600002", "name": "USPS COLLECTION BOX - PO LOBBY", "address": {"city": "SAXONBURG", "state": "PA", "street": "120 PITTSBURGH ST", "postcode": "16056"}}},
{"geometry": {"type": "Point", "coordinates": [-80.0530326652, 41.0609990528]}, "type": "Feature", "properties": {"collection_times": [{"days": "Mon-Fri", "time": "5:00pm"}, {"days": "Sat", "time": "3:15pm"}, {"days": "Sun", "time": "Closed"}], "id": "1605700000", "name": "USPS COLLECTION BOX - BLUE BOX", "address": {"city": "SLIPPERY ROCK", "state": "PA", "street": "400 S MAIN ST", "postcode": "16057"}}},
{"geometry": {"type": "Point", "coordinates": [-80.0530326652, 41.0609990528]}, "type": "Feature", "properties": {"collection_times": [{"days": "Mon-Fri", "time": "5:00pm"}, {"days": "Sat", "time": "3:15pm"}, {"days": "Sun", "time": "Closed"}], "id": "1605700001", "name": "USPS COLLECTION BOX - BLUE BOX", "address": {"city": "SLIPPERY ROCK", "state": "PA", "street": "400 S MAIN ST", "postcode": "16057"}}},
{"geometry": {"type": "Point", "coordinates": [-80.0561518105, 41.0638650591]}, "type": "Feature", "properties": {"collection_times": [{"days": "Mon-Sat", "time": "3:00pm"}, {"days": "Sun", "time": "Closed"}], "id": "1605700003", "name": "USPS COLLECTION BOX - BLUE BOX", "address": {"city": "SLIPPERY ROCK", "state": "PA", "street": "140 S MAIN ST", "postcode": "16057"}}},
{"geometry": {"type": "Point", "coordinates": [-80.0523844293, 41.0602622332]}, "type": "Feature", "properties": {"collection_times": [{"days": "Mon-Sat", "time": "9:00am"}, {"days": "Sun", "time": "Closed"}], "id": "1605700006", "name": "USPS COLLECTION BOX - BLUE BOX", "address": {"city": "SLIPPERY ROCK", "state": "PA", "street": "1 MORROW WAY", "postcode": "16057"}}},
{"geometry": {"type": "Point", "coordinates": [-80.053047742, 41.0610567889]}, "type": "Feature", "properties": {"collection_times": [{"days": "Mon-Sat", "time": "12:30pm"}, {"days": "Sun", "time": "Closed"}], "id": "1605700007", "name": "USPS COLLECTION BOX - BLUE BOX", "address": {"city": "SLIPPERY ROCK", "state": "PA", "street": "14 MALTBY AVE", "postcode": "16057"}}},
{"geometry": {"type": "Point", "coordinates": [-80.0530326652, 41.0609990528]}, "type": "Feature", "properties": {"collection_times": [{"days": "Mon-Fri", "time": "5:00pm"}, {"days": "Sat", "time": "3:15pm"}, {"days": "Sun", "time": "Closed"}], "id": "1605700010", "name": "USPS COLLECTION BOX - BLUE BOX", "address": {"city": "SLIPPERY ROCK", "state": "PA", "street": "400 S MAIN ST", "postcode": "16057"}}},
{"geometry": {"type": "Point", "coordinates": [-80.0515940225, 41.0750854676]}, "type": "Feature", "properties": {"collection_times": [{"days": "Mon-Sat", "time": "9:00am"}, {"days": "Sun", "time": "Closed"}], "id": "1605700011", "name": "USPS COLLECTION BOX - BLUE BOX", "address": {"city": "SLIPPERY ROCK", "state": "PA", "street": "223 GROVE CITY RD", "postcode": "16057"}}},
{"geometry": {"type": "Point", "coordinates": [-79.9820223511, 40.9969960226]}, "type": "Feature", "properties": {"collection_times": [{"days": "Mon-Sat", "time": "9:00am"}, {"days": "Sun", "time": "Closed"}], "id": "1605700012", "name": "USPS COLLECTION BOX - BLUE BOX", "address": {"city": "SLIPPERY ROCK", "state": "PA", "street": "300 ORCHID LN", "postcode": "16057"}}},
{"geometry": {"type": "Point", "coordinates": [-80.0374293208, 41.056637625]}, "type": "Feature", "properties": {"collection_times": [{"days": "Mon-Sat", "time": "9:00am"}, {"days": "Sun", "time": "Closed"}], "id": "1605700013", "name": "USPS COLLECTION BOX - BLUE BOX", "address": {"city": "SLIPPERY ROCK", "state": "PA", "street": "278 CAMERON DR", "postcode": "16057"}}},
{"geometry": {"type": "Point", "coordinates": [-80.0530326652, 41.0609990528]}, "type": "Feature", "properties": {"collection_times": [{"days": "Mon-Fri", "time": "5:00pm"}, {"days": "Sat", "time": "3:15pm"}, {"days": "Sun", "time": "Closed"}], "id": "1605700014", "name": "USPS COLLECTION BOX - PO LOBBY", "address": {"city": "SLIPPERY ROCK", "state": "PA", "street": "400 S MAIN ST", "postcode": "16057"}}},
{"geometry": {"type": "Point", "coordinates": [-79.613008298, 41.184128173]}, "type": "Feature", "properties": {"collection_times": [{"days": "Mon-Sat", "time": "10:45am"}, {"days": "Sun", "time": "Closed"}], "id": "1605800000", "name": "USPS COLLECTION BOX - BLUE BOX", "address": {"city": "TURKEY CITY", "state": "PA", "street": "1245 ROUTE 338 STE 2", "postcode": "16058"}}},
{"geometry": {"type": "Point", "coordinates": [-79.613008298, 41.184128173]}, "type": "Feature", "properties": {"collection_times": [{"days": "Mon-Sat", "time": "10:45am"}, {"days": "Sun", "time": "Closed"}], "id": "1605800001", "name": "USPS COLLECTION BOX - PO LOBBY", "address": {"city": "TURKEY CITY", "state": "PA", "street": "1245 ROUTE 338 STE 2", "postcode": "16058"}}},
{"geometry": {"type": "Point", "coordinates": [-79.9370265489, 40.6882984588]}, "type": "Feature", "properties": {"collection_times": [{"days": "Mon-Fri", "time": "4:30pm"}, {"days": "Sat", "time": "12:00pm"}, {"days": "Sun", "time": "Closed"}], "id": "1605900000", "name": "USPS COLLECTION BOX - BLUE BOX", "address": {"city": "VALENCIA", "state": "PA", "street": "1324 PITTSBURGH RD", "postcode": "16059"}}},
{"geometry": {"type": "Point", "coordinates": [-79.9370265489, 40.6882984588]}, "type": "Feature", "properties": {"collection_times": [{"days": "Mon-Fri", "time": "4:30pm"}, {"days": "Sat", "time": "12:00pm"}, {"days": "Sun", "time": "Closed"}], "id": "1605900001", "name": "USPS COLLECTION BOX - BLUE BOX", "address": {"city": "VALENCIA", "state": "PA", "street": "1324 PITTSBURGH RD", "postcode": "16059"}}},
{"geometry": {"type": "Point", "coordinates": [-79.9370265489, 40.6882984588]}, "type": "Feature", "properties": {"collection_times": [{"days": "Mon-Fri", "time": "4:30pm"}, {"days": "Sat", "time": "12:00pm"}, {"days": "Sun", "time": "Closed"}], "id": "1605900002", "name": "USPS COLLECTION BOX - PO LOBBY", "address": {"city": "VALENCIA", "state": "PA", "street": "1324 PITTSBURGH RD", "postcode": "16059"}}},
{"geometry": {"type": "Point", "coordinates": [-79.8972774017, 41.0060925857]}, "type": "Feature", "properties": {"collection_times": [{"days": "Mon-Fri", "time": "4:45pm"}, {"days": "Sat", "time": "12:00pm"}, {"days": "Sun", "time": "Closed"}], "id": "1606100000", "name": "USPS COLLECTION BOX - BLUE BOX", "address": {"city": "WEST SUNBURY", "state": "PA", "street": "201 W STATE ST", "postcode": "16061"}}},
{"geometry": {"type": "Point", "coordinates": [-79.8972774017, 41.0060925857]}, "type": "Feature", "properties": {"collection_times": [{"days": "Mon-Fri", "time": "4:45pm"}, {"days": "Sat", "time": "12:00pm"}, {"days": "Sun", "time": "Closed"}], "id": "1606100001", "name": "USPS COLLECTION BOX - PO LOBBY", "address": {"city": "WEST SUNBURY", "state": "PA", "street": "201 W STATE ST", "postcode": "16061"}}},
{"geometry": {"type": "Point", "coordinates": [-80.1352611815, 40.7942806138]}, "type": "Feature", "properties": {"collection_times": [{"days": "Mon-Sat", "time": "9:00am"}, {"days": "Sun", "time": "Closed"}], "id": "1606300002", "name": "USPS COLLECTION BOX - BLUE BOX", "address": {"city": "ZELIENOPLE", "state": "PA", "street": "214 S HIGH ST", "postcode": "16063"}}},
{"geometry": {"type": "Point", "coordinates": [-80.1435339544, 40.7933881033]}, "type": "Feature", "properties": {"collection_times": [{"days": "Mon-Sat", "time": "11:15am"}, {"days": "Sun", "time": "Closed"}], "id": "1606300004", "name": "USPS COLLECTION BOX - BLUE BOX", "address": {"city": "ZELIENOPLE", "state": "PA", "street": "251 WALNUT ST", "postcode": "16063"}}},
{"geometry": {"type": "Point", "coordinates": [-80.1429477887, 40.7950823867]}, "type": "Feature", "properties": {"collection_times": [{"days": "Mon-Sat", "time": "12:00pm"}, {"days": "Sun", "time": "Closed"}], "id": "1606300005", "name": "USPS COLLECTION BOX - BLUE BOX", "address": {"city": "ZELIENOPLE", "state": "PA", "street": "319 W NEW CASTLE ST", "postcode": "16063"}}},
{"geometry": {"type": "Point", "coordinates": [-80.1411646241, 40.7965970218]}, "type": "Feature", "properties": {"collection_times": [{"days": "Mon-Sat", "time": "12:00pm"}, {"days": "Sun", "time": "Closed"}], "id": "1606300006", "name": "USPS COLLECTION BOX - BLUE BOX", "address": {"city": "ZELIENOPLE", "state": "PA", "street": "400 W GRANDVIEW AVE", "postcode": "16063"}}},
{"geometry": {"type": "Point", "coordinates": [-80.1421487601, 40.7941726588]}, "type": "Feature", "properties": {"collection_times": [{"days": "Mon-Sat", "time": "12:00pm"}, {"days": "Sun", "time": "Closed"}], "id": "1606300007", "name": "USPS COLLECTION BOX - BLUE BOX", "address": {"city": "ZELIENOPLE", "state": "PA", "street": "202 ARTHUR ST", "postcode": "16063"}}},
{"geometry": {"type": "Point", "coordinates": [-80.1401698548, 40.7915691466]}, "type": "Feature", "properties": {"collection_times": [{"days": "Mon-Sat", "time": "9:30am"}, {"days": "Sun", "time": "Closed"}], "id": "1606300009", "name": "USPS COLLECTION BOX - BLUE BOX", "address": {"city": "ZELIENOPLE", "state": "PA", "street": "100 MCKIM ST", "postcode": "16063"}}},
{"geometry": {"type": "Point", "coordinates": [-80.1338783973, 40.7905427419]}, "type": "Feature", "properties": {"collection_times": [{"days": "Mon-Sat", "time": "9:30am"}, {"days": "Sun", "time": "Closed"}], "id": "1606300014", "name": "USPS COLLECTION BOX - BLUE BOX", "address": {"city": "ZELIENOPLE", "state": "PA", "street": "218 TERRACE AVE", "postcode": "16063"}}},
{"geometry": {"type": "Point", "coordinates": [-80.1367567929, 40.789399642]}, "type": "Feature", "properties": {"collection_times": [{"days": "Mon-Sat", "time": "11:00am"}, {"days": "Sun", "time": "Closed"}], "id": "1606300016", "name": "USPS COLLECTION BOX - BLUE BOX", "address": {"city": "ZELIENOPLE", "state": "PA", "street": "101 BURGESS DR", "postcode": "16063"}}},
{"geometry": {"type": "Point", "coordinates": [-80.1355232089, 40.7886915452]}, "type": "Feature", "properties": {"collection_times": [{"days": "Mon-Sat", "time": "10:00am"}, {"days": "Sun", "time": "Closed"}], "id": "1606300017", "name": "USPS COLLECTION BOX - BLUE BOX", "address": {"city": "ZELIENOPLE", "state": "PA", "street": "502 S MAIN ST", "postcode": "16063"}}},
{"geometry": {"type": "Point", "coordinates": [-80.1371384001, 40.7971763512]}, "type": "Feature", "properties": {"collection_times": [{"days": "Mon-Sat", "time": "9:30am"}, {"days": "Sun", "time": "Closed"}], "id": "1606300018", "name": "USPS COLLECTION BOX - BLUE BOX", "address": {"city": "ZELIENOPLE", "state": "PA", "street": "108 E GRANDVIEW AVE", "postcode": "16063"}}},
{"geometry": {"type": "Point", "coordinates": [-80.136956028, 40.7949009441]}, "type": "Feature", "properties": {"collection_times": [{"days": "Mon-Sat", "time": "9:00am"}, {"days": "Sun", "time": "Closed"}], "id": "1606300023", "name": "USPS COLLECTION BOX - BLUE BOX", "address": {"city": "ZELIENOPLE", "state": "PA", "street": "147 S MAIN ST", "postcode": "16063"}}},
{"geometry": {"type": "Point", "coordinates": [-80.1365865227, 40.793074595]}, "type": "Feature", "properties": {"collection_times": [{"days": "Mon-Fri", "time": "5:00pm"}, {"days": "Sat", "time": "11:30am"}, {"days": "Sun", "time": "Closed"}], "id": "1606300024", "name": "USPS COLLECTION BOX - BLUE BOX", "address": {"city": "ZELIENOPLE", "state": "PA", "street": "249 S MAIN ST", "postcode": "16063"}}},
{"geometry": {"type": "Point", "coordinates": [-80.1379641665, 40.7935600881]}, "type": "Feature", "properties": {"collection_times": [{"days": "Mon-Fri", "time": "4:45pm"}, {"days": "Sat", "time": "1:45pm"}, {"days": "Sun", "time": "Closed"}], "id": "1606300025", "name": "USPS COLLECTION BOX - BLUE BOX", "address": {"city": "ZELIENOPLE", "state": "PA", "street": "234 S CLAY ST", "postcode": "16063"}}},
{"geometry": {"type": "Point", "coordinates": [-80.1333864765, 40.7794992223]}, "type": "Feature", "properties": {"collection_times": [{"days": "Mon-Sat", "time": "9:30am"}, {"days": "Sun", "time": "Closed"}], "id": "1606300026", "name": "USPS COLLECTION BOX - BLUE BOX", "address": {"city": "ZELIENOPLE", "state": "PA", "street": "1010 JACKSONS POINTE CT", "postcode": "16063"}}},
{"geometry": {"type": "Point", "coordinates": [-80.1365865227, 40.793074595]}, "type": "Feature", "properties": {"collection_times": [{"days": "Mon-Fri", "time": "5:15pm"}, {"days": "Sat", "time": "2:00pm"}, {"days": "Sun", "time": "Closed"}], "id": "1606300027", "name": "USPS COLLECTION BOX - PO LOBBY", "address": {"city": "ZELIENOPLE", "state": "PA", "street": "249 S MAIN ST", "postcode": "16063"}}},
{"geometry": {"type": "Point", "coordinates": [-80.1136080118, 40.7004305727]}, "type": "Feature", "properties": {"collection_times": [{"days": "Mon-Fri", "time": "5:30pm"}, {"days": "Sat", "time": "3:00pm"}, {"days": "Sun", "time": "Closed"}], "id": "1606600006", "name": "USPS COLLECTION BOX - BLUE BOX", "address": {"city": "CRANBERRY TWP", "state": "PA", "street": "240 EXECUTIVE DR", "postcode": "16066"}}},
{"geometry": {"type": "Point", "coordinates": [-80.1136080118, 40.7004305727]}, "type": "Feature", "properties": {"collection_times": [{"days": "Mon-Fri", "time": "5:30pm"}, {"days": "Sat", "time": "3:00pm"}, {"days": "Sun", "time": "Closed"}], "id": "1606600007", "name": "USPS COLLECTION BOX - BLUE BOX", "address": {"city": "CRANBERRY TWP", "state": "PA", "street": "240 EXECUTIVE DR", "postcode": "16066"}}},
{"geometry": {"type": "Point", "coordinates": [-80.1136080118, 40.7004305727]}, "type": "Feature", "properties": {"collection_times": [{"days": "Mon-Fri", "time": "5:30pm"}, {"days": "Sat", "time": "3:00pm"}, {"days": "Sun", "time": "Closed"}], "id": "1606600008", "name": "USPS COLLECTION BOX - BLUE BOX", "address": {"city": "CRANBERRY TWP", "state": "PA", "street": "240 EXECUTIVE DR", "postcode": "16066"}}},
{"geometry": {"type": "Point", "coordinates": [-80.1136080118, 40.7004305727]}, "type": "Feature", "properties": {"collection_times": [{"days": "Mon-Fri", "time": "5:30pm"}, {"days": "Sat", "time": "3:00pm"}, {"days": "Sun", "time": "Closed"}], "id": "1606600012", "name": "USPS COLLECTION BOX - PO LOBBY", "address": {"city": "CRANBERRY TWP", "state": "PA", "street": "240 EXECUTIVE DR", "postcode": "16066"}}},
{"geometry": {"type": "Point", "coordinates": [-80.1136080118, 40.7004305727]}, "type": "Feature", "properties": {"collection_times": [{"days": "Mon-Fri", "time": "4:00pm"}, {"days": "Sat", "time": "2:00pm"}, {"days": "Sun", "time": "Closed"}], "id": "1606600013", "name": "USPS COLLECTION BOX - BLUE BOX", "address": {"city": "CRANBERRY TWP", "state": "PA", "street": "20111 ROUTE 19", "postcode": "16066"}}},
{"geometry": {"type": "Point", "coordinates": [-80.1136080118, 40.7004305727]}, "type": "Feature", "properties": {"collection_times": [{"days": "Mon-Fri", "time": "3:30pm"}, {"days": "Sat", "time": "11:00am"}, {"days": "Sun", "time": "Closed"}], "id": "1606600014", "name": "USPS COLLECTION BOX - BLUE BOX", "address": {"city": "CRANBERRY TWP", "state": "PA", "street": "3104 UNIONVILLE RD", "postcode": "16066"}}},
{"geometry": {"type": "Point", "coordinates": [-80.1136080118, 40.7004305727]}, "type": "Feature", "properties": {"collection_times": [{"days": "Mon-Fri", "time": "4:00pm"}, {"days": "Sat", "time": "11:00am"}, {"days": "Sun", "time": "Closed"}], "id": "1606600017", "name": "USPS COLLECTION BOX - BLUE BOX", "address": {"city": "CRANBERRY TWP", "state": "PA", "street": "401 SMITH DR", "postcode": "16066"}}},
{"geometry": {"type": "Point", "coordinates": [-80.1136080118, 40.7004305727]}, "type": "Feature", "properties": {"collection_times": [{"days": "Mon-Fri", "time": "4:00pm"}, {"days": "Sat", "time": "11:00am"}, {"days": "Sun", "time": "Closed"}], "id": "1606600018", "name": "USPS COLLECTION BOX - BLUE BOX", "address": {"city": "CRANBERRY TWP", "state": "PA", "street": "220 EXECUTIVE DR", "postcode": "16066"}}},
{"geometry": {"type": "Point", "coordinates": [-80.1136080118, 40.7004305727]}, "type": "Feature", "properties": {"collection_times": [{"days": "Mon-Fri", "time": "3:00pm"}, {"days": "Sat", "time": "10:00am"}, {"days": "Sun", "time": "Closed"}], "id": "1606600019", "name": "USPS COLLECTION BOX - BLUE BOX", "address": {"city": "CRANBERRY TWP", "state": "PA", "street": "1717 ROUTE 228", "postcode": "16066"}}},
{"geometry": {"type": "Point", "coordinates": [-80.1136080118, 40.7004305727]}, "type": "Feature", "properties": {"collection_times": [{"days": "Mon-Fri", "time": "5:00pm"}, {"days": "Sat", "time": "3:00pm"}, {"days": "Sun", "time": "Closed"}], "id": "1606600020", "name": "USPS COLLECTION BOX - APC", "address": {"city": "CRANBERRY TWP", "state": "PA", "street": "240 EXECUTIVE DR", "postcode": "16066"}}},
{"geometry": {"type": "Point", "coordinates": [-80.1136080118, 40.7004305727]}, "type": "Feature", "properties": {"collection_times": [{"days": "Mon-Fri", "time": "5:30pm"}, {"days": "Sat", "time": "3:00pm"}, {"days": "Sun", "time": "Closed"}], "id": "1606600021", "name": "USPS COLLECTION BOX - PO LOBBY", "address": {"city": "CRANBERRY TWP", "state": "PA", "street": "240 EXECUTIVE DR", "postcode": "16066"}}},
{"geometry": {"type": "Point", "coordinates": [-80.1136080118, 40.7004305727]}, "type": "Feature", "properties": {"collection_times": [{"days": "Mon-Fri", "time": "4:00pm"}, {"days": "Sat-Sun", "time": "Closed"}], "id": "1606600022", "name": "USPS COLLECTION BOX - BLUE BOX", "address": {"city": "CRANBERRY TWP", "state": "PA", "street": "910 SHERATON DR", "postcode": "16066"}}},
{"geometry": {"type": "Point", "coordinates": [-80.1136080118, 40.7004305727]}, "type": "Feature", "properties": {"collection_times": [{"days": "Mon-Fri", "time": "4:30pm"}, {"days": "Sat-Sun", "time": "Closed"}], "id": "1606600023", "name": "USPS COLLECTION BOX - BLUE BOX", "address": {"city": "CRANBERRY TWP", "state": "PA", "street": "2525 ROCHESTER RD", "postcode": "16066"}}},
{"geometry": {"type": "Point", "coordinates": [-80.121526769, 40.682222481]}, "type": "Feature", "properties": {"collection_times": [{"days": "Mon-Fri", "time": "4:00pm"}, {"days": "Sat", "time": "2:00pm"}, {"days": "Sun", "time": "Closed"}], "id": "1606600027", "name": "USPS COLLECTION BOX - BLUE BOX", "address": {"city": "CRANBERRY TWP", "state": "PA", "street": "1197 FREEDOM RD", "postcode": "16066"}}}
]}
