{"type": "FeatureCollection", "features": [
{"geometry": {"type": "Point", "coordinates": [-80.3201478482, 40.9897210389]}, "type": "Feature", "properties": {"collection_times": [{"days": "Mon-Fri", "time": "5:30pm"}, {"days": "Sat-Sun", "time": "Closed"}], "id": "1610100001", "name": "USPS COLLECTION BOX - BLUE BOX", "address": {"city": "NEW CASTLE", "state": "PA", "street": "25 N MILL ST", "postcode": "16101"}}},
{"geometry": {"type": "Point", "coordinates": [-80.3472181032, 40.9985517987]}, "type": "Feature", "properties": {"collection_times": [{"days": "Mon-Fri", "time": "5:30pm"}, {"days": "Sat", "time": "3:00pm"}, {"days": "Sun", "time": "Closed"}], "id": "1610100012", "name": "USPS COLLECTION BOX - BLUE BOX", "address": {"city": "NEW CASTLE", "state": "PA", "street": "100 S JEFFERSON ST", "postcode": "16101"}}},
{"geometry": {"type": "Point", "coordinates": [-80.3456219409, 40.9991626107]}, "type": "Feature", "properties": {"collection_times": [{"days": "Mon-Fri", "time": "5:30pm"}, {"days": "Sat", "time": "3:00pm"}, {"days": "Sun", "time": "Closed"}], "id": "1610100015", "name": "USPS COLLECTION BOX - BLUE BOX", "address": {"city": "NEW CASTLE", "state": "PA", "street": "41 S MERCER ST", "postcode": "16101"}}},
{"geometry": {"type": "Point", "coordinates": [-80.3456219409, 40.9991626107]}, "type": "Feature", "properties": {"collection_times": [{"days": "Mon-Fri", "time": "5:30pm"}, {"days": "Sat", "time": "3:00pm"}, {"days": "Sun", "time": "Closed"}], "id": "1610100016", "name": "USPS COLLECTION BOX - BLUE BOX", "address": {"city": "NEW CASTLE", "state": "PA", "street": "41 S MERCER ST", "postcode": "16101"}}},
{"geometry": {"type": "Point", "coordinates": [-80.3066453138, 40.9651854743]}, "type": "Feature", "properties": {"collection_times": [{"days": "Mon-Fri", "time": "2:30pm"}, {"days": "Sat", "time": "1:30pm"}, {"days": "Sun", "time": "Closed"}], "id": "1610100034", "name": "USPS COLLECTION BOX - BLUE BOX", "address": {"city": "NEW CASTLE", "state": "PA", "street": "2650 ELLWOOD RD", "postcode": "16101"}}},
{"geometry": {"type": "Point", "coordinates": [-80.3108190108, 40.9850130685]}, "type": "Feature", "properties": {"collection_times": [{"days": "Mon-Fri", "time": "2:30pm"}, {"days": "Sat", "time": "1:30pm"}, {"days": "Sun", "time": "Closed"}], "id": "1610100035", "name": "USPS COLLECTION BOX - BLUE BOX", "address": {"city": "NEW CASTLE", "state": "PA", "street": "1700 NEW BUTLER RD", "postcode": "16101"}}},
{"geometry": {"type": "Point", "coordinates": [-80.3389188003, 40.9989341106]}, "type": "Feature", "properties": {"collection_times": [{"days": "Mon-Fri", "time": "5:30pm"}, {"days": "Sat", "time": "3:00pm"}, {"days": "Sun", "time": "Closed"}], "id": "1610100037", "name": "USPS COLLECTION BOX - BLUE BOX", "address": {"city": "NEW CASTLE", "state": "PA", "street": "430 COURT ST", "postcode": "16101"}}},
{"geometry": {"type": "Point", "coordinates": [-80.3935904899, 41.0117764359]}, "type": "Feature", "properties": {"collection_times": [{"days": "Mon-Fri", "time": "3:00pm"}, {"days": "Sat", "time": "1:45pm"}, {"days": "Sun", "time": "Closed"}], "id": "1610100039", "name": "USPS COLLECTION BOX - BLUE BOX", "address": {"city": "NEW CASTLE", "state": "PA", "street": "2515 W STATE ST", "postcode": "16101"}}},
{"geometry": {"type": "Point", "coordinates": [-80.3793205615, 41.0070959216]}, "type": "Feature", "properties": {"collection_times": [{"days": "Mon-Fri", "time": "3:00pm"}, {"days": "Sat", "time": "1:45pm"}, {"days": "Sun", "time": "Closed"}], "id": "1610100051", "name": "USPS COLLECTION BOX - BLUE BOX", "address": {"city": "NEW CASTLE", "state": "PA", "street": "2026 W STATE ST", "postcode": "16101"}}},
{"geometry": {"type": "Point", "coordinates": [-80.3389188003, 40.9989341106]}, "type": "Feature", "properties": {"collection_times": [{"days": "Mon-Fri", "time": "5:30pm"}, {"days": "Sat", "time": "3:00pm"}, {"days": "Sun", "time": "Closed"}], "id": "1610100055", "name": "USPS COLLECTION BOX - BLUE BOX", "address": {"city": "NEW CASTLE", "state": "PA", "street": "430 COURT ST", "postcode": "16101"}}},
{"geometry": {"type": "Point", "coordinates": [-80.3389188003, 40.9989341106]}, "type": "Feature", "properties": {"collection_times": [{"days": "Mon-Fri", "time": "5:30pm"}, {"days": "Sat", "time": "3:00pm"}, {"days": "Sun", "time": "Closed"}], "id": "1610100056", "name": "USPS COLLECTION BOX - BLUE BOX", "address": {"city": "NEW CASTLE", "state": "PA", "street": "430 COURT ST", "postcode": "16101"}}},
{"geometry": {"type": "Point", "coordinates": [-80.3448680341, 40.9868110922]}, "type": "Feature", "properties": {"collection_times": [{"days": "Mon-Sat", "time": "9:00am"}, {"days": "Sun", "time": "Closed"}], "id": "1610100058", "name": "USPS COLLECTION BOX - BLUE BOX", "address": {"city": "NEW CASTLE", "state": "PA", "street": "104 PLAZA ST S", "postcode": "16101"}}},
{"geometry": {"type": "Point", "coordinates": [-80.3200683491, 40.9945216736]}, "type": "Feature", "properties": {"collection_times": [{"days": "Mon-Sat", "time": "6:00pm"}, {"days": "Sun", "time": "Closed"}], "id": "1610100059", "name": "USPS COLLECTION BOX - BLUE BOX", "address": {"city": "NEW CASTLE", "state": "PA", "street": "435 S CASCADE ST", "postcode": "16101"}}},
{"geometry": {"type": "Point", "coordinates": [-80.3200683491, 40.9945216736]}, "type": "Feature", "properties": {"collection_times": [{"days": "Mon-Sat", "time": "6:00pm"}, {"days": "Sun", "time": "Closed"}], "id": "1610100060", "name": "USPS COLLECTION BOX - BLUE BOX", "address": {"city": "NEW CASTLE", "state": "PA", "street": "435 S CASCADE ST", "postcode": "16101"}}},
{"geometry": {"type": "Point", "coordinates": [-80.3200683491, 40.9945216736]}, "type": "Feature", "properties": {"collection_times": [{"days": "Mon-Sat", "time": "6:00pm"}, {"days": "Sun", "time": "Closed"}], "id": "1610100061", "name": "USPS COLLECTION BOX - BLUE BOX", "address": {"city": "NEW CASTLE", "state": "PA", "street": "435 S CASCADE ST", "postcode": "16101"}}},
{"geometry": {"type": "Point", "coordinates": [-80.3479963865, 40.9998412311]}, "type": "Feature", "properties": {"collection_times": [{"days": "Mon-Fri", "time": "3:00pm"}, {"days": "Sat", "time": "1:45pm"}, {"days": "Sun", "time": "Closed"}], "id": "1610100069", "name": "USPS COLLECTION BOX - BLUE BOX", "address": {"city": "NEW CASTLE", "state": "PA", "street": "15 W WASHINGTON ST", "postcode": "16101"}}},
{"geometry": {"type": "Point", "coordinates": [-80.3934190282, 41.0117211257]}, "type": "Feature", "properties": {"collection_times": [{"days": "Mon-Fri", "time": "3:00pm"}, {"days": "Sat", "time": "1:45pm"}, {"days": "Sun", "time": "Closed"}], "id": "1610100070", "name": "USPS COLLECTION BOX - BLUE BOX", "address": {"city": "NEW CASTLE", "state": "PA", "street": "2501 W STATE ST", "postcode": "16101"}}},
{"geometry": {"type": "Point", "coordinates": [-80.347999273, 40.9948758163]}, "type": "Feature", "properties": {"collection_times": [{"days": "Mon-Fri", "time": "3:00pm"}, {"days": "Sat", "time": "2:00pm"}, {"days": "Sun", "time": "Closed"}], "id": "1610100071", "name": "USPS COLLECTION BOX - BLUE BOX", "address": {"city": "NEW CASTLE", "state": "PA", "street": "104 MARGARET ST", "postcode": "16101"}}},
{"geometry": {"type": "Point", "coordinates": [-80.3449462354, 40.9999305482]}, "type": "Feature", "properties": {"collection_times": [{"days": "Mon-Fri", "time": "5:30pm"}, {"days": "Sat", "time": "3:00pm"}, {"days": "Sun", "time": "Closed"}], "id": "1610100074", "name": "USPS COLLECTION BOX - BLUE BOX", "address": {"city": "NEW CASTLE", "state": "PA", "street": "120 E WASHINGTON ST", "postcode": "16101"}}},
{"geometry": {"type": "Point", "coordinates": [-80.3200683491, 40.9945216736]}, "type": "Feature", "properties": {"collection_times": [{"days": "Mon-Sat", "time": "6:00pm"}, {"days": "Sun", "time": "Closed"}], "id": "1610100075", "name": "USPS COLLECTION BOX - PO LOBBY", "address": {"city": "NEW CASTLE", "state": "PA", "street": "435 S CASCADE ST", "postcode": "16101"}}},
{"geometry": {"type": "Point", "coordinates": [-80.3456625103, 41.0002339462]}, "type": "Feature", "properties": {"collection_times": [{"days": "Mon-Fri", "time": "5:30pm"}, {"days": "Sat", "time": "3:00pm"}, {"days": "Sun", "time": "Closed"}], "id": "1610100076", "name": "USPS COLLECTION BOX - BLUE BOX", "address": {"city": "NEW CASTLE", "state": "PA", "street": "18 N MERCER ST", "postcode": "16101"}}},
{"geometry": {"type": "Point", "coordinates": [-80.3456625103, 41.0002339462]}, "type": "Feature", "properties": {"collection_times": [{"days": "Mon-Fri", "time": "5:30pm"}, {"days": "Sat", "time": "3:00pm"}, {"days": "Sun", "time": "Closed"}], "id": "1610100077", "name": "USPS COLLECTION BOX - BLUE BOX", "address": {"city": "NEW CASTLE", "state": "PA", "street": "18 N MERCER ST", "postcode": "16101"}}},
{"geometry": {"type": "Point", "coordinates": [-80.3456625103, 41.0002339462]}, "type": "Feature", "properties": {"collection_times": [{"days": "Mon-Fri", "time": "5:30pm"}, {"days": "Sat", "time": "3:00pm"}, {"days": "Sun", "time": "Closed"}], "id": "1610100078", "name": "USPS COLLECTION BOX - BLUE BOX", "address": {"city": "NEW CASTLE", "state": "PA", "street": "18 N MERCER ST", "postcode": "16101"}}},
{"geometry": {"type": "Point", "coordinates": [-80.3744501557, 40.9738151599]}, "type": "Feature", "properties": {"collection_times": [{"days": "Mon-Sat", "time": "2:00pm"}, {"days": "Sun", "time": "Closed"}], "id": "1610200004", "name": "USPS COLLECTION BOX - BLUE BOX", "address": {"city": "NEW CASTLE", "state": "PA", "street": "202 N LIBERTY ST", "postcode": "16102"}}},
{"geometry": {"type": "Point", "coordinates": [-80.3744501557, 40.9738151599]}, "type": "Feature", "properties": {"collection_times": [{"days": "Mon-Sat", "time": "2:00pm"}, {"days": "Sun", "time": "Closed"}], "id": "1610200007", "name": "USPS COLLECTION BOX - BLUE BOX", "address": {"city": "NEW CASTLE", "state": "PA", "street": "202 N LIBERTY ST", "postcode": "16102"}}},
{"geometry": {"type": "Point", "coordinates": [-80.3556719054, 41.0363612536]}, "type": "Feature", "properties": {"collection_times": [{"days": "Mon-Fri", "time": "5:00pm"}, {"days": "Sat", "time": "2:45pm"}, {"days": "Sun", "time": "Closed"}], "id": "1610500003", "name": "USPS COLLECTION BOX - BLUE BOX", "address": {"city": "NEW CASTLE", "state": "PA", "street": "4 E MAITLAND LN", "postcode": "16105"}}},
{"geometry": {"type": "Point", "coordinates": [-80.3556719054, 41.0363612536]}, "type": "Feature", "properties": {"collection_times": [{"days": "Mon-Fri", "time": "5:00pm"}, {"days": "Sat", "time": "2:45pm"}, {"days": "Sun", "time": "Closed"}], "id": "1610500004", "name": "USPS COLLECTION BOX - BLUE BOX", "address": {"city": "NEW CASTLE", "state": "PA", "street": "4 E MAITLAND LN", "postcode": "16105"}}},
{"geometry": {"type": "Point", "coordinates": [-80.3543221089, 41.0184754097]}, "type": "Feature", "properties": {"collection_times": [{"days": "Mon-Fri", "time": "4:30pm"}, {"days": "Sat", "time": "2:45pm"}, {"days": "Sun", "time": "Closed"}], "id": "1610500007", "name": "USPS COLLECTION BOX - BLUE BOX", "address": {"city": "NEW CASTLE", "state": "PA", "street": "1707 WILMINGTON RD", "postcode": "16105"}}},
{"geometry": {"type": "Point", "coordinates": [-80.353899543, 41.0173220492]}, "type": "Feature", "properties": {"collection_times": [{"days": "Mon-Fri", "time": "4:45pm"}, {"days": "Sat", "time": "2:45pm"}, {"days": "Sun", "time": "Closed"}], "id": "1610500008", "name": "USPS COLLECTION BOX - BLUE BOX", "address": {"city": "NEW CASTLE", "state": "PA", "street": "1700 WILMINGTON RD", "postcode": "16105"}}},
{"geometry": {"type": "Point", "coordinates": [-80.3577574218, 41.0559598305]}, "type": "Feature", "properties": {"collection_times": [{"days": "Mon-Fri", "time": "4:15pm"}, {"days": "Sat", "time": "2:30pm"}, {"days": "Sun", "time": "Closed"}], "id": "1610500010", "name": "USPS COLLECTION BOX - BLUE BOX", "address": {"city": "NEW CASTLE", "state": "PA", "street": "3300 WILMINGTON RD", "postcode": "16105"}}},
{"geometry": {"type": "Point", "coordinates": [-80.3596030628, 41.0632310868]}, "type": "Feature", "properties": {"collection_times": [{"days": "Mon-Fri", "time": "4:15pm"}, {"days": "Sat", "time": "2:30pm"}, {"days": "Sun", "time": "Closed"}], "id": "1610500011", "name": "USPS COLLECTION BOX - BLUE BOX", "address": {"city": "NEW CASTLE", "state": "PA", "street": "3443 WILMINGTON RD", "postcode": "16105"}}},
{"geometry": {"type": "Point", "coordinates": [-80.3571825037, 41.0430987006]}, "type": "Feature", "properties": {"collection_times": [{"days": "Mon-Fri", "time": "4:30pm"}, {"days": "Sat", "time": "2:30pm"}, {"days": "Sun", "time": "Closed"}], "id": "1610500012", "name": "USPS COLLECTION BOX - BLUE BOX", "address": {"city": "NEW CASTLE", "state": "PA", "street": "3009 WILMINGTON RD", "postcode": "16105"}}},
{"geometry": {"type": "Point", "coordinates": [-80.3511872677, 41.0135732278]}, "type": "Feature", "properties": {"collection_times": [{"days": "Mon-Fri", "time": "4:30pm"}, {"days": "Sat", "time": "2:45pm"}, {"days": "Sun", "time": "Closed"}], "id": "1610500013", "name": "USPS COLLECTION BOX - BLUE BOX", "address": {"city": "NEW CASTLE", "state": "PA", "street": "1211 WILMINGTON AVE", "postcode": "16105"}}},
{"geometry": {"type": "Point", "coordinates": [-80.3572404687, 41.0533596866]}, "type": "Feature", "properties": {"collection_times": [{"days": "Mon-Fri", "time": "4:15pm"}, {"days": "Sat", "time": "2:30pm"}, {"days": "Sun", "time": "Closed"}], "id": "1610500014", "name": "USPS COLLECTION BOX - BLUE BOX", "address": {"city": "NEW CASTLE", "state": "PA", "street": "3230 WILMINGTON RD", "postcode": "16105"}}},
{"geometry": {"type": "Point", "coordinates": [-80.3577574218, 41.0559598305]}, "type": "Feature", "properties": {"collection_times": [{"days": "Mon-Fri", "time": "4:15pm"}, {"days": "Sat", "time": "2:30pm"}, {"days": "Sun", "time": "Closed"}], "id": "1610500016", "name": "USPS COLLECTION BOX - BLUE BOX", "address": {"city": "NEW CASTLE", "state": "PA", "street": "3300 WILMINGTON RD", "postcode": "16105"}}},
{"geometry": {"type": "Point", "coordinates": [-80.3696155541, 41.5114576775]}, "type": "Feature", "properties": {"collection_times": [{"days": "Mon-Sat", "time": "12:00pm"}, {"days": "Sun", "time": "Closed"}], "id": "1611000000", "name": "USPS COLLECTION BOX - BLUE BOX", "address": {"city": "ADAMSVILLE", "state": "PA", "street": "3950 MAIN ST", "postcode": "16110"}}},
{"geometry": {"type": "Point", "coordinates": [-80.3378482224, 41.5057101823]}, "type": "Feature", "properties": {"collection_times": [{"days": "Mon-Fri", "time": "11:55am"}, {"days": "Sat", "time": "10:15am"}, {"days": "Sun", "time": "Closed"}], "id": "1611100000", "name": "USPS COLLECTION BOX - BLUE BOX", "address": {"city": "ATLANTIC", "state": "PA", "street": "3498 ATLANTIC LAKE RD", "postcode": "16111"}}},
{"geometry": {"type": "Point", "coordinates": [-80.3378482224, 41.5057101823]}, "type": "Feature", "properties": {"collection_times": [{"days": "Mon-Fri", "time": "11:55am"}, {"days": "Sat", "time": "10:15am"}, {"days": "Sun", "time": "Closed"}], "id": "1611100001", "name": "USPS COLLECTION BOX - PO LOBBY", "address": {"city": "ATLANTIC", "state": "PA", "street": "3498 ATLANTIC LAKE RD", "postcode": "16111"}}},
{"geometry": {"type": "Point", "coordinates": [-80.4922529672, 40.9751503454]}, "type": "Feature", "properties": {"collection_times": [{"days": "Mon-Fri", "time": "4:00pm"}, {"days": "Sat", "time": "12:00pm"}, {"days": "Sun", "time": "Closed"}], "id": "1611200000", "name": "USPS COLLECTION BOX - BLUE BOX", "address": {"city": "BESSEMER", "state": "PA", "street": "201 E POLAND AVE", "postcode": "16112"}}},
{"geometry": {"type": "Point", "coordinates": [-80.4922529672, 40.9751503454]}, "type": "Feature", "properties": {"collection_times": [{"days": "Mon-Fri", "time": "4:00pm"}, {"days": "Sat", "time": "12:00pm"}, {"days": "Sun", "time": "Closed"}], "id": "1611200001", "name": "USPS COLLECTION BOX - PO LOBBY", "address": {"city": "BESSEMER", "state": "PA", "street": "201 E POLAND AVE", "postcode": "16112"}}},
{"geometry": {"type": "Point", "coordinates": [-80.3878263007, 41.4044990324]}, "type": "Feature", "properties": {"collection_times": [{"days": "Mon-Fri", "time": "4:30pm"}, {"days": "Sat", "time": "11:30am"}, {"days": "Sun", "time": "Closed"}], "id": "1611300000", "name": "USPS COLLECTION BOX - BLUE BOX", "address": {"city": "CLARK", "state": "PA", "street": "6 CHARLES ST", "postcode": "16113"}}},
{"geometry": {"type": "Point", "coordinates": [-80.3878263007, 41.4044990324]}, "type": "Feature", "properties": {"collection_times": [{"days": "Mon-Fri", "time": "11:55am"}, {"days": "Sat", "time": "11:30am"}, {"days": "Sun", "time": "Closed"}], "id": "1611300001", "name": "USPS COLLECTION BOX - PO LOBBY", "address": {"city": "CLARK", "state": "PA", "street": "6 CHARLES ST", "postcode": "16113"}}},
{"geometry": {"type": "Point", "coordinates": [-80.184205688, 41.3942524547]}, "type": "Feature", "properties": {"collection_times": [{"days": "Mon-Fri", "time": "4:15pm"}, {"days": "Sat", "time": "11:45am"}, {"days": "Sun", "time": "Closed"}], "id": "1611400000", "name": "USPS COLLECTION BOX - BLUE BOX", "address": {"city": "CLARKS MILLS", "state": "PA", "street": "21 LAKE WILHELM RD", "postcode": "16114"}}},
{"geometry": {"type": "Point", "coordinates": [-80.184205688, 41.3942524547]}, "type": "Feature", "properties": {"collection_times": [{"days": "Mon-Fri", "time": "11:55am"}, {"days": "Sat", "time": "11:45am"}, {"days": "Sun", "time": "Closed"}], "id": "1611400002", "name": "USPS COLLECTION BOX - PO LOBBY", "address": {"city": "CLARKS MILLS", "state": "PA", "street": "21 LAKE WILHELM RD", "postcode": "16114"}}},
{"geometry": {"type": "Point", "coordinates": [-80.4231771038, 40.8094227486]}, "type": "Feature", "properties": {"collection_times": [{"days": "Mon-Fri", "time": "4:45pm"}, {"days": "Sat", "time": "12:00pm"}, {"days": "Sun", "time": "Closed"}], "id": "1611500000", "name": "USPS COLLECTION BOX - BLUE BOX", "address": {"city": "DARLINGTON", "state": "PA", "street": "708 MARKET ST", "postcode": "16115"}}},
{"geometry": {"type": "Point", "coordinates": [-80.4231771038, 40.8094227486]}, "type": "Feature", "properties": {"collection_times": [{"days": "Mon-Fri", "time": "4:30pm"}, {"days": "Sat", "time": "12:00pm"}, {"days": "Sun", "time": "Closed"}], "id": "1611500001", "name": "USPS COLLECTION BOX - PO LOBBY", "address": {"city": "DARLINGTON", "state": "PA", "street": "708 MARKET ST", "postcode": "16115"}}},
{"geometry": {"type": "Point", "coordinates": [-80.4644278937, 41.0073419885]}, "type": "Feature", "properties": {"collection_times": [{"days": "Mon-Sat", "time": "10:00am"}, {"days": "Sun", "time": "Closed"}], "id": "1611600000", "name": "USPS COLLECTION BOX - BLUE BOX", "address": {"city": "EDINBURG", "state": "PA", "street": "4118 W STATE ST", "postcode": "16116"}}},
{"geometry": {"type": "Point", "coordinates": [-80.4368228501, 41.0142901009]}, "type": "Feature", "properties": {"collection_times": [{"days": "Mon-Fri", "time": "3:00pm"}, {"days": "Sat", "time": "12:00pm"}, {"days": "Sun", "time": "Closed"}], "id": "1611600001", "name": "USPS COLLECTION BOX - BLUE BOX", "address": {"city": "EDINBURG", "state": "PA", "street": "5412 ERIE ST", "postcode": "16116"}}},
{"geometry": {"type": "Point", "coordinates": [-80.4607736656, 41.0326327087]}, "type": "Feature", "properties": {"collection_times": [{"days": "Mon-Sat", "time": "10:00am"}, {"days": "Sun", "time": "Closed"}], "id": "1611600002", "name": "USPS COLLECTION BOX - BLUE BOX", "address": {"city": "EDINBURG", "state": "PA", "street": "199 HARBOR VILLAGE DR", "postcode": "16116"}}},
{"geometry": {"type": "Point", "coordinates": [-80.4368228501, 41.0142901009]}, "type": "Feature", "properties": {"collection_times": [{"days": "Mon-Fri", "time": "3:00pm"}, {"days": "Sat", "time": "12:00pm"}, {"days": "Sun", "time": "Closed"}], "id": "1611600003", "name": "USPS COLLECTION BOX - PO LOBBY", "address": {"city": "EDINBURG", "state": "PA", "street": "5412 ERIE ST", "postcode": "16116"}}},
{"geometry": {"type": "Point", "coordinates": [-80.2905795481, 40.8576403088]}, "type": "Feature", "properties": {"collection_times": [{"days": "Mon-Sat", "time": "3:00pm"}, {"days": "Sun", "time": "Closed"}], "id": "1611700000", "name": "USPS COLLECTION BOX - BLUE BOX", "address": {"city": "ELLWOOD CITY", "state": "PA", "street": "320 7TH ST", "postcode": "16117"}}},
{"geometry": {"type": "Point", "coordinates": [-80.2905795481, 40.8576403088]}, "type": "Feature", "properties": {"collection_times": [{"days": "Mon-Sat", "time": "3:00pm"}, {"days": "Sun", "time": "Closed"}], "id": "1611700001", "name": "USPS COLLECTION BOX - BLUE BOX", "address": {"city": "ELLWOOD CITY", "state": "PA", "street": "320 7TH ST", "postcode": "16117"}}},
{"geometry": {"type": "Point", "coordinates": [-80.2905795481, 40.8576403088]}, "type": "Feature", "properties": {"collection_times": [{"days": "Mon-Sat", "time": "3:00pm"}, {"days": "Sun", "time": "Closed"}], "id": "1611700002", "name": "USPS COLLECTION BOX - BLUE BOX", "address": {"city": "ELLWOOD CITY", "state": "PA", "street": "320 7TH ST", "postcode": "16117"}}},
{"geometry": {"type": "Point", "coordinates": [-80.275915912, 40.841884107]}, "type": "Feature", "properties": {"collection_times": [{"days": "Mon-Sat", "time": "12:00pm"}, {"days": "Sun", "time": "Closed"}], "id": "1611700003", "name": "USPS COLLECTION BOX - BLUE BOX", "address": {"city": "ELLWOOD CITY", "state": "PA", "street": "1660 ROUTE 65", "postcode": "16117"}}},
{"geometry": {"type": "Point", "coordinates": [-80.2609150585, 40.8464374381]}, "type": "Feature", "properties": {"collection_times": [{"days": "Mon-Sat", "time": "12:00pm"}, {"days": "Sun", "time": "Closed"}], "id": "1611700004", "name": "USPS COLLECTION BOX - BLUE BOX", "address": {"city": "ELLWOOD CITY", "state": "PA", "street": "267 ROUTE 288", "postcode": "16117"}}},
{"geometry": {"type": "Point", "coordinates": [-80.2856477921, 40.8553915039]}, "type": "Feature", "properties": {"collection_times": [{"days": "Mon-Sat", "time": "12:00pm"}, {"days": "Sun", "time": "Closed"}], "id": "1611700005", "name": "USPS COLLECTION BOX - BLUE BOX", "address": {"city": "ELLWOOD CITY", "state": "PA", "street": "401 WAYNE AVE", "postcode": "16117"}}},
{"geometry": {"type": "Point", "coordinates": [-80.2745493012, 40.8693662293]}, "type": "Feature", "properties": {"collection_times": [{"days": "Mon-Sat", "time": "3:00pm"}, {"days": "Sun", "time": "Closed"}], "id": "1611700007", "name": "USPS COLLECTION BOX - BLUE BOX", "address": {"city": "ELLWOOD CITY", "state": "PA", "street": "724 PERSHING ST", "postcode": "16117"}}},
{"geometry": {"type": "Point", "coordinates": [-80.2642291371, 40.8586375433]}, "type": "Feature", "properties": {"collection_times": [{"days": "Mon-Sat", "time": "3:00pm"}, {"days": "Sun", "time": "Closed"}], "id": "1611700014", "name": "USPS COLLECTION BOX - BLUE BOX", "address": {"city": "ELLWOOD CITY", "state": "PA", "street": "212 PORTERSVILLE RD", "postcode": "16117"}}},
{"geometry": {"type": "Point", "coordinates": [-80.2746616522, 40.8640673249]}, "type": "Feature", "properties": {"collection_times": [{"days": "Mon-Sat", "time": "12:00pm"}, {"days": "Sun", "time": "Closed"}], "id": "1611700015", "name": "USPS COLLECTION BOX - BLUE BOX", "address": {"city": "ELLWOOD CITY", "state": "PA", "street": "324 SIMS ST", "postcode": "16117"}}},
{"geometry": {"type": "Point", "coordinates": [-80.2820965493, 40.8546320442]}, "type": "Feature", "properties": {"collection_times": [{"days": "Mon-Sat", "time": "12:00pm"}, {"days": "Sun", "time": "Closed"}], "id": "1611700022", "name": "USPS COLLECTION BOX - BLUE BOX", "address": {"city": "ELLWOOD CITY", "state": "PA", "street": "129 FRANKLIN AVE", "postcode": "16117"}}},
{"geometry": {"type": "Point", "coordinates": [-80.2661785349, 40.8664315078]}, "type": "Feature", "properties": {"collection_times": [{"days": "Mon-Sat", "time": "12:00pm"}, {"days": "Sun", "time": "Closed"}], "id": "1611700024", "name": "USPS COLLECTION BOX - BLUE BOX", "address": {"city": "ELLWOOD CITY", "state": "PA", "street": "105 LINE AVE", "postcode": "16117"}}},
{"geometry": {"type": "Point", "coordinates": [-80.28671837, 40.8671678604]}, "type": "Feature", "properties": {"collection_times": [{"days": "Mon-Sat", "time": "3:00pm"}, {"days": "Sun", "time": "Closed"}], "id": "1611700027", "name": "USPS COLLECTION BOX - BLUE BOX", "address": {"city": "ELLWOOD CITY", "state": "PA", "street": "438 LINE AVE", "postcode": "16117"}}},
{"geometry": {"type": "Point", "coordinates": [-80.2824573518, 40.8595496046]}, "type": "Feature", "properties": {"collection_times": [{"days": "Mon-Sat", "time": "3:00pm"}, {"days": "Sun", "time": "Closed"}], "id": "1611700029", "name": "USPS COLLECTION BOX - BLUE BOX", "address": {"city": "ELLWOOD CITY", "state": "PA", "street": "324 2ND ST", "postcode": "16117"}}},
{"geometry": {"type": "Point", "coordinates": [-80.2826231461, 40.8627628273]}, "type": "Feature", "properties": {"collection_times": [{"days": "Mon-Sat", "time": "12:00pm"}, {"days": "Sun", "time": "Closed"}], "id": "1611700031", "name": "USPS COLLECTION BOX - BLUE BOX", "address": {"city": "ELLWOOD CITY", "state": "PA", "street": "201 GLEN AVE", "postcode": "16117"}}},
{"geometry": {"type": "Point", "coordinates": [-80.2855974334, 40.8608887226]}, "type": "Feature", "properties": {"collection_times": [{"days": "Mon-Sat", "time": "12:00pm"}, {"days": "Sun", "time": "Closed"}], "id": "1611700033", "name": "USPS COLLECTION BOX - BLUE BOX", "address": {"city": "ELLWOOD CITY", "state": "PA", "street": "135 4TH ST", "postcode": "16117"}}},
{"geometry": {"type": "Point", "coordinates": [-80.2873990423, 40.8603970011]}, "type": "Feature", "properties": {"collection_times": [{"days": "Mon-Sat", "time": "3:00pm"}, {"days": "Sun", "time": "Closed"}], "id": "1611700034", "name": "USPS COLLECTION BOX - BLUE BOX", "address": {"city": "ELLWOOD CITY", "state": "PA", "street": "202 5TH ST", "postcode": "16117"}}},
{"geometry": {"type": "Point", "coordinates": [-80.2853437717, 40.8585760294]}, "type": "Feature", "properties": {"collection_times": [{"days": "Mon-Sat", "time": "12:00pm"}, {"days": "Sun", "time": "Closed"}], "id": "1611700035", "name": "USPS COLLECTION BOX - BLUE BOX", "address": {"city": "ELLWOOD CITY", "state": "PA", "street": "327 LAWRENCE AVE", "postcode": "16117"}}},
{"geometry": {"type": "Point", "coordinates": [-80.2875984915, 40.8585310769]}, "type": "Feature", "properties": {"collection_times": [{"days": "Mon-Sat", "time": "3:00pm"}, {"days": "Sun", "time": "Closed"}], "id": "1611700036", "name": "USPS COLLECTION BOX - BLUE BOX", "address": {"city": "ELLWOOD CITY", "state": "PA", "street": "505 LAWRENCE AVE", "postcode": "16117"}}},
{"geometry": {"type": "Point", "coordinates": [-80.2890842879, 40.8584932223]}, "type": "Feature", "properties": {"collection_times": [{"days": "Mon-Sat", "time": "3:00pm"}, {"days": "Sun", "time": "Closed"}], "id": "1611700037", "name": "USPS COLLECTION BOX - BLUE BOX", "address": {"city": "ELLWOOD CITY", "state": "PA", "street": "601 LAWRENCE AVE", "postcode": "16117"}}},
{"geometry": {"type": "Point", "coordinates": [-80.2630331656, 40.8586103352]}, "type": "Feature", "properties": {"collection_times": [{"days": "Mon-Sat", "time": "12:00pm"}, {"days": "Sun", "time": "Closed"}], "id": "1611700038", "name": "USPS COLLECTION BOX - BLUE BOX", "address": {"city": "ELLWOOD CITY", "state": "PA", "street": "229 PORTERSVILLE RD", "postcode": "16117"}}},
{"geometry": {"type": "Point", "coordinates": [-80.2905795481, 40.8576403088]}, "type": "Feature", "properties": {"collection_times": [{"days": "Mon-Fri", "time": "5:00pm"}, {"days": "Sat", "time": "4:00pm"}, {"days": "Sun", "time": "Closed"}], "id": "1611700039", "name": "USPS COLLECTION BOX - PO LOBBY", "address": {"city": "ELLWOOD CITY", "state": "PA", "street": "320 7TH ST", "postcode": "16117"}}},
{"geometry": {"type": "Point", "coordinates": [-80.4570242404, 40.8550271525]}, "type": "Feature", "properties": {"collection_times": [{"days": "Mon-Fri", "time": "4:00pm"}, {"days": "Sat", "time": "11:30am"}, {"days": "Sun", "time": "Closed"}], "id": "1612000000", "name": "USPS COLLECTION BOX - BLUE BOX", "address": {"city": "ENON VALLEY", "state": "PA", "street": "7150 VINE ST", "postcode": "16120"}}},
{"geometry": {"type": "Point", "coordinates": [-80.4570242404, 40.8550271525]}, "type": "Feature", "properties": {"collection_times": [{"days": "Mon-Fri", "time": "4:00pm"}, {"days": "Sat", "time": "11:30am"}, {"days": "Sun", "time": "Closed"}], "id": "1612000001", "name": "USPS COLLECTION BOX - PO LOBBY", "address": {"city": "ENON VALLEY", "state": "PA", "street": "7150 VINE ST", "postcode": "16120"}}},
{"geometry": {"type": "Point", "coordinates": [-80.5035490181, 41.211980048]}, "type": "Feature", "properties": {"collection_times": [{"days": "Mon-Fri", "time": "4:15pm"}, {"days": "Sat", "time": "12:00pm"}, {"days": "Sun", "time": "Closed"}], "id": "1612100000", "name": "USPS COLLECTION BOX - BLUE BOX", "address": {"city": "FARRELL", "state": "PA", "street": "410 ROEMER BLVD", "postcode": "16121"}}},
{"geometry": {"type": "Point", "coordinates": [-80.50261, 41.21201]}, "type": "Feature", "properties": {"collection_times": [{"days": "Mon-Fri", "time": "4:15pm"}, {"days": "Sat", "time": "12:00pm"}, {"days": "Sun", "time": "Closed"}], "id": "1612100001", "name": "USPS COLLECTION BOX - BLUE BOX", "address": {"city": "FARRELL", "state": "PA", "street": "700 SPEARMAN AVE", "postcode": "16121"}}},
{"geometry": {"type": "Point", "coordinates": [-80.494055664, 41.214773827]}, "type": "Feature", "properties": {"collection_times": [{"days": "Mon-Sat", "time": "2:00pm"}, {"days": "Sun", "time": "Closed"}], "id": "1612100004", "name": "USPS COLLECTION BOX - BLUE BOX", "address": {"city": "FARRELL", "state": "PA", "street": "1225 UNION ST", "postcode": "16121"}}},
{"geometry": {"type": "Point", "coordinates": [-80.4699025308, 41.2094847292]}, "type": "Feature", "properties": {"collection_times": [{"days": "Mon-Sat", "time": "10:00am"}, {"days": "Sun", "time": "Closed"}], "id": "1612100006", "name": "USPS COLLECTION BOX - BLUE BOX", "address": {"city": "FARRELL", "state": "PA", "street": "2200 MEMORIAL DR", "postcode": "16121"}}},
{"geometry": {"type": "Point", "coordinates": [-80.4966484871, 41.2074134186]}, "type": "Feature", "properties": {"collection_times": [{"days": "Mon-Sat", "time": "10:00am"}, {"days": "Sun", "time": "Closed"}], "id": "1612100007", "name": "USPS COLLECTION BOX - BLUE BOX", "address": {"city": "FARRELL", "state": "PA", "street": "713 NEW CASTLE RD", "postcode": "16121"}}},
{"geometry": {"type": "Point", "coordinates": [-80.4910486877, 41.2171550102]}, "type": "Feature", "properties": {"collection_times": [{"days": "Mon-Sat", "time": "9:00am"}, {"days": "Sun", "time": "Closed"}], "id": "1612100008", "name": "USPS COLLECTION BOX - BLUE BOX", "address": {"city": "FARRELL", "state": "PA", "street": "1030 INDIANA AVE", "postcode": "16121"}}},
{"geometry": {"type": "Point", "coordinates": [-80.5026213622, 41.21197372]}, "type": "Feature", "properties": {"collection_times": [{"days": "Mon-Fri", "time": "4:15pm"}, {"days": "Sat", "time": "12:00pm"}, {"days": "Sun", "time": "Closed"}], "id": "1612100029", "name": "USPS COLLECTION BOX - PO LOBBY", "address": {"city": "FARRELL", "state": "PA", "street": "700 SPEARMAN AVE", "postcode": "16121"}}},
{"geometry": {"type": "Point", "coordinates": [-80.259374416, 41.3220216002]}, "type": "Feature", "properties": {"collection_times": [{"days": "Mon-Fri", "time": "3:45pm"}, {"days": "Sat", "time": "11:00am"}, {"days": "Sun", "time": "Closed"}], "id": "1612400001", "name": "USPS COLLECTION BOX - BLUE BOX", "address": {"city": "FREDONIA", "state": "PA", "street": "161 2ND ST", "postcode": "16124"}}},
{"geometry": {"type": "Point", "coordinates": [-80.259374416, 41.3220216002]}, "type": "Feature", "properties": {"collection_times": [{"days": "Mon-Fri", "time": "3:45pm"}, {"days": "Sat", "time": "11:00am"}, {"days": "Sun", "time": "Closed"}], "id": "1612400002", "name": "USPS COLLECTION BOX - PO LOBBY", "address": {"city": "FREDONIA", "state": "PA", "street": "161 2ND ST", "postcode": "16124"}}},
{"geometry": {"type": "Point", "coordinates": [-80.3549798837, 41.4135210473]}, "type": "Feature", "properties": {"collection_times": [{"days": "Mon-Sat", "time": "10:00am"}, {"days": "Sun", "time": "Closed"}], "id": "1612500004", "name": "USPS COLLECTION BOX - BLUE BOX", "address": {"city": "GREENVILLE", "state": "PA", "street": "100 HADLEY RD UNIT 1", "postcode": "16125"}}},
{"geometry": {"type": "Point", "coordinates": [-80.4096537788, 41.352142638]}, "type": "Feature", "properties": {"collection_times": [{"days": "Mon-Fri", "time": "9:15am"}, {"days": "Sat-Sun", "time": "Closed"}], "id": "1612500006", "name": "USPS COLLECTION BOX - BLUE BOX", "address": {"city": "GREENVILLE", "state": "PA", "street": "301 ARLINGTON DR", "postcode": "16125"}}},
{"geometry": {"type": "Point", "coordinates": [-80.3609203032, 41.4122651066]}, "type": "Feature", "properties": {"collection_times": [{"days": "Mon-Sat", "time": "11:15am"}, {"days": "Sun", "time": "Closed"}], "id": "1612500007", "name": "USPS COLLECTION BOX - BLUE BOX", "address": {"city": "GREENVILLE", "state": "PA", "street": "50 HADLEY RD", "postcode": "16125"}}},
{"geometry": {"type": "Point", "coordinates": [-80.3684488435, 41.4106719068]}, "type": "Feature", "properties": {"collection_times": [{"days": "Mon-Sat", "time": "9:15am"}, {"days": "Sun", "time": "Closed"}], "id": "1612500011", "name": "USPS COLLECTION BOX - BLUE BOX", "address": {"city": "GREENVILLE", "state": "PA", "street": "2 HADLEY RD", "postcode": "16125"}}},
{"geometry": {"type": "Point", "coordinates": [-80.3853179583, 41.4071733567]}, "type": "Feature", "properties": {"collection_times": [{"days": "Mon-Sat", "time": "9:00am"}, {"days": "Sun", "time": "Closed"}], "id": "1612500019", "name": "USPS COLLECTION BOX - BLUE BOX", "address": {"city": "GREENVILLE", "state": "PA", "street": "83 SHENANGO ST", "postcode": "16125"}}},
{"geometry": {"type": "Point", "coordinates": [-80.3883976667, 41.4042701012]}, "type": "Feature", "properties": {"collection_times": [{"days": "Mon-Fri", "time": "4:45pm"}, {"days": "Sat", "time": "4:00pm"}, {"days": "Sun", "time": "Closed"}], "id": "1612500022", "name": "USPS COLLECTION BOX - BLUE BOX", "address": {"city": "GREENVILLE", "state": "PA", "street": "55 CLINTON ST", "postcode": "16125"}}},
{"geometry": {"type": "Point", "coordinates": [-80.3886498953, 41.4042566394]}, "type": "Feature", "properties": {"collection_times": [{"days": "Mon-Fri", "time": "4:45pm"}, {"days": "Sat", "time": "4:00pm"}, {"days": "Sun", "time": "Closed"}], "id": "1612500024", "name": "USPS COLLECTION BOX - BLUE BOX", "address": {"city": "GREENVILLE", "state": "PA", "street": "24 CANAL ST", "postcode": "16125"}}},
{"geometry": {"type": "Point", "coordinates": [-80.3876256111, 41.405601751]}, "type": "Feature", "properties": {"collection_times": [{"days": "Mon-Sat", "time": "9:00am"}, {"days": "Sun", "time": "Closed"}], "id": "1612500027", "name": "USPS COLLECTION BOX - BLUE BOX", "address": {"city": "GREENVILLE", "state": "PA", "street": "222 MAIN ST", "postcode": "16125"}}},
{"geometry": {"type": "Point", "coordinates": [-80.3718085256, 41.4112705216]}, "type": "Feature", "properties": {"collection_times": [{"days": "Mon-Sat", "time": "1:00pm"}, {"days": "Sun", "time": "Closed"}], "id": "1612500031", "name": "USPS COLLECTION BOX - BLUE BOX", "address": {"city": "GREENVILLE", "state": "PA", "street": "110 N MAIN ST", "postcode": "16125"}}},
{"geometry": {"type": "Point", "coordinates": [-80.3883976667, 41.4042701012]}, "type": "Feature", "properties": {"collection_times": [{"days": "Mon-Fri", "time": "5:00pm"}, {"days": "Sat", "time": "4:15pm"}, {"days": "Sun", "time": "Closed"}], "id": "1612500037", "name": "USPS COLLECTION BOX - PO LOBBY", "address": {"city": "GREENVILLE", "state": "PA", "street": "55 CLINTON ST", "postcode": "16125"}}},
{"geometry": {"type": "Point", "coordinates": [-80.3590617601, 41.4133517761]}, "type": "Feature", "properties": {"collection_times": [{"days": "Mon-Sat", "time": "11:15am"}, {"days": "Sun", "time": "Closed"}], "id": "1612500039", "name": "USPS COLLECTION BOX - BLUE BOX", "address": {"city": "GREENVILLE", "state": "PA", "street": "45 WILLIAMSON RD", "postcode": "16125"}}},
{"geometry": {"type": "Point", "coordinates": [-80.34268421, 41.416072993]}, "type": "Feature", "properties": {"collection_times": [{"days": "Mon-Sat", "time": "12:00pm"}, {"days": "Sun", "time": "Closed"}], "id": "1612500041", "name": "USPS COLLECTION BOX - BLUE BOX", "address": {"city": "GREENVILLE", "state": "PA", "street": "181 HADLEY RD", "postcode": "16125"}}},
{"geometry": {"type": "Point", "coordinates": [-80.1112434137, 41.1670756415]}, "type": "Feature", "properties": {"collection_times": [{"days": "Mon-Sat", "time": "11:00am"}, {"days": "Sun", "time": "Closed"}], "id": "1612700000", "name": "USPS COLLECTION BOX - BLUE BOX", "address": {"city": "GROVE CITY", "state": "PA", "street": "27 PINE GROVE SQ", "postcode": "16127"}}},
{"geometry": {"type": "Point", "coordinates": [-80.0870163588, 41.1577272076]}, "type": "Feature", "properties": {"collection_times": [{"days": "Mon-Sat", "time": "3:00pm"}, {"days": "Sun", "time": "Closed"}], "id": "1612700001", "name": "USPS COLLECTION BOX - BLUE BOX", "address": {"city": "GROVE CITY", "state": "PA", "street": "301 S BROAD ST", "postcode": "16127"}}},
{"geometry": {"type": "Point", "coordinates": [-80.0866152788, 41.1596000134]}, "type": "Feature", "properties": {"collection_times": [{"days": "Mon-Sat", "time": "3:00pm"}, {"days": "Sun", "time": "Closed"}], "id": "1612700002", "name": "USPS COLLECTION BOX - BLUE BOX", "address": {"city": "GROVE CITY", "state": "PA", "street": "201 S BROAD ST", "postcode": "16127"}}},
{"geometry": {"type": "Point", "coordinates": [-80.0796209275, 41.1576879728]}, "type": "Feature", "properties": {"collection_times": [{"days": "Mon-Sat", "time": "12:00pm"}, {"days": "Sun", "time": "Closed"}], "id": "1612700005", "name": "USPS COLLECTION BOX - BLUE BOX", "address": {"city": "GROVE CITY", "state": "PA", "street": "100 CAMPUS DR", "postcode": "16127"}}},
{"geometry": {"type": "Point", "coordinates": [-80.0853268655, 41.1594821733]}, "type": "Feature", "properties": {"collection_times": [{"days": "Mon-Sat", "time": "3:00pm"}, {"days": "Sun", "time": "Closed"}], "id": "1612700006", "name": "USPS COLLECTION BOX - BLUE BOX", "address": {"city": "GROVE CITY", "state": "PA", "street": "118 E PINE ST", "postcode": "16127"}}},
{"geometry": {"type": "Point", "coordinates": [-80.0853438313, 41.1595937645]}, "type": "Feature", "properties": {"collection_times": [{"days": "Mon-Fri", "time": "5:00pm"}, {"days": "Sat", "time": "4:00pm"}, {"days": "Sun", "time": "Closed"}], "id": "1612700007", "name": "USPS COLLECTION BOX - BLUE BOX", "address": {"city": "GROVE CITY", "state": "PA", "street": "117 E PINE ST", "postcode": "16127"}}},
{"geometry": {"type": "Point", "coordinates": [-80.0833686738, 41.164152822]}, "type": "Feature", "properties": {"collection_times": [{"days": "Mon-Sat", "time": "10:00am"}, {"days": "Sun", "time": "Closed"}], "id": "1612700009", "name": "USPS COLLECTION BOX - BLUE BOX", "address": {"city": "GROVE CITY", "state": "PA", "street": "330 N BROAD ST", "postcode": "16127"}}},
{"geometry": {"type": "Point", "coordinates": [-80.0862856505, 41.1612532623]}, "type": "Feature", "properties": {"collection_times": [{"days": "Mon-Sat", "time": "3:00pm"}, {"days": "Sun", "time": "Closed"}], "id": "1612700010", "name": "USPS COLLECTION BOX - BLUE BOX", "address": {"city": "GROVE CITY", "state": "PA", "street": "109 S BROAD ST", "postcode": "16127"}}},
{"geometry": {"type": "Point", "coordinates": [-80.0844317709, 41.1666713122]}, "type": "Feature", "properties": {"collection_times": [{"days": "Mon-Sat", "time": "9:00am"}, {"days": "Sun", "time": "Closed"}], "id": "1612700011", "name": "USPS COLLECTION BOX - BLUE BOX", "address": {"city": "GROVE CITY", "state": "PA", "street": "304 HILLCREST CIR", "postcode": "16127"}}},
{"geometry": {"type": "Point", "coordinates": [-80.0870163588, 41.1577272076]}, "type": "Feature", "properties": {"collection_times": [{"days": "Mon-Sat", "time": "3:00pm"}, {"days": "Sun", "time": "Closed"}], "id": "1612700012", "name": "USPS COLLECTION BOX - BLUE BOX", "address": {"city": "GROVE CITY", "state": "PA", "street": "301 S BROAD ST", "postcode": "16127"}}},
{"geometry": {"type": "Point", "coordinates": [-80.0853438313, 41.1595937645]}, "type": "Feature", "properties": {"collection_times": [{"days": "Mon-Fri", "time": "5:15pm"}, {"days": "Sat", "time": "4:00pm"}, {"days": "Sun", "time": "Closed"}], "id": "1612700016", "name": "USPS COLLECTION BOX - PO LOBBY", "address": {"city": "GROVE CITY", "state": "PA", "street": "117 E PINE ST", "postcode": "16127"}}},
{"geometry": {"type": "Point", "coordinates": [-80.0796209275, 41.1576879728]}, "type": "Feature", "properties": {"collection_times": [{"days": "Mon-Sat", "time": "12:00pm"}, {"days": "Sun", "time": "Closed"}], "id": "1612700017", "name": "USPS COLLECTION BOX - BLUE BOX", "address": {"city": "GROVE CITY", "state": "PA", "street": "100 CAMPUS DR", "postcode": "16127"}}},
{"geometry": {"type": "Point", "coordinates": [-80.0853268655, 41.1594821733]}, "type": "Feature", "properties": {"collection_times": [{"days": "Mon-Sat", "time": "3:00pm"}, {"days": "Sun", "time": "Closed"}], "id": "1612700018", "name": "USPS COLLECTION BOX - BLUE BOX", "address": {"city": "GROVE CITY", "state": "PA", "street": "118 E PINE ST", "postcode": "16127"}}},
{"geometry": {"type": "Point", "coordinates": [-80.0733966319, 41.1753292514]}, "type": "Feature", "properties": {"collection_times": [{"days": "Mon-Sat", "time": "5:45pm"}, {"days": "Sun", "time": "Closed"}], "id": "1612700019", "name": "USPS COLLECTION BOX - PO LOBBY", "address": {"city": "GROVE CITY", "state": "PA", "street": "1911 LEESBURG GROVE CITY RD", "postcode": "16127"}}},
{"geometry": {"type": "Point", "coordinates": [-80.2359164389, 41.3956661778]}, "type": "Feature", "properties": {"collection_times": [{"days": "Mon-Fri", "time": "4:00pm"}, {"days": "Sat", "time": "10:30am"}, {"days": "Sun", "time": "Closed"}], "id": "1613000000", "name": "USPS COLLECTION BOX - BLUE BOX", "address": {"city": "HADLEY", "state": "PA", "street": "1133 FREDONIA RD", "postcode": "16130"}}},
{"geometry": {"type": "Point", "coordinates": [-80.2359164389, 41.3956661778]}, "type": "Feature", "properties": {"collection_times": [{"days": "Mon-Fri", "time": "4:00pm"}, {"days": "Sat", "time": "10:45am"}, {"days": "Sun", "time": "Closed"}], "id": "1613000001", "name": "USPS COLLECTION BOX - PO LOBBY", "address": {"city": "HADLEY", "state": "PA", "street": "1133 FREDONIA RD", "postcode": "16130"}}},
{"geometry": {"type": "Point", "coordinates": [-80.3780475339, 41.5520963693]}, "type": "Feature", "properties": {"collection_times": [{"days": "Mon-Fri", "time": "11:55am"}, {"days": "Sat", "time": "10:15am"}, {"days": "Sun", "time": "Closed"}], "id": "1613100000", "name": "USPS COLLECTION BOX - BLUE BOX", "address": {"city": "HARTSTOWN", "state": "PA", "street": "6768 CENTER ST", "postcode": "16131"}}},
{"geometry": {"type": "Point", "coordinates": [-80.3780475339, 41.5520963693]}, "type": "Feature", "properties": {"collection_times": [{"days": "Mon-Fri", "time": "11:55am"}, {"days": "Sat", "time": "10:15am"}, {"days": "Sun", "time": "Closed"}], "id": "1613100001", "name": "USPS COLLECTION BOX - PO LOBBY", "address": {"city": "HARTSTOWN", "state": "PA", "street": "6768 CENTER ST", "postcode": "16131"}}},
{"geometry": {"type": "Point", "coordinates": [-80.5004959915, 41.0004227874]}, "type": "Feature", "properties": {"collection_times": [{"days": "Mon-Fri", "time": "11:55am"}, {"days": "Sat", "time": "11:30am"}, {"days": "Sun", "time": "Closed"}], "id": "1613200000", "name": "USPS COLLECTION BOX - BLUE BOX", "address": {"city": "HILLSVILLE", "state": "PA", "street": "2562 CHURCHILL RD", "postcode": "16132"}}},
{"geometry": {"type": "Point", "coordinates": [-80.5004959915, 41.0004227874]}, "type": "Feature", "properties": {"collection_times": [{"days": "Mon-Fri", "time": "11:55am"}, {"days": "Sat", "time": "11:30am"}, {"days": "Sun", "time": "Closed"}], "id": "1613200001", "name": "USPS COLLECTION BOX - PO LOBBY", "address": {"city": "HILLSVILLE", "state": "PA", "street": "2562 CHURCHILL RD", "postcode": "16132"}}},
{"geometry": {"type": "Point", "coordinates": [-80.1253111345, 41.277973659]}, "type": "Feature", "properties": {"collection_times": [{"days": "Mon-Fri", "time": "4:00pm"}, {"days": "Sat", "time": "11:30am"}, {"days": "Sun", "time": "Closed"}], "id": "1613300000", "name": "USPS COLLECTION BOX - BLUE BOX", "address": {"city": "JACKSON CENTER", "state": "PA", "street": "1163 FRANKLIN RD", "postcode": "16133"}}},
{"geometry": {"type": "Point", "coordinates": [-80.1253111345, 41.277973659]}, "type": "Feature", "properties": {"collection_times": [{"days": "Mon-Fri", "time": "4:00pm"}, {"days": "Sat", "time": "11:30am"}, {"days": "Sun", "time": "Closed"}], "id": "1613300001", "name": "USPS COLLECTION BOX - PO LOBBY", "address": {"city": "JACKSON CENTER", "state": "PA", "street": "1163 FRANKLIN RD", "postcode": "16133"}}},
{"geometry": {"type": "Point", "coordinates": [-80.4424231993, 41.4846812385]}, "type": "Feature", "properties": {"collection_times": [{"days": "Mon-Fri", "time": "4:00pm"}, {"days": "Sat", "time": "11:30am"}, {"days": "Sun", "time": "Closed"}], "id": "1613400000", "name": "USPS COLLECTION BOX - BLUE BOX", "address": {"city": "JAMESTOWN", "state": "PA", "street": "119 LIBERTY ST", "postcode": "16134"}}},
{"geometry": {"type": "Point", "coordinates": [-80.4424231993, 41.4846812385]}, "type": "Feature", "properties": {"collection_times": [{"days": "Mon-Fri", "time": "4:00pm"}, {"days": "Sat", "time": "11:30am"}, {"days": "Sun", "time": "Closed"}], "id": "1613400001", "name": "USPS COLLECTION BOX - BLUE BOX", "address": {"city": "JAMESTOWN", "state": "PA", "street": "119 LIBERTY ST", "postcode": "16134"}}},
{"geometry": {"type": "Point", "coordinates": [-80.4424231993, 41.4846812385]}, "type": "Feature", "properties": {"collection_times": [{"days": "Mon-Fri", "time": "4:30pm"}, {"days": "Sat", "time": "11:30am"}, {"days": "Sun", "time": "Closed"}], "id": "1613400002", "name": "USPS COLLECTION BOX - PO LOBBY", "address": {"city": "JAMESTOWN", "state": "PA", "street": "119 LIBERTY ST", "postcode": "16134"}}},
{"geometry": {"type": "Point", "coordinates": [-80.3231160079, 40.8340906139]}, "type": "Feature", "properties": {"collection_times": [{"days": "Mon-Fri", "time": "4:30pm"}, {"days": "Sat", "time": "11:30am"}, {"days": "Sun", "time": "Closed"}], "id": "1613600000", "name": "USPS COLLECTION BOX - BLUE BOX", "address": {"city": "KOPPEL", "state": "PA", "street": "5502 5TH AVE", "postcode": "16136"}}},
{"geometry": {"type": "Point", "coordinates": [-80.3231160079, 40.8340906139]}, "type": "Feature", "properties": {"collection_times": [{"days": "Mon-Fri", "time": "4:30pm"}, {"days": "Sat", "time": "11:30am"}, {"days": "Sun", "time": "Closed"}], "id": "1613600001", "name": "USPS COLLECTION BOX - PO LOBBY", "address": {"city": "KOPPEL", "state": "PA", "street": "5502 5TH AVE", "postcode": "16136"}}},
{"geometry": {"type": "Point", "coordinates": [-80.2383545897, 41.2285780203]}, "type": "Feature", "properties": {"collection_times": [{"days": "Mon-Fri", "time": "4:45pm"}, {"days": "Sat", "time": "3:30pm"}, {"days": "Sun", "time": "Closed"}], "id": "1613700000", "name": "USPS COLLECTION BOX - BLUE BOX", "address": {"city": "MERCER", "state": "PA", "street": "109 E VENANGO ST", "postcode": "16137"}}},
{"geometry": {"type": "Point", "coordinates": [-80.2383545897, 41.2285780203]}, "type": "Feature", "properties": {"collection_times": [{"days": "Mon-Fri", "time": "4:45pm"}, {"days": "Sat", "time": "3:30pm"}, {"days": "Sun", "time": "Closed"}], "id": "1613700002", "name": "USPS COLLECTION BOX - BLUE BOX", "address": {"city": "MERCER", "state": "PA", "street": "109 E VENANGO ST", "postcode": "16137"}}},
{"geometry": {"type": "Point", "coordinates": [-80.2356005559, 41.2236928645]}, "type": "Feature", "properties": {"collection_times": [{"days": "Mon-Sat", "time": "12:00pm"}, {"days": "Sun", "time": "Closed"}], "id": "1613700005", "name": "USPS COLLECTION BOX - BLUE BOX", "address": {"city": "MERCER", "state": "PA", "street": "308 E BEAVER ST", "postcode": "16137"}}},
{"geometry": {"type": "Point", "coordinates": [-80.238963282, 41.2274988585]}, "type": "Feature", "properties": {"collection_times": [{"days": "Mon-Fri", "time": "4:45pm"}, {"days": "Sat", "time": "3:30pm"}, {"days": "Sun", "time": "Closed"}], "id": "1613700010", "name": "USPS COLLECTION BOX - BLUE BOX", "address": {"city": "MERCER", "state": "PA", "street": "111 STRAWBERRY ST", "postcode": "16137"}}},
{"geometry": {"type": "Point", "coordinates": [-80.2383545897, 41.2285780203]}, "type": "Feature", "properties": {"collection_times": [{"days": "Mon-Fri", "time": "5:00pm"}, {"days": "Sat", "time": "3:45pm"}, {"days": "Sun", "time": "Closed"}], "id": "1613700011", "name": "USPS COLLECTION BOX - PO LOBBY", "address": {"city": "MERCER", "state": "PA", "street": "109 E VENANGO ST", "postcode": "16137"}}},
{"geometry": {"type": "Point", "coordinates": [-80.2632276811, 41.226098674]}, "type": "Feature", "properties": {"collection_times": [{"days": "Mon-Sat", "time": "9:30am"}, {"days": "Sun", "time": "Closed"}], "id": "1613700012", "name": "USPS COLLECTION BOX - BLUE BOX", "address": {"city": "MERCER", "state": "PA", "street": "7266 W MARKET ST", "postcode": "16137"}}},
{"geometry": {"type": "Point", "coordinates": [-80.5024154535, 41.0982502437]}, "type": "Feature", "properties": {"collection_times": [{"days": "Mon-Fri", "time": "11:55am"}, {"days": "Sat", "time": "10:55am"}, {"days": "Sun", "time": "Closed"}], "id": "1614000000", "name": "USPS COLLECTION BOX - BLUE BOX", "address": {"city": "NEW BEDFORD", "state": "PA", "street": "425 STATE ROUTE 208", "postcode": "16140"}}},
{"geometry": {"type": "Point", "coordinates": [-80.5024154535, 41.0982502437]}, "type": "Feature", "properties": {"collection_times": [{"days": "Mon-Fri", "time": "11:55am"}, {"days": "Sat", "time": "10:55am"}, {"days": "Sun", "time": "Closed"}], "id": "1614000001", "name": "USPS COLLECTION BOX - PO LOBBY", "address": {"city": "NEW BEDFORD", "state": "PA", "street": "425 STATE ROUTE 208", "postcode": "16140"}}},
{"geometry": {"type": "Point", "coordinates": [-80.4008409323, 40.8345962576]}, "type": "Feature", "properties": {"collection_times": [{"days": "Mon-Fri", "time": "4:15pm"}, {"days": "Sat", "time": "12:00pm"}, {"days": "Sun", "time": "Closed"}], "id": "1614100000", "name": "USPS COLLECTION BOX - BLUE BOX", "address": {"city": "NEW GALILEE", "state": "PA", "street": "801 WASHINGTON AVE", "postcode": "16141"}}},
{"geometry": {"type": "Point", "coordinates": [-80.4008409323, 40.8345962576]}, "type": "Feature", "properties": {"collection_times": [{"days": "Mon-Fri", "time": "4:00pm"}, {"days": "Sat", "time": "12:00pm"}, {"days": "Sun", "time": "Closed"}], "id": "1614100001", "name": "USPS COLLECTION BOX - PO LOBBY", "address": {"city": "NEW GALILEE", "state": "PA", "street": "801 WASHINGTON AVE", "postcode": "16141"}}},
{"geometry": {"type": "Point", "coordinates": [-80.3344519472, 41.1224716983]}, "type": "Feature", "properties": {"collection_times": [{"days": "Mon-Fri", "time": "5:00pm"}, {"days": "Sat", "time": "3:15pm"}, {"days": "Sun", "time": "Closed"}], "id": "1614200008", "name": "USPS COLLECTION BOX - BLUE BOX", "address": {"city": "NEW WILMINGTON", "state": "PA", "street": "143 W NESHANNOCK AVE", "postcode": "16142"}}},
{"geometry": {"type": "Point", "coordinates": [-80.3344519472, 41.1224716983]}, "type": "Feature", "properties": {"collection_times": [{"days": "Mon-Fri", "time": "5:00pm"}, {"days": "Sat", "time": "3:15pm"}, {"days": "Sun", "time": "Closed"}], "id": "1614200012", "name": "USPS COLLECTION BOX - PO LOBBY", "address": {"city": "NEW WILMINGTON", "state": "PA", "street": "143 W NESHANNOCK AVE", "postcode": "16142"}}},
{"geometry": {"type": "Point", "coordinates": [-80.3344519472, 41.1224716983]}, "type": "Feature", "properties": {"collection_times": [{"days": "Mon-Fri", "time": "5:00pm"}, {"days": "Sat", "time": "3:15pm"}, {"days": "Sun", "time": "Closed"}], "id": "1614200013", "name": "USPS COLLECTION BOX - BLUE BOX", "address": {"city": "NEW WILMINGTON", "state": "PA", "street": "143 W NESHANNOCK AVE", "postcode": "16142"}}},
{"geometry": {"type": "Point", "coordinates": [-80.4337305954, 41.1134055008]}, "type": "Feature", "properties": {"collection_times": [{"days": "Mon-Fri", "time": "4:15pm"}, {"days": "Sat", "time": "11:45am"}, {"days": "Sun", "time": "Closed"}], "id": "1614300000", "name": "USPS COLLECTION BOX - BLUE BOX", "address": {"city": "PULASKI", "state": "PA", "street": "1930 STATE ROUTE 208", "postcode": "16143"}}},
{"geometry": {"type": "Point", "coordinates": [-80.4337305954, 41.1134055008]}, "type": "Feature", "properties": {"collection_times": [{"days": "Mon-Sat", "time": "11:45am"}, {"days": "Sun", "time": "Closed"}], "id": "1614300001", "name": "USPS COLLECTION BOX - PO LOBBY", "address": {"city": "PULASKI", "state": "PA", "street": "1930 STATE ROUTE 208", "postcode": "16143"}}},
{"geometry": {"type": "Point", "coordinates": [-80.0821660607, 41.350674433]}, "type": "Feature", "properties": {"collection_times": [{"days": "Mon-Fri", "time": "4:15pm"}, {"days": "Sat", "time": "12:00pm"}, {"days": "Sun", "time": "Closed"}], "id": "1614500000", "name": "USPS COLLECTION BOX - BLUE BOX", "address": {"city": "SANDY LAKE", "state": "PA", "street": "3267 S MAIN ST", "postcode": "16145"}}},
{"geometry": {"type": "Point", "coordinates": [-80.0821660607, 41.350674433]}, "type": "Feature", "properties": {"collection_times": [{"days": "Mon-Fri", "time": "4:15pm"}, {"days": "Sat", "time": "12:00pm"}, {"days": "Sun", "time": "Closed"}], "id": "1614500001", "name": "USPS COLLECTION BOX - PO LOBBY", "address": {"city": "SANDY LAKE", "state": "PA", "street": "3267 S MAIN ST", "postcode": "16145"}}},
{"geometry": {"type": "Point", "coordinates": [-80.5077975046, 41.2328668951]}, "type": "Feature", "properties": {"collection_times": [{"days": "Mon-Sat", "time": "4:30pm"}, {"days": "Sun", "time": "Closed"}], "id": "1614600000", "name": "USPS COLLECTION BOX - BLUE BOX", "address": {"city": "SHARON", "state": "PA", "street": "66 E STATE ST", "postcode": "16146"}}},
{"geometry": {"type": "Point", "coordinates": [-80.5073643215, 41.2341166488]}, "type": "Feature", "properties": {"collection_times": [{"days": "Mon-Sat", "time": "4:30pm"}, {"days": "Sun", "time": "Closed"}], "id": "1614600003", "name": "USPS COLLECTION BOX - BLUE BOX", "address": {"city": "SHARON", "state": "PA", "street": "73 VINE AVE", "postcode": "16146"}}},
{"geometry": {"type": "Point", "coordinates": [-80.5090306846, 41.232839414]}, "type": "Feature", "properties": {"collection_times": [{"days": "Mon-Sat", "time": "4:30pm"}, {"days": "Sun", "time": "Closed"}], "id": "1614600007", "name": "USPS COLLECTION BOX - BLUE BOX", "address": {"city": "SHARON", "state": "PA", "street": "7 W STATE ST", "postcode": "16146"}}},
{"geometry": {"type": "Point", "coordinates": [-80.5118614974, 41.2300139316]}, "type": "Feature", "properties": {"collection_times": [{"days": "Mon-Sat", "time": "4:30pm"}, {"days": "Sun", "time": "Closed"}], "id": "1614600008", "name": "USPS COLLECTION BOX - BLUE BOX", "address": {"city": "SHARON", "state": "PA", "street": "155 W CONNELLY BLVD", "postcode": "16146"}}},
{"geometry": {"type": "Point", "coordinates": [-80.4933001615, 41.2319032848]}, "type": "Feature", "properties": {"collection_times": [{"days": "Mon-Sat", "time": "4:30pm"}, {"days": "Sun", "time": "Closed"}], "id": "1614600014", "name": "USPS COLLECTION BOX - BLUE BOX", "address": {"city": "SHARON", "state": "PA", "street": "87 STAMBAUGH AVE", "postcode": "16146"}}},
{"geometry": {"type": "Point", "coordinates": [-80.4885914416, 41.2210504917]}, "type": "Feature", "properties": {"collection_times": [{"days": "Mon-Sat", "time": "3:00pm"}, {"days": "Sun", "time": "Closed"}], "id": "1614600018", "name": "USPS COLLECTION BOX - BLUE BOX", "address": {"city": "SHARON", "state": "PA", "street": "1149 GEORGE ST", "postcode": "16146"}}},
{"geometry": {"type": "Point", "coordinates": [-80.4977858688, 41.2495831242]}, "type": "Feature", "properties": {"collection_times": [{"days": "Mon-Sat", "time": "3:00pm"}, {"days": "Sun", "time": "Closed"}], "id": "1614600023", "name": "USPS COLLECTION BOX - BLUE BOX", "address": {"city": "SHARON", "state": "PA", "street": "1208 HALL AVE", "postcode": "16146"}}},
{"geometry": {"type": "Point", "coordinates": [-80.4826589263, 41.2363611459]}, "type": "Feature", "properties": {"collection_times": [{"days": "Mon-Sat", "time": "3:00pm"}, {"days": "Sun", "time": "Closed"}], "id": "1614600026", "name": "USPS COLLECTION BOX - BLUE BOX", "address": {"city": "SHARON", "state": "PA", "street": "229 BUHL BLVD", "postcode": "16146"}}},
{"geometry": {"type": "Point", "coordinates": [-80.5083082029, 41.2345350594]}, "type": "Feature", "properties": {"collection_times": [{"days": "Mon-Sat", "time": "5:30pm"}, {"days": "Sun", "time": "Closed"}], "id": "1614600032", "name": "USPS COLLECTION BOX - BLUE BOX", "address": {"city": "SHARON", "state": "PA", "street": "120 SHENANGO AVE", "postcode": "16146"}}},
{"geometry": {"type": "Point", "coordinates": [-80.5083082029, 41.2345350594]}, "type": "Feature", "properties": {"collection_times": [{"days": "Mon-Sat", "time": "5:30pm"}, {"days": "Sun", "time": "Closed"}], "id": "1614600036", "name": "USPS COLLECTION BOX - PO LOBBY", "address": {"city": "SHARON", "state": "PA", "street": "120 SHENANGO AVE", "postcode": "16146"}}},
{"geometry": {"type": "Point", "coordinates": [-80.5050313822, 41.2332088493]}, "type": "Feature", "properties": {"collection_times": [{"days": "Mon-Sat", "time": "4:00pm"}, {"days": "Sun", "time": "Closed"}], "id": "1614600039", "name": "USPS COLLECTION BOX - BLUE BOX", "address": {"city": "SHARON", "state": "PA", "street": "11 N SHARPSVILLE AVE", "postcode": "16146"}}},
{"geometry": {"type": "Point", "coordinates": [-80.464593595, 41.2333660615]}, "type": "Feature", "properties": {"collection_times": [{"days": "Mon-Sat", "time": "3:30pm"}, {"days": "Sun", "time": "Closed"}], "id": "1614800003", "name": "USPS COLLECTION BOX - BLUE BOX", "address": {"city": "HERMITAGE", "state": "PA", "street": "2470 E STATE ST", "postcode": "16148"}}},
{"geometry": {"type": "Point", "coordinates": [-80.4649006332, 41.2393145566]}, "type": "Feature", "properties": {"collection_times": [{"days": "Mon-Sat", "time": "4:00pm"}, {"days": "Sun", "time": "Closed"}], "id": "1614800004", "name": "USPS COLLECTION BOX - BLUE BOX", "address": {"city": "HERMITAGE", "state": "PA", "street": "2500 HIGHLAND RD", "postcode": "16148"}}},
{"geometry": {"type": "Point", "coordinates": [-80.4658247362, 41.233477396]}, "type": "Feature", "properties": {"collection_times": [{"days": "Mon-Sat", "time": "4:00pm"}, {"days": "Sun", "time": "Closed"}], "id": "1614800005", "name": "USPS COLLECTION BOX - BLUE BOX", "address": {"city": "HERMITAGE", "state": "PA", "street": "2365 E STATE ST", "postcode": "16148"}}},
{"geometry": {"type": "Point", "coordinates": [-80.4560949561, 41.2333585007]}, "type": "Feature", "properties": {"collection_times": [{"days": "Mon-Sat", "time": "3:30pm"}, {"days": "Sun", "time": "Closed"}], "id": "1614800006", "name": "USPS COLLECTION BOX - BLUE BOX", "address": {"city": "HERMITAGE", "state": "PA", "street": "2948 E STATE ST", "postcode": "16148"}}},
{"geometry": {"type": "Point", "coordinates": [-80.4476322407, 41.2335004131]}, "type": "Feature", "properties": {"collection_times": [{"days": "Mon-Sat", "time": "4:00pm"}, {"days": "Sun", "time": "Closed"}], "id": "1614800008", "name": "USPS COLLECTION BOX - BLUE BOX", "address": {"city": "HERMITAGE", "state": "PA", "street": "3405 E STATE ST", "postcode": "16148"}}},
{"geometry": {"type": "Point", "coordinates": [-80.4486437726, 41.2333197369]}, "type": "Feature", "properties": {"collection_times": [{"days": "Mon-Sat", "time": "5:00pm"}, {"days": "Sun", "time": "Closed"}], "id": "1614800015", "name": "USPS COLLECTION BOX - BLUE BOX", "address": {"city": "HERMITAGE", "state": "PA", "street": "3386 E STATE ST", "postcode": "16148"}}},
{"geometry": {"type": "Point", "coordinates": [-80.4486437726, 41.2333197369]}, "type": "Feature", "properties": {"collection_times": [{"days": "Mon-Fri", "time": "5:15pm"}, {"days": "Sat", "time": "4:00pm"}, {"days": "Sun", "time": "Closed"}], "id": "1614800019", "name": "USPS COLLECTION BOX - PO LOBBY", "address": {"city": "HERMITAGE", "state": "PA", "street": "3386 E STATE ST", "postcode": "16148"}}},
{"geometry": {"type": "Point", "coordinates": [-80.4762294211, 41.2332581997]}, "type": "Feature", "properties": {"collection_times": [{"days": "Mon-Sat", "time": "3:30pm"}, {"days": "Sun", "time": "Closed"}], "id": "1614800020", "name": "USPS COLLECTION BOX - BLUE BOX", "address": {"city": "HERMITAGE", "state": "PA", "street": "1818 E STATE ST", "postcode": "16148"}}},
{"geometry": {"type": "Point", "coordinates": [-80.4813384415, 41.23315712]}, "type": "Feature", "properties": {"collection_times": [{"days": "Mon-Sat", "time": "3:30pm"}, {"days": "Sun", "time": "Closed"}], "id": "1614800021", "name": "USPS COLLECTION BOX - BLUE BOX", "address": {"city": "HERMITAGE", "state": "PA", "street": "1534 E STATE ST", "postcode": "16148"}}},
{"geometry": {"type": "Point", "coordinates": [-80.4486437726, 41.2333197369]}, "type": "Feature", "properties": {"collection_times": [{"days": "Mon-Fri", "time": "5:15pm"}, {"days": "Sat", "time": "4:00pm"}, {"days": "Sun", "time": "Closed"}], "id": "1614800023", "name": "USPS COLLECTION BOX - APC", "address": {"city": "HERMITAGE", "state": "PA", "street": "3386 E STATE ST", "postcode": "16148"}}},
{"geometry": {"type": "Point", "coordinates": [-80.4760057238, 41.2634388361]}, "type": "Feature", "properties": {"collection_times": [{"days": "Mon-Sat", "time": "12:00pm"}, {"days": "Sun", "time": "Closed"}], "id": "1615000000", "name": "USPS COLLECTION BOX - BLUE BOX", "address": {"city": "SHARPSVILLE", "state": "PA", "street": "9 W MAIN ST", "postcode": "16150"}}},
{"geometry": {"type": "Point", "coordinates": [-80.4835051722, 41.2603698782]}, "type": "Feature", "properties": {"collection_times": [{"days": "Mon-Sat", "time": "12:00pm"}, {"days": "Sun", "time": "Closed"}], "id": "1615000004", "name": "USPS COLLECTION BOX - BLUE BOX", "address": {"city": "SHARPSVILLE", "state": "PA", "street": "707 W RIDGE AVE", "postcode": "16150"}}},
{"geometry": {"type": "Point", "coordinates": [-80.4742583714, 41.266081071]}, "type": "Feature", "properties": {"collection_times": [{"days": "Mon-Fri", "time": "4:15pm"}, {"days": "Sat", "time": "12:00pm"}, {"days": "Sun", "time": "Closed"}], "id": "1615000006", "name": "USPS COLLECTION BOX - BLUE BOX", "address": {"city": "SHARPSVILLE", "state": "PA", "street": "108 E SHENANGO ST", "postcode": "16150"}}},
{"geometry": {"type": "Point", "coordinates": [-80.4823575863, 41.2544623016]}, "type": "Feature", "properties": {"collection_times": [{"days": "Mon-Sat", "time": "12:00pm"}, {"days": "Sun", "time": "Closed"}], "id": "1615000008", "name": "USPS COLLECTION BOX - BLUE BOX", "address": {"city": "SHARPSVILLE", "state": "PA", "street": "470 S 7TH ST", "postcode": "16150"}}},
{"geometry": {"type": "Point", "coordinates": [-80.4742583714, 41.266081071]}, "type": "Feature", "properties": {"collection_times": [{"days": "Mon-Fri", "time": "4:15pm"}, {"days": "Sat", "time": "12:00pm"}, {"days": "Sun", "time": "Closed"}], "id": "1615000009", "name": "USPS COLLECTION BOX - PO LOBBY", "address": {"city": "SHARPSVILLE", "state": "PA", "street": "108 E SHENANGO ST", "postcode": "16150"}}},
{"geometry": {"type": "Point", "coordinates": [-80.208197597, 41.4419697839]}, "type": "Feature", "properties": {"collection_times": [{"days": "Mon-Fri", "time": "4:00pm"}, {"days": "Sat", "time": "11:00am"}, {"days": "Sun", "time": "Closed"}], "id": "1615100000", "name": "USPS COLLECTION BOX - BLUE BOX", "address": {"city": "SHEAKLEYVILLE", "state": "PA", "street": "3216 PERRY HWY", "postcode": "16151"}}},
{"geometry": {"type": "Point", "coordinates": [-80.208197597, 41.4419697839]}, "type": "Feature", "properties": {"collection_times": [{"days": "Mon-Fri", "time": "11:45am"}, {"days": "Sat", "time": "11:00am"}, {"days": "Sun", "time": "Closed"}], "id": "1615100001", "name": "USPS COLLECTION BOX - PO LOBBY", "address": {"city": "SHEAKLEYVILLE", "state": "PA", "street": "3216 PERRY HWY", "postcode": "16151"}}},
{"geometry": {"type": "Point", "coordinates": [-80.108360589, 41.3398587016]}, "type": "Feature", "properties": {"collection_times": [{"days": "Mon-Fri", "time": "4:15pm"}, {"days": "Sat", "time": "12:00pm"}, {"days": "Sun", "time": "Closed"}], "id": "1615300000", "name": "USPS COLLECTION BOX - BLUE BOX", "address": {"city": "STONEBORO", "state": "PA", "street": "40 LINDEN ST", "postcode": "16153"}}},
{"geometry": {"type": "Point", "coordinates": [-80.108360589, 41.3398587016]}, "type": "Feature", "properties": {"collection_times": [{"days": "Mon-Fri", "time": "4:15pm"}, {"days": "Sat", "time": "12:00pm"}, {"days": "Sun", "time": "Closed"}], "id": "1615300001", "name": "USPS COLLECTION BOX - PO LOBBY", "address": {"city": "STONEBORO", "state": "PA", "street": "40 LINDEN ST", "postcode": "16153"}}},
{"geometry": {"type": "Point", "coordinates": [-80.4130319894, 41.3288134602]}, "type": "Feature", "properties": {"collection_times": [{"days": "Mon-Fri", "time": "4:00pm"}, {"days": "Sat", "time": "11:30am"}, {"days": "Sun", "time": "Closed"}], "id": "1615400000", "name": "USPS COLLECTION BOX - BLUE BOX", "address": {"city": "TRANSFER", "state": "PA", "street": "3676 N HERMITAGE RD", "postcode": "16154"}}},
{"geometry": {"type": "Point", "coordinates": [-80.4130319894, 41.3288134602]}, "type": "Feature", "properties": {"collection_times": [{"days": "Mon-Fri", "time": "4:00pm"}, {"days": "Sat", "time": "11:30am"}, {"days": "Sun", "time": "Closed"}], "id": "1615400001", "name": "USPS COLLECTION BOX - PO LOBBY", "address": {"city": "TRANSFER", "state": "PA", "street": "3676 N HERMITAGE RD", "postcode": "16154"}}},
{"geometry": {"type": "Point", "coordinates": [-80.5033290183, 41.0707822071]}, "type": "Feature", "properties": {"collection_times": [{"days": "Mon-Fri", "time": "11:55am"}, {"days": "Sat", "time": "11:45am"}, {"days": "Sun", "time": "Closed"}], "id": "1615500001", "name": "USPS COLLECTION BOX - PO LOBBY", "address": {"city": "VILLA MARIA", "state": "PA", "street": "288 VILLA DR", "postcode": "16155"}}},
{"geometry": {"type": "Point", "coordinates": [-80.5033290183, 41.0707822071]}, "type": "Feature", "properties": {"collection_times": [{"days": "Mon-Fri", "time": "11:55am"}, {"days": "Sat", "time": "11:45am"}, {"days": "Sun", "time": "Closed"}], "id": "1615500002", "name": "USPS COLLECTION BOX - BLUE BOX", "address": {"city": "VILLA MARIA", "state": "PA", "street": "288 VILLA DR", "postcode": "16155"}}},
{"geometry": {"type": "Point", "coordinates": [-80.2556219277, 41.1111081944]}, "type": "Feature", "properties": {"collection_times": [{"days": "Mon-Fri", "time": "4:00pm"}, {"days": "Sat", "time": "11:30am"}, {"days": "Sun", "time": "Closed"}], "id": "1615600000", "name": "USPS COLLECTION BOX - BLUE BOX", "address": {"city": "VOLANT", "state": "PA", "street": "100 HIGH ST", "postcode": "16156"}}},
{"geometry": {"type": "Point", "coordinates": [-80.2556219277, 41.1111081944]}, "type": "Feature", "properties": {"collection_times": [{"days": "Mon-Fri", "time": "4:15pm"}, {"days": "Sat", "time": "11:30am"}, {"days": "Sun", "time": "Closed"}], "id": "1615600001", "name": "USPS COLLECTION BOX - PO LOBBY", "address": {"city": "VOLANT", "state": "PA", "street": "100 HIGH ST", "postcode": "16156"}}},
{"geometry": {"type": "Point", "coordinates": [-80.340224787, 40.8886669566]}, "type": "Feature", "properties": {"collection_times": [{"days": "Mon-Fri", "time": "4:30pm"}, {"days": "Sat", "time": "12:00pm"}, {"days": "Sun", "time": "Closed"}], "id": "1615700000", "name": "USPS COLLECTION BOX - BLUE BOX", "address": {"city": "WAMPUM", "state": "PA", "street": "414 BEAVER ST", "postcode": "16157"}}},
{"geometry": {"type": "Point", "coordinates": [-80.340224787, 40.8886669566]}, "type": "Feature", "properties": {"collection_times": [{"days": "Mon-Fri", "time": "4:30pm"}, {"days": "Sat", "time": "12:00pm"}, {"days": "Sun", "time": "Closed"}], "id": "1615700001", "name": "USPS COLLECTION BOX - PO LOBBY", "address": {"city": "WAMPUM", "state": "PA", "street": "414 BEAVER ST", "postcode": "16157"}}},
{"geometry": {"type": "Point", "coordinates": [-80.350693333, 40.895808524]}, "type": "Feature", "properties": {"collection_times": [{"days": "Mon-Sat", "time": "11:00am"}, {"days": "Sun", "time": "Closed"}], "id": "1615700003", "name": "USPS COLLECTION BOX - BLUE BOX", "address": {"city": "WAMPUM", "state": "PA", "street": "3384 STATE ROUTE 18", "postcode": "16157"}}},
{"geometry": {"type": "Point", "coordinates": [-80.4572434575, 41.1726893926]}, "type": "Feature", "properties": {"collection_times": [{"days": "Mon-Fri", "time": "5:00pm"}, {"days": "Sat", "time": "12:00pm"}, {"days": "Sun", "time": "Closed"}], "id": "1615900000", "name": "USPS COLLECTION BOX - BLUE BOX", "address": {"city": "WEST MIDDLESEX", "state": "PA", "street": "39 FAIR ST", "postcode": "16159"}}},
{"geometry": {"type": "Point", "coordinates": [-80.4572434575, 41.1726893926]}, "type": "Feature", "properties": {"collection_times": [{"days": "Mon-Fri", "time": "5:00pm"}, {"days": "Sat", "time": "12:00pm"}, {"days": "Sun", "time": "Closed"}], "id": "1615900001", "name": "USPS COLLECTION BOX - PO LOBBY", "address": {"city": "WEST MIDDLESEX", "state": "PA", "street": "39 FAIR ST", "postcode": "16159"}}},
{"geometry": {"type": "Point", "coordinates": [-80.3634456299, 40.9315353304]}, "type": "Feature", "properties": {"collection_times": [{"days": "Mon-Fri", "time": "4:00pm"}, {"days": "Sat", "time": "11:30am"}, {"days": "Sun", "time": "Closed"}], "id": "1616000000", "name": "USPS COLLECTION BOX - BLUE BOX", "address": {"city": "WEST PITTSBURG", "state": "PA", "street": "341 CENTER AVE", "postcode": "16160"}}},
{"geometry": {"type": "Point", "coordinates": [-80.3634456299, 40.9315353304]}, "type": "Feature", "properties": {"collection_times": [{"days": "Mon-Fri", "time": "4:00pm"}, {"days": "Sat", "time": "11:30am"}, {"days": "Sun", "time": "Closed"}], "id": "1616000001", "name": "USPS COLLECTION BOX - PO LOBBY", "address": {"city": "WEST PITTSBURG", "state": "PA", "street": "341 CENTER AVE", "postcode": "16160"}}},
{"geometry": {"type": "Point", "coordinates": [-80.4922989324, 41.202825343]}, "type": "Feature", "properties": {"collection_times": [{"days": "Mon-Fri", "time": "4:45pm"}, {"days": "Sat", "time": "11:45am"}, {"days": "Sun", "time": "Closed"}], "id": "1616100000", "name": "USPS COLLECTION BOX - BLUE BOX", "address": {"city": "WHEATLAND", "state": "PA", "street": "101 COUNCIL AVE", "postcode": "16161"}}},
{"geometry": {"type": "Point", "coordinates": [-80.4922989324, 41.202825343]}, "type": "Feature", "properties": {"collection_times": [{"days": "Mon-Fri", "time": "4:45pm"}, {"days": "Sat", "time": "11:45am"}, {"days": "Sun", "time": "Closed"}], "id": "1616100001", "name": "USPS COLLECTION BOX - PO LOBBY", "address": {"city": "WHEATLAND", "state": "PA", "street": "101 COUNCIL AVE", "postcode": "16161"}}}
]}
