{"type": "FeatureCollection", "features": [
{"geometry": {"type": "Point", "coordinates": [-79.5518526437, 40.8127982121]}, "type": "Feature", "properties": {"collection_times": [{"days": "Mon-Fri", "time": "4:00pm"}, {"days": "Sat", "time": "3:30pm"}, {"days": "Sun", "time": "Closed"}], "id": "1620100000", "name": "USPS COLLECTION BOX - BLUE BOX", "address": {"city": "KITTANNING", "state": "PA", "street": "1 FRANKLIN VILLAGE MALL", "postcode": "16201"}}},
{"geometry": {"type": "Point", "coordinates": [-79.5665313319, 40.8151073735]}, "type": "Feature", "properties": {"collection_times": [{"days": "Mon-Fri", "time": "3:30pm"}, {"days": "Sat-Sun", "time": "Closed"}], "id": "1620100002", "name": "USPS COLLECTION BOX - BLUE BOX", "address": {"city": "KITTANNING", "state": "PA", "street": "1 NOLTE DR", "postcode": "16201"}}},
{"geometry": {"type": "Point", "coordinates": [-79.5486505135, 40.8116044459]}, "type": "Feature", "properties": {"collection_times": [{"days": "Mon-Sat", "time": "11:00am"}, {"days": "Sun", "time": "Closed"}], "id": "1620100003", "name": "USPS COLLECTION BOX - BLUE BOX", "address": {"city": "KITTANNING", "state": "PA", "street": "1 HILLTOP PLZ", "postcode": "16201"}}},
{"geometry": {"type": "Point", "coordinates": [-79.5164936683, 40.8167523546]}, "type": "Feature", "properties": {"collection_times": [{"days": "Mon-Fri", "time": "3:30pm"}, {"days": "Sat-Sun", "time": "Closed"}], "id": "1620100008", "name": "USPS COLLECTION BOX - BLUE BOX", "address": {"city": "KITTANNING", "state": "PA", "street": "500 E MARKET ST", "postcode": "16201"}}},
{"geometry": {"type": "Point", "coordinates": [-79.5169202863, 40.8157699766]}, "type": "Feature", "properties": {"collection_times": [{"days": "Mon-Fri", "time": "3:30pm"}, {"days": "Sat-Sun", "time": "Closed"}], "id": "1620100009", "name": "USPS COLLECTION BOX - BLUE BOX", "address": {"city": "KITTANNING", "state": "PA", "street": "450 E MARKET ST", "postcode": "16201"}}},
{"geometry": {"type": "Point", "coordinates": [-79.5197835155, 40.8142209445]}, "type": "Feature", "properties": {"collection_times": [{"days": "Mon-Fri", "time": "4:05pm"}, {"days": "Sat", "time": "2:30pm"}, {"days": "Sun", "time": "Closed"}], "id": "1620100013", "name": "USPS COLLECTION BOX - BLUE BOX", "address": {"city": "KITTANNING", "state": "PA", "street": "201 MARKET ST", "postcode": "16201"}}},
{"geometry": {"type": "Point", "coordinates": [-79.51639614, 40.8126724167]}, "type": "Feature", "properties": {"collection_times": [{"days": "Mon-Fri", "time": "3:30pm"}, {"days": "Sat", "time": "2:00pm"}, {"days": "Sun", "time": "Closed"}], "id": "1620100022", "name": "USPS COLLECTION BOX - BLUE BOX", "address": {"city": "KITTANNING", "state": "PA", "street": "265 S MCKEAN ST", "postcode": "16201"}}},
{"geometry": {"type": "Point", "coordinates": [-79.5180066615, 40.8124006411]}, "type": "Feature", "properties": {"collection_times": [{"days": "Mon-Fri", "time": "3:30pm"}, {"days": "Sat", "time": "2:15pm"}, {"days": "Sun", "time": "Closed"}], "id": "1620100023", "name": "USPS COLLECTION BOX - BLUE BOX", "address": {"city": "KITTANNING", "state": "PA", "street": "271 S JEFFERSON ST", "postcode": "16201"}}},
{"geometry": {"type": "Point", "coordinates": [-79.5665313319, 40.8151073735]}, "type": "Feature", "properties": {"collection_times": [{"days": "Mon-Fri", "time": "3:30pm"}, {"days": "Sat-Sun", "time": "Closed"}], "id": "1620100024", "name": "USPS COLLECTION BOX - BLUE BOX", "address": {"city": "KITTANNING", "state": "PA", "street": "1 NOLTE DR", "postcode": "16201"}}},
{"geometry": {"type": "Point", "coordinates": [-79.5200398739, 40.8163529316]}, "type": "Feature", "properties": {"collection_times": [{"days": "Mon-Fri", "time": "4:10pm"}, {"days": "Sat", "time": "3:30pm"}, {"days": "Sun", "time": "Closed"}], "id": "1620100038", "name": "USPS COLLECTION BOX - BLUE BOX", "address": {"city": "KITTANNING", "state": "PA", "street": "200 N MCKEAN ST", "postcode": "16201"}}},
{"geometry": {"type": "Point", "coordinates": [-79.5200398739, 40.8163529316]}, "type": "Feature", "properties": {"collection_times": [{"days": "Mon-Fri", "time": "4:10pm"}, {"days": "Sat", "time": "3:30pm"}, {"days": "Sun", "time": "Closed"}], "id": "1620100039", "name": "USPS COLLECTION BOX - BLUE BOX", "address": {"city": "KITTANNING", "state": "PA", "street": "200 N MCKEAN ST", "postcode": "16201"}}},
{"geometry": {"type": "Point", "coordinates": [-79.5200300718, 40.8162309428]}, "type": "Feature", "properties": {"collection_times": [{"days": "Mon-Sat", "time": "5:00pm"}, {"days": "Sun", "time": "Closed"}], "id": "1620100040", "name": "USPS COLLECTION BOX - BLUE BOX", "address": {"city": "KITTANNING", "state": "PA", "street": "201 N MCKEAN ST", "postcode": "16201"}}},
{"geometry": {"type": "Point", "coordinates": [-79.5277097195, 40.8056442925]}, "type": "Feature", "properties": {"collection_times": [{"days": "Mon-Sat", "time": "1:00pm"}, {"days": "Sun", "time": "Closed"}], "id": "1620100044", "name": "USPS COLLECTION BOX - BLUE BOX", "address": {"city": "KITTANNING", "state": "PA", "street": "159 BUTLER RD", "postcode": "16201"}}},
{"geometry": {"type": "Point", "coordinates": [-79.4920071799, 40.8080302889]}, "type": "Feature", "properties": {"collection_times": [{"days": "Mon-Sat", "time": "12:00pm"}, {"days": "Sun", "time": "Closed"}], "id": "1620100045", "name": "USPS COLLECTION BOX - BLUE BOX", "address": {"city": "KITTANNING", "state": "PA", "street": "13607 STATE ROUTE 422", "postcode": "16201"}}},
{"geometry": {"type": "Point", "coordinates": [-79.5200300718, 40.8162309428]}, "type": "Feature", "properties": {"collection_times": [{"days": "Mon-Sat", "time": "5:00pm"}, {"days": "Sun", "time": "Closed"}], "id": "1620100046", "name": "USPS COLLECTION BOX - BLUE BOX", "address": {"city": "KITTANNING", "state": "PA", "street": "201 N MCKEAN ST", "postcode": "16201"}}},
{"geometry": {"type": "Point", "coordinates": [-79.5200300718, 40.8162309428]}, "type": "Feature", "properties": {"collection_times": [{"days": "Mon-Sat", "time": "5:00pm"}, {"days": "Sun", "time": "Closed"}], "id": "1620100048", "name": "USPS COLLECTION BOX - PO LOBBY", "address": {"city": "KITTANNING", "state": "PA", "street": "201 N MCKEAN ST", "postcode": "16201"}}},
{"geometry": {"type": "Point", "coordinates": [-79.5294785158, 40.808254833]}, "type": "Feature", "properties": {"collection_times": [{"days": "Mon-Sat", "time": "3:15pm"}, {"days": "Sun", "time": "Closed"}], "id": "1620100049", "name": "USPS COLLECTION BOX - BLUE BOX", "address": {"city": "KITTANNING", "state": "PA", "street": "316 1ST AVE", "postcode": "16201"}}},
{"geometry": {"type": "Point", "coordinates": [-79.508809346, 40.90130955]}, "type": "Feature", "properties": {"collection_times": [{"days": "Mon-Fri", "time": "11:55am"}, {"days": "Sat", "time": "10:55am"}, {"days": "Sun", "time": "Closed"}], "id": "1621000000", "name": "USPS COLLECTION BOX - BLUE BOX", "address": {"city": "ADRIAN", "state": "PA", "street": "593 REESEDALE RD", "postcode": "16210"}}},
{"geometry": {"type": "Point", "coordinates": [-79.508809346, 40.90130955]}, "type": "Feature", "properties": {"collection_times": [{"days": "Mon-Fri", "time": "11:55am"}, {"days": "Sat", "time": "10:55am"}, {"days": "Sun", "time": "Closed"}], "id": "1621000001", "name": "USPS COLLECTION BOX - PO LOBBY", "address": {"city": "ADRIAN", "state": "PA", "street": "593 REESEDALE RD", "postcode": "16210"}}},
{"geometry": {"type": "Point", "coordinates": [-79.1983720831, 40.7873043398]}, "type": "Feature", "properties": {"collection_times": [{"days": "Mon-Fri", "time": "10:50am"}, {"days": "Sat", "time": "11:45am"}, {"days": "Sun", "time": "Closed"}], "id": "1621100000", "name": "USPS COLLECTION BOX - BLUE BOX", "address": {"city": "BEYER", "state": "PA", "street": "7389 ROUTE 85 NORTH HWY", "postcode": "16211"}}},
{"geometry": {"type": "Point", "coordinates": [-79.1983720831, 40.7873043398]}, "type": "Feature", "properties": {"collection_times": [{"days": "Mon-Fri", "time": "10:50am"}, {"days": "Sat", "time": "11:45am"}, {"days": "Sun", "time": "Closed"}], "id": "1621100001", "name": "USPS COLLECTION BOX - PO LOBBY", "address": {"city": "BEYER", "state": "PA", "street": "7389 ROUTE 85 NORTH HWY", "postcode": "16211"}}},
{"geometry": {"type": "Point", "coordinates": [-79.5808658787, 40.7531714007]}, "type": "Feature", "properties": {"collection_times": [{"days": "Mon-Fri", "time": "11:55am"}, {"days": "Sat", "time": "11:45am"}, {"days": "Sun", "time": "Closed"}], "id": "1621200000", "name": "USPS COLLECTION BOX - BLUE BOX", "address": {"city": "CADOGAN", "state": "PA", "street": "106 MAIN ST", "postcode": "16212"}}},
{"geometry": {"type": "Point", "coordinates": [-79.5808658787, 40.7531714007]}, "type": "Feature", "properties": {"collection_times": [{"days": "Mon-Fri", "time": "11:55am"}, {"days": "Sat", "time": "11:45am"}, {"days": "Sun", "time": "Closed"}], "id": "1621200001", "name": "USPS COLLECTION BOX - PO LOBBY", "address": {"city": "CADOGAN", "state": "PA", "street": "106 MAIN ST", "postcode": "16212"}}},
{"geometry": {"type": "Point", "coordinates": [-79.5711974367, 41.1433118612]}, "type": "Feature", "properties": {"collection_times": [{"days": "Mon-Fri", "time": "12:10pm"}, {"days": "Sat", "time": "11:30am"}, {"days": "Sun", "time": "Closed"}], "id": "1621300000", "name": "USPS COLLECTION BOX - BLUE BOX", "address": {"city": "CALLENSBURG", "state": "PA", "street": "450A MAIN ST", "postcode": "16213"}}},
{"geometry": {"type": "Point", "coordinates": [-79.557647178, 41.1258804762]}, "type": "Feature", "properties": {"collection_times": [{"days": "Mon-Fri", "time": "12:10pm"}, {"days": "Sat", "time": "11:30am"}, {"days": "Sun", "time": "Closed"}], "id": "1621300001", "name": "USPS COLLECTION BOX - PO LOBBY", "address": {"city": "CALLENSBURG", "state": "PA", "street": "450A MAIN ST", "postcode": "16213"}}},
{"geometry": {"type": "Point", "coordinates": [-79.3682092832, 41.2003712505]}, "type": "Feature", "properties": {"collection_times": [{"days": "Mon-Fri", "time": "5:00pm"}, {"days": "Sat", "time": "2:30pm"}, {"days": "Sun", "time": "Closed"}], "id": "1621400000", "name": "USPS COLLECTION BOX - EXPRESS", "address": {"city": "CLARION", "state": "PA", "street": "626 MAIN ST", "postcode": "16214"}}},
{"geometry": {"type": "Point", "coordinates": [-79.383008948, 41.213768987]}, "type": "Feature", "properties": {"collection_times": [{"days": "Mon-Fri", "time": "5:00pm"}, {"days": "Sat", "time": "2:30pm"}, {"days": "Sun", "time": "Closed"}], "id": "1621400003", "name": "USPS COLLECTION BOX - BLUE BOX", "address": {"city": "CLARION", "state": "PA", "street": "626 MAIN ST", "postcode": "16214"}}},
{"geometry": {"type": "Point", "coordinates": [-79.383008948, 41.213768987]}, "type": "Feature", "properties": {"collection_times": [{"days": "Mon-Fri", "time": "5:00pm"}, {"days": "Sat", "time": "2:30pm"}, {"days": "Sun", "time": "Closed"}], "id": "1621400004", "name": "USPS COLLECTION BOX - BLUE BOX", "address": {"city": "CLARION", "state": "PA", "street": "626 MAIN ST", "postcode": "16214"}}},
{"geometry": {"type": "Point", "coordinates": [-79.383008948, 41.213768987]}, "type": "Feature", "properties": {"collection_times": [{"days": "Mon-Fri", "time": "5:00pm"}, {"days": "Sat", "time": "2:30pm"}, {"days": "Sun", "time": "Closed"}], "id": "1621400005", "name": "USPS COLLECTION BOX - BLUE BOX", "address": {"city": "CLARION", "state": "PA", "street": "626 MAIN ST", "postcode": "16214"}}},
{"geometry": {"type": "Point", "coordinates": [-79.3879392332, 41.2157185253]}, "type": "Feature", "properties": {"collection_times": [{"days": "Mon-Fri", "time": "2:30pm"}, {"days": "Sat", "time": "12:30pm"}, {"days": "Sun", "time": "Closed"}], "id": "1621400009", "name": "USPS COLLECTION BOX - BLUE BOX", "address": {"city": "CLARION", "state": "PA", "street": "340 MAIN ST", "postcode": "16214"}}},
{"geometry": {"type": "Point", "coordinates": [-79.3888364194, 41.2160726225]}, "type": "Feature", "properties": {"collection_times": [{"days": "Mon-Fri", "time": "2:30pm"}, {"days": "Sat", "time": "12:00pm"}, {"days": "Sun", "time": "Closed"}], "id": "1621400010", "name": "USPS COLLECTION BOX - BLUE BOX", "address": {"city": "CLARION", "state": "PA", "street": "306 MAIN ST", "postcode": "16214"}}},
{"geometry": {"type": "Point", "coordinates": [-79.3925108031, 41.1944525444]}, "type": "Feature", "properties": {"collection_times": [{"days": "Mon-Fri", "time": "9:45am"}, {"days": "Sat", "time": "9:30am"}, {"days": "Sun", "time": "Closed"}], "id": "1621400013", "name": "USPS COLLECTION BOX - BLUE BOX", "address": {"city": "CLARION", "state": "PA", "street": "22631 ROUTE 68", "postcode": "16214"}}},
{"geometry": {"type": "Point", "coordinates": [-79.3794723077, 41.2122799308]}, "type": "Feature", "properties": {"collection_times": [{"days": "Mon-Fri", "time": "1:15pm"}, {"days": "Sat", "time": "12:30pm"}, {"days": "Sun", "time": "Closed"}], "id": "1621400014", "name": "USPS COLLECTION BOX - BLUE BOX", "address": {"city": "CLARION", "state": "PA", "street": "849 E MAIN ST", "postcode": "16214"}}},
{"geometry": {"type": "Point", "coordinates": [-79.3827148598, 41.2108637435]}, "type": "Feature", "properties": {"collection_times": [{"days": "Mon-Fri", "time": "2:00pm"}, {"days": "Sat", "time": "1:00pm"}, {"days": "Sun", "time": "Closed"}], "id": "1621400019", "name": "USPS COLLECTION BOX - BLUE BOX", "address": {"city": "CLARION", "state": "PA", "street": "744 SOUTH ST", "postcode": "16214"}}},
{"geometry": {"type": "Point", "coordinates": [-79.3917980834, 41.2144349282]}, "type": "Feature", "properties": {"collection_times": [{"days": "Mon-Fri", "time": "1:30pm"}, {"days": "Sat", "time": "12:00pm"}, {"days": "Sun", "time": "Closed"}], "id": "1621400020", "name": "USPS COLLECTION BOX - BLUE BOX", "address": {"city": "CLARION", "state": "PA", "street": "214 S 7TH AVE", "postcode": "16214"}}},
{"geometry": {"type": "Point", "coordinates": [-79.3839227401, 41.2141294738]}, "type": "Feature", "properties": {"collection_times": [{"days": "Mon-Fri", "time": "2:30pm"}, {"days": "Sat", "time": "12:30pm"}, {"days": "Sun", "time": "Closed"}], "id": "1621400024", "name": "USPS COLLECTION BOX - BLUE BOX", "address": {"city": "CLARION", "state": "PA", "street": "600 MAIN ST", "postcode": "16214"}}},
{"geometry": {"type": "Point", "coordinates": [-79.3856243594, 41.2147966642]}, "type": "Feature", "properties": {"collection_times": [{"days": "Mon-Fri", "time": "2:30pm"}, {"days": "Sat", "time": "12:30pm"}, {"days": "Sun", "time": "Closed"}], "id": "1621400025", "name": "USPS COLLECTION BOX - BLUE BOX", "address": {"city": "CLARION", "state": "PA", "street": "500 MAIN ST", "postcode": "16214"}}},
{"geometry": {"type": "Point", "coordinates": [-79.3915614916, 41.21588287]}, "type": "Feature", "properties": {"collection_times": [{"days": "Mon-Sat", "time": "10:45am"}, {"days": "Sun", "time": "Closed"}], "id": "1621400026", "name": "USPS COLLECTION BOX - BLUE BOX", "address": {"city": "CLARION", "state": "PA", "street": "36 S 2ND AVE", "postcode": "16214"}}},
{"geometry": {"type": "Point", "coordinates": [-79.3948376502, 41.1899484149]}, "type": "Feature", "properties": {"collection_times": [{"days": "Mon-Sat", "time": "8:30am"}, {"days": "Sun", "time": "Closed"}], "id": "1621400027", "name": "USPS COLLECTION BOX - BLUE BOX", "address": {"city": "CLARION", "state": "PA", "street": "63 PERKINS RD", "postcode": "16214"}}},
{"geometry": {"type": "Point", "coordinates": [-79.383008948, 41.213768987]}, "type": "Feature", "properties": {"collection_times": [{"days": "Mon-Fri", "time": "5:00pm"}, {"days": "Sat", "time": "2:30pm"}, {"days": "Sun", "time": "Closed"}], "id": "1621400028", "name": "USPS COLLECTION BOX - PO LOBBY", "address": {"city": "CLARION", "state": "PA", "street": "626 MAIN ST", "postcode": "16214"}}},
{"geometry": {"type": "Point", "coordinates": [-79.3770158282, 41.2014555024]}, "type": "Feature", "properties": {"collection_times": [{"days": "Mon-Fri", "time": "12:00pm"}, {"days": "Sat", "time": "10:00am"}, {"days": "Sun", "time": "Closed"}], "id": "1621400029", "name": "USPS COLLECTION BOX - BLUE BOX", "address": {"city": "CLARION", "state": "PA", "street": "301 GRAND AVENUE EXT", "postcode": "16214"}}},
{"geometry": {"type": "Point", "coordinates": [-79.3530515267, 41.1707571653]}, "type": "Feature", "properties": {"collection_times": [{"days": "Mon-Sat", "time": "1:15pm"}, {"days": "Sun", "time": "Closed"}], "id": "1621400030", "name": "USPS COLLECTION BOX - BLUE BOX", "address": {"city": "CLARION", "state": "PA", "street": "29 S ARNOLD AVE", "postcode": "16214"}}},
{"geometry": {"type": "Point", "coordinates": [-79.1982527372, 41.3383458614]}, "type": "Feature", "properties": {"collection_times": [{"days": "Mon-Fri", "time": "11:55am"}, {"days": "Sat", "time": "11:15am"}, {"days": "Sun", "time": "Closed"}], "id": "1621700000", "name": "USPS COLLECTION BOX - BLUE BOX", "address": {"city": "COOKSBURG", "state": "PA", "street": "115 RIVERSIDE DR", "postcode": "16217"}}},
{"geometry": {"type": "Point", "coordinates": [-79.1982527372, 41.3383458614]}, "type": "Feature", "properties": {"collection_times": [{"days": "Mon-Fri", "time": "11:55am"}, {"days": "Sat", "time": "11:15am"}, {"days": "Sun", "time": "Closed"}], "id": "1621700001", "name": "USPS COLLECTION BOX - PO LOBBY", "address": {"city": "COOKSBURG", "state": "PA", "street": "115 RIVERSIDE DR", "postcode": "16217"}}},
{"geometry": {"type": "Point", "coordinates": [-79.5856226669, 40.9302850395]}, "type": "Feature", "properties": {"collection_times": [{"days": "Mon-Fri", "time": "4:00pm"}, {"days": "Sat", "time": "12:00pm"}, {"days": "Sun", "time": "Closed"}], "id": "1621800000", "name": "USPS COLLECTION BOX - BLUE BOX", "address": {"city": "COWANSVILLE", "state": "PA", "street": "827 STATE ROUTE 268", "postcode": "16218"}}},
{"geometry": {"type": "Point", "coordinates": [-79.5856226669, 40.9302850395]}, "type": "Feature", "properties": {"collection_times": [{"days": "Mon-Fri", "time": "4:00pm"}, {"days": "Sat", "time": "12:00pm"}, {"days": "Sun", "time": "Closed"}], "id": "1621800001", "name": "USPS COLLECTION BOX - PO LOBBY", "address": {"city": "COWANSVILLE", "state": "PA", "street": "827 STATE ROUTE 268", "postcode": "16218"}}},
{"geometry": {"type": "Point", "coordinates": [-79.2709926675, 41.3895523741]}, "type": "Feature", "properties": {"collection_times": [{"days": "Mon-Fri", "time": "10:50am"}, {"days": "Sat", "time": "11:45am"}, {"days": "Sun", "time": "Closed"}], "id": "1622000000", "name": "USPS COLLECTION BOX - BLUE BOX", "address": {"city": "CROWN", "state": "PA", "street": "36044 ROUTE 66", "postcode": "16220"}}},
{"geometry": {"type": "Point", "coordinates": [-79.2709926675, 41.3895523741]}, "type": "Feature", "properties": {"collection_times": [{"days": "Mon-Fri", "time": "10:50am"}, {"days": "Sat", "time": "11:45am"}, {"days": "Sun", "time": "Closed"}], "id": "1622000001", "name": "USPS COLLECTION BOX - PO LOBBY", "address": {"city": "CROWN", "state": "PA", "street": "36044 ROUTE 66", "postcode": "16220"}}},
{"geometry": {"type": "Point", "coordinates": [-79.4461442022, 41.0983496987]}, "type": "Feature", "properties": {"collection_times": [{"days": "Mon-Sat", "time": "9:00am"}, {"days": "Sun", "time": "Closed"}], "id": "1622100000", "name": "USPS COLLECTION BOX - BLUE BOX", "address": {"city": "CURLLSVILLE", "state": "PA", "street": "19 HUCKLEBERRY RDG", "postcode": "16221"}}},
{"geometry": {"type": "Point", "coordinates": [-79.4461442022, 41.0983496987]}, "type": "Feature", "properties": {"collection_times": [{"days": "Mon-Fri", "time": "10:45am"}, {"days": "Sat", "time": "11:45am"}, {"days": "Sun", "time": "Closed"}], "id": "1622100001", "name": "USPS COLLECTION BOX - PO LOBBY", "address": {"city": "CURLLSVILLE", "state": "PA", "street": "19 HUCKLEBERRY RDG", "postcode": "16221"}}},
{"geometry": {"type": "Point", "coordinates": [-79.2423998751, 40.8801144456]}, "type": "Feature", "properties": {"collection_times": [{"days": "Mon-Fri", "time": "4:30pm"}, {"days": "Sat", "time": "11:45am"}, {"days": "Sun", "time": "Closed"}], "id": "1622200000", "name": "USPS COLLECTION BOX - BLUE BOX", "address": {"city": "DAYTON", "state": "PA", "street": "107 W MAIN ST", "postcode": "16222"}}},
{"geometry": {"type": "Point", "coordinates": [-79.2421283607, 40.8801933684]}, "type": "Feature", "properties": {"collection_times": [{"days": "Mon-Fri", "time": "4:30pm"}, {"days": "Sat", "time": "11:45am"}, {"days": "Sun", "time": "Closed"}], "id": "1622200001", "name": "USPS COLLECTION BOX - PO LOBBY", "address": {"city": "DAYTON", "state": "PA", "street": "107 W MAIN ST", "postcode": "16222"}}},
{"geometry": {"type": "Point", "coordinates": [-79.3252581302, 41.002534799]}, "type": "Feature", "properties": {"collection_times": [{"days": "Mon-Fri", "time": "11:55am"}, {"days": "Sat", "time": "10:45am"}, {"days": "Sun", "time": "Closed"}], "id": "1622300000", "name": "USPS COLLECTION BOX - BLUE BOX", "address": {"city": "DISTANT", "state": "PA", "street": "3273 STATE ROUTE 28 AND 66", "postcode": "16223"}}},
{"geometry": {"type": "Point", "coordinates": [-79.3252581302, 41.002534799]}, "type": "Feature", "properties": {"collection_times": [{"days": "Mon-Fri", "time": "11:55am"}, {"days": "Sat", "time": "10:45am"}, {"days": "Sun", "time": "Closed"}], "id": "1622300001", "name": "USPS COLLECTION BOX - PO LOBBY", "address": {"city": "DISTANT", "state": "PA", "street": "3273 STATE ROUTE 28 AND 66", "postcode": "16223"}}},
{"geometry": {"type": "Point", "coordinates": [-79.296527632, 41.0148379509]}, "type": "Feature", "properties": {"collection_times": [{"days": "Mon-Fri", "time": "4:00pm"}, {"days": "Sat", "time": "10:15am"}, {"days": "Sun", "time": "Closed"}], "id": "1622400001", "name": "USPS COLLECTION BOX - PO LOBBY", "address": {"city": "FAIRMOUNT CITY", "state": "PA", "street": "54 MAPLE AVE", "postcode": "16224"}}},
{"geometry": {"type": "Point", "coordinates": [-79.2403914272, 41.2666367827]}, "type": "Feature", "properties": {"collection_times": [{"days": "Mon-Sat", "time": "1:00pm"}, {"days": "Sun", "time": "Closed"}], "id": "1622500000", "name": "USPS COLLECTION BOX - BLUE BOX", "address": {"city": "FISHER", "state": "PA", "street": "6915 FISHER SIGEL RD", "postcode": "16225"}}},
{"geometry": {"type": "Point", "coordinates": [-79.2403914272, 41.2666367827]}, "type": "Feature", "properties": {"collection_times": [{"days": "Mon-Fri", "time": "10:50am"}, {"days": "Sat", "time": "1:00pm"}, {"days": "Sun", "time": "Closed"}], "id": "1622500001", "name": "USPS COLLECTION BOX - PO LOBBY", "address": {"city": "FISHER", "state": "PA", "street": "6915 FISHER SIGEL RD", "postcode": "16225"}}},
{"geometry": {"type": "Point", "coordinates": [-79.532685237, 40.7690427309]}, "type": "Feature", "properties": {"collection_times": [{"days": "Mon-Fri", "time": "5:00pm"}, {"days": "Sat", "time": "3:00pm"}, {"days": "Sun", "time": "Closed"}], "id": "1622600000", "name": "USPS COLLECTION BOX - PO LOBBY", "address": {"city": "FORD CITY", "state": "PA", "street": "824 4TH AVE", "postcode": "16226"}}},
{"geometry": {"type": "Point", "coordinates": [-79.532694511, 40.769061415]}, "type": "Feature", "properties": {"collection_times": [{"days": "Mon-Sat", "time": "3:00pm"}, {"days": "Sun", "time": "Closed"}], "id": "1622600002", "name": "USPS COLLECTION BOX - BLUE BOX", "address": {"city": "FORD CITY", "state": "PA", "street": "824 4TH AVE", "postcode": "16226"}}},
{"geometry": {"type": "Point", "coordinates": [-79.5379943062, 40.7646791568]}, "type": "Feature", "properties": {"collection_times": [{"days": "Mon-Sat", "time": "11:00am"}, {"days": "Sun", "time": "Closed"}], "id": "1622600003", "name": "USPS COLLECTION BOX - BLUE BOX", "address": {"city": "FORD CITY", "state": "PA", "street": "436 3RD AVE", "postcode": "16226"}}},
{"geometry": {"type": "Point", "coordinates": [-79.5262394381, 40.7766404136]}, "type": "Feature", "properties": {"collection_times": [{"days": "Mon-Sat", "time": "10:00am"}, {"days": "Sun", "time": "Closed"}], "id": "1622600007", "name": "USPS COLLECTION BOX - BLUE BOX", "address": {"city": "FORD CITY", "state": "PA", "street": "1427 4TH AVE", "postcode": "16226"}}},
{"geometry": {"type": "Point", "coordinates": [-79.5295807692, 40.7726177347]}, "type": "Feature", "properties": {"collection_times": [{"days": "Mon-Sat", "time": "8:30am"}, {"days": "Sun", "time": "Closed"}], "id": "1622600008", "name": "USPS COLLECTION BOX - BLUE BOX", "address": {"city": "FORD CITY", "state": "PA", "street": "1108 4TH AVE", "postcode": "16226"}}},
{"geometry": {"type": "Point", "coordinates": [-79.5274982556, 40.7651385601]}, "type": "Feature", "properties": {"collection_times": [{"days": "Mon-Sat", "time": "9:00am"}, {"days": "Sun", "time": "Closed"}], "id": "1622600013", "name": "USPS COLLECTION BOX - BLUE BOX", "address": {"city": "FORD CITY", "state": "PA", "street": "410 MAIN ST", "postcode": "16226"}}},
{"geometry": {"type": "Point", "coordinates": [-79.5029087987, 40.7322012529]}, "type": "Feature", "properties": {"collection_times": [{"days": "Mon-Sat", "time": "8:30am"}, {"days": "Sun", "time": "Closed"}], "id": "1622600018", "name": "USPS COLLECTION BOX - BLUE BOX", "address": {"city": "FORD CITY", "state": "PA", "street": "25 MANOR PLZ", "postcode": "16226"}}},
{"geometry": {"type": "Point", "coordinates": [-79.5314843245, 40.7686716027]}, "type": "Feature", "properties": {"collection_times": [{"days": "Mon-Sat", "time": "10:00am"}, {"days": "Sun", "time": "Closed"}], "id": "1622600020", "name": "USPS COLLECTION BOX - BLUE BOX", "address": {"city": "FORD CITY", "state": "PA", "street": "838 5TH AVE", "postcode": "16226"}}},
{"geometry": {"type": "Point", "coordinates": [-79.5303540337, 40.7699561109]}, "type": "Feature", "properties": {"collection_times": [{"days": "Mon-Sat", "time": "9:30am"}, {"days": "Sun", "time": "Closed"}], "id": "1622600022", "name": "USPS COLLECTION BOX - BLUE BOX", "address": {"city": "FORD CITY", "state": "PA", "street": "938 5TH AVE", "postcode": "16226"}}},
{"geometry": {"type": "Point", "coordinates": [-79.5314054187, 40.7705615409]}, "type": "Feature", "properties": {"collection_times": [{"days": "Mon-Fri", "time": "3:00pm"}, {"days": "Sat", "time": "9:00am"}, {"days": "Sun", "time": "Closed"}], "id": "1622600023", "name": "USPS COLLECTION BOX - BLUE BOX", "address": {"city": "FORD CITY", "state": "PA", "street": "400 FORD ST", "postcode": "16226"}}},
{"geometry": {"type": "Point", "coordinates": [-79.532685237, 40.7690427309]}, "type": "Feature", "properties": {"collection_times": [{"days": "Mon-Sat", "time": "3:00pm"}, {"days": "Sun", "time": "Closed"}], "id": "1622600026", "name": "USPS COLLECTION BOX - BLUE BOX", "address": {"city": "FORD CITY", "state": "PA", "street": "824 4TH AVE", "postcode": "16226"}}},
{"geometry": {"type": "Point", "coordinates": [-79.6866204786, 40.6735540426]}, "type": "Feature", "properties": {"collection_times": [{"days": "Mon-Fri", "time": "4:15pm"}, {"days": "Sat", "time": "12:15pm"}, {"days": "Sun", "time": "Closed"}], "id": "1622900000", "name": "USPS COLLECTION BOX - BLUE BOX", "address": {"city": "FREEPORT", "state": "PA", "street": "415 HIGH ST", "postcode": "16229"}}},
{"geometry": {"type": "Point", "coordinates": [-79.6893787641, 40.6728086289]}, "type": "Feature", "properties": {"collection_times": [{"days": "Mon-Sat", "time": "1:00pm"}, {"days": "Sun", "time": "Closed"}], "id": "1622900004", "name": "USPS COLLECTION BOX - BLUE BOX", "address": {"city": "FREEPORT", "state": "PA", "street": "202 HIGH ST", "postcode": "16229"}}},
{"geometry": {"type": "Point", "coordinates": [-79.6851197724, 40.67275212]}, "type": "Feature", "properties": {"collection_times": [{"days": "Mon-Sat", "time": "9:30am"}, {"days": "Sun", "time": "Closed"}], "id": "1622900005", "name": "USPS COLLECTION BOX - BLUE BOX", "address": {"city": "FREEPORT", "state": "PA", "street": "201 5TH ST", "postcode": "16229"}}},
{"geometry": {"type": "Point", "coordinates": [-79.6859133427, 40.6761624204]}, "type": "Feature", "properties": {"collection_times": [{"days": "Mon-Sat", "time": "9:00am"}, {"days": "Sun", "time": "Closed"}], "id": "1622900006", "name": "USPS COLLECTION BOX - BLUE BOX", "address": {"city": "FREEPORT", "state": "PA", "street": "129 STEWART ST", "postcode": "16229"}}},
{"geometry": {"type": "Point", "coordinates": [-79.6837663932, 40.6740807124]}, "type": "Feature", "properties": {"collection_times": [{"days": "Mon-Sat", "time": "11:00am"}, {"days": "Sun", "time": "Closed"}], "id": "1622900009", "name": "USPS COLLECTION BOX - BLUE BOX", "address": {"city": "FREEPORT", "state": "PA", "street": "614 HIGH ST", "postcode": "16229"}}},
{"geometry": {"type": "Point", "coordinates": [-79.688738978, 40.671959258]}, "type": "Feature", "properties": {"collection_times": [{"days": "Mon-Sat", "time": "1:00pm"}, {"days": "Sun", "time": "Closed"}], "id": "1622900011", "name": "USPS COLLECTION BOX - BLUE BOX", "address": {"city": "FREEPORT", "state": "PA", "street": "223 MARKET ST", "postcode": "16229"}}},
{"geometry": {"type": "Point", "coordinates": [-79.6998824746, 40.685709437]}, "type": "Feature", "properties": {"collection_times": [{"days": "Mon-Sat", "time": "1:00pm"}, {"days": "Sun", "time": "Closed"}], "id": "1622900012", "name": "USPS COLLECTION BOX - BLUE BOX", "address": {"city": "FREEPORT", "state": "PA", "street": "222 BUFFALO ST", "postcode": "16229"}}},
{"geometry": {"type": "Point", "coordinates": [-79.6866204786, 40.6735540426]}, "type": "Feature", "properties": {"collection_times": [{"days": "Mon-Fri", "time": "4:15pm"}, {"days": "Sat", "time": "12:15pm"}, {"days": "Sun", "time": "Closed"}], "id": "1622900015", "name": "USPS COLLECTION BOX - PO LOBBY", "address": {"city": "FREEPORT", "state": "PA", "street": "415 HIGH ST", "postcode": "16229"}}},
{"geometry": {"type": "Point", "coordinates": [-79.6801491358, 40.6758142286]}, "type": "Feature", "properties": {"collection_times": [{"days": "Mon-Sat", "time": "9:15am"}, {"days": "Sun", "time": "Closed"}], "id": "1622900016", "name": "USPS COLLECTION BOX - BLUE BOX", "address": {"city": "FREEPORT", "state": "PA", "street": "500 FRANKLIN ST", "postcode": "16229"}}},
{"geometry": {"type": "Point", "coordinates": [-79.27376478, 41.0192149448]}, "type": "Feature", "properties": {"collection_times": [{"days": "Mon-Fri", "time": "11:55am"}, {"days": "Sat", "time": "10:45am"}, {"days": "Sun", "time": "Closed"}], "id": "1623000000", "name": "USPS COLLECTION BOX - BLUE BOX", "address": {"city": "HAWTHORN", "state": "PA", "street": "3977 BROOKVILLE ST", "postcode": "16230"}}},
{"geometry": {"type": "Point", "coordinates": [-79.27376478, 41.0192149448]}, "type": "Feature", "properties": {"collection_times": [{"days": "Mon-Fri", "time": "11:55am"}, {"days": "Sat", "time": "10:45am"}, {"days": "Sun", "time": "Closed"}], "id": "1623000001", "name": "USPS COLLECTION BOX - PO LOBBY", "address": {"city": "HAWTHORN", "state": "PA", "street": "3977 BROOKVILLE ST", "postcode": "16230"}}},
{"geometry": {"type": "Point", "coordinates": [-79.5463905304, 41.2310325486]}, "type": "Feature", "properties": {"collection_times": [{"days": "Mon-Fri", "time": "4:30pm"}, {"days": "Sat", "time": "11:45am"}, {"days": "Sun", "time": "Closed"}], "id": "1623200000", "name": "USPS COLLECTION BOX - BLUE BOX", "address": {"city": "KNOX", "state": "PA", "street": "523 E RAILROAD ST", "postcode": "16232"}}},
{"geometry": {"type": "Point", "coordinates": [-79.5463905304, 41.2310325486]}, "type": "Feature", "properties": {"collection_times": [{"days": "Mon-Fri", "time": "4:30pm"}, {"days": "Sat", "time": "12:15pm"}, {"days": "Sun", "time": "Closed"}], "id": "1623200002", "name": "USPS COLLECTION BOX - PO LOBBY", "address": {"city": "KNOX", "state": "PA", "street": "523 E RAILROAD ST", "postcode": "16232"}}},
{"geometry": {"type": "Point", "coordinates": [-79.5285707684, 41.2275473992]}, "type": "Feature", "properties": {"collection_times": [{"days": "Mon-Sat", "time": "12:00pm"}, {"days": "Sun", "time": "Closed"}], "id": "1623200003", "name": "USPS COLLECTION BOX - BLUE BOX", "address": {"city": "KNOX", "state": "PA", "street": "8868 ROUTE 338", "postcode": "16232"}}},
{"geometry": {"type": "Point", "coordinates": [-79.3047345455, 41.3706677516]}, "type": "Feature", "properties": {"collection_times": [{"days": "Mon-Fri", "time": "3:30pm"}, {"days": "Sat", "time": "11:45am"}, {"days": "Sun", "time": "Closed"}], "id": "1623300000", "name": "USPS COLLECTION BOX - BLUE BOX", "address": {"city": "LEEPER", "state": "PA", "street": "6815 ROUTE 36", "postcode": "16233"}}},
{"geometry": {"type": "Point", "coordinates": [-79.3047345455, 41.3706677516]}, "type": "Feature", "properties": {"collection_times": [{"days": "Mon-Fri", "time": "3:30pm"}, {"days": "Sat", "time": "11:45am"}, {"days": "Sun", "time": "Closed"}], "id": "1623300001", "name": "USPS COLLECTION BOX - PO LOBBY", "address": {"city": "LEEPER", "state": "PA", "street": "6815 ROUTE 36", "postcode": "16233"}}},
{"geometry": {"type": "Point", "coordinates": [-79.325862689, 41.1281806651]}, "type": "Feature", "properties": {"collection_times": [{"days": "Mon-Sat", "time": "9:30am"}, {"days": "Sun", "time": "Closed"}], "id": "1623400000", "name": "USPS COLLECTION BOX - BLUE BOX", "address": {"city": "LIMESTONE", "state": "PA", "street": "97 LIMESTONE RD", "postcode": "16234"}}},
{"geometry": {"type": "Point", "coordinates": [-79.325862689, 41.1281806651]}, "type": "Feature", "properties": {"collection_times": [{"days": "Mon-Sat", "time": "9:30am"}, {"days": "Sun", "time": "Closed"}], "id": "1623400001", "name": "USPS COLLECTION BOX - PO LOBBY", "address": {"city": "LIMESTONE", "state": "PA", "street": "97 LIMESTONE RD", "postcode": "16234"}}},
{"geometry": {"type": "Point", "coordinates": [-79.368044075, 41.3130485631]}, "type": "Feature", "properties": {"collection_times": [{"days": "Mon-Fri", "time": "3:45pm"}, {"days": "Sat", "time": "10:45am"}, {"days": "Sun", "time": "Closed"}], "id": "1623500000", "name": "USPS COLLECTION BOX - BLUE BOX", "address": {"city": "LUCINDA", "state": "PA", "street": "454 MAPLE DR", "postcode": "16235"}}},
{"geometry": {"type": "Point", "coordinates": [-79.368044075, 41.3130485631]}, "type": "Feature", "properties": {"collection_times": [{"days": "Mon-Fri", "time": "2:45pm"}, {"days": "Sat", "time": "10:45am"}, {"days": "Sun", "time": "Closed"}], "id": "1623500001", "name": "USPS COLLECTION BOX - PO LOBBY", "address": {"city": "LUCINDA", "state": "PA", "street": "454 MAPLE DR", "postcode": "16235"}}},
{"geometry": {"type": "Point", "coordinates": [-79.3570773791, 41.3154617562]}, "type": "Feature", "properties": {"collection_times": [{"days": "Mon-Sat", "time": "10:30am"}, {"days": "Sun", "time": "Closed"}], "id": "1623500002", "name": "USPS COLLECTION BOX - BLUE BOX", "address": {"city": "LUCINDA", "state": "PA", "street": "27110 ROUTE 66", "postcode": "16235"}}},
{"geometry": {"type": "Point", "coordinates": [-79.5212014329, 40.7833630822]}, "type": "Feature", "properties": {"collection_times": [{"days": "Mon-Fri", "time": "11:55am"}, {"days": "Sat", "time": "11:45am"}, {"days": "Sun", "time": "Closed"}], "id": "1623600000", "name": "USPS COLLECTION BOX - BLUE BOX", "address": {"city": "MC GRANN", "state": "PA", "street": "207 BYRON ST", "postcode": "16236"}}},
{"geometry": {"type": "Point", "coordinates": [-79.5212014329, 40.7833630822]}, "type": "Feature", "properties": {"collection_times": [{"days": "Mon-Fri", "time": "11:55am"}, {"days": "Sat", "time": "11:45am"}, {"days": "Sun", "time": "Closed"}], "id": "1623600001", "name": "USPS COLLECTION BOX - PO LOBBY", "address": {"city": "MC GRANN", "state": "PA", "street": "207 BYRON ST", "postcode": "16236"}}},
{"geometry": {"type": "Point", "coordinates": [-79.5223687017, 40.7856856592]}, "type": "Feature", "properties": {"collection_times": [{"days": "Mon-Fri", "time": "12:55pm"}, {"days": "Sat", "time": "11:45am"}, {"days": "Sun", "time": "Closed"}], "id": "1623800000", "name": "USPS COLLECTION BOX - BLUE BOX", "address": {"city": "MANORVILLE", "state": "PA", "street": "500 WATER ST", "postcode": "16238"}}},
{"geometry": {"type": "Point", "coordinates": [-79.5223687017, 40.7856856592]}, "type": "Feature", "properties": {"collection_times": [{"days": "Mon-Fri", "time": "12:55pm"}, {"days": "Sat", "time": "11:45am"}, {"days": "Sun", "time": "Closed"}], "id": "1623800001", "name": "USPS COLLECTION BOX - PO LOBBY", "address": {"city": "MANORVILLE", "state": "PA", "street": "500 WATER ST", "postcode": "16238"}}},
{"geometry": {"type": "Point", "coordinates": [-79.1235309302, 41.4693138885]}, "type": "Feature", "properties": {"collection_times": [{"days": "Mon-Fri", "time": "3:15pm"}, {"days": "Sat", "time": "12:00pm"}, {"days": "Sun", "time": "Closed"}], "id": "1623900000", "name": "USPS COLLECTION BOX - BLUE BOX", "address": {"city": "MARIENVILLE", "state": "PA", "street": "107 S FOREST ST", "postcode": "16239"}}},
{"geometry": {"type": "Point", "coordinates": [-79.1235309302, 41.4693138885]}, "type": "Feature", "properties": {"collection_times": [{"days": "Mon-Fri", "time": "3:15pm"}, {"days": "Sat", "time": "12:30pm"}, {"days": "Sun", "time": "Closed"}], "id": "1623900001", "name": "USPS COLLECTION BOX - PO LOBBY", "address": {"city": "MARIENVILLE", "state": "PA", "street": "107 S FOREST ST", "postcode": "16239"}}},
{"geometry": {"type": "Point", "coordinates": [-79.2508917693, 41.0335958729]}, "type": "Feature", "properties": {"collection_times": [{"days": "Mon-Fri", "time": "12:25pm"}, {"days": "Sat", "time": "10:15am"}, {"days": "Sun", "time": "Closed"}], "id": "1624000000", "name": "USPS COLLECTION BOX - BLUE BOX", "address": {"city": "MAYPORT", "state": "PA", "street": "395 MAYPORT RD", "postcode": "16240"}}},
{"geometry": {"type": "Point", "coordinates": [-79.2508917693, 41.0335958729]}, "type": "Feature", "properties": {"collection_times": [{"days": "Mon-Fri", "time": "12:25pm"}, {"days": "Sat", "time": "10:15am"}, {"days": "Sun", "time": "Closed"}], "id": "1624000001", "name": "USPS COLLECTION BOX - PO LOBBY", "address": {"city": "MAYPORT", "state": "PA", "street": "395 MAYPORT RD", "postcode": "16240"}}},
{"geometry": {"type": "Point", "coordinates": [-79.3324226078, 41.0014843151]}, "type": "Feature", "properties": {"collection_times": [{"days": "Mon-Sat", "time": "3:00pm"}, {"days": "Sun", "time": "Closed"}], "id": "1624200001", "name": "USPS COLLECTION BOX - BLUE BOX", "address": {"city": "NEW BETHLEHEM", "state": "PA", "street": "451 BROAD ST", "postcode": "16242"}}},
{"geometry": {"type": "Point", "coordinates": [-79.3268004031, 41.0036635805]}, "type": "Feature", "properties": {"collection_times": [{"days": "Mon-Fri", "time": "11:30am"}, {"days": "Sat", "time": "11:00am"}, {"days": "Sun", "time": "Closed"}], "id": "1624200002", "name": "USPS COLLECTION BOX - BLUE BOX", "address": {"city": "NEW BETHLEHEM", "state": "PA", "street": "600 PENN ST", "postcode": "16242"}}},
{"geometry": {"type": "Point", "coordinates": [-79.3309549549, 41.0046631809]}, "type": "Feature", "properties": {"collection_times": [{"days": "Mon-Fri", "time": "1:00pm"}, {"days": "Sat", "time": "12:00pm"}, {"days": "Sun", "time": "Closed"}], "id": "1624200003", "name": "USPS COLLECTION BOX - BLUE BOX", "address": {"city": "NEW BETHLEHEM", "state": "PA", "street": "412 WASHINGTON ST", "postcode": "16242"}}},
{"geometry": {"type": "Point", "coordinates": [-79.3351540488, 41.0037139366]}, "type": "Feature", "properties": {"collection_times": [{"days": "Mon-Fri", "time": "12:00pm"}, {"days": "Sat", "time": "11:00am"}, {"days": "Sun", "time": "Closed"}], "id": "1624200004", "name": "USPS COLLECTION BOX - BLUE BOX", "address": {"city": "NEW BETHLEHEM", "state": "PA", "street": "233 PENN ST", "postcode": "16242"}}},
{"geometry": {"type": "Point", "coordinates": [-79.3375079379, 41.0010423295]}, "type": "Feature", "properties": {"collection_times": [{"days": "Mon-Sat", "time": "9:00am"}, {"days": "Sun", "time": "Closed"}], "id": "1624200006", "name": "USPS COLLECTION BOX - BLUE BOX", "address": {"city": "NEW BETHLEHEM", "state": "PA", "street": "117 W BROAD ST", "postcode": "16242"}}},
{"geometry": {"type": "Point", "coordinates": [-79.3351398026, 41.0014347724]}, "type": "Feature", "properties": {"collection_times": [{"days": "Mon-Sat", "time": "9:15am"}, {"days": "Sun", "time": "Closed"}], "id": "1624200007", "name": "USPS COLLECTION BOX - BLUE BOX", "address": {"city": "NEW BETHLEHEM", "state": "PA", "street": "246 BROAD ST", "postcode": "16242"}}},
{"geometry": {"type": "Point", "coordinates": [-79.3324226078, 41.0014843151]}, "type": "Feature", "properties": {"collection_times": [{"days": "Mon-Fri", "time": "4:15pm"}, {"days": "Sat", "time": "3:00pm"}, {"days": "Sun", "time": "Closed"}], "id": "1624200008", "name": "USPS COLLECTION BOX - PO LOBBY", "address": {"city": "NEW BETHLEHEM", "state": "PA", "street": "451 BROAD ST", "postcode": "16242"}}},
{"geometry": {"type": "Point", "coordinates": [-79.281576095, 40.7953402998]}, "type": "Feature", "properties": {"collection_times": [{"days": "Mon-Fri", "time": "11:55am"}, {"days": "Sat", "time": "11:45am"}, {"days": "Sun", "time": "Closed"}], "id": "1624400000", "name": "USPS COLLECTION BOX - BLUE BOX", "address": {"city": "NUMINE", "state": "PA", "street": "1409 STATE ROUTE 1042", "postcode": "16244"}}},
{"geometry": {"type": "Point", "coordinates": [-79.281576095, 40.7953402998]}, "type": "Feature", "properties": {"collection_times": [{"days": "Mon-Fri", "time": "11:55am"}, {"days": "Sat", "time": "11:45am"}, {"days": "Sun", "time": "Closed"}], "id": "1624400001", "name": "USPS COLLECTION BOX - PO LOBBY", "address": {"city": "NUMINE", "state": "PA", "street": "1409 STATE ROUTE 1042", "postcode": "16244"}}},
{"geometry": {"type": "Point", "coordinates": [-79.2847069675, 40.7958816535]}, "type": "Feature", "properties": {"collection_times": [{"days": "Mon-Fri", "time": "2:30pm"}, {"days": "Sat", "time": "10:30am"}, {"days": "Sun", "time": "Closed"}], "id": "1624400002", "name": "USPS COLLECTION BOX - BLUE BOX", "address": {"city": "NUMINE", "state": "PA", "street": "4077 3RD ST", "postcode": "16244"}}},
{"geometry": {"type": "Point", "coordinates": [-79.2958478805, 41.0076453627]}, "type": "Feature", "properties": {"collection_times": [{"days": "Mon-Fri", "time": "10:50am"}, {"days": "Sat", "time": "11:20am"}, {"days": "Sun", "time": "Closed"}], "id": "1624500000", "name": "USPS COLLECTION BOX - BLUE BOX", "address": {"city": "OAK RIDGE", "state": "PA", "street": "120 MAIN ST", "postcode": "16245"}}},
{"geometry": {"type": "Point", "coordinates": [-79.2958478805, 41.0076453627]}, "type": "Feature", "properties": {"collection_times": [{"days": "Mon-Fri", "time": "10:50am"}, {"days": "Sat", "time": "11:20am"}, {"days": "Sun", "time": "Closed"}], "id": "1624500001", "name": "USPS COLLECTION BOX - PO LOBBY", "address": {"city": "OAK RIDGE", "state": "PA", "street": "120 MAIN ST", "postcode": "16245"}}},
{"geometry": {"type": "Point", "coordinates": [-79.1794401228, 40.7944892496]}, "type": "Feature", "properties": {"collection_times": [{"days": "Mon-Fri", "time": "11:55am"}, {"days": "Sat", "time": "11:45am"}, {"days": "Sun", "time": "Closed"}], "id": "1624600000", "name": "USPS COLLECTION BOX - BLUE BOX", "address": {"city": "PLUMVILLE", "state": "PA", "street": "225 MAIN ST", "postcode": "16246"}}},
{"geometry": {"type": "Point", "coordinates": [-79.1794401228, 40.7944892496]}, "type": "Feature", "properties": {"collection_times": [{"days": "Mon-Fri", "time": "11:55am"}, {"days": "Sat", "time": "11:45am"}, {"days": "Sun", "time": "Closed"}], "id": "1624600001", "name": "USPS COLLECTION BOX - PO LOBBY", "address": {"city": "PLUMVILLE", "state": "PA", "street": "225 MAIN ST", "postcode": "16246"}}},
{"geometry": {"type": "Point", "coordinates": [-79.5019729926, 41.0431390651]}, "type": "Feature", "properties": {"collection_times": [{"days": "Mon-Fri", "time": "4:30pm"}, {"days": "Sat", "time": "12:00pm"}, {"days": "Sun", "time": "Closed"}], "id": "1624800000", "name": "USPS COLLECTION BOX - BLUE BOX", "address": {"city": "RIMERSBURG", "state": "PA", "street": "689 MAIN ST", "postcode": "16248"}}},
{"geometry": {"type": "Point", "coordinates": [-79.5019729926, 41.0431390651]}, "type": "Feature", "properties": {"collection_times": [{"days": "Mon-Fri", "time": "4:45pm"}, {"days": "Sat", "time": "12:00pm"}, {"days": "Sun", "time": "Closed"}], "id": "1624800001", "name": "USPS COLLECTION BOX - PO LOBBY", "address": {"city": "RIMERSBURG", "state": "PA", "street": "689 MAIN ST", "postcode": "16248"}}},
{"geometry": {"type": "Point", "coordinates": [-79.301864905, 40.7781147024]}, "type": "Feature", "properties": {"collection_times": [{"days": "Mon-Fri", "time": "4:45pm"}, {"days": "Sat", "time": "11:45am"}, {"days": "Sun", "time": "Closed"}], "id": "1624900000", "name": "USPS COLLECTION BOX - BLUE BOX", "address": {"city": "RURAL VALLEY", "state": "PA", "street": "700 MIDDLE 1ST ST", "postcode": "16249"}}},
{"geometry": {"type": "Point", "coordinates": [-79.301864905, 40.7781147024]}, "type": "Feature", "properties": {"collection_times": [{"days": "Mon-Fri", "time": "4:30pm"}, {"days": "Sat", "time": "11:45am"}, {"days": "Sun", "time": "Closed"}], "id": "1624900001", "name": "USPS COLLECTION BOX - PO LOBBY", "address": {"city": "RURAL VALLEY", "state": "PA", "street": "700 MIDDLE 1ST ST", "postcode": "16249"}}},
{"geometry": {"type": "Point", "coordinates": [-79.3141096197, 40.7703634362]}, "type": "Feature", "properties": {"collection_times": [{"days": "Mon-Fri", "time": "2:00pm"}, {"days": "Sat", "time": "10:00am"}, {"days": "Sun", "time": "Closed"}], "id": "1624900002", "name": "USPS COLLECTION BOX - BLUE BOX", "address": {"city": "RURAL VALLEY", "state": "PA", "street": "140 SILVER CANOE CAMPGROUND RD", "postcode": "16249"}}},
{"geometry": {"type": "Point", "coordinates": [-79.2317818427, 40.7769382924]}, "type": "Feature", "properties": {"collection_times": [{"days": "Mon-Fri", "time": "10:50am"}, {"days": "Sat", "time": "11:45am"}, {"days": "Sun", "time": "Closed"}], "id": "1625000000", "name": "USPS COLLECTION BOX - BLUE BOX", "address": {"city": "SAGAMORE", "state": "PA", "street": "333 POST OFFICE RD", "postcode": "16250"}}},
{"geometry": {"type": "Point", "coordinates": [-79.2317818427, 40.7769382924]}, "type": "Feature", "properties": {"collection_times": [{"days": "Mon-Fri", "time": "10:50am"}, {"days": "Sat", "time": "11:45am"}, {"days": "Sun", "time": "Closed"}], "id": "1625000001", "name": "USPS COLLECTION BOX - PO LOBBY", "address": {"city": "SAGAMORE", "state": "PA", "street": "333 POST OFFICE RD", "postcode": "16250"}}},
{"geometry": {"type": "Point", "coordinates": [-79.4637603304, 41.2514282028]}, "type": "Feature", "properties": {"collection_times": [{"days": "Mon-Fri", "time": "4:15pm"}, {"days": "Sat", "time": "12:00pm"}, {"days": "Sun", "time": "Closed"}], "id": "1625400000", "name": "USPS COLLECTION BOX - BLUE BOX", "address": {"city": "SHIPPENVILLE", "state": "PA", "street": "305 MAIN ST", "postcode": "16254"}}},
{"geometry": {"type": "Point", "coordinates": [-79.4637603304, 41.2514282028]}, "type": "Feature", "properties": {"collection_times": [{"days": "Mon-Fri", "time": "4:15pm"}, {"days": "Sat", "time": "12:00pm"}, {"days": "Sun", "time": "Closed"}], "id": "1625400003", "name": "USPS COLLECTION BOX - PO LOBBY", "address": {"city": "SHIPPENVILLE", "state": "PA", "street": "305 MAIN ST", "postcode": "16254"}}},
{"geometry": {"type": "Point", "coordinates": [-79.4909843507, 41.1067897364]}, "type": "Feature", "properties": {"collection_times": [{"days": "Mon-Fri", "time": "4:30pm"}, {"days": "Sat", "time": "12:00pm"}, {"days": "Sun", "time": "Closed"}], "id": "1625500000", "name": "USPS COLLECTION BOX - BLUE BOX", "address": {"city": "SLIGO", "state": "PA", "street": "312 MADISON ST", "postcode": "16255"}}},
{"geometry": {"type": "Point", "coordinates": [-79.4909843507, 41.1067897364]}, "type": "Feature", "properties": {"collection_times": [{"days": "Mon-Fri", "time": "4:30pm"}, {"days": "Sat", "time": "12:00pm"}, {"days": "Sun", "time": "Closed"}], "id": "1625500001", "name": "USPS COLLECTION BOX - PO LOBBY", "address": {"city": "SLIGO", "state": "PA", "street": "312 MADISON ST", "postcode": "16255"}}},
{"geometry": {"type": "Point", "coordinates": [-79.1440568929, 40.8664889509]}, "type": "Feature", "properties": {"collection_times": [{"days": "Mon-Fri", "time": "4:00pm"}, {"days": "Sat", "time": "10:15am"}, {"days": "Sun", "time": "Closed"}], "id": "1625600000", "name": "USPS COLLECTION BOX - BLUE BOX", "address": {"city": "SMICKSBURG", "state": "PA", "street": "148 MILL ST", "postcode": "16256"}}},
{"geometry": {"type": "Point", "coordinates": [-79.1440568929, 40.8664889509]}, "type": "Feature", "properties": {"collection_times": [{"days": "Mon-Fri", "time": "4:00pm"}, {"days": "Sat", "time": "10:15am"}, {"days": "Sun", "time": "Closed"}], "id": "1625600001", "name": "USPS COLLECTION BOX - PO LOBBY", "address": {"city": "SMICKSBURG", "state": "PA", "street": "148 MILL ST", "postcode": "16256"}}},
{"geometry": {"type": "Point", "coordinates": [-79.2765861522, 41.2160523754]}, "type": "Feature", "properties": {"collection_times": [{"days": "Mon-Fri", "time": "4:30pm"}, {"days": "Sat", "time": "11:30am"}, {"days": "Sun", "time": "Closed"}], "id": "1625800000", "name": "USPS COLLECTION BOX - BLUE BOX", "address": {"city": "STRATTANVILLE", "state": "PA", "street": "361 WASHINGTON ST", "postcode": "16258"}}},
{"geometry": {"type": "Point", "coordinates": [-79.2765861522, 41.2160523754]}, "type": "Feature", "properties": {"collection_times": [{"days": "Mon-Fri", "time": "4:30pm"}, {"days": "Sat", "time": "11:30am"}, {"days": "Sun", "time": "Closed"}], "id": "1625800001", "name": "USPS COLLECTION BOX - PO LOBBY", "address": {"city": "STRATTANVILLE", "state": "PA", "street": "361 WASHINGTON ST", "postcode": "16258"}}},
{"geometry": {"type": "Point", "coordinates": [-79.4562999247, 40.9220041282]}, "type": "Feature", "properties": {"collection_times": [{"days": "Mon-Fri", "time": "3:00pm"}, {"days": "Sat", "time": "11:45am"}, {"days": "Sun", "time": "Closed"}], "id": "1625900000", "name": "USPS COLLECTION BOX - BLUE BOX", "address": {"city": "TEMPLETON", "state": "PA", "street": "232 3RD ST STE 1", "postcode": "16259"}}},
{"geometry": {"type": "Point", "coordinates": [-79.4562999247, 40.9220041282]}, "type": "Feature", "properties": {"collection_times": [{"days": "Mon-Fri", "time": "3:00pm"}, {"days": "Sat", "time": "11:45am"}, {"days": "Sun", "time": "Closed"}], "id": "1625900001", "name": "USPS COLLECTION BOX - PO LOBBY", "address": {"city": "TEMPLETON", "state": "PA", "street": "232 3RD ST STE 1", "postcode": "16259"}}},
{"geometry": {"type": "Point", "coordinates": [-79.621783261, 40.8361119934]}, "type": "Feature", "properties": {"collection_times": [{"days": "Mon-Fri", "time": "4:45pm"}, {"days": "Sat", "time": "12:15pm"}, {"days": "Sun", "time": "Closed"}], "id": "1626200000", "name": "USPS COLLECTION BOX - BLUE BOX", "address": {"city": "WORTHINGTON", "state": "PA", "street": "199 E MAIN ST", "postcode": "16262"}}},
{"geometry": {"type": "Point", "coordinates": [-79.621783261, 40.8361119934]}, "type": "Feature", "properties": {"collection_times": [{"days": "Mon-Fri", "time": "4:45pm"}, {"days": "Sat", "time": "12:15pm"}, {"days": "Sun", "time": "Closed"}], "id": "1626200001", "name": "USPS COLLECTION BOX - PO LOBBY", "address": {"city": "WORTHINGTON", "state": "PA", "street": "199 E MAIN ST", "postcode": "16262"}}},
{"geometry": {"type": "Point", "coordinates": [-79.3341280911, 40.7961302563]}, "type": "Feature", "properties": {"collection_times": [{"days": "Mon-Fri", "time": "11:55am"}, {"days": "Sat", "time": "11:45am"}, {"days": "Sun", "time": "Closed"}], "id": "1626300000", "name": "USPS COLLECTION BOX - BLUE BOX", "address": {"city": "YATESBORO", "state": "PA", "street": "52 W MAIN ST", "postcode": "16263"}}},
{"geometry": {"type": "Point", "coordinates": [-79.3341280911, 40.7961302563]}, "type": "Feature", "properties": {"collection_times": [{"days": "Mon-Fri", "time": "11:55am"}, {"days": "Sat", "time": "11:45am"}, {"days": "Sun", "time": "Closed"}], "id": "1626300001", "name": "USPS COLLECTION BOX - PO LOBBY", "address": {"city": "YATESBORO", "state": "PA", "street": "52 W MAIN ST", "postcode": "16263"}}}
]}
