{"type": "FeatureCollection", "features": [
{"geometry": {"type": "Point", "coordinates": [-79.7067112235, 41.427738991]}, "type": "Feature", "properties": {"collection_times": [{"days": "Mon-Sat", "time": "5:15pm"}, {"days": "Sun", "time": "Closed"}], "id": "1630100003", "name": "USPS COLLECTION BOX - BLUE BOX", "address": {"city": "OIL CITY", "state": "PA", "street": "302 E 2ND ST", "postcode": "16301"}}},
{"geometry": {"type": "Point", "coordinates": [-79.7067112235, 41.427738991]}, "type": "Feature", "properties": {"collection_times": [{"days": "Mon-Sat", "time": "5:15pm"}, {"days": "Sun", "time": "Closed"}], "id": "1630100004", "name": "USPS COLLECTION BOX - BLUE BOX", "address": {"city": "OIL CITY", "state": "PA", "street": "302 E 2ND ST", "postcode": "16301"}}},
{"geometry": {"type": "Point", "coordinates": [-79.7083650609, 41.4339221864]}, "type": "Feature", "properties": {"collection_times": [{"days": "Mon-Sat", "time": "5:00pm"}, {"days": "Sun", "time": "Closed"}], "id": "1630100010", "name": "USPS COLLECTION BOX - BLUE BOX", "address": {"city": "OIL CITY", "state": "PA", "street": "289 SENECA ST", "postcode": "16301"}}},
{"geometry": {"type": "Point", "coordinates": [-79.7083650609, 41.4339221864]}, "type": "Feature", "properties": {"collection_times": [{"days": "Mon-Fri", "time": "5:00pm"}, {"days": "Sat-Sun", "time": "Closed"}], "id": "1630100012", "name": "USPS COLLECTION BOX - BLUE BOX", "address": {"city": "OIL CITY", "state": "PA", "street": "289 SENECA ST", "postcode": "16301"}}},
{"geometry": {"type": "Point", "coordinates": [-79.6883422367, 41.441346568]}, "type": "Feature", "properties": {"collection_times": [{"days": "Mon-Fri", "time": "2:15pm"}, {"days": "Sat-Sun", "time": "Closed"}], "id": "1630100023", "name": "USPS COLLECTION BOX - BLUE BOX", "address": {"city": "OIL CITY", "state": "PA", "street": "809 GRANDVIEW RD", "postcode": "16301"}}},
{"geometry": {"type": "Point", "coordinates": [-79.7082413188, 41.4327768949]}, "type": "Feature", "properties": {"collection_times": [{"days": "Mon-Fri", "time": "3:00pm"}, {"days": "Sat-Sun", "time": "Closed"}], "id": "1630100026", "name": "USPS COLLECTION BOX - BLUE BOX", "address": {"city": "OIL CITY", "state": "PA", "street": "36 SENECA ST", "postcode": "16301"}}},
{"geometry": {"type": "Point", "coordinates": [-79.7105692361, 41.4284666803]}, "type": "Feature", "properties": {"collection_times": [{"days": "Mon-Sat", "time": "3:00pm"}, {"days": "Sun", "time": "Closed"}], "id": "1630100036", "name": "USPS COLLECTION BOX - BLUE BOX", "address": {"city": "OIL CITY", "state": "PA", "street": "24 E 1ST ST", "postcode": "16301"}}},
{"geometry": {"type": "Point", "coordinates": [-79.7067112235, 41.427738991]}, "type": "Feature", "properties": {"collection_times": [{"days": "Mon-Sat", "time": "5:30pm"}, {"days": "Sun", "time": "Closed"}], "id": "1630100038", "name": "USPS COLLECTION BOX - PO LOBBY", "address": {"city": "OIL CITY", "state": "PA", "street": "302 E 2ND ST", "postcode": "16301"}}},
{"geometry": {"type": "Point", "coordinates": [-80.0193628968, 41.4736092548]}, "type": "Feature", "properties": {"collection_times": [{"days": "Mon-Fri", "time": "10:50am"}, {"days": "Sat", "time": "11:45am"}, {"days": "Sun", "time": "Closed"}], "id": "1631100000", "name": "USPS COLLECTION BOX - BLUE BOX", "address": {"city": "CARLTON", "state": "PA", "street": "1333 COCHRANTON RD", "postcode": "16311"}}},
{"geometry": {"type": "Point", "coordinates": [-79.3035016493, 41.9335752177]}, "type": "Feature", "properties": {"collection_times": [{"days": "Mon-Sat", "time": "11:15am"}, {"days": "Sun", "time": "Closed"}], "id": "1631200000", "name": "USPS COLLECTION BOX - BLUE BOX", "address": {"city": "CHANDLRS VLY", "state": "PA", "street": "9243 JACKSON RUN RD", "postcode": "16312"}}},
{"geometry": {"type": "Point", "coordinates": [-79.3035016493, 41.9335752177]}, "type": "Feature", "properties": {"collection_times": [{"days": "Mon-Sat", "time": "11:30am"}, {"days": "Sun", "time": "Closed"}], "id": "1631200001", "name": "USPS COLLECTION BOX - PO LOBBY", "address": {"city": "CHANDLRS VLY", "state": "PA", "street": "9243 JACKSON RUN RD", "postcode": "16312"}}},
{"geometry": {"type": "Point", "coordinates": [-79.0939394986, 41.7805937791]}, "type": "Feature", "properties": {"collection_times": [{"days": "Mon-Fri", "time": "3:30pm"}, {"days": "Sat", "time": "11:45am"}, {"days": "Sun", "time": "Closed"}], "id": "1631300000", "name": "USPS COLLECTION BOX - BLUE BOX", "address": {"city": "CLARENDON", "state": "PA", "street": "11 S MAIN ST", "postcode": "16313"}}},
{"geometry": {"type": "Point", "coordinates": [-79.0939394986, 41.7805937791]}, "type": "Feature", "properties": {"collection_times": [{"days": "Mon-Fri", "time": "3:30pm"}, {"days": "Sat", "time": "12:00pm"}, {"days": "Sun", "time": "Closed"}], "id": "1631300001", "name": "USPS COLLECTION BOX - PO LOBBY", "address": {"city": "CLARENDON", "state": "PA", "street": "11 S MAIN ST", "postcode": "16313"}}},
{"geometry": {"type": "Point", "coordinates": [-80.048628951, 41.520623746]}, "type": "Feature", "properties": {"collection_times": [{"days": "Mon-Fri", "time": "4:00pm"}, {"days": "Sat", "time": "12:00pm"}, {"days": "Sun", "time": "Closed"}], "id": "1631400000", "name": "USPS COLLECTION BOX - BLUE BOX", "address": {"city": "COCHRANTON", "state": "PA", "street": "107 N FRANKLIN ST", "postcode": "16314"}}},
{"geometry": {"type": "Point", "coordinates": [-80.048628951, 41.520623746]}, "type": "Feature", "properties": {"collection_times": [{"days": "Mon-Fri", "time": "5:00pm"}, {"days": "Sat", "time": "12:00pm"}, {"days": "Sun", "time": "Closed"}], "id": "1631400001", "name": "USPS COLLECTION BOX - PO LOBBY", "address": {"city": "COCHRANTON", "state": "PA", "street": "107 N FRANKLIN ST", "postcode": "16314"}}},
{"geometry": {"type": "Point", "coordinates": [-80.3057770219, 41.6043535815]}, "type": "Feature", "properties": {"collection_times": [{"days": "Mon-Fri", "time": "3:30pm"}, {"days": "Sat", "time": "12:30pm"}, {"days": "Sun", "time": "Closed"}], "id": "1631600000", "name": "USPS COLLECTION BOX - BLUE BOX", "address": {"city": "CONNEAUT LAKE", "state": "PA", "street": "170 N 4TH ST", "postcode": "16316"}}},
{"geometry": {"type": "Point", "coordinates": [-80.3057770219, 41.6043535815]}, "type": "Feature", "properties": {"collection_times": [{"days": "Mon-Fri", "time": "3:30pm"}, {"days": "Sat", "time": "12:30pm"}, {"days": "Sun", "time": "Closed"}], "id": "1631600001", "name": "USPS COLLECTION BOX - BLUE BOX", "address": {"city": "CONNEAUT LAKE", "state": "PA", "street": "170 N 4TH ST", "postcode": "16316"}}},
{"geometry": {"type": "Point", "coordinates": [-80.3172635534, 41.6365608223]}, "type": "Feature", "properties": {"collection_times": [{"days": "Mon-Sat", "time": "9:00am"}, {"days": "Sun", "time": "Closed"}], "id": "1631600002", "name": "USPS COLLECTION BOX - BLUE BOX", "address": {"city": "CONNEAUT LAKE", "state": "PA", "street": "12495 REED AVE", "postcode": "16316"}}},
{"geometry": {"type": "Point", "coordinates": [-80.3057770219, 41.6043535815]}, "type": "Feature", "properties": {"collection_times": [{"days": "Mon-Fri", "time": "4:00pm"}, {"days": "Sat", "time": "12:30pm"}, {"days": "Sun", "time": "Closed"}], "id": "1631600003", "name": "USPS COLLECTION BOX - PO LOBBY", "address": {"city": "CONNEAUT LAKE", "state": "PA", "street": "170 N 4TH ST", "postcode": "16316"}}},
{"geometry": {"type": "Point", "coordinates": [-79.8717694879, 41.5007441206]}, "type": "Feature", "properties": {"collection_times": [{"days": "Mon-Fri", "time": "4:45pm"}, {"days": "Sat", "time": "12:00pm"}, {"days": "Sun", "time": "Closed"}], "id": "1631700000", "name": "USPS COLLECTION BOX - BLUE BOX", "address": {"city": "COOPERSTOWN", "state": "PA", "street": "137 BRADLEYTOWN RD", "postcode": "16317"}}},
{"geometry": {"type": "Point", "coordinates": [-79.8717694879, 41.5007441206]}, "type": "Feature", "properties": {"collection_times": [{"days": "Mon-Fri", "time": "4:45pm"}, {"days": "Sat", "time": "12:00pm"}, {"days": "Sun", "time": "Closed"}], "id": "1631700001", "name": "USPS COLLECTION BOX - PO LOBBY", "address": {"city": "COOPERSTOWN", "state": "PA", "street": "137 BRADLEYTOWN RD", "postcode": "16317"}}},
{"geometry": {"type": "Point", "coordinates": [-79.7177127419, 41.3503308882]}, "type": "Feature", "properties": {"collection_times": [{"days": "Mon-Sat", "time": "12:30pm"}, {"days": "Sun", "time": "Closed"}], "id": "1631900003", "name": "USPS COLLECTION BOX - BLUE BOX", "address": {"city": "CRANBERRY", "state": "PA", "street": "10 KIMBERLY LN", "postcode": "16319"}}},
{"geometry": {"type": "Point", "coordinates": [-79.3769505513, 41.5917442892]}, "type": "Feature", "properties": {"collection_times": [{"days": "Mon-Fri", "time": "11:55am"}, {"days": "Sat", "time": "11:00am"}, {"days": "Sun", "time": "Closed"}], "id": "1632200000", "name": "USPS COLLECTION BOX - BLUE BOX", "address": {"city": "ENDEAVOR", "state": "PA", "street": "17520 ROUTE 666", "postcode": "16322"}}},
{"geometry": {"type": "Point", "coordinates": [-79.3769505513, 41.5917442892]}, "type": "Feature", "properties": {"collection_times": [{"days": "Mon-Fri", "time": "11:55am"}, {"days": "Sat", "time": "11:00am"}, {"days": "Sun", "time": "Closed"}], "id": "1632200001", "name": "USPS COLLECTION BOX - PO LOBBY", "address": {"city": "ENDEAVOR", "state": "PA", "street": "17520 ROUTE 666", "postcode": "16322"}}},
{"geometry": {"type": "Point", "coordinates": [-79.8258754119, 41.4106416851]}, "type": "Feature", "properties": {"collection_times": [{"days": "Mon-Sat", "time": "2:30pm"}, {"days": "Sun", "time": "Closed"}], "id": "1632300000", "name": "USPS COLLECTION BOX - BLUE BOX", "address": {"city": "FRANKLIN", "state": "PA", "street": "321 ROCKY GROVE AVE", "postcode": "16323"}}},
{"geometry": {"type": "Point", "coordinates": [-79.850318893, 41.3820661283]}, "type": "Feature", "properties": {"collection_times": [{"days": "Mon-Sat", "time": "8:45am"}, {"days": "Sun", "time": "Closed"}], "id": "1632300006", "name": "USPS COLLECTION BOX - BLUE BOX", "address": {"city": "FRANKLIN", "state": "PA", "street": "1218 15TH ST", "postcode": "16323"}}},
{"geometry": {"type": "Point", "coordinates": [-79.834289799, 41.4095332525]}, "type": "Feature", "properties": {"collection_times": [{"days": "Mon-Fri", "time": "9:00am"}, {"days": "Sat-Sun", "time": "Closed"}], "id": "1632300007", "name": "USPS COLLECTION BOX - BLUE BOX", "address": {"city": "FRANKLIN", "state": "PA", "street": "150 PROSPECT AVE", "postcode": "16323"}}},
{"geometry": {"type": "Point", "coordinates": [-79.836063712, 41.407587344]}, "type": "Feature", "properties": {"collection_times": [{"days": "Mon-Sat", "time": "10:00am"}, {"days": "Sun", "time": "Closed"}], "id": "1632300011", "name": "USPS COLLECTION BOX - BLUE BOX", "address": {"city": "FRANKLIN", "state": "PA", "street": "1 DALE AVE", "postcode": "16323"}}},
{"geometry": {"type": "Point", "coordinates": [-79.8273142564, 41.3984972267]}, "type": "Feature", "properties": {"collection_times": [{"days": "Mon-Fri", "time": "5:00pm"}, {"days": "Sat", "time": "4:30pm"}, {"days": "Sun", "time": "Closed"}], "id": "1632300013", "name": "USPS COLLECTION BOX - BLUE BOX", "address": {"city": "FRANKLIN", "state": "PA", "street": "1202 ELK ST", "postcode": "16323"}}},
{"geometry": {"type": "Point", "coordinates": [-79.8271944112, 41.3984572078]}, "type": "Feature", "properties": {"collection_times": [{"days": "Mon-Fri", "time": "5:00pm"}, {"days": "Sat", "time": "4:30pm"}, {"days": "Sun", "time": "Closed"}], "id": "1632300014", "name": "USPS COLLECTION BOX - BLUE BOX", "address": {"city": "FRANKLIN", "state": "PA", "street": "1202 ELK ST", "postcode": "16323"}}},
{"geometry": {"type": "Point", "coordinates": [-79.8315176437, 41.3980017915]}, "type": "Feature", "properties": {"collection_times": [{"days": "Mon-Fri", "time": "5:00pm"}, {"days": "Sat", "time": "2:15pm"}, {"days": "Sun", "time": "Closed"}], "id": "1632300016", "name": "USPS COLLECTION BOX - BLUE BOX", "address": {"city": "FRANKLIN", "state": "PA", "street": "1302 LIBERTY ST", "postcode": "16323"}}},
{"geometry": {"type": "Point", "coordinates": [-79.8291433771, 41.3975444988]}, "type": "Feature", "properties": {"collection_times": [{"days": "Mon-Fri", "time": "5:00pm"}, {"days": "Sat", "time": "2:15pm"}, {"days": "Sun", "time": "Closed"}], "id": "1632300018", "name": "USPS COLLECTION BOX - BLUE BOX", "address": {"city": "FRANKLIN", "state": "PA", "street": "1243 LIBERTY ST", "postcode": "16323"}}},
{"geometry": {"type": "Point", "coordinates": [-79.8267141298, 41.3954465772]}, "type": "Feature", "properties": {"collection_times": [{"days": "Mon-Sat", "time": "10:00am"}, {"days": "Sun", "time": "Closed"}], "id": "1632300020", "name": "USPS COLLECTION BOX - BLUE BOX", "address": {"city": "FRANKLIN", "state": "PA", "street": "1109 LIBERTY ST", "postcode": "16323"}}},
{"geometry": {"type": "Point", "coordinates": [-79.8242831492, 41.3913239652]}, "type": "Feature", "properties": {"collection_times": [{"days": "Mon-Sat", "time": "10:30am"}, {"days": "Sun", "time": "Closed"}], "id": "1632300021", "name": "USPS COLLECTION BOX - BLUE BOX", "address": {"city": "FRANKLIN", "state": "PA", "street": "902 LIBERTY ST", "postcode": "16323"}}},
{"geometry": {"type": "Point", "coordinates": [-79.8271944112, 41.3984572078]}, "type": "Feature", "properties": {"collection_times": [{"days": "Mon-Fri", "time": "5:00pm"}, {"days": "Sat", "time": "4:30pm"}, {"days": "Sun", "time": "Closed"}], "id": "1632300024", "name": "USPS COLLECTION BOX - BLUE BOX", "address": {"city": "FRANKLIN", "state": "PA", "street": "1202 ELK ST", "postcode": "16323"}}},
{"geometry": {"type": "Point", "coordinates": [-79.8271944112, 41.3984572078]}, "type": "Feature", "properties": {"collection_times": [{"days": "Mon-Fri", "time": "5:00pm"}, {"days": "Sat", "time": "4:30pm"}, {"days": "Sun", "time": "Closed"}], "id": "1632300025", "name": "USPS COLLECTION BOX - BLUE BOX", "address": {"city": "FRANKLIN", "state": "PA", "street": "1202 ELK ST", "postcode": "16323"}}},
{"geometry": {"type": "Point", "coordinates": [-79.8271944112, 41.3984572078]}, "type": "Feature", "properties": {"collection_times": [{"days": "Mon-Fri", "time": "5:00pm"}, {"days": "Sat", "time": "4:30pm"}, {"days": "Sun", "time": "Closed"}], "id": "1632300026", "name": "USPS COLLECTION BOX - PO LOBBY", "address": {"city": "FRANKLIN", "state": "PA", "street": "1202 ELK ST", "postcode": "16323"}}},
{"geometry": {"type": "Point", "coordinates": [-79.4375730344, 41.3536396643]}, "type": "Feature", "properties": {"collection_times": [{"days": "Mon-Fri", "time": "11:55am"}, {"days": "Sat", "time": "11:45am"}, {"days": "Sun", "time": "Closed"}], "id": "1632600000", "name": "USPS COLLECTION BOX - BLUE BOX", "address": {"city": "FRYBURG", "state": "PA", "street": "5383 OLD FRYBURG RD", "postcode": "16326"}}},
{"geometry": {"type": "Point", "coordinates": [-79.4375730344, 41.3536396643]}, "type": "Feature", "properties": {"collection_times": [{"days": "Mon-Fri", "time": "11:55am"}, {"days": "Sat", "time": "11:45am"}, {"days": "Sun", "time": "Closed"}], "id": "1632600001", "name": "USPS COLLECTION BOX - PO LOBBY", "address": {"city": "FRYBURG", "state": "PA", "street": "5383 OLD FRYBURG RD", "postcode": "16326"}}},
{"geometry": {"type": "Point", "coordinates": [-79.9767973167, 41.6318727559]}, "type": "Feature", "properties": {"collection_times": [{"days": "Mon-Fri", "time": "3:00pm"}, {"days": "Sat", "time": "12:00pm"}, {"days": "Sun", "time": "Closed"}], "id": "1632700000", "name": "USPS COLLECTION BOX - BLUE BOX", "address": {"city": "GUYS MILLS", "state": "PA", "street": "11522 STATE HIGHWAY 198", "postcode": "16327"}}},
{"geometry": {"type": "Point", "coordinates": [-79.9767973167, 41.6318727559]}, "type": "Feature", "properties": {"collection_times": [{"days": "Mon-Fri", "time": "3:00pm"}, {"days": "Sat", "time": "12:00pm"}, {"days": "Sun", "time": "Closed"}], "id": "1632700001", "name": "USPS COLLECTION BOX - PO LOBBY", "address": {"city": "GUYS MILLS", "state": "PA", "street": "11522 STATE HIGHWAY 198", "postcode": "16327"}}},
{"geometry": {"type": "Point", "coordinates": [-79.2808926974, 41.8504223541]}, "type": "Feature", "properties": {"collection_times": [{"days": "Mon-Fri", "time": "11:55am"}, {"days": "Sat", "time": "10:45am"}, {"days": "Sun", "time": "Closed"}], "id": "1632900000", "name": "USPS COLLECTION BOX - BLUE BOX", "address": {"city": "IRVINE", "state": "PA", "street": "853 NATIONAL FORGE RD", "postcode": "16329"}}},
{"geometry": {"type": "Point", "coordinates": [-79.2808926974, 41.8504223541]}, "type": "Feature", "properties": {"collection_times": [{"days": "Mon-Fri", "time": "11:55am"}, {"days": "Sat", "time": "10:45am"}, {"days": "Sun", "time": "Closed"}], "id": "1632900001", "name": "USPS COLLECTION BOX - PO LOBBY", "address": {"city": "IRVINE", "state": "PA", "street": "853 NATIONAL FORGE RD", "postcode": "16329"}}},
{"geometry": {"type": "Point", "coordinates": [-79.5770269176, 41.2908305482]}, "type": "Feature", "properties": {"collection_times": [{"days": "Mon-Fri", "time": "10:50am"}, {"days": "Sat", "time": "12:00pm"}, {"days": "Sun", "time": "Closed"}], "id": "1633100001", "name": "USPS COLLECTION BOX - BLUE BOX", "address": {"city": "KOSSUTH", "state": "PA", "street": "1787 ROUTE 322 STE 1", "postcode": "16331"}}},
{"geometry": {"type": "Point", "coordinates": [-78.8597705989, 41.803164203]}, "type": "Feature", "properties": {"collection_times": [{"days": "Mon-Fri", "time": "11:55am"}, {"days": "Sat", "time": "11:00am"}, {"days": "Sun", "time": "Closed"}], "id": "1633300000", "name": "USPS COLLECTION BOX - BLUE BOX", "address": {"city": "LUDLOW", "state": "PA", "street": "1 LINCOLN AVE", "postcode": "16333"}}},
{"geometry": {"type": "Point", "coordinates": [-78.8597705989, 41.803164203]}, "type": "Feature", "properties": {"collection_times": [{"days": "Mon-Fri", "time": "11:55am"}, {"days": "Sat", "time": "11:00am"}, {"days": "Sun", "time": "Closed"}], "id": "1633300001", "name": "USPS COLLECTION BOX - PO LOBBY", "address": {"city": "LUDLOW", "state": "PA", "street": "1 LINCOLN AVE", "postcode": "16333"}}},
{"geometry": {"type": "Point", "coordinates": [-79.5009737167, 41.3220494573]}, "type": "Feature", "properties": {"collection_times": [{"days": "Mon-Fri", "time": "11:55am"}, {"days": "Sat", "time": "11:45am"}, {"days": "Sun", "time": "Closed"}], "id": "1633400000", "name": "USPS COLLECTION BOX - BLUE BOX", "address": {"city": "MARBLE", "state": "PA", "street": "18104 ROUTE 208", "postcode": "16334"}}},
{"geometry": {"type": "Point", "coordinates": [-79.5009737167, 41.3220494573]}, "type": "Feature", "properties": {"collection_times": [{"days": "Mon-Fri", "time": "11:55am"}, {"days": "Sat", "time": "11:45am"}, {"days": "Sun", "time": "Closed"}], "id": "1633400001", "name": "USPS COLLECTION BOX - PO LOBBY", "address": {"city": "MARBLE", "state": "PA", "street": "18104 ROUTE 208", "postcode": "16334"}}},
{"geometry": {"type": "Point", "coordinates": [-80.152575708, 41.6393116231]}, "type": "Feature", "properties": {"collection_times": [{"days": "Mon-Fri", "time": "5:00pm"}, {"days": "Sat", "time": "9:00am"}, {"days": "Sun", "time": "Closed"}], "id": "1633500001", "name": "USPS COLLECTION BOX - BLUE BOX", "address": {"city": "MEADVILLE", "state": "PA", "street": "250 W CENTER ST", "postcode": "16335"}}},
{"geometry": {"type": "Point", "coordinates": [-80.1538006615, 41.638259818]}, "type": "Feature", "properties": {"collection_times": [{"days": "Mon-Fri", "time": "3:00pm"}, {"days": "Sat", "time": "9:00am"}, {"days": "Sun", "time": "Closed"}], "id": "1633500002", "name": "USPS COLLECTION BOX - BLUE BOX", "address": {"city": "MEADVILLE", "state": "PA", "street": "230 CHESTNUT ST", "postcode": "16335"}}},
{"geometry": {"type": "Point", "coordinates": [-80.1514138895, 41.637808844]}, "type": "Feature", "properties": {"collection_times": [{"days": "Mon-Fri", "time": "3:00pm"}, {"days": "Sat", "time": "9:00am"}, {"days": "Sun", "time": "Closed"}], "id": "1633500005", "name": "USPS COLLECTION BOX - BLUE BOX", "address": {"city": "MEADVILLE", "state": "PA", "street": "296 CHESTNUT ST", "postcode": "16335"}}},
{"geometry": {"type": "Point", "coordinates": [-80.1464076072, 41.6415895809]}, "type": "Feature", "properties": {"collection_times": [{"days": "Mon-Sat", "time": "9:00am"}, {"days": "Sun", "time": "Closed"}], "id": "1633500019", "name": "USPS COLLECTION BOX - BLUE BOX", "address": {"city": "MEADVILLE", "state": "PA", "street": "751 LIBERTY ST", "postcode": "16335"}}},
{"geometry": {"type": "Point", "coordinates": [-80.1448307229, 41.6411660816]}, "type": "Feature", "properties": {"collection_times": [{"days": "Mon-Sat", "time": "9:00am"}, {"days": "Sun", "time": "Closed"}], "id": "1633500020", "name": "USPS COLLECTION BOX - BLUE BOX", "address": {"city": "MEADVILLE", "state": "PA", "street": "764 KENNEDY ST", "postcode": "16335"}}},
{"geometry": {"type": "Point", "coordinates": [-80.1450389236, 41.6332863919]}, "type": "Feature", "properties": {"collection_times": [{"days": "Mon-Fri", "time": "3:00pm"}, {"days": "Sat", "time": "9:00am"}, {"days": "Sun", "time": "Closed"}], "id": "1633500026", "name": "USPS COLLECTION BOX - BLUE BOX", "address": {"city": "MEADVILLE", "state": "PA", "street": "1034 GROVE ST", "postcode": "16335"}}},
{"geometry": {"type": "Point", "coordinates": [-80.1605806385, 41.6233850254]}, "type": "Feature", "properties": {"collection_times": [{"days": "Mon-Sat", "time": "9:00am"}, {"days": "Sun", "time": "Closed"}], "id": "1633500030", "name": "USPS COLLECTION BOX - BLUE BOX", "address": {"city": "MEADVILLE", "state": "PA", "street": "19017 PARK AVENUE PLZ", "postcode": "16335"}}},
{"geometry": {"type": "Point", "coordinates": [-80.1557222261, 41.6369370033]}, "type": "Feature", "properties": {"collection_times": [{"days": "Mon-Fri", "time": "5:00pm"}, {"days": "Sat", "time": "9:00am"}, {"days": "Sun", "time": "Closed"}], "id": "1633500034", "name": "USPS COLLECTION BOX - BLUE BOX", "address": {"city": "MEADVILLE", "state": "PA", "street": "984 WATER ST", "postcode": "16335"}}},
{"geometry": {"type": "Point", "coordinates": [-80.1489897739, 41.6321364654]}, "type": "Feature", "properties": {"collection_times": [{"days": "Mon-Sat", "time": "9:00am"}, {"days": "Sun", "time": "Closed"}], "id": "1633500036", "name": "USPS COLLECTION BOX - BLUE BOX", "address": {"city": "MEADVILLE", "state": "PA", "street": "422 FAIRMONT AVE", "postcode": "16335"}}},
{"geometry": {"type": "Point", "coordinates": [-80.1551863456, 41.6372268282]}, "type": "Feature", "properties": {"collection_times": [{"days": "Mon-Fri", "time": "5:15pm"}, {"days": "Sat", "time": "3:00pm"}, {"days": "Sun", "time": "Closed"}], "id": "1633500043", "name": "USPS COLLECTION BOX - BLUE BOX", "address": {"city": "MEADVILLE", "state": "PA", "street": "212 ARCH ST", "postcode": "16335"}}},
{"geometry": {"type": "Point", "coordinates": [-80.1551863456, 41.6372268282]}, "type": "Feature", "properties": {"collection_times": [{"days": "Mon-Fri", "time": "5:15pm"}, {"days": "Sat", "time": "3:00pm"}, {"days": "Sun", "time": "Closed"}], "id": "1633500045", "name": "USPS COLLECTION BOX - BLUE BOX", "address": {"city": "MEADVILLE", "state": "PA", "street": "212 ARCH ST", "postcode": "16335"}}},
{"geometry": {"type": "Point", "coordinates": [-80.1543771984, 41.6359710869]}, "type": "Feature", "properties": {"collection_times": [{"days": "Mon-Fri", "time": "3:30pm"}, {"days": "Sat", "time": "3:00pm"}, {"days": "Sun", "time": "Closed"}], "id": "1633500046", "name": "USPS COLLECTION BOX - EXPRESS", "address": {"city": "MEADVILLE", "state": "PA", "street": "212 ARCH ST", "postcode": "16335"}}},
{"geometry": {"type": "Point", "coordinates": [-80.1551863456, 41.6372268282]}, "type": "Feature", "properties": {"collection_times": [{"days": "Mon-Fri", "time": "5:15pm"}, {"days": "Sat", "time": "3:00pm"}, {"days": "Sun", "time": "Closed"}], "id": "1633500047", "name": "USPS COLLECTION BOX - BLUE BOX", "address": {"city": "MEADVILLE", "state": "PA", "street": "212 ARCH ST", "postcode": "16335"}}},
{"geometry": {"type": "Point", "coordinates": [-80.1551863456, 41.6372268282]}, "type": "Feature", "properties": {"collection_times": [{"days": "Mon-Fri", "time": "5:15pm"}, {"days": "Sat", "time": "3:00pm"}, {"days": "Sun", "time": "Closed"}], "id": "1633500048", "name": "USPS COLLECTION BOX - BLUE BOX", "address": {"city": "MEADVILLE", "state": "PA", "street": "212 ARCH ST", "postcode": "16335"}}},
{"geometry": {"type": "Point", "coordinates": [-80.1496075112, 41.6384263486]}, "type": "Feature", "properties": {"collection_times": [{"days": "Mon-Fri", "time": "3:00pm"}, {"days": "Sat", "time": "9:00am"}, {"days": "Sun", "time": "Closed"}], "id": "1633500050", "name": "USPS COLLECTION BOX - BLUE BOX", "address": {"city": "MEADVILLE", "state": "PA", "street": "903 DIAMOND PARK", "postcode": "16335"}}},
{"geometry": {"type": "Point", "coordinates": [-80.1550869771, 41.6386321835]}, "type": "Feature", "properties": {"collection_times": [{"days": "Mon-Fri", "time": "3:00pm"}, {"days": "Sat", "time": "9:00am"}, {"days": "Sun", "time": "Closed"}], "id": "1633500051", "name": "USPS COLLECTION BOX - BLUE BOX", "address": {"city": "MEADVILLE", "state": "PA", "street": "900 WATER ST", "postcode": "16335"}}},
{"geometry": {"type": "Point", "coordinates": [-80.1551863456, 41.6372268282]}, "type": "Feature", "properties": {"collection_times": [{"days": "Mon-Fri", "time": "5:15pm"}, {"days": "Sat", "time": "3:00pm"}, {"days": "Sun", "time": "Closed"}], "id": "1633500052", "name": "USPS COLLECTION BOX - PO LOBBY", "address": {"city": "MEADVILLE", "state": "PA", "street": "212 ARCH ST", "postcode": "16335"}}},
{"geometry": {"type": "Point", "coordinates": [-80.1551863456, 41.6372268282]}, "type": "Feature", "properties": {"collection_times": [{"days": "Mon-Fri", "time": "5:15pm"}, {"days": "Sat", "time": "3:00pm"}, {"days": "Sun", "time": "Closed"}], "id": "1633500053", "name": "USPS COLLECTION BOX - APC", "address": {"city": "MEADVILLE", "state": "PA", "street": "212 ARCH ST", "postcode": "16335"}}},
{"geometry": {"type": "Point", "coordinates": [-79.4429758517, 41.8209794262]}, "type": "Feature", "properties": {"collection_times": [{"days": "Mon-Fri", "time": "4:30pm"}, {"days": "Sat", "time": "11:45am"}, {"days": "Sun", "time": "Closed"}], "id": "1634000000", "name": "USPS COLLECTION BOX - BLUE BOX", "address": {"city": "PITTSFIELD", "state": "PA", "street": "128 DALRYMPLE ST", "postcode": "16340"}}},
{"geometry": {"type": "Point", "coordinates": [-79.4429758517, 41.8209794262]}, "type": "Feature", "properties": {"collection_times": [{"days": "Mon-Fri", "time": "4:45pm"}, {"days": "Sat", "time": "11:45am"}, {"days": "Sun", "time": "Closed"}], "id": "1634000001", "name": "USPS COLLECTION BOX - PO LOBBY", "address": {"city": "PITTSFIELD", "state": "PA", "street": "128 DALRYMPLE ST", "postcode": "16340"}}},
{"geometry": {"type": "Point", "coordinates": [-79.5806799584, 41.5913232885]}, "type": "Feature", "properties": {"collection_times": [{"days": "Mon-Fri", "time": "4:45pm"}, {"days": "Sat", "time": "12:00pm"}, {"days": "Sun", "time": "Closed"}], "id": "1634100000", "name": "USPS COLLECTION BOX - BLUE BOX", "address": {"city": "PLEASANTVILLE", "state": "PA", "street": "125 S MAIN ST", "postcode": "16341"}}},
{"geometry": {"type": "Point", "coordinates": [-79.5806799584, 41.5913232885]}, "type": "Feature", "properties": {"collection_times": [{"days": "Mon-Fri", "time": "4:45pm"}, {"days": "Sat", "time": "12:00pm"}, {"days": "Sun", "time": "Closed"}], "id": "1634100001", "name": "USPS COLLECTION BOX - PO LOBBY", "address": {"city": "PLEASANTVILLE", "state": "PA", "street": "125 S MAIN ST", "postcode": "16341"}}},
{"geometry": {"type": "Point", "coordinates": [-79.9281717884, 41.3676789814]}, "type": "Feature", "properties": {"collection_times": [{"days": "Mon-Fri", "time": "4:00pm"}, {"days": "Sat", "time": "12:00pm"}, {"days": "Sun", "time": "Closed"}], "id": "1634200000", "name": "USPS COLLECTION BOX - BLUE BOX", "address": {"city": "POLK", "state": "PA", "street": "710 MAIN ST", "postcode": "16342"}}},
{"geometry": {"type": "Point", "coordinates": [-79.9281717884, 41.3676789814]}, "type": "Feature", "properties": {"collection_times": [{"days": "Mon-Fri", "time": "4:00pm"}, {"days": "Sat", "time": "12:00pm"}, {"days": "Sun", "time": "Closed"}], "id": "1634200001", "name": "USPS COLLECTION BOX - PO LOBBY", "address": {"city": "POLK", "state": "PA", "street": "710 MAIN ST", "postcode": "16342"}}},
{"geometry": {"type": "Point", "coordinates": [-79.7472355413, 41.408684665]}, "type": "Feature", "properties": {"collection_times": [{"days": "Mon-Fri", "time": "11:55am"}, {"days": "Sat", "time": "12:00pm"}, {"days": "Sun", "time": "Closed"}], "id": "1634300000", "name": "USPS COLLECTION BOX - BLUE BOX", "address": {"city": "RENO", "state": "PA", "street": "1891 ALLEGHENY BLVD", "postcode": "16343"}}},
{"geometry": {"type": "Point", "coordinates": [-79.7472355413, 41.408684665]}, "type": "Feature", "properties": {"collection_times": [{"days": "Mon-Fri", "time": "11:55am"}, {"days": "Sat", "time": "12:00pm"}, {"days": "Sun", "time": "Closed"}], "id": "1634300001", "name": "USPS COLLECTION BOX - PO LOBBY", "address": {"city": "RENO", "state": "PA", "street": "1891 ALLEGHENY BLVD", "postcode": "16343"}}},
{"geometry": {"type": "Point", "coordinates": [-79.6905074945, 41.4694158935]}, "type": "Feature", "properties": {"collection_times": [{"days": "Mon-Fri", "time": "12:25pm"}, {"days": "Sat", "time": "12:00pm"}, {"days": "Sun", "time": "Closed"}], "id": "1634400000", "name": "USPS COLLECTION BOX - BLUE BOX", "address": {"city": "ROUSEVILLE", "state": "PA", "street": "114 CHERRY RUN RD", "postcode": "16344"}}},
{"geometry": {"type": "Point", "coordinates": [-79.6905074945, 41.4694158935]}, "type": "Feature", "properties": {"collection_times": [{"days": "Mon-Fri", "time": "12:25pm"}, {"days": "Sat", "time": "12:00pm"}, {"days": "Sun", "time": "Closed"}], "id": "1634400001", "name": "USPS COLLECTION BOX - PO LOBBY", "address": {"city": "ROUSEVILLE", "state": "PA", "street": "114 CHERRY RUN RD", "postcode": "16344"}}},
{"geometry": {"type": "Point", "coordinates": [-79.1340949772, 41.9394637857]}, "type": "Feature", "properties": {"collection_times": [{"days": "Mon-Fri", "time": "4:15pm"}, {"days": "Sat", "time": "12:00pm"}, {"days": "Sun", "time": "Closed"}], "id": "1634500000", "name": "USPS COLLECTION BOX - BLUE BOX", "address": {"city": "RUSSELL", "state": "PA", "street": "102 LIBERTY ST", "postcode": "16345"}}},
{"geometry": {"type": "Point", "coordinates": [-79.1340949772, 41.9394637857]}, "type": "Feature", "properties": {"collection_times": [{"days": "Mon-Fri", "time": "4:15pm"}, {"days": "Sat", "time": "12:00pm"}, {"days": "Sun", "time": "Closed"}], "id": "1634500001", "name": "USPS COLLECTION BOX - PO LOBBY", "address": {"city": "RUSSELL", "state": "PA", "street": "102 LIBERTY ST", "postcode": "16345"}}},
{"geometry": {"type": "Point", "coordinates": [-79.7013689809, 41.3779068446]}, "type": "Feature", "properties": {"collection_times": [{"days": "Mon-Fri", "time": "5:00pm"}, {"days": "Sat", "time": "12:00pm"}, {"days": "Sun", "time": "Closed"}], "id": "1634600000", "name": "USPS COLLECTION BOX - BLUE BOX", "address": {"city": "SENECA", "state": "PA", "street": "130 MEADOW RD", "postcode": "16346"}}},
{"geometry": {"type": "Point", "coordinates": [-79.7013689809, 41.3779068446]}, "type": "Feature", "properties": {"collection_times": [{"days": "Mon-Fri", "time": "5:00pm"}, {"days": "Sat", "time": "12:00pm"}, {"days": "Sun", "time": "Closed"}], "id": "1634600001", "name": "USPS COLLECTION BOX - BLUE BOX", "address": {"city": "SENECA", "state": "PA", "street": "130 MEADOW RD", "postcode": "16346"}}},
{"geometry": {"type": "Point", "coordinates": [-79.7013689809, 41.3779068446]}, "type": "Feature", "properties": {"collection_times": [{"days": "Mon-Fri", "time": "5:00pm"}, {"days": "Sat", "time": "12:00pm"}, {"days": "Sun", "time": "Closed"}], "id": "1634600002", "name": "USPS COLLECTION BOX - PO LOBBY", "address": {"city": "SENECA", "state": "PA", "street": "130 MEADOW RD", "postcode": "16346"}}},
{"geometry": {"type": "Point", "coordinates": [-79.0339556118, 41.7022798706]}, "type": "Feature", "properties": {"collection_times": [{"days": "Mon-Fri", "time": "4:15pm"}, {"days": "Sat", "time": "12:45pm"}, {"days": "Sun", "time": "Closed"}], "id": "1634700000", "name": "USPS COLLECTION BOX - BLUE BOX", "address": {"city": "SHEFFIELD", "state": "PA", "street": "90 S MAIN ST", "postcode": "16347"}}},
{"geometry": {"type": "Point", "coordinates": [-79.0339556118, 41.7022798706]}, "type": "Feature", "properties": {"collection_times": [{"days": "Mon-Fri", "time": "4:15pm"}, {"days": "Sat", "time": "12:45pm"}, {"days": "Sun", "time": "Closed"}], "id": "1634700001", "name": "USPS COLLECTION BOX - PO LOBBY", "address": {"city": "SHEFFIELD", "state": "PA", "street": "90 S MAIN ST", "postcode": "16347"}}},
{"geometry": {"type": "Point", "coordinates": [-79.0339556118, 41.7022798706]}, "type": "Feature", "properties": {"collection_times": [{"days": "Mon-Fri", "time": "4:15pm"}, {"days": "Sat", "time": "12:45pm"}, {"days": "Sun", "time": "Closed"}], "id": "1634700002", "name": "USPS COLLECTION BOX - PO LOBBY", "address": {"city": "SHEFFIELD", "state": "PA", "street": "90 S MAIN ST", "postcode": "16347"}}},
{"geometry": {"type": "Point", "coordinates": [-79.3191700665, 41.9391915809]}, "type": "Feature", "properties": {"collection_times": [{"days": "Mon-Fri", "time": "3:45pm"}, {"days": "Sat", "time": "12:00pm"}, {"days": "Sun", "time": "Closed"}], "id": "1635000000", "name": "USPS COLLECTION BOX - BLUE BOX", "address": {"city": "SUGARGROVE", "state": "PA", "street": "10 ABBOTT ST", "postcode": "16350"}}},
{"geometry": {"type": "Point", "coordinates": [-79.3191700665, 41.9391915809]}, "type": "Feature", "properties": {"collection_times": [{"days": "Mon-Fri", "time": "4:00pm"}, {"days": "Sat", "time": "12:00pm"}, {"days": "Sun", "time": "Closed"}], "id": "1635000001", "name": "USPS COLLECTION BOX - PO LOBBY", "address": {"city": "SUGARGROVE", "state": "PA", "street": "10 ABBOTT ST", "postcode": "16350"}}},
{"geometry": {"type": "Point", "coordinates": [-79.4120995816, 41.6832535496]}, "type": "Feature", "properties": {"collection_times": [{"days": "Mon-Fri", "time": "3:00pm"}, {"days": "Sat", "time": "12:15pm"}, {"days": "Sun", "time": "Closed"}], "id": "1635100000", "name": "USPS COLLECTION BOX - BLUE BOX", "address": {"city": "TIDIOUTE", "state": "PA", "street": "160 MAIN ST", "postcode": "16351"}}},
{"geometry": {"type": "Point", "coordinates": [-79.3935276303, 41.677930805]}, "type": "Feature", "properties": {"collection_times": [{"days": "Mon-Sat", "time": "10:00am"}, {"days": "Sun", "time": "Closed"}], "id": "1635100004", "name": "USPS COLLECTION BOX - BLUE BOX", "address": {"city": "TIDIOUTE", "state": "PA", "street": "15910 ROUTE 62", "postcode": "16351"}}},
{"geometry": {"type": "Point", "coordinates": [-79.4120995816, 41.6832535496]}, "type": "Feature", "properties": {"collection_times": [{"days": "Mon-Fri", "time": "3:00pm"}, {"days": "Sat", "time": "12:15pm"}, {"days": "Sun", "time": "Closed"}], "id": "1635100005", "name": "USPS COLLECTION BOX - PO LOBBY", "address": {"city": "TIDIOUTE", "state": "PA", "street": "160 MAIN ST", "postcode": "16351"}}},
{"geometry": {"type": "Point", "coordinates": [-79.0676215008, 41.7470162001]}, "type": "Feature", "properties": {"collection_times": [{"days": "Mon-Fri", "time": "11:55am"}, {"days": "Sat", "time": "10:45am"}, {"days": "Sun", "time": "Closed"}], "id": "1635200000", "name": "USPS COLLECTION BOX - BLUE BOX", "address": {"city": "TIONA", "state": "PA", "street": "25 SIX MILE RD", "postcode": "16352"}}},
{"geometry": {"type": "Point", "coordinates": [-79.0676215008, 41.7470162001]}, "type": "Feature", "properties": {"collection_times": [{"days": "Mon-Fri", "time": "11:55am"}, {"days": "Sat", "time": "10:45am"}, {"days": "Sun", "time": "Closed"}], "id": "1635200001", "name": "USPS COLLECTION BOX - PO LOBBY", "address": {"city": "TIONA", "state": "PA", "street": "25 SIX MILE RD", "postcode": "16352"}}},
{"geometry": {"type": "Point", "coordinates": [-79.4561705001, 41.4901859224]}, "type": "Feature", "properties": {"collection_times": [{"days": "Mon-Fri", "time": "2:00pm"}, {"days": "Sat", "time": "1:00pm"}, {"days": "Sun", "time": "Closed"}], "id": "1635300000", "name": "USPS COLLECTION BOX - BLUE BOX", "address": {"city": "TIONESTA", "state": "PA", "street": "220 ELM ST", "postcode": "16353"}}},
{"geometry": {"type": "Point", "coordinates": [-79.4566021126, 41.4934461104]}, "type": "Feature", "properties": {"collection_times": [{"days": "Mon-Fri", "time": "2:00pm"}, {"days": "Sat", "time": "1:00pm"}, {"days": "Sun", "time": "Closed"}], "id": "1635300001", "name": "USPS COLLECTION BOX - BLUE BOX", "address": {"city": "TIONESTA", "state": "PA", "street": "407 ELM ST REAR", "postcode": "16353"}}},
{"geometry": {"type": "Point", "coordinates": [-79.3835297726, 41.4683233947]}, "type": "Feature", "properties": {"collection_times": [{"days": "Mon-Fri", "time": "4:15pm"}, {"days": "Sat", "time": "11:30am"}, {"days": "Sun", "time": "Closed"}], "id": "1635300002", "name": "USPS COLLECTION BOX - BLUE BOX", "address": {"city": "TIONESTA", "state": "PA", "street": "115 FAULKNER DR", "postcode": "16353"}}},
{"geometry": {"type": "Point", "coordinates": [-79.3835297726, 41.4683233947]}, "type": "Feature", "properties": {"collection_times": [{"days": "Mon-Fri", "time": "4:15pm"}, {"days": "Sat", "time": "12:00pm"}, {"days": "Sun", "time": "Closed"}], "id": "1635300003", "name": "USPS COLLECTION BOX - PO LOBBY", "address": {"city": "TIONESTA", "state": "PA", "street": "115 FAULKNER DR", "postcode": "16353"}}},
{"geometry": {"type": "Point", "coordinates": [-79.7018796356, 41.6274331511]}, "type": "Feature", "properties": {"collection_times": [{"days": "Mon-Sat", "time": "3:15pm"}, {"days": "Sun", "time": "Closed"}], "id": "1635400000", "name": "USPS COLLECTION BOX - EXPRESS", "address": {"city": "TITUSVILLE", "state": "PA", "street": "135 W SPRING ST", "postcode": "16354"}}},
{"geometry": {"type": "Point", "coordinates": [-79.675044595, 41.6264429743]}, "type": "Feature", "properties": {"collection_times": [{"days": "Mon-Fri", "time": "5:00pm"}, {"days": "Sat", "time": "3:45pm"}, {"days": "Sun", "time": "Closed"}], "id": "1635400001", "name": "USPS COLLECTION BOX - BLUE BOX", "address": {"city": "TITUSVILLE", "state": "PA", "street": "135 W SPRING ST", "postcode": "16354"}}},
{"geometry": {"type": "Point", "coordinates": [-79.6744445041, 41.6264997633]}, "type": "Feature", "properties": {"collection_times": [{"days": "Mon-Fri", "time": "5:00pm"}, {"days": "Sat", "time": "3:45pm"}, {"days": "Sun", "time": "Closed"}], "id": "1635400003", "name": "USPS COLLECTION BOX - BLUE BOX", "address": {"city": "TITUSVILLE", "state": "PA", "street": "128 W SPRING ST", "postcode": "16354"}}},
{"geometry": {"type": "Point", "coordinates": [-79.6744445041, 41.6264997633]}, "type": "Feature", "properties": {"collection_times": [{"days": "Mon-Fri", "time": "5:00pm"}, {"days": "Sat", "time": "3:45pm"}, {"days": "Sun", "time": "Closed"}], "id": "1635400004", "name": "USPS COLLECTION BOX - BLUE BOX", "address": {"city": "TITUSVILLE", "state": "PA", "street": "128 W SPRING ST", "postcode": "16354"}}},
{"geometry": {"type": "Point", "coordinates": [-79.6752418143, 41.627041439]}, "type": "Feature", "properties": {"collection_times": [{"days": "Mon-Fri", "time": "5:00pm"}, {"days": "Sat", "time": "3:45pm"}, {"days": "Sun", "time": "Closed"}], "id": "1635400005", "name": "USPS COLLECTION BOX - BLUE BOX", "address": {"city": "TITUSVILLE", "state": "PA", "street": "201 W CENTRAL AVE", "postcode": "16354"}}},
{"geometry": {"type": "Point", "coordinates": [-79.6733423171, 41.6283321598]}, "type": "Feature", "properties": {"collection_times": [{"days": "Mon-Sat", "time": "2:30pm"}, {"days": "Sun", "time": "Closed"}], "id": "1635400007", "name": "USPS COLLECTION BOX - BLUE BOX", "address": {"city": "TITUSVILLE", "state": "PA", "street": "101 E MAIN ST", "postcode": "16354"}}},
{"geometry": {"type": "Point", "coordinates": [-79.6715986355, 41.6258763369]}, "type": "Feature", "properties": {"collection_times": [{"days": "Mon-Sat", "time": "2:15pm"}, {"days": "Sun", "time": "Closed"}], "id": "1635400010", "name": "USPS COLLECTION BOX - BLUE BOX", "address": {"city": "TITUSVILLE", "state": "PA", "street": "120 S MARTIN ST", "postcode": "16354"}}},
{"geometry": {"type": "Point", "coordinates": [-79.6704168595, 41.6271290905]}, "type": "Feature", "properties": {"collection_times": [{"days": "Mon-Sat", "time": "2:15pm"}, {"days": "Sun", "time": "Closed"}], "id": "1635400012", "name": "USPS COLLECTION BOX - BLUE BOX", "address": {"city": "TITUSVILLE", "state": "PA", "street": "217 E CENTRAL AVE", "postcode": "16354"}}},
{"geometry": {"type": "Point", "coordinates": [-79.6843603969, 41.6378750897]}, "type": "Feature", "properties": {"collection_times": [{"days": "Mon-Sat", "time": "12:30pm"}, {"days": "Sun", "time": "Closed"}], "id": "1635400013", "name": "USPS COLLECTION BOX - BLUE BOX", "address": {"city": "TITUSVILLE", "state": "PA", "street": "7 JACKSON WAY", "postcode": "16354"}}},
{"geometry": {"type": "Point", "coordinates": [-79.6788691013, 41.6271101631]}, "type": "Feature", "properties": {"collection_times": [{"days": "Mon-Sat", "time": "2:30pm"}, {"days": "Sun", "time": "Closed"}], "id": "1635400016", "name": "USPS COLLECTION BOX - BLUE BOX", "address": {"city": "TITUSVILLE", "state": "PA", "street": "329 W CENTRAL AVE", "postcode": "16354"}}},
{"geometry": {"type": "Point", "coordinates": [-79.6823860384, 41.6283203302]}, "type": "Feature", "properties": {"collection_times": [{"days": "Mon-Sat", "time": "2:15pm"}, {"days": "Sun", "time": "Closed"}], "id": "1635400026", "name": "USPS COLLECTION BOX - BLUE BOX", "address": {"city": "TITUSVILLE", "state": "PA", "street": "533 W MAIN ST", "postcode": "16354"}}},
{"geometry": {"type": "Point", "coordinates": [-79.675044595, 41.6264429743]}, "type": "Feature", "properties": {"collection_times": [{"days": "Mon-Fri", "time": "5:00pm"}, {"days": "Sat", "time": "3:45pm"}, {"days": "Sun", "time": "Closed"}], "id": "1635400034", "name": "USPS COLLECTION BOX - PO LOBBY", "address": {"city": "TITUSVILLE", "state": "PA", "street": "135 W SPRING ST", "postcode": "16354"}}},
{"geometry": {"type": "Point", "coordinates": [-79.8809090289, 41.6783192738]}, "type": "Feature", "properties": {"collection_times": [{"days": "Mon-Fri", "time": "3:00pm"}, {"days": "Sat", "time": "10:45am"}, {"days": "Sun", "time": "Closed"}], "id": "1636000000", "name": "USPS COLLECTION BOX - BLUE BOX", "address": {"city": "TOWNVILLE", "state": "PA", "street": "33432 N MAIN ST", "postcode": "16360"}}},
{"geometry": {"type": "Point", "coordinates": [-79.8809090289, 41.6783192738]}, "type": "Feature", "properties": {"collection_times": [{"days": "Mon-Fri", "time": "3:00pm"}, {"days": "Sat", "time": "10:45am"}, {"days": "Sun", "time": "Closed"}], "id": "1636000001", "name": "USPS COLLECTION BOX - PO LOBBY", "address": {"city": "TOWNVILLE", "state": "PA", "street": "33432 N MAIN ST", "postcode": "16360"}}},
{"geometry": {"type": "Point", "coordinates": [-79.3218652956, 41.3842031185]}, "type": "Feature", "properties": {"collection_times": [{"days": "Mon-Fri", "time": "12:25pm"}, {"days": "Sat", "time": "12:15pm"}, {"days": "Sun", "time": "Closed"}], "id": "1636100000", "name": "USPS COLLECTION BOX - BLUE BOX", "address": {"city": "TYLERSBURG", "state": "PA", "street": "8206 ROUTE 36", "postcode": "16361"}}},
{"geometry": {"type": "Point", "coordinates": [-79.3218652956, 41.3842031185]}, "type": "Feature", "properties": {"collection_times": [{"days": "Mon-Fri", "time": "12:25pm"}, {"days": "Sat", "time": "12:15pm"}, {"days": "Sun", "time": "Closed"}], "id": "1636100001", "name": "USPS COLLECTION BOX - PO LOBBY", "address": {"city": "TYLERSBURG", "state": "PA", "street": "8206 ROUTE 36", "postcode": "16361"}}},
{"geometry": {"type": "Point", "coordinates": [-79.957991818, 41.4347137171]}, "type": "Feature", "properties": {"collection_times": [{"days": "Mon-Fri", "time": "11:55am"}, {"days": "Sat", "time": "10:30am"}, {"days": "Sun", "time": "Closed"}], "id": "1636200000", "name": "USPS COLLECTION BOX - BLUE BOX", "address": {"city": "UTICA", "state": "PA", "street": "3838 ACADEMY ST", "postcode": "16362"}}},
{"geometry": {"type": "Point", "coordinates": [-79.957991818, 41.4347137171]}, "type": "Feature", "properties": {"collection_times": [{"days": "Mon-Fri", "time": "11:55am"}, {"days": "Sat", "time": "10:30am"}, {"days": "Sun", "time": "Closed"}], "id": "1636200001", "name": "USPS COLLECTION BOX - PO LOBBY", "address": {"city": "UTICA", "state": "PA", "street": "3838 ACADEMY ST", "postcode": "16362"}}},
{"geometry": {"type": "Point", "coordinates": [-79.5064195632, 41.3625920309]}, "type": "Feature", "properties": {"collection_times": [{"days": "Mon-Fri", "time": "10:55am"}, {"days": "Sat", "time": "10:45am"}, {"days": "Sun", "time": "Closed"}], "id": "1636400000", "name": "USPS COLLECTION BOX - BLUE BOX", "address": {"city": "VENUS", "state": "PA", "street": "4650 STATE ROUTE 157", "postcode": "16364"}}},
{"geometry": {"type": "Point", "coordinates": [-79.5064195632, 41.3625920309]}, "type": "Feature", "properties": {"collection_times": [{"days": "Mon-Fri", "time": "10:55am"}, {"days": "Sat", "time": "10:45am"}, {"days": "Sun", "time": "Closed"}], "id": "1636400001", "name": "USPS COLLECTION BOX - PO LOBBY", "address": {"city": "VENUS", "state": "PA", "street": "4650 STATE ROUTE 157", "postcode": "16364"}}},
{"geometry": {"type": "Point", "coordinates": [-79.1460167297, 41.846655585]}, "type": "Feature", "properties": {"collection_times": [{"days": "Mon-Fri", "time": "5:00pm"}, {"days": "Sat", "time": "1:30pm"}, {"days": "Sun", "time": "Closed"}], "id": "1636500003", "name": "USPS COLLECTION BOX - BLUE BOX", "address": {"city": "WARREN", "state": "PA", "street": "210 W 3RD AVE", "postcode": "16365"}}},
{"geometry": {"type": "Point", "coordinates": [-79.1460167297, 41.846655585]}, "type": "Feature", "properties": {"collection_times": [{"days": "Mon-Fri", "time": "5:00pm"}, {"days": "Sat", "time": "1:30pm"}, {"days": "Sun", "time": "Closed"}], "id": "1636500004", "name": "USPS COLLECTION BOX - BLUE BOX", "address": {"city": "WARREN", "state": "PA", "street": "210 W 3RD AVE", "postcode": "16365"}}},
{"geometry": {"type": "Point", "coordinates": [-79.1460167297, 41.846655585]}, "type": "Feature", "properties": {"collection_times": [{"days": "Mon-Fri", "time": "5:00pm"}, {"days": "Sat", "time": "1:30pm"}, {"days": "Sun", "time": "Closed"}], "id": "1636500005", "name": "USPS COLLECTION BOX - BLUE BOX", "address": {"city": "WARREN", "state": "PA", "street": "210 W 3RD AVE", "postcode": "16365"}}},
{"geometry": {"type": "Point", "coordinates": [-79.1448848626, 41.8436682153]}, "type": "Feature", "properties": {"collection_times": [{"days": "Mon-Fri", "time": "3:00pm"}, {"days": "Sat", "time": "12:00pm"}, {"days": "Sun", "time": "Closed"}], "id": "1636500018", "name": "USPS COLLECTION BOX - BLUE BOX", "address": {"city": "WARREN", "state": "PA", "street": "24 MARKET ST", "postcode": "16365"}}},
{"geometry": {"type": "Point", "coordinates": [-79.0222132118, 41.829948842]}, "type": "Feature", "properties": {"collection_times": [{"days": "Mon-Sat", "time": "2:00pm"}, {"days": "Sun", "time": "Closed"}], "id": "1636500020", "name": "USPS COLLECTION BOX - BLUE BOX", "address": {"city": "WARREN", "state": "PA", "street": "23 JACKSON RUN RD", "postcode": "16365"}}},
{"geometry": {"type": "Point", "coordinates": [-79.0222132118, 41.829948842]}, "type": "Feature", "properties": {"collection_times": [{"days": "Mon-Sat", "time": "3:00pm"}, {"days": "Sun", "time": "Closed"}], "id": "1636500021", "name": "USPS COLLECTION BOX - BLUE BOX", "address": {"city": "WARREN", "state": "PA", "street": "4000 MARKET ST", "postcode": "16365"}}},
{"geometry": {"type": "Point", "coordinates": [-79.149426197, 41.8964973]}, "type": "Feature", "properties": {"collection_times": [{"days": "Mon-Sat", "time": "3:00pm"}, {"days": "Sun", "time": "Closed"}], "id": "1636500022", "name": "USPS COLLECTION BOX - BLUE BOX", "address": {"city": "WARREN", "state": "PA", "street": "4000 MARKET ST", "postcode": "16365"}}},
{"geometry": {"type": "Point", "coordinates": [-79.0222132118, 41.829948842]}, "type": "Feature", "properties": {"collection_times": [{"days": "Mon-Sat", "time": "2:00pm"}, {"days": "Sun", "time": "Closed"}], "id": "1636500023", "name": "USPS COLLECTION BOX - BLUE BOX", "address": {"city": "WARREN", "state": "PA", "street": "2771 MARKET ST", "postcode": "16365"}}},
{"geometry": {"type": "Point", "coordinates": [-79.1540198598, 41.834264859]}, "type": "Feature", "properties": {"collection_times": [{"days": "Mon-Sat", "time": "2:30pm"}, {"days": "Sun", "time": "Closed"}], "id": "1636500025", "name": "USPS COLLECTION BOX - BLUE BOX", "address": {"city": "WARREN", "state": "PA", "street": "161 PLEASANT DR", "postcode": "16365"}}},
{"geometry": {"type": "Point", "coordinates": [-79.1261069548, 41.8327621008]}, "type": "Feature", "properties": {"collection_times": [{"days": "Mon-Sat", "time": "3:00pm"}, {"days": "Sun", "time": "Closed"}], "id": "1636500033", "name": "USPS COLLECTION BOX - BLUE BOX", "address": {"city": "WARREN", "state": "PA", "street": "1613 PENNSYLVANIA AVE E", "postcode": "16365"}}},
{"geometry": {"type": "Point", "coordinates": [-79.1379130574, 41.8429897969]}, "type": "Feature", "properties": {"collection_times": [{"days": "Mon-Sat", "time": "3:00pm"}, {"days": "Sun", "time": "Closed"}], "id": "1636500035", "name": "USPS COLLECTION BOX - BLUE BOX", "address": {"city": "WARREN", "state": "PA", "street": "215 PENNSYLVANIA AVE E", "postcode": "16365"}}},
{"geometry": {"type": "Point", "coordinates": [-79.1346431598, 41.8406150032]}, "type": "Feature", "properties": {"collection_times": [{"days": "Mon-Sat", "time": "1:00pm"}, {"days": "Sun", "time": "Closed"}], "id": "1636500036", "name": "USPS COLLECTION BOX - BLUE BOX", "address": {"city": "WARREN", "state": "PA", "street": "621 PENNSYLVANIA AVE E", "postcode": "16365"}}},
{"geometry": {"type": "Point", "coordinates": [-79.1365062664, 41.841919473]}, "type": "Feature", "properties": {"collection_times": [{"days": "Mon-Sat", "time": "3:00pm"}, {"days": "Sun", "time": "Closed"}], "id": "1636500037", "name": "USPS COLLECTION BOX - BLUE BOX", "address": {"city": "WARREN", "state": "PA", "street": "404 PENNSYLVANIA AVE E", "postcode": "16365"}}},
{"geometry": {"type": "Point", "coordinates": [-79.1463605567, 41.8596183732]}, "type": "Feature", "properties": {"collection_times": [{"days": "Mon-Sat", "time": "12:30pm"}, {"days": "Sun", "time": "Closed"}], "id": "1636500040", "name": "USPS COLLECTION BOX - BLUE BOX", "address": {"city": "WARREN", "state": "PA", "street": "800 CONEWANGO AVE", "postcode": "16365"}}},
{"geometry": {"type": "Point", "coordinates": [-79.1551775367, 41.8428456871]}, "type": "Feature", "properties": {"collection_times": [{"days": "Mon-Sat", "time": "2:30pm"}, {"days": "Sun", "time": "Closed"}], "id": "1636500043", "name": "USPS COLLECTION BOX - BLUE BOX", "address": {"city": "WARREN", "state": "PA", "street": "103 W SAINT CLAIR ST", "postcode": "16365"}}},
{"geometry": {"type": "Point", "coordinates": [-79.1473663442, 41.8448928914]}, "type": "Feature", "properties": {"collection_times": [{"days": "Mon-Fri", "time": "3:00pm"}, {"days": "Sat", "time": "12:00pm"}, {"days": "Sun", "time": "Closed"}], "id": "1636500044", "name": "USPS COLLECTION BOX - BLUE BOX", "address": {"city": "WARREN", "state": "PA", "street": "301 2ND AVE", "postcode": "16365"}}},
{"geometry": {"type": "Point", "coordinates": [-79.1475500443, 41.844861861]}, "type": "Feature", "properties": {"collection_times": [{"days": "Mon-Fri", "time": "3:00pm"}, {"days": "Sat", "time": "12:00pm"}, {"days": "Sun", "time": "Closed"}], "id": "1636500045", "name": "USPS COLLECTION BOX - BLUE BOX", "address": {"city": "WARREN", "state": "PA", "street": "315 2ND AVE", "postcode": "16365"}}},
{"geometry": {"type": "Point", "coordinates": [-79.1460167297, 41.846655585]}, "type": "Feature", "properties": {"collection_times": [{"days": "Mon-Fri", "time": "5:00pm"}, {"days": "Sat", "time": "4:00pm"}, {"days": "Sun", "time": "Closed"}], "id": "1636500048", "name": "USPS COLLECTION BOX - PO LOBBY", "address": {"city": "WARREN", "state": "PA", "street": "210 W 3RD AVE", "postcode": "16365"}}},
{"geometry": {"type": "Point", "coordinates": [-79.407980496, 41.5693924994]}, "type": "Feature", "properties": {"collection_times": [{"days": "Mon-Fri", "time": "11:55am"}, {"days": "Sat", "time": "11:15am"}, {"days": "Sun", "time": "Closed"}], "id": "1637000000", "name": "USPS COLLECTION BOX - BLUE BOX", "address": {"city": "WEST HICKORY", "state": "PA", "street": "3518 MAIN ST", "postcode": "16370"}}},
{"geometry": {"type": "Point", "coordinates": [-79.407980496, 41.5693924994]}, "type": "Feature", "properties": {"collection_times": [{"days": "Mon-Fri", "time": "11:55am"}, {"days": "Sat", "time": "11:15am"}, {"days": "Sun", "time": "Closed"}], "id": "1637000001", "name": "USPS COLLECTION BOX - PO LOBBY", "address": {"city": "WEST HICKORY", "state": "PA", "street": "3518 MAIN ST", "postcode": "16370"}}},
{"geometry": {"type": "Point", "coordinates": [-79.3170045044, 41.85098535]}, "type": "Feature", "properties": {"collection_times": [{"days": "Mon-Fri", "time": "4:30pm"}, {"days": "Sat", "time": "3:30pm"}, {"days": "Sun", "time": "Closed"}], "id": "1637100000", "name": "USPS COLLECTION BOX - BLUE BOX", "address": {"city": "YOUNGSVILLE", "state": "PA", "street": "39 RAILROAD ST", "postcode": "16371"}}},
{"geometry": {"type": "Point", "coordinates": [-79.3162366964, 41.8515209504]}, "type": "Feature", "properties": {"collection_times": [{"days": "Mon-Sat", "time": "3:30pm"}, {"days": "Sun", "time": "Closed"}], "id": "1637100007", "name": "USPS COLLECTION BOX - BLUE BOX", "address": {"city": "YOUNGSVILLE", "state": "PA", "street": "202 E MAIN ST", "postcode": "16371"}}},
{"geometry": {"type": "Point", "coordinates": [-79.3170045044, 41.85098535]}, "type": "Feature", "properties": {"collection_times": [{"days": "Mon-Fri", "time": "4:30pm"}, {"days": "Sat", "time": "3:30pm"}, {"days": "Sun", "time": "Closed"}], "id": "1637100008", "name": "USPS COLLECTION BOX - PO LOBBY", "address": {"city": "YOUNGSVILLE", "state": "PA", "street": "39 RAILROAD ST", "postcode": "16371"}}},
{"geometry": {"type": "Point", "coordinates": [-79.8729366537, 41.1965600419]}, "type": "Feature", "properties": {"collection_times": [{"days": "Mon-Fri", "time": "3:00pm"}, {"days": "Sat", "time": "12:00pm"}, {"days": "Sun", "time": "Closed"}], "id": "1637200000", "name": "USPS COLLECTION BOX - BLUE BOX", "address": {"city": "CLINTONVILLE", "state": "PA", "street": "201 IRWIN ST", "postcode": "16372"}}},
{"geometry": {"type": "Point", "coordinates": [-79.8729366537, 41.1965600419]}, "type": "Feature", "properties": {"collection_times": [{"days": "Mon-Fri", "time": "3:00pm"}, {"days": "Sat", "time": "12:00pm"}, {"days": "Sun", "time": "Closed"}], "id": "1637200001", "name": "USPS COLLECTION BOX - PO LOBBY", "address": {"city": "CLINTONVILLE", "state": "PA", "street": "201 IRWIN ST", "postcode": "16372"}}},
{"geometry": {"type": "Point", "coordinates": [-79.7120712106, 41.1771610742]}, "type": "Feature", "properties": {"collection_times": [{"days": "Mon-Fri", "time": "4:45pm"}, {"days": "Sat", "time": "12:00pm"}, {"days": "Sun", "time": "Closed"}], "id": "1637300000", "name": "USPS COLLECTION BOX - BLUE BOX", "address": {"city": "EMLENTON", "state": "PA", "street": "714 MAIN ST", "postcode": "16373"}}},
{"geometry": {"type": "Point", "coordinates": [-79.7399285317, 41.1763813394]}, "type": "Feature", "properties": {"collection_times": [{"days": "Mon-Sat", "time": "9:00am"}, {"days": "Sun", "time": "Closed"}], "id": "1637300001", "name": "USPS COLLECTION BOX - BLUE BOX", "address": {"city": "EMLENTON", "state": "PA", "street": "6406 EMLENTON CLINTONVILLE RD", "postcode": "16373"}}},
{"geometry": {"type": "Point", "coordinates": [-79.7120712106, 41.1771610742]}, "type": "Feature", "properties": {"collection_times": [{"days": "Mon-Fri", "time": "4:45pm"}, {"days": "Sat", "time": "12:00pm"}, {"days": "Sun", "time": "Closed"}], "id": "1637300002", "name": "USPS COLLECTION BOX - PO LOBBY", "address": {"city": "EMLENTON", "state": "PA", "street": "714 MAIN ST", "postcode": "16373"}}},
{"geometry": {"type": "Point", "coordinates": [-79.8437641174, 41.2685280928]}, "type": "Feature", "properties": {"collection_times": [{"days": "Mon-Fri", "time": "3:00pm"}, {"days": "Sat", "time": "10:15am"}, {"days": "Sun", "time": "Closed"}], "id": "1637400000", "name": "USPS COLLECTION BOX - BLUE BOX", "address": {"city": "KENNERDELL", "state": "PA", "street": "240 MAIN ST", "postcode": "16374"}}},
{"geometry": {"type": "Point", "coordinates": [-79.8437641174, 41.2685280928]}, "type": "Feature", "properties": {"collection_times": [{"days": "Mon-Fri", "time": "3:00pm"}, {"days": "Sat", "time": "10:15am"}, {"days": "Sun", "time": "Closed"}], "id": "1637400001", "name": "USPS COLLECTION BOX - PO LOBBY", "address": {"city": "KENNERDELL", "state": "PA", "street": "240 MAIN ST", "postcode": "16374"}}},
{"geometry": {"type": "Point", "coordinates": [-79.6338512142, 41.2222336271]}, "type": "Feature", "properties": {"collection_times": [{"days": "Mon-Sat", "time": "12:45pm"}, {"days": "Sun", "time": "Closed"}], "id": "1637500000", "name": "USPS COLLECTION BOX - BLUE BOX", "address": {"city": "LAMARTINE", "state": "PA", "street": "1710 ROUTE 208", "postcode": "16375"}}},
{"geometry": {"type": "Point", "coordinates": [-79.6338512142, 41.2222336271]}, "type": "Feature", "properties": {"collection_times": [{"days": "Mon-Sat", "time": "12:45pm"}, {"days": "Sun", "time": "Closed"}], "id": "1637500001", "name": "USPS COLLECTION BOX - PO LOBBY", "address": {"city": "LAMARTINE", "state": "PA", "street": "1710 ROUTE 208", "postcode": "16375"}}}
]}
