{"type": "FeatureCollection", "features": [
{"geometry": {"type": "Point", "coordinates": [-80.3654170558, 41.8908556315]}, "type": "Feature", "properties": {"collection_times": [{"days": "Mon-Sat", "time": "4:30pm"}, {"days": "Sun", "time": "Closed"}], "id": "1640100001", "name": "USPS COLLECTION BOX - BLUE BOX", "address": {"city": "ALBION", "state": "PA", "street": "35 E STATE ST", "postcode": "16401"}}},
{"geometry": {"type": "Point", "coordinates": [-80.3654170558, 41.8908556315]}, "type": "Feature", "properties": {"collection_times": [{"days": "Mon-Sat", "time": "4:30pm"}, {"days": "Sun", "time": "Closed"}], "id": "1640100002", "name": "USPS COLLECTION BOX - BLUE BOX", "address": {"city": "ALBION", "state": "PA", "street": "35 E STATE ST", "postcode": "16401"}}},
{"geometry": {"type": "Point", "coordinates": [-80.3654170558, 41.8908556315]}, "type": "Feature", "properties": {"collection_times": [{"days": "Mon-Sat", "time": "4:30pm"}, {"days": "Sun", "time": "Closed"}], "id": "1640100010", "name": "USPS COLLECTION BOX - PO LOBBY", "address": {"city": "ALBION", "state": "PA", "street": "35 E STATE ST", "postcode": "16401"}}},
{"geometry": {"type": "Point", "coordinates": [-80.0604147711, 41.8028848528]}, "type": "Feature", "properties": {"collection_times": [{"days": "Mon-Fri", "time": "5:00pm"}, {"days": "Sat", "time": "3:15pm"}, {"days": "Sun", "time": "Closed"}], "id": "1640300002", "name": "USPS COLLECTION BOX - BLUE BOX", "address": {"city": "CAMBRIDG SPGS", "state": "PA", "street": "332 VENANGO AVE", "postcode": "16403"}}},
{"geometry": {"type": "Point", "coordinates": [-80.0584404126, 41.8074948439]}, "type": "Feature", "properties": {"collection_times": [{"days": "Mon-Sat", "time": "10:15am"}, {"days": "Sun", "time": "Closed"}], "id": "1640300003", "name": "USPS COLLECTION BOX - BLUE BOX", "address": {"city": "CAMBRIDG SPGS", "state": "PA", "street": "303 MCCLELLAN ST", "postcode": "16403"}}},
{"geometry": {"type": "Point", "coordinates": [-80.0553800978, 41.8055666208]}, "type": "Feature", "properties": {"collection_times": [{"days": "Mon-Sat", "time": "9:30am"}, {"days": "Sun", "time": "Closed"}], "id": "1640300004", "name": "USPS COLLECTION BOX - BLUE BOX", "address": {"city": "CAMBRIDG SPGS", "state": "PA", "street": "146 N MAIN ST", "postcode": "16403"}}},
{"geometry": {"type": "Point", "coordinates": [-80.0569743218, 41.8042458205]}, "type": "Feature", "properties": {"collection_times": [{"days": "Mon-Sat", "time": "10:00am"}, {"days": "Sun", "time": "Closed"}], "id": "1640300005", "name": "USPS COLLECTION BOX - BLUE BOX", "address": {"city": "CAMBRIDG SPGS", "state": "PA", "street": "154 VENANGO AVE", "postcode": "16403"}}},
{"geometry": {"type": "Point", "coordinates": [-80.0579932541, 41.8030019657]}, "type": "Feature", "properties": {"collection_times": [{"days": "Mon-Sat", "time": "10:00am"}, {"days": "Sun", "time": "Closed"}], "id": "1640300006", "name": "USPS COLLECTION BOX - BLUE BOX", "address": {"city": "CAMBRIDG SPGS", "state": "PA", "street": "264 S MAIN ST", "postcode": "16403"}}},
{"geometry": {"type": "Point", "coordinates": [-80.0650271281, 41.8010145947]}, "type": "Feature", "properties": {"collection_times": [{"days": "Mon-Sat", "time": "12:00pm"}, {"days": "Sun", "time": "Closed"}], "id": "1640300008", "name": "USPS COLLECTION BOX - BLUE BOX", "address": {"city": "CAMBRIDG SPGS", "state": "PA", "street": "608 VENANGO AVE", "postcode": "16403"}}},
{"geometry": {"type": "Point", "coordinates": [-80.0598236666, 41.8014039412]}, "type": "Feature", "properties": {"collection_times": [{"days": "Mon-Sat", "time": "1:30pm"}, {"days": "Sun", "time": "Closed"}], "id": "1640300009", "name": "USPS COLLECTION BOX - BLUE BOX", "address": {"city": "CAMBRIDG SPGS", "state": "PA", "street": "401 S MAIN ST", "postcode": "16403"}}},
{"geometry": {"type": "Point", "coordinates": [-80.0564188916, 41.8015441277]}, "type": "Feature", "properties": {"collection_times": [{"days": "Mon-Sat", "time": "9:00am"}, {"days": "Sun", "time": "Closed"}], "id": "1640300010", "name": "USPS COLLECTION BOX - BLUE BOX", "address": {"city": "CAMBRIDG SPGS", "state": "PA", "street": "347 SPRING ST", "postcode": "16403"}}},
{"geometry": {"type": "Point", "coordinates": [-80.0601394019, 41.8030543536]}, "type": "Feature", "properties": {"collection_times": [{"days": "Mon-Fri", "time": "5:00pm"}, {"days": "Sat", "time": "3:15pm"}, {"days": "Sun", "time": "Closed"}], "id": "1640300013", "name": "USPS COLLECTION BOX - PO LOBBY", "address": {"city": "CAMBRIDG SPGS", "state": "PA", "street": "332 VENANGO AVE", "postcode": "16403"}}},
{"geometry": {"type": "Point", "coordinates": [-79.7632744065, 41.7360595009]}, "type": "Feature", "properties": {"collection_times": [{"days": "Mon-Fri", "time": "3:00pm"}, {"days": "Sat", "time": "11:45am"}, {"days": "Sun", "time": "Closed"}], "id": "1640400001", "name": "USPS COLLECTION BOX - BLUE BOX", "address": {"city": "CENTERVILLE", "state": "PA", "street": "18599 ERIE ST", "postcode": "16404"}}},
{"geometry": {"type": "Point", "coordinates": [-79.7632744065, 41.7360595009]}, "type": "Feature", "properties": {"collection_times": [{"days": "Mon-Fri", "time": "3:00pm"}, {"days": "Sat", "time": "11:45am"}, {"days": "Sun", "time": "Closed"}], "id": "1640400002", "name": "USPS COLLECTION BOX - PO LOBBY", "address": {"city": "CENTERVILLE", "state": "PA", "street": "18599 ERIE ST", "postcode": "16404"}}},
{"geometry": {"type": "Point", "coordinates": [-79.5811203509, 41.9406745183]}, "type": "Feature", "properties": {"collection_times": [{"days": "Mon-Fri", "time": "2:45pm"}, {"days": "Sat", "time": "11:45am"}, {"days": "Sun", "time": "Closed"}], "id": "1640500001", "name": "USPS COLLECTION BOX - BLUE BOX", "address": {"city": "COLUMBUS", "state": "PA", "street": "2 E MAIN ST", "postcode": "16405"}}},
{"geometry": {"type": "Point", "coordinates": [-79.5811203509, 41.9406745183]}, "type": "Feature", "properties": {"collection_times": [{"days": "Mon-Fri", "time": "2:45pm"}, {"days": "Sat", "time": "11:45am"}, {"days": "Sun", "time": "Closed"}], "id": "1640500003", "name": "USPS COLLECTION BOX - PO LOBBY", "address": {"city": "COLUMBUS", "state": "PA", "street": "2 E MAIN ST", "postcode": "16405"}}},
{"geometry": {"type": "Point", "coordinates": [-80.369859092, 41.7588480224]}, "type": "Feature", "properties": {"collection_times": [{"days": "Mon-Fri", "time": "4:30pm"}, {"days": "Sat", "time": "12:15pm"}, {"days": "Sun", "time": "Closed"}], "id": "1640600001", "name": "USPS COLLECTION BOX - BLUE BOX", "address": {"city": "CONNEAUTVILLE", "state": "PA", "street": "809 MAIN ST", "postcode": "16406"}}},
{"geometry": {"type": "Point", "coordinates": [-80.369859092, 41.7588480224]}, "type": "Feature", "properties": {"collection_times": [{"days": "Mon-Fri", "time": "4:45pm"}, {"days": "Sat", "time": "12:15pm"}, {"days": "Sun", "time": "Closed"}], "id": "1640600002", "name": "USPS COLLECTION BOX - PO LOBBY", "address": {"city": "CONNEAUTVILLE", "state": "PA", "street": "809 MAIN ST", "postcode": "16406"}}},
{"geometry": {"type": "Point", "coordinates": [-79.6345885354, 41.920451632]}, "type": "Feature", "properties": {"collection_times": [{"days": "Mon-Sat", "time": "12:30pm"}, {"days": "Sun", "time": "Closed"}], "id": "1640700006", "name": "USPS COLLECTION BOX - BLUE BOX", "address": {"city": "CORRY", "state": "PA", "street": "300 W COLUMBUS AVE", "postcode": "16407"}}},
{"geometry": {"type": "Point", "coordinates": [-79.6413858636, 41.9299665855]}, "type": "Feature", "properties": {"collection_times": [{"days": "Mon-Sat", "time": "1:30pm"}, {"days": "Sun", "time": "Closed"}], "id": "1640700009", "name": "USPS COLLECTION BOX - BLUE BOX", "address": {"city": "CORRY", "state": "PA", "street": "826 N CENTER ST", "postcode": "16407"}}},
{"geometry": {"type": "Point", "coordinates": [-79.6414154376, 41.9259610865]}, "type": "Feature", "properties": {"collection_times": [{"days": "Mon-Sat", "time": "2:00pm"}, {"days": "Sun", "time": "Closed"}], "id": "1640700010", "name": "USPS COLLECTION BOX - BLUE BOX", "address": {"city": "CORRY", "state": "PA", "street": "425 N CENTER ST", "postcode": "16407"}}},
{"geometry": {"type": "Point", "coordinates": [-79.6414544752, 41.9237051837]}, "type": "Feature", "properties": {"collection_times": [{"days": "Mon-Fri", "time": "3:00pm"}, {"days": "Sat", "time": "1:00pm"}, {"days": "Sun", "time": "Closed"}], "id": "1640700016", "name": "USPS COLLECTION BOX - BLUE BOX", "address": {"city": "CORRY", "state": "PA", "street": "203 N CENTER ST", "postcode": "16407"}}},
{"geometry": {"type": "Point", "coordinates": [-79.6411090512, 41.9222075577]}, "type": "Feature", "properties": {"collection_times": [{"days": "Mon-Fri", "time": "5:00pm"}, {"days": "Sat", "time": "3:30pm"}, {"days": "Sun", "time": "Closed"}], "id": "1640700020", "name": "USPS COLLECTION BOX - BLUE BOX", "address": {"city": "CORRY", "state": "PA", "street": "101 S CENTER ST", "postcode": "16407"}}},
{"geometry": {"type": "Point", "coordinates": [-79.6411090512, 41.9222075577]}, "type": "Feature", "properties": {"collection_times": [{"days": "Mon-Fri", "time": "5:00pm"}, {"days": "Sat", "time": "4:45pm"}, {"days": "Sun", "time": "Closed"}], "id": "1640700024", "name": "USPS COLLECTION BOX - PO LOBBY", "address": {"city": "CORRY", "state": "PA", "street": "101 S CENTER ST", "postcode": "16407"}}},
{"geometry": {"type": "Point", "coordinates": [-79.6411090512, 41.9222075577]}, "type": "Feature", "properties": {"collection_times": [{"days": "Mon-Fri", "time": "5:00pm"}, {"days": "Sat", "time": "3:30pm"}, {"days": "Sun", "time": "Closed"}], "id": "1640700025", "name": "USPS COLLECTION BOX - BLUE BOX", "address": {"city": "CORRY", "state": "PA", "street": "101 S CENTER ST", "postcode": "16407"}}},
{"geometry": {"type": "Point", "coordinates": [-79.6345885354, 41.920451632]}, "type": "Feature", "properties": {"collection_times": [{"days": "Mon-Sat", "time": "10:30am"}, {"days": "Sun", "time": "Closed"}], "id": "1640700026", "name": "USPS COLLECTION BOX - BLUE BOX", "address": {"city": "CORRY", "state": "PA", "street": "961 E COLUMBUS AVE", "postcode": "16407"}}},
{"geometry": {"type": "Point", "coordinates": [-80.3430674373, 41.9048346223]}, "type": "Feature", "properties": {"collection_times": [{"days": "Mon-Fri", "time": "3:30pm"}, {"days": "Sat", "time": "11:15am"}, {"days": "Sun", "time": "Closed"}], "id": "1641000001", "name": "USPS COLLECTION BOX - BLUE BOX", "address": {"city": "CRANESVILLE", "state": "PA", "street": "10283 CRANE ST", "postcode": "16410"}}},
{"geometry": {"type": "Point", "coordinates": [-80.3430674373, 41.9048346223]}, "type": "Feature", "properties": {"collection_times": [{"days": "Mon-Fri", "time": "3:30pm"}, {"days": "Sat", "time": "11:15am"}, {"days": "Sun", "time": "Closed"}], "id": "1641000003", "name": "USPS COLLECTION BOX - PO LOBBY", "address": {"city": "CRANESVILLE", "state": "PA", "street": "10283 CRANE ST", "postcode": "16410"}}},
{"geometry": {"type": "Point", "coordinates": [-80.4058411548, 41.9654529886]}, "type": "Feature", "properties": {"collection_times": [{"days": "Mon-Fri", "time": "3:30pm"}, {"days": "Sat", "time": "10:45am"}, {"days": "Sun", "time": "Closed"}], "id": "1641100001", "name": "USPS COLLECTION BOX - BLUE BOX", "address": {"city": "EAST SPRINGFIELD", "state": "PA", "street": "11932 MAIN ST", "postcode": "16411"}}},
{"geometry": {"type": "Point", "coordinates": [-80.42430632, 41.982832876]}, "type": "Feature", "properties": {"collection_times": [{"days": "Mon-Fri", "time": "3:30pm"}, {"days": "Sat", "time": "10:45am"}, {"days": "Sun", "time": "Closed"}], "id": "1641100003", "name": "USPS COLLECTION BOX - PO LOBBY", "address": {"city": "EAST SPRINGFIELD", "state": "PA", "street": "11932 MAIN ST", "postcode": "16411"}}},
{"geometry": {"type": "Point", "coordinates": [-80.1344916615, 41.8761076468]}, "type": "Feature", "properties": {"collection_times": [{"days": "Mon-Fri", "time": "2:00pm"}, {"days": "Sat", "time": "1:00pm"}, {"days": "Sun", "time": "Closed"}], "id": "1641200001", "name": "USPS COLLECTION BOX - BLUE BOX", "address": {"city": "EDINBORO", "state": "PA", "street": "220 W PLUM ST", "postcode": "16412"}}},
{"geometry": {"type": "Point", "coordinates": [-80.1633436895, 41.881463665]}, "type": "Feature", "properties": {"collection_times": [{"days": "Mon-Fri", "time": "2:00pm"}, {"days": "Sat", "time": "1:00pm"}, {"days": "Sun", "time": "Closed"}], "id": "1641200002", "name": "USPS COLLECTION BOX - BLUE BOX", "address": {"city": "EDINBORO", "state": "PA", "street": "7 MILL ST", "postcode": "16412"}}},
{"geometry": {"type": "Point", "coordinates": [-80.1192830983, 41.8777512754]}, "type": "Feature", "properties": {"collection_times": [{"days": "Mon-Fri", "time": "5:00pm"}, {"days": "Sat", "time": "3:00pm"}, {"days": "Sun", "time": "Closed"}], "id": "1641200008", "name": "USPS COLLECTION BOX - PO LOBBY", "address": {"city": "EDINBORO", "state": "PA", "street": "300 WATERFORD ST", "postcode": "16412"}}},
{"geometry": {"type": "Point", "coordinates": [-80.1192830983, 41.8777512754]}, "type": "Feature", "properties": {"collection_times": [{"days": "Mon-Fri", "time": "5:00pm"}, {"days": "Sat", "time": "3:00pm"}, {"days": "Sun", "time": "Closed"}], "id": "1641200010", "name": "USPS COLLECTION BOX - BLUE BOX", "address": {"city": "EDINBORO", "state": "PA", "street": "300 WATERFORD ST", "postcode": "16412"}}},
{"geometry": {"type": "Point", "coordinates": [-80.1192830983, 41.8777512754]}, "type": "Feature", "properties": {"collection_times": [{"days": "Mon-Fri", "time": "5:00pm"}, {"days": "Sat", "time": "3:00pm"}, {"days": "Sun", "time": "Closed"}], "id": "1641200011", "name": "USPS COLLECTION BOX - BLUE BOX", "address": {"city": "EDINBORO", "state": "PA", "street": "300 WATERFORD ST", "postcode": "16412"}}},
{"geometry": {"type": "Point", "coordinates": [-80.1231400511, 41.8676313091]}, "type": "Feature", "properties": {"collection_times": [{"days": "Mon-Sat", "time": "12:00pm"}, {"days": "Sun", "time": "Closed"}], "id": "1641200012", "name": "USPS COLLECTION BOX - BLUE BOX", "address": {"city": "EDINBORO", "state": "PA", "street": "238 DARROW RD", "postcode": "16412"}}},
{"geometry": {"type": "Point", "coordinates": [-80.1188304678, 41.8667989427]}, "type": "Feature", "properties": {"collection_times": [{"days": "Mon-Sat", "time": "12:00pm"}, {"days": "Sun", "time": "Closed"}], "id": "1641200013", "name": "USPS COLLECTION BOX - BLUE BOX", "address": {"city": "EDINBORO", "state": "PA", "street": "103 BRORA DR", "postcode": "16412"}}},
{"geometry": {"type": "Point", "coordinates": [-80.1397546459, 41.8791040819]}, "type": "Feature", "properties": {"collection_times": [{"days": "Mon-Sat", "time": "11:30am"}, {"days": "Sun", "time": "Closed"}], "id": "1641200014", "name": "USPS COLLECTION BOX - BLUE BOX", "address": {"city": "EDINBORO", "state": "PA", "street": "116 WASHINGTON TOWNE BLVD N", "postcode": "16412"}}},
{"geometry": {"type": "Point", "coordinates": [-79.7433278873, 41.9052951528]}, "type": "Feature", "properties": {"collection_times": [{"days": "Mon-Fri", "time": "12:30pm"}, {"days": "Sat", "time": "11:30am"}, {"days": "Sun", "time": "Closed"}], "id": "1641300001", "name": "USPS COLLECTION BOX - BLUE BOX", "address": {"city": "ELGIN", "state": "PA", "street": "18250 MAIN ST", "postcode": "16413"}}},
{"geometry": {"type": "Point", "coordinates": [-79.7433278873, 41.9052951528]}, "type": "Feature", "properties": {"collection_times": [{"days": "Mon-Fri", "time": "12:50pm"}, {"days": "Sat", "time": "11:30am"}, {"days": "Sun", "time": "Closed"}], "id": "1641300003", "name": "USPS COLLECTION BOX - PO LOBBY", "address": {"city": "ELGIN", "state": "PA", "street": "18250 MAIN ST", "postcode": "16413"}}},
{"geometry": {"type": "Point", "coordinates": [-80.2563151416, 42.0327905617]}, "type": "Feature", "properties": {"collection_times": [{"days": "Mon-Fri", "time": "5:00pm"}, {"days": "Sat", "time": "1:30pm"}, {"days": "Sun", "time": "Closed"}], "id": "1641500001", "name": "USPS COLLECTION BOX - BLUE BOX", "address": {"city": "FAIRVIEW", "state": "PA", "street": "3856 AVONIA RD", "postcode": "16415"}}},
{"geometry": {"type": "Point", "coordinates": [-80.2563151416, 42.0327905617]}, "type": "Feature", "properties": {"collection_times": [{"days": "Mon-Fri", "time": "5:00pm"}, {"days": "Sat", "time": "1:30pm"}, {"days": "Sun", "time": "Closed"}], "id": "1641500006", "name": "USPS COLLECTION BOX - PO LOBBY", "address": {"city": "FAIRVIEW", "state": "PA", "street": "3856 AVONIA RD", "postcode": "16415"}}},
{"geometry": {"type": "Point", "coordinates": [-79.4441153212, 41.8163931322]}, "type": "Feature", "properties": {"collection_times": [{"days": "Mon-Fri", "time": "9:50am"}, {"days": "Sat", "time": "11:15am"}, {"days": "Sun", "time": "Closed"}], "id": "1641600001", "name": "USPS COLLECTION BOX - BLUE BOX", "address": {"city": "GARLAND", "state": "PA", "street": "55 EXTENSION RD", "postcode": "16416"}}},
{"geometry": {"type": "Point", "coordinates": [-79.4441153212, 41.8163931322]}, "type": "Feature", "properties": {"collection_times": [{"days": "Mon-Fri", "time": "9:50am"}, {"days": "Sat", "time": "11:15am"}, {"days": "Sun", "time": "Closed"}], "id": "1641600003", "name": "USPS COLLECTION BOX - PO LOBBY", "address": {"city": "GARLAND", "state": "PA", "street": "55 EXTENSION RD", "postcode": "16416"}}},
{"geometry": {"type": "Point", "coordinates": [-80.315688923, 42.0015347153]}, "type": "Feature", "properties": {"collection_times": [{"days": "Mon-Fri", "time": "5:00pm"}, {"days": "Sat", "time": "12:15pm"}, {"days": "Sun", "time": "Closed"}], "id": "1641700002", "name": "USPS COLLECTION BOX - BLUE BOX", "address": {"city": "GIRARD", "state": "PA", "street": "113 MAIN ST E", "postcode": "16417"}}},
{"geometry": {"type": "Point", "coordinates": [-80.315688923, 42.0015347153]}, "type": "Feature", "properties": {"collection_times": [{"days": "Mon-Fri", "time": "5:00pm"}, {"days": "Sat", "time": "12:15pm"}, {"days": "Sun", "time": "Closed"}], "id": "1641700003", "name": "USPS COLLECTION BOX - BLUE BOX", "address": {"city": "GIRARD", "state": "PA", "street": "113 MAIN ST E", "postcode": "16417"}}},
{"geometry": {"type": "Point", "coordinates": [-80.2983406818, 42.0117477979]}, "type": "Feature", "properties": {"collection_times": [{"days": "Mon-Sat", "time": "9:00am"}, {"days": "Sun", "time": "Closed"}], "id": "1641700005", "name": "USPS COLLECTION BOX - BLUE BOX", "address": {"city": "GIRARD", "state": "PA", "street": "9100 RIDGE RD", "postcode": "16417"}}},
{"geometry": {"type": "Point", "coordinates": [-80.3206326206, 42.0081589902]}, "type": "Feature", "properties": {"collection_times": [{"days": "Mon-Sat", "time": "11:00am"}, {"days": "Sun", "time": "Closed"}], "id": "1641700007", "name": "USPS COLLECTION BOX - BLUE BOX", "address": {"city": "GIRARD", "state": "PA", "street": "227 HATHAWAY ST E", "postcode": "16417"}}},
{"geometry": {"type": "Point", "coordinates": [-80.3181070032, 42.0002225185]}, "type": "Feature", "properties": {"collection_times": [{"days": "Mon-Sat", "time": "2:00pm"}, {"days": "Sun", "time": "Closed"}], "id": "1641700008", "name": "USPS COLLECTION BOX - BLUE BOX", "address": {"city": "GIRARD", "state": "PA", "street": "110 MAIN ST W", "postcode": "16417"}}},
{"geometry": {"type": "Point", "coordinates": [-80.3152727617, 42.0017754697]}, "type": "Feature", "properties": {"collection_times": [{"days": "Mon-Sat", "time": "2:00pm"}, {"days": "Sun", "time": "Closed"}], "id": "1641700009", "name": "USPS COLLECTION BOX - BLUE BOX", "address": {"city": "GIRARD", "state": "PA", "street": "145 MAIN ST", "postcode": "16417"}}},
{"geometry": {"type": "Point", "coordinates": [-80.3247883554, 42.0067536349]}, "type": "Feature", "properties": {"collection_times": [{"days": "Mon-Sat", "time": "10:30am"}, {"days": "Sun", "time": "Closed"}], "id": "1641700010", "name": "USPS COLLECTION BOX - BLUE BOX", "address": {"city": "GIRARD", "state": "PA", "street": "705 RICE AVE", "postcode": "16417"}}},
{"geometry": {"type": "Point", "coordinates": [-80.3141843113, 42.0024772382]}, "type": "Feature", "properties": {"collection_times": [{"days": "Mon-Sat", "time": "12:00pm"}, {"days": "Sun", "time": "Closed"}], "id": "1641700012", "name": "USPS COLLECTION BOX - BLUE BOX", "address": {"city": "GIRARD", "state": "PA", "street": "203 MAIN ST E", "postcode": "16417"}}},
{"geometry": {"type": "Point", "coordinates": [-80.315688923, 42.0015347153]}, "type": "Feature", "properties": {"collection_times": [{"days": "Mon-Fri", "time": "5:00pm"}, {"days": "Sat", "time": "12:15pm"}, {"days": "Sun", "time": "Closed"}], "id": "1641700015", "name": "USPS COLLECTION BOX - PO LOBBY", "address": {"city": "GIRARD", "state": "PA", "street": "113 MAIN ST E", "postcode": "16417"}}},
{"geometry": {"type": "Point", "coordinates": [-80.3120487579, 41.9822723703]}, "type": "Feature", "properties": {"collection_times": [{"days": "Mon-Sat", "time": "11:00am"}, {"days": "Sun", "time": "Closed"}], "id": "1641700016", "name": "USPS COLLECTION BOX - BLUE BOX", "address": {"city": "GIRARD", "state": "PA", "street": "1591 LAKE ST", "postcode": "16417"}}},
{"geometry": {"type": "Point", "coordinates": [-79.5415229209, 41.7721797234]}, "type": "Feature", "properties": {"collection_times": [{"days": "Mon-Fri", "time": "11:55am"}, {"days": "Sat", "time": "11:00am"}, {"days": "Sun", "time": "Closed"}], "id": "1642000001", "name": "USPS COLLECTION BOX - BLUE BOX", "address": {"city": "GRAND VALLEY", "state": "PA", "street": "76 ELDRED CENTER RD", "postcode": "16420"}}},
{"geometry": {"type": "Point", "coordinates": [-79.5415229209, 41.7721797234]}, "type": "Feature", "properties": {"collection_times": [{"days": "Mon-Fri", "time": "11:55am"}, {"days": "Sat", "time": "11:00am"}, {"days": "Sun", "time": "Closed"}], "id": "1642000003", "name": "USPS COLLECTION BOX - PO LOBBY", "address": {"city": "GRAND VALLEY", "state": "PA", "street": "76 ELDRED CENTER RD", "postcode": "16420"}}},
{"geometry": {"type": "Point", "coordinates": [-79.9443948877, 42.1733414652]}, "type": "Feature", "properties": {"collection_times": [{"days": "Mon-Fri", "time": "5:00pm"}, {"days": "Sat", "time": "12:00pm"}, {"days": "Sun", "time": "Closed"}], "id": "1642100001", "name": "USPS COLLECTION BOX - BLUE BOX", "address": {"city": "HARBORCREEK", "state": "PA", "street": "7175 BUFFALO RD", "postcode": "16421"}}},
{"geometry": {"type": "Point", "coordinates": [-79.9443948877, 42.1733414652]}, "type": "Feature", "properties": {"collection_times": [{"days": "Mon-Fri", "time": "5:00pm"}, {"days": "Sat", "time": "12:00pm"}, {"days": "Sun", "time": "Closed"}], "id": "1642100003", "name": "USPS COLLECTION BOX - PO LOBBY", "address": {"city": "HARBORCREEK", "state": "PA", "street": "7175 BUFFALO RD", "postcode": "16421"}}},
{"geometry": {"type": "Point", "coordinates": [-79.9713267696, 42.1600553744]}, "type": "Feature", "properties": {"collection_times": [{"days": "Mon-Sat", "time": "10:30am"}, {"days": "Sun", "time": "Closed"}], "id": "1642100004", "name": "USPS COLLECTION BOX - BLUE BOX", "address": {"city": "HARBORCREEK", "state": "PA", "street": "5741 BUFFALO RD", "postcode": "16421"}}},
{"geometry": {"type": "Point", "coordinates": [-80.317615599, 41.6614864773]}, "type": "Feature", "properties": {"collection_times": [{"days": "Mon-Fri", "time": "12:55pm"}, {"days": "Sat", "time": "11:45am"}, {"days": "Sun", "time": "Closed"}], "id": "1642200001", "name": "USPS COLLECTION BOX - BLUE BOX", "address": {"city": "HARMONSBURG", "state": "PA", "street": "14238 LEXINGTON ST", "postcode": "16422"}}},
{"geometry": {"type": "Point", "coordinates": [-80.317615599, 41.6614864773]}, "type": "Feature", "properties": {"collection_times": [{"days": "Mon-Fri", "time": "12:55pm"}, {"days": "Sat", "time": "11:45am"}, {"days": "Sun", "time": "Closed"}], "id": "1642200003", "name": "USPS COLLECTION BOX - PO LOBBY", "address": {"city": "HARMONSBURG", "state": "PA", "street": "14238 LEXINGTON ST", "postcode": "16422"}}},
{"geometry": {"type": "Point", "coordinates": [-80.3451766529, 42.0141731534]}, "type": "Feature", "properties": {"collection_times": [{"days": "Mon-Fri", "time": "2:30pm"}, {"days": "Sat", "time": "12:00pm"}, {"days": "Sun", "time": "Closed"}], "id": "1642300007", "name": "USPS COLLECTION BOX - BLUE BOX", "address": {"city": "LAKE CITY", "state": "PA", "street": "2102 RICE AVE", "postcode": "16423"}}},
{"geometry": {"type": "Point", "coordinates": [-80.4491076114, 41.6528905383]}, "type": "Feature", "properties": {"collection_times": [{"days": "Mon-Fri", "time": "4:00pm"}, {"days": "Sat", "time": "12:45pm"}, {"days": "Sun", "time": "Closed"}], "id": "1642400002", "name": "USPS COLLECTION BOX - BLUE BOX", "address": {"city": "LINESVILLE", "state": "PA", "street": "141 W ERIE ST", "postcode": "16424"}}},
{"geometry": {"type": "Point", "coordinates": [-80.4276998706, 41.6576884694]}, "type": "Feature", "properties": {"collection_times": [{"days": "Mon-Fri", "time": "4:00pm"}, {"days": "Sat", "time": "12:45pm"}, {"days": "Sun", "time": "Closed"}], "id": "1642400003", "name": "USPS COLLECTION BOX - BLUE BOX", "address": {"city": "LINESVILLE", "state": "PA", "street": "141 W ERIE ST", "postcode": "16424"}}},
{"geometry": {"type": "Point", "coordinates": [-80.4491076114, 41.6528905383]}, "type": "Feature", "properties": {"collection_times": [{"days": "Mon-Sat", "time": "11:00am"}, {"days": "Sun", "time": "Closed"}], "id": "1642400004", "name": "USPS COLLECTION BOX - BLUE BOX", "address": {"city": "LINESVILLE", "state": "PA", "street": "1255 STATE HIGHWAY 285", "postcode": "16424"}}},
{"geometry": {"type": "Point", "coordinates": [-80.4276998706, 41.6576884694]}, "type": "Feature", "properties": {"collection_times": [{"days": "Mon-Fri", "time": "4:30pm"}, {"days": "Sat", "time": "12:45pm"}, {"days": "Sun", "time": "Closed"}], "id": "1642400006", "name": "USPS COLLECTION BOX - PO LOBBY", "address": {"city": "LINESVILLE", "state": "PA", "street": "141 W ERIE ST", "postcode": "16424"}}},
{"geometry": {"type": "Point", "coordinates": [-80.1431939599, 41.997383056]}, "type": "Feature", "properties": {"collection_times": [{"days": "Mon-Fri", "time": "5:00pm"}, {"days": "Sat", "time": "12:00pm"}, {"days": "Sun", "time": "Closed"}], "id": "1642600001", "name": "USPS COLLECTION BOX - BLUE BOX", "address": {"city": "MCKEAN", "state": "PA", "street": "8988 MAIN ST", "postcode": "16426"}}},
{"geometry": {"type": "Point", "coordinates": [-80.1431939599, 41.997383056]}, "type": "Feature", "properties": {"collection_times": [{"days": "Mon-Fri", "time": "5:00pm"}, {"days": "Sat", "time": "12:00pm"}, {"days": "Sun", "time": "Closed"}], "id": "1642600003", "name": "USPS COLLECTION BOX - PO LOBBY", "address": {"city": "MCKEAN", "state": "PA", "street": "8988 MAIN ST", "postcode": "16426"}}},
{"geometry": {"type": "Point", "coordinates": [-79.9711942614, 41.876449303]}, "type": "Feature", "properties": {"collection_times": [{"days": "Mon-Fri", "time": "11:55am"}, {"days": "Sat", "time": "12:00pm"}, {"days": "Sun", "time": "Closed"}], "id": "1642700001", "name": "USPS COLLECTION BOX - BLUE BOX", "address": {"city": "MILL VILLAGE", "state": "PA", "street": "14525 S MAIN ST", "postcode": "16427"}}},
{"geometry": {"type": "Point", "coordinates": [-79.9711942614, 41.876449303]}, "type": "Feature", "properties": {"collection_times": [{"days": "Mon-Fri", "time": "11:55am"}, {"days": "Sat", "time": "12:00pm"}, {"days": "Sun", "time": "Closed"}], "id": "1642700003", "name": "USPS COLLECTION BOX - PO LOBBY", "address": {"city": "MILL VILLAGE", "state": "PA", "street": "14525 S MAIN ST", "postcode": "16427"}}},
{"geometry": {"type": "Point", "coordinates": [-79.8361565083, 42.2155612707]}, "type": "Feature", "properties": {"collection_times": [{"days": "Mon-Sat", "time": "10:00am"}, {"days": "Sun", "time": "Closed"}], "id": "1642800009", "name": "USPS COLLECTION BOX - BLUE BOX", "address": {"city": "NORTH EAST", "state": "PA", "street": "31 W MAIN ST", "postcode": "16428"}}},
{"geometry": {"type": "Point", "coordinates": [-79.8349167673, 42.2150360369]}, "type": "Feature", "properties": {"collection_times": [{"days": "Mon-Fri", "time": "5:00pm"}, {"days": "Sat", "time": "3:45pm"}, {"days": "Sun", "time": "Closed"}], "id": "1642800013", "name": "USPS COLLECTION BOX - PO LOBBY", "address": {"city": "NORTH EAST", "state": "PA", "street": "38 S LAKE ST", "postcode": "16428"}}},
{"geometry": {"type": "Point", "coordinates": [-79.8349167673, 42.2150360369]}, "type": "Feature", "properties": {"collection_times": [{"days": "Mon-Fri", "time": "5:00pm"}, {"days": "Sat", "time": "3:45pm"}, {"days": "Sun", "time": "Closed"}], "id": "1642800014", "name": "USPS COLLECTION BOX - BLUE BOX", "address": {"city": "NORTH EAST", "state": "PA", "street": "38 S LAKE ST", "postcode": "16428"}}},
{"geometry": {"type": "Point", "coordinates": [-79.8349167673, 42.2150360369]}, "type": "Feature", "properties": {"collection_times": [{"days": "Mon-Fri", "time": "5:00pm"}, {"days": "Sat", "time": "3:45pm"}, {"days": "Sun", "time": "Closed"}], "id": "1642800015", "name": "USPS COLLECTION BOX - BLUE BOX", "address": {"city": "NORTH EAST", "state": "PA", "street": "38 S LAKE ST", "postcode": "16428"}}},
{"geometry": {"type": "Point", "coordinates": [-80.1487380363, 41.7211270098]}, "type": "Feature", "properties": {"collection_times": [{"days": "Mon-Fri", "time": "4:45pm"}, {"days": "Sat", "time": "12:00pm"}, {"days": "Sun", "time": "Closed"}], "id": "1643300001", "name": "USPS COLLECTION BOX - BLUE BOX", "address": {"city": "SAEGERTOWN", "state": "PA", "street": "521 MAIN ST", "postcode": "16433"}}},
{"geometry": {"type": "Point", "coordinates": [-80.1487380363, 41.7211270098]}, "type": "Feature", "properties": {"collection_times": [{"days": "Mon-Fri", "time": "4:45pm"}, {"days": "Sat", "time": "12:00pm"}, {"days": "Sun", "time": "Closed"}], "id": "1643300003", "name": "USPS COLLECTION BOX - PO LOBBY", "address": {"city": "SAEGERTOWN", "state": "PA", "street": "521 MAIN ST", "postcode": "16433"}}},
{"geometry": {"type": "Point", "coordinates": [-79.6884972044, 41.8242632872]}, "type": "Feature", "properties": {"collection_times": [{"days": "Mon-Fri", "time": "3:30pm"}, {"days": "Sat", "time": "12:00pm"}, {"days": "Sun", "time": "Closed"}], "id": "1643400001", "name": "USPS COLLECTION BOX - BLUE BOX", "address": {"city": "SPARTANSBURG", "state": "PA", "street": "258 MAIN ST", "postcode": "16434"}}},
{"geometry": {"type": "Point", "coordinates": [-79.6884972044, 41.8242632872]}, "type": "Feature", "properties": {"collection_times": [{"days": "Mon-Fri", "time": "3:30pm"}, {"days": "Sat", "time": "12:00pm"}, {"days": "Sun", "time": "Closed"}], "id": "1643400002", "name": "USPS COLLECTION BOX - PO LOBBY", "address": {"city": "SPARTANSBURG", "state": "PA", "street": "258 MAIN ST", "postcode": "16434"}}},
{"geometry": {"type": "Point", "coordinates": [-80.369252234, 41.8005118371]}, "type": "Feature", "properties": {"collection_times": [{"days": "Mon-Fri", "time": "3:30pm"}, {"days": "Sat", "time": "11:45am"}, {"days": "Sun", "time": "Closed"}], "id": "1643500001", "name": "USPS COLLECTION BOX - BLUE BOX", "address": {"city": "SPRINGBORO", "state": "PA", "street": "111 BEAVER ST", "postcode": "16435"}}},
{"geometry": {"type": "Point", "coordinates": [-80.369252234, 41.8005118371]}, "type": "Feature", "properties": {"collection_times": [{"days": "Mon-Fri", "time": "3:30pm"}, {"days": "Sat", "time": "11:45am"}, {"days": "Sun", "time": "Closed"}], "id": "1643500003", "name": "USPS COLLECTION BOX - PO LOBBY", "address": {"city": "SPRINGBORO", "state": "PA", "street": "111 BEAVER ST", "postcode": "16435"}}},
{"geometry": {"type": "Point", "coordinates": [-79.499988955, 41.8547421138]}, "type": "Feature", "properties": {"collection_times": [{"days": "Mon-Fri", "time": "11:55am"}, {"days": "Sat", "time": "10:45am"}, {"days": "Sun", "time": "Closed"}], "id": "1643600001", "name": "USPS COLLECTION BOX - BLUE BOX", "address": {"city": "SPRING CREEK", "state": "PA", "street": "185 OLD ROUTE 77", "postcode": "16436"}}},
{"geometry": {"type": "Point", "coordinates": [-79.499988955, 41.8547421138]}, "type": "Feature", "properties": {"collection_times": [{"days": "Mon-Fri", "time": "11:55am"}, {"days": "Sat", "time": "10:45am"}, {"days": "Sun", "time": "Closed"}], "id": "1643600003", "name": "USPS COLLECTION BOX - PO LOBBY", "address": {"city": "SPRING CREEK", "state": "PA", "street": "185 OLD ROUTE 77", "postcode": "16436"}}},
{"geometry": {"type": "Point", "coordinates": [-79.8491063601, 41.8936840511]}, "type": "Feature", "properties": {"collection_times": [{"days": "Mon-Sat", "time": "10:30am"}, {"days": "Sun", "time": "Closed"}], "id": "1643800002", "name": "USPS COLLECTION BOX - BLUE BOX", "address": {"city": "UNION CITY", "state": "PA", "street": "9 PARADE ST", "postcode": "16438"}}},
{"geometry": {"type": "Point", "coordinates": [-79.8440822617, 41.899668375]}, "type": "Feature", "properties": {"collection_times": [{"days": "Mon-Sat", "time": "10:00am"}, {"days": "Sun", "time": "Closed"}], "id": "1643800005", "name": "USPS COLLECTION BOX - BLUE BOX", "address": {"city": "UNION CITY", "state": "PA", "street": "19 E HIGH ST", "postcode": "16438"}}},
{"geometry": {"type": "Point", "coordinates": [-79.8455231774, 41.9033322644]}, "type": "Feature", "properties": {"collection_times": [{"days": "Mon-Fri", "time": "5:00pm"}, {"days": "Sat", "time": "4:00pm"}, {"days": "Sun", "time": "Closed"}], "id": "1643800010", "name": "USPS COLLECTION BOX - BLUE BOX", "address": {"city": "UNION CITY", "state": "PA", "street": "90 N MAIN ST", "postcode": "16438"}}},
{"geometry": {"type": "Point", "coordinates": [-79.8455231774, 41.9033322644]}, "type": "Feature", "properties": {"collection_times": [{"days": "Mon-Fri", "time": "5:00pm"}, {"days": "Sat", "time": "4:00pm"}, {"days": "Sun", "time": "Closed"}], "id": "1643800015", "name": "USPS COLLECTION BOX - PO LOBBY", "address": {"city": "UNION CITY", "state": "PA", "street": "90 N MAIN ST", "postcode": "16438"}}},
{"geometry": {"type": "Point", "coordinates": [-79.840181196, 41.8032971073]}, "type": "Feature", "properties": {"collection_times": [{"days": "Mon-Sat", "time": "10:00am"}, {"days": "Sun", "time": "Closed"}], "id": "1643800016", "name": "USPS COLLECTION BOX - BLUE BOX", "address": {"city": "UNION CITY", "state": "PA", "street": "35733 DANNER DR", "postcode": "16438"}}},
{"geometry": {"type": "Point", "coordinates": [-80.1118704125, 41.7727345783]}, "type": "Feature", "properties": {"collection_times": [{"days": "Mon-Fri", "time": "11:25am"}, {"days": "Sat", "time": "11:15am"}, {"days": "Sun", "time": "Closed"}], "id": "1644000001", "name": "USPS COLLECTION BOX - BLUE BOX", "address": {"city": "VENANGO", "state": "PA", "street": "21663 CUSSEWAGO ST", "postcode": "16440"}}},
{"geometry": {"type": "Point", "coordinates": [-80.1118704125, 41.7727345783]}, "type": "Feature", "properties": {"collection_times": [{"days": "Mon-Fri", "time": "11:25am"}, {"days": "Sat", "time": "11:15am"}, {"days": "Sun", "time": "Closed"}], "id": "1644000003", "name": "USPS COLLECTION BOX - PO LOBBY", "address": {"city": "VENANGO", "state": "PA", "street": "21663 CUSSEWAGO ST", "postcode": "16440"}}},
{"geometry": {"type": "Point", "coordinates": [-79.9830823777, 41.9406865597]}, "type": "Feature", "properties": {"collection_times": [{"days": "Mon-Fri", "time": "5:00pm"}, {"days": "Sat", "time": "4:30pm"}, {"days": "Sun", "time": "Closed"}], "id": "1644100001", "name": "USPS COLLECTION BOX - BLUE BOX", "address": {"city": "WATERFORD", "state": "PA", "street": "101 HIGH ST", "postcode": "16441"}}},
{"geometry": {"type": "Point", "coordinates": [-79.9830823777, 41.9406865597]}, "type": "Feature", "properties": {"collection_times": [{"days": "Mon-Fri", "time": "5:00pm"}, {"days": "Sat", "time": "4:30pm"}, {"days": "Sun", "time": "Closed"}], "id": "1644100002", "name": "USPS COLLECTION BOX - PO LOBBY", "address": {"city": "WATERFORD", "state": "PA", "street": "101 HIGH ST", "postcode": "16441"}}},
{"geometry": {"type": "Point", "coordinates": [-79.9853572078, 41.9442531809]}, "type": "Feature", "properties": {"collection_times": [{"days": "Mon-Sat", "time": "10:30am"}, {"days": "Sun", "time": "Closed"}], "id": "1644100003", "name": "USPS COLLECTION BOX - BLUE BOX", "address": {"city": "WATERFORD", "state": "PA", "street": "430 HIGH ST", "postcode": "16441"}}},
{"geometry": {"type": "Point", "coordinates": [-79.8108636627, 42.0027694291]}, "type": "Feature", "properties": {"collection_times": [{"days": "Mon-Fri", "time": "4:45pm"}, {"days": "Sat", "time": "11:45am"}, {"days": "Sun", "time": "Closed"}], "id": "1644200001", "name": "USPS COLLECTION BOX - BLUE BOX", "address": {"city": "WATTSBURG", "state": "PA", "street": "14410 MAIN ST", "postcode": "16442"}}},
{"geometry": {"type": "Point", "coordinates": [-79.8108636627, 42.0027694291]}, "type": "Feature", "properties": {"collection_times": [{"days": "Mon-Fri", "time": "4:45pm"}, {"days": "Sat", "time": "11:45am"}, {"days": "Sun", "time": "Closed"}], "id": "1644200003", "name": "USPS COLLECTION BOX - PO LOBBY", "address": {"city": "WATTSBURG", "state": "PA", "street": "14410 MAIN ST", "postcode": "16442"}}},
{"geometry": {"type": "Point", "coordinates": [-80.4681995656, 41.9448705629]}, "type": "Feature", "properties": {"collection_times": [{"days": "Mon-Fri", "time": "11:55am"}, {"days": "Sat", "time": "10:45am"}, {"days": "Sun", "time": "Closed"}], "id": "1644300001", "name": "USPS COLLECTION BOX - BLUE BOX", "address": {"city": "WEST SPRINGFIELD", "state": "PA", "street": "13788 RIDGE RD", "postcode": "16443"}}},
{"geometry": {"type": "Point", "coordinates": [-80.4681995656, 41.9448705629]}, "type": "Feature", "properties": {"collection_times": [{"days": "Mon-Fri", "time": "11:55am"}, {"days": "Sat", "time": "10:45am"}, {"days": "Sun", "time": "Closed"}], "id": "1644300003", "name": "USPS COLLECTION BOX - PO LOBBY", "address": {"city": "WEST SPRINGFIELD", "state": "PA", "street": "13788 RIDGE RD", "postcode": "16443"}}}
]}
