{"type": "FeatureCollection", "features": [
{"geometry": {"type": "Point", "coordinates": [-80.0884886049, 42.1295378714]}, "type": "Feature", "properties": {"collection_times": [{"days": "Mon-Fri", "time": "2:15pm"}, {"days": "Sat-Sun", "time": "Closed"}], "id": "1650100004", "name": "USPS COLLECTION BOX - BLUE BOX", "address": {"city": "ERIE", "state": "PA", "street": "150 W 5TH ST", "postcode": "16501"}}},
{"geometry": {"type": "Point", "coordinates": [-80.0884886049, 42.1295378714]}, "type": "Feature", "properties": {"collection_times": [{"days": "Mon-Fri", "time": "2:15pm"}, {"days": "Sat-Sun", "time": "Closed"}], "id": "1650100005", "name": "USPS COLLECTION BOX - BLUE BOX", "address": {"city": "ERIE", "state": "PA", "street": "150 W 5TH ST", "postcode": "16501"}}},
{"geometry": {"type": "Point", "coordinates": [-80.0832167012, 42.1265788526]}, "type": "Feature", "properties": {"collection_times": [{"days": "Mon-Fri", "time": "2:30pm"}, {"days": "Sat", "time": "4:15pm"}, {"days": "Sun", "time": "Closed"}], "id": "1650100012", "name": "USPS COLLECTION BOX - BLUE BOX", "address": {"city": "ERIE", "state": "PA", "street": "2 E 9TH ST", "postcode": "16501"}}},
{"geometry": {"type": "Point", "coordinates": [-80.0832167012, 42.1265788526]}, "type": "Feature", "properties": {"collection_times": [{"days": "Mon-Fri", "time": "2:30pm"}, {"days": "Sat", "time": "4:15pm"}, {"days": "Sun", "time": "Closed"}], "id": "1650100013", "name": "USPS COLLECTION BOX - BLUE BOX", "address": {"city": "ERIE", "state": "PA", "street": "2 E 9TH ST", "postcode": "16501"}}},
{"geometry": {"type": "Point", "coordinates": [-80.0819622647, 42.1244963882]}, "type": "Feature", "properties": {"collection_times": [{"days": "Mon-Fri", "time": "3:45pm"}, {"days": "Sat", "time": "4:15pm"}, {"days": "Sun", "time": "Closed"}], "id": "1650100031", "name": "USPS COLLECTION BOX - BLUE BOX", "address": {"city": "ERIE", "state": "PA", "street": "1100 STATE ST", "postcode": "16501"}}},
{"geometry": {"type": "Point", "coordinates": [-80.0802724044, 42.1196248269]}, "type": "Feature", "properties": {"collection_times": [{"days": "Mon-Fri", "time": "3:00pm"}, {"days": "Sat-Sun", "time": "Closed"}], "id": "1650100043", "name": "USPS COLLECTION BOX - BLUE BOX", "address": {"city": "ERIE", "state": "PA", "street": "1611 PEACH ST", "postcode": "16501"}}},
{"geometry": {"type": "Point", "coordinates": [-80.0826893598, 42.1217209387]}, "type": "Feature", "properties": {"collection_times": [{"days": "Mon-Fri", "time": "4:15pm"}, {"days": "Sat", "time": "4:30pm"}, {"days": "Sun", "time": "Closed"}], "id": "1650100052", "name": "USPS COLLECTION BOX - BLUE BOX", "address": {"city": "ERIE", "state": "PA", "street": "1314 GRISWOLD PLZ", "postcode": "16501"}}},
{"geometry": {"type": "Point", "coordinates": [-80.0826893598, 42.1217209387]}, "type": "Feature", "properties": {"collection_times": [{"days": "Mon-Fri", "time": "4:15pm"}, {"days": "Sat", "time": "4:30pm"}, {"days": "Sun", "time": "Closed"}], "id": "1650100053", "name": "USPS COLLECTION BOX - BLUE BOX", "address": {"city": "ERIE", "state": "PA", "street": "1314 GRISWOLD PLZ", "postcode": "16501"}}},
{"geometry": {"type": "Point", "coordinates": [-80.0826893598, 42.1217209387]}, "type": "Feature", "properties": {"collection_times": [{"days": "Mon-Fri", "time": "4:15pm"}, {"days": "Sat", "time": "4:30pm"}, {"days": "Sun", "time": "Closed"}], "id": "1650100054", "name": "USPS COLLECTION BOX - BLUE BOX", "address": {"city": "ERIE", "state": "PA", "street": "1314 GRISWOLD PLZ", "postcode": "16501"}}},
{"geometry": {"type": "Point", "coordinates": [-80.0826893598, 42.1217209387]}, "type": "Feature", "properties": {"collection_times": [{"days": "Mon-Fri", "time": "4:15pm"}, {"days": "Sat", "time": "4:30pm"}, {"days": "Sun", "time": "Closed"}], "id": "1650100055", "name": "USPS COLLECTION BOX - BLUE BOX", "address": {"city": "ERIE", "state": "PA", "street": "1314 GRISWOLD PLZ", "postcode": "16501"}}},
{"geometry": {"type": "Point", "coordinates": [-80.0865169025, 42.1240629348]}, "type": "Feature", "properties": {"collection_times": [{"days": "Mon-Fri", "time": "4:15pm"}, {"days": "Sat", "time": "4:30pm"}, {"days": "Sun", "time": "Closed"}], "id": "1650100056", "name": "USPS COLLECTION BOX - EXPRESS", "address": {"city": "ERIE", "state": "PA", "street": "1314 GRISWOLD PLZ", "postcode": "16501"}}},
{"geometry": {"type": "Point", "coordinates": [-80.0824296375, 42.125263647]}, "type": "Feature", "properties": {"collection_times": [{"days": "Mon-Fri", "time": "3:45pm"}, {"days": "Sat", "time": "4:15pm"}, {"days": "Sun", "time": "Closed"}], "id": "1650100066", "name": "USPS COLLECTION BOX - BLUE BOX", "address": {"city": "ERIE", "state": "PA", "street": "1001 STATE ST", "postcode": "16501"}}},
{"geometry": {"type": "Point", "coordinates": [-80.0826893598, 42.1217209387]}, "type": "Feature", "properties": {"collection_times": [{"days": "Mon-Fri", "time": "4:15pm"}, {"days": "Sat", "time": "5:00pm"}, {"days": "Sun", "time": "Closed"}], "id": "1650100068", "name": "USPS COLLECTION BOX - PO LOBBY", "address": {"city": "ERIE", "state": "PA", "street": "1401 STATE ST", "postcode": "16501"}}},
{"geometry": {"type": "Point", "coordinates": [-80.0846098308, 42.1285321626]}, "type": "Feature", "properties": {"collection_times": [{"days": "Mon-Fri", "time": "3:15pm"}, {"days": "Sat-Sun", "time": "Closed"}], "id": "1650100071", "name": "USPS COLLECTION BOX - BLUE BOX", "address": {"city": "ERIE", "state": "PA", "street": "703 STATE ST", "postcode": "16501"}}},
{"geometry": {"type": "Point", "coordinates": [-80.0873791378, 42.1261697935]}, "type": "Feature", "properties": {"collection_times": [{"days": "Mon-Fri", "time": "2:30pm"}, {"days": "Sat", "time": "3:30pm"}, {"days": "Sun", "time": "Closed"}], "id": "1650100072", "name": "USPS COLLECTION BOX - BLUE BOX", "address": {"city": "ERIE", "state": "PA", "street": "160 W 8TH ST", "postcode": "16501"}}},
{"geometry": {"type": "Point", "coordinates": [-80.1084996871, 42.1208902477]}, "type": "Feature", "properties": {"collection_times": [{"days": "Mon-Sat", "time": "10:00am"}, {"days": "Sun", "time": "Closed"}], "id": "1650200005", "name": "USPS COLLECTION BOX - BLUE BOX", "address": {"city": "ERIE", "state": "PA", "street": "1102 W 6TH ST", "postcode": "16502"}}},
{"geometry": {"type": "Point", "coordinates": [-80.113203132, 42.1142656775]}, "type": "Feature", "properties": {"collection_times": [{"days": "Mon-Fri", "time": "1:15pm"}, {"days": "Sat", "time": "2:30pm"}, {"days": "Sun", "time": "Closed"}], "id": "1650200012", "name": "USPS COLLECTION BOX - BLUE BOX", "address": {"city": "ERIE", "state": "PA", "street": "1402 W 10TH ST", "postcode": "16502"}}},
{"geometry": {"type": "Point", "coordinates": [-80.0897982889, 42.1160152738]}, "type": "Feature", "properties": {"collection_times": [{"days": "Mon-Fri", "time": "2:30pm"}, {"days": "Sat", "time": "2:45pm"}, {"days": "Sun", "time": "Closed"}], "id": "1650200018", "name": "USPS COLLECTION BOX - BLUE BOX", "address": {"city": "ERIE", "state": "PA", "street": "1602 WALNUT ST", "postcode": "16502"}}},
{"geometry": {"type": "Point", "coordinates": [-80.0786832064, 42.1126402919]}, "type": "Feature", "properties": {"collection_times": [{"days": "Mon-Sat", "time": "12:45pm"}, {"days": "Sun", "time": "Closed"}], "id": "1650200021", "name": "USPS COLLECTION BOX - BLUE BOX", "address": {"city": "ERIE", "state": "PA", "street": "2314 SASSAFRAS ST", "postcode": "16502"}}},
{"geometry": {"type": "Point", "coordinates": [-80.0788003194, 42.1111261044]}, "type": "Feature", "properties": {"collection_times": [{"days": "Mon-Fri", "time": "4:15pm"}, {"days": "Sat", "time": "12:45pm"}, {"days": "Sun", "time": "Closed"}], "id": "1650200022", "name": "USPS COLLECTION BOX - BLUE BOX", "address": {"city": "ERIE", "state": "PA", "street": "225 W 25TH ST", "postcode": "16502"}}},
{"geometry": {"type": "Point", "coordinates": [-80.0788003194, 42.1111261044]}, "type": "Feature", "properties": {"collection_times": [{"days": "Mon-Fri", "time": "4:15pm"}, {"days": "Sat", "time": "12:45pm"}, {"days": "Sun", "time": "Closed"}], "id": "1650200023", "name": "USPS COLLECTION BOX - BLUE BOX", "address": {"city": "ERIE", "state": "PA", "street": "225 W 25TH ST", "postcode": "16502"}}},
{"geometry": {"type": "Point", "coordinates": [-80.09898165, 42.1067743151]}, "type": "Feature", "properties": {"collection_times": [{"days": "Mon-Sat", "time": "10:00am"}, {"days": "Sun", "time": "Closed"}], "id": "1650200028", "name": "USPS COLLECTION BOX - BLUE BOX", "address": {"city": "ERIE", "state": "PA", "street": "2198 RASPBERRY ST", "postcode": "16502"}}},
{"geometry": {"type": "Point", "coordinates": [-80.0945728489, 42.1093232061]}, "type": "Feature", "properties": {"collection_times": [{"days": "Mon-Sat", "time": "10:00am"}, {"days": "Sun", "time": "Closed"}], "id": "1650200029", "name": "USPS COLLECTION BOX - BLUE BOX", "address": {"city": "ERIE", "state": "PA", "street": "897 BROWN AVE", "postcode": "16502"}}},
{"geometry": {"type": "Point", "coordinates": [-80.0997835499, 42.1192487857]}, "type": "Feature", "properties": {"collection_times": [{"days": "Mon-Sat", "time": "2:00pm"}, {"days": "Sun", "time": "Closed"}], "id": "1650200032", "name": "USPS COLLECTION BOX - BLUE BOX", "address": {"city": "ERIE", "state": "PA", "street": "998 LIBERTY ST", "postcode": "16502"}}},
{"geometry": {"type": "Point", "coordinates": [-80.0806469183, 42.1105275271]}, "type": "Feature", "properties": {"collection_times": [{"days": "Mon-Fri", "time": "4:15pm"}, {"days": "Sat-Sun", "time": "Closed"}], "id": "1650200034", "name": "USPS COLLECTION BOX - BLUE BOX", "address": {"city": "ERIE", "state": "PA", "street": "311 W 24TH ST", "postcode": "16502"}}},
{"geometry": {"type": "Point", "coordinates": [-80.0934349831, 42.1215866542]}, "type": "Feature", "properties": {"collection_times": [{"days": "Mon-Sat", "time": "9:00am"}, {"days": "Sun", "time": "Closed"}], "id": "1650200036", "name": "USPS COLLECTION BOX - BLUE BOX", "address": {"city": "ERIE", "state": "PA", "street": "498 W 10TH ST", "postcode": "16502"}}},
{"geometry": {"type": "Point", "coordinates": [-80.0726863942, 42.1265280757]}, "type": "Feature", "properties": {"collection_times": [{"days": "Mon-Fri", "time": "12:30pm"}, {"days": "Sat", "time": "2:15pm"}, {"days": "Sun", "time": "Closed"}], "id": "1650300004", "name": "USPS COLLECTION BOX - BLUE BOX", "address": {"city": "ERIE", "state": "PA", "street": "1202 PARADE ST", "postcode": "16503"}}},
{"geometry": {"type": "Point", "coordinates": [-80.0583839472, 42.1344896279]}, "type": "Feature", "properties": {"collection_times": [{"days": "Mon-Fri", "time": "1:45pm"}, {"days": "Sat", "time": "1:30pm"}, {"days": "Sun", "time": "Closed"}], "id": "1650300014", "name": "USPS COLLECTION BOX - BLUE BOX", "address": {"city": "ERIE", "state": "PA", "street": "998 PENNSYLVANIA AVE", "postcode": "16503"}}},
{"geometry": {"type": "Point", "coordinates": [-80.0751686353, 42.1302640145]}, "type": "Feature", "properties": {"collection_times": [{"days": "Mon-Sat", "time": "9:30am"}, {"days": "Sun", "time": "Closed"}], "id": "1650300016", "name": "USPS COLLECTION BOX - BLUE BOX", "address": {"city": "ERIE", "state": "PA", "street": "810 PARADE ST", "postcode": "16503"}}},
{"geometry": {"type": "Point", "coordinates": [-80.0735278707, 42.1120047403]}, "type": "Feature", "properties": {"collection_times": [{"days": "Mon-Fri", "time": "12:45pm"}, {"days": "Sat", "time": "12:30pm"}, {"days": "Sun", "time": "Closed"}], "id": "1650300023", "name": "USPS COLLECTION BOX - BLUE BOX", "address": {"city": "ERIE", "state": "PA", "street": "2599 STATE ST", "postcode": "16503"}}},
{"geometry": {"type": "Point", "coordinates": [-80.0653346975, 42.1241824225]}, "type": "Feature", "properties": {"collection_times": [{"days": "Mon-Fri", "time": "12:30pm"}, {"days": "Sat", "time": "2:15pm"}, {"days": "Sun", "time": "Closed"}], "id": "1650300034", "name": "USPS COLLECTION BOX - BLUE BOX", "address": {"city": "ERIE", "state": "PA", "street": "1618 ASH ST", "postcode": "16503"}}},
{"geometry": {"type": "Point", "coordinates": [-80.0744659577, 42.120304683]}, "type": "Feature", "properties": {"collection_times": [{"days": "Mon-Fri", "time": "2:30pm"}, {"days": "Sat-Sun", "time": "Closed"}], "id": "1650300035", "name": "USPS COLLECTION BOX - BLUE BOX", "address": {"city": "ERIE", "state": "PA", "street": "1720 HOLLAND ST", "postcode": "16503"}}},
{"geometry": {"type": "Point", "coordinates": [-80.0763593449, 42.1241038253]}, "type": "Feature", "properties": {"collection_times": [{"days": "Mon-Fri", "time": "4:45pm"}, {"days": "Sat", "time": "2:15pm"}, {"days": "Sun", "time": "Closed"}], "id": "1650300036", "name": "USPS COLLECTION BOX - BLUE BOX", "address": {"city": "ERIE", "state": "PA", "street": "155 E 13TH ST", "postcode": "16503"}}},
{"geometry": {"type": "Point", "coordinates": [-80.0763593449, 42.1241038253]}, "type": "Feature", "properties": {"collection_times": [{"days": "Mon-Fri", "time": "4:45pm"}, {"days": "Sat", "time": "2:15pm"}, {"days": "Sun", "time": "Closed"}], "id": "1650300037", "name": "USPS COLLECTION BOX - BLUE BOX", "address": {"city": "ERIE", "state": "PA", "street": "155 E 13TH ST", "postcode": "16503"}}},
{"geometry": {"type": "Point", "coordinates": [-80.0642583554, 42.1141691624]}, "type": "Feature", "properties": {"collection_times": [{"days": "Mon-Fri", "time": "12:30pm"}, {"days": "Sat-Sun", "time": "Closed"}], "id": "1650400001", "name": "USPS COLLECTION BOX - BLUE BOX", "address": {"city": "ERIE", "state": "PA", "street": "2711 PARADE ST", "postcode": "16504"}}},
{"geometry": {"type": "Point", "coordinates": [-80.0487353467, 42.1169854484]}, "type": "Feature", "properties": {"collection_times": [{"days": "Mon-Fri", "time": "12:15pm"}, {"days": "Sat", "time": "12:30pm"}, {"days": "Sun", "time": "Closed"}], "id": "1650400005", "name": "USPS COLLECTION BOX - BLUE BOX", "address": {"city": "ERIE", "state": "PA", "street": "2999 EAST AVE", "postcode": "16504"}}},
{"geometry": {"type": "Point", "coordinates": [-80.0317327481, 42.1070697381]}, "type": "Feature", "properties": {"collection_times": [{"days": "Mon-Fri", "time": "12:00pm"}, {"days": "Sat", "time": "12:30pm"}, {"days": "Sun", "time": "Closed"}], "id": "1650400016", "name": "USPS COLLECTION BOX - BLUE BOX", "address": {"city": "ERIE", "state": "PA", "street": "1320 E GRANDVIEW BLVD", "postcode": "16504"}}},
{"geometry": {"type": "Point", "coordinates": [-80.0447463175, 42.1022467419]}, "type": "Feature", "properties": {"collection_times": [{"days": "Mon-Fri", "time": "12:00pm"}, {"days": "Sat", "time": "12:30pm"}, {"days": "Sun", "time": "Closed"}], "id": "1650400017", "name": "USPS COLLECTION BOX - BLUE BOX", "address": {"city": "ERIE", "state": "PA", "street": "821 E GRANDVIEW BLVD", "postcode": "16504"}}},
{"geometry": {"type": "Point", "coordinates": [-80.0501665864, 42.1098417318]}, "type": "Feature", "properties": {"collection_times": [{"days": "Mon-Sat", "time": "10:00am"}, {"days": "Sun", "time": "Closed"}], "id": "1650400031", "name": "USPS COLLECTION BOX - BLUE BOX", "address": {"city": "ERIE", "state": "PA", "street": "607 E 26TH ST", "postcode": "16504"}}},
{"geometry": {"type": "Point", "coordinates": [-80.1429099487, 42.1057913364]}, "type": "Feature", "properties": {"collection_times": [{"days": "Mon-Fri", "time": "4:45pm"}, {"days": "Sat", "time": "2:00pm"}, {"days": "Sun", "time": "Closed"}], "id": "1650500001", "name": "USPS COLLECTION BOX - BLUE BOX", "address": {"city": "ERIE", "state": "PA", "street": "2650 W 8TH ST", "postcode": "16505"}}},
{"geometry": {"type": "Point", "coordinates": [-80.1148983122, 42.119583078]}, "type": "Feature", "properties": {"collection_times": [{"days": "Mon-Fri", "time": "1:30pm"}, {"days": "Sat", "time": "1:45pm"}, {"days": "Sun", "time": "Closed"}], "id": "1650500006", "name": "USPS COLLECTION BOX - BLUE BOX", "address": {"city": "ERIE", "state": "PA", "street": "1372 W 6TH ST", "postcode": "16505"}}},
{"geometry": {"type": "Point", "coordinates": [-80.1324064044, 42.1073713306]}, "type": "Feature", "properties": {"collection_times": [{"days": "Mon-Fri", "time": "4:30pm"}, {"days": "Sat", "time": "1:30pm"}, {"days": "Sun", "time": "Closed"}], "id": "1650500010", "name": "USPS COLLECTION BOX - BLUE BOX", "address": {"city": "ERIE", "state": "PA", "street": "900 PITTSBURGH AVE", "postcode": "16505"}}},
{"geometry": {"type": "Point", "coordinates": [-80.1372373093, 42.102835928]}, "type": "Feature", "properties": {"collection_times": [{"days": "Mon-Fri", "time": "2:00pm"}, {"days": "Sat", "time": "1:30pm"}, {"days": "Sun", "time": "Closed"}], "id": "1650500013", "name": "USPS COLLECTION BOX - BLUE BOX", "address": {"city": "ERIE", "state": "PA", "street": "2501 W 12TH ST", "postcode": "16505"}}},
{"geometry": {"type": "Point", "coordinates": [-80.0415584052, 42.1425514093]}, "type": "Feature", "properties": {"collection_times": [{"days": "Mon-Fri", "time": "5:00pm"}, {"days": "Sat", "time": "2:00pm"}, {"days": "Sun", "time": "Closed"}], "id": "1650500017", "name": "USPS COLLECTION BOX - BLUE BOX", "address": {"city": "ERIE", "state": "PA", "street": "1903 W 8TH ST", "postcode": "16505"}}},
{"geometry": {"type": "Point", "coordinates": [-80.170196912, 42.0961309165]}, "type": "Feature", "properties": {"collection_times": [{"days": "Mon-Fri", "time": "5:00pm"}, {"days": "Sat", "time": "2:00pm"}, {"days": "Sun", "time": "Closed"}], "id": "1650500020", "name": "USPS COLLECTION BOX - BLUE BOX", "address": {"city": "ERIE", "state": "PA", "street": "724 POWELL AVE", "postcode": "16505"}}},
{"geometry": {"type": "Point", "coordinates": [-80.1768037378, 42.0905225081]}, "type": "Feature", "properties": {"collection_times": [{"days": "Mon-Fri", "time": "5:00pm"}, {"days": "Sat", "time": "2:15pm"}, {"days": "Sun", "time": "Closed"}], "id": "1650500022", "name": "USPS COLLECTION BOX - BLUE BOX", "address": {"city": "ERIE", "state": "PA", "street": "1003 GRANT AVE", "postcode": "16505"}}},
{"geometry": {"type": "Point", "coordinates": [-80.1670679855, 42.0912866996]}, "type": "Feature", "properties": {"collection_times": [{"days": "Mon-Fri", "time": "5:00pm"}, {"days": "Sat", "time": "2:30pm"}, {"days": "Sun", "time": "Closed"}], "id": "1650500036", "name": "USPS COLLECTION BOX - BLUE BOX", "address": {"city": "ERIE", "state": "PA", "street": "1216 POWELL AVE", "postcode": "16505"}}},
{"geometry": {"type": "Point", "coordinates": [-80.1306157888, 42.1101980569]}, "type": "Feature", "properties": {"collection_times": [{"days": "Mon-Fri", "time": "2:00pm"}, {"days": "Sat-Sun", "time": "Closed"}], "id": "1650500038", "name": "USPS COLLECTION BOX - BLUE BOX", "address": {"city": "ERIE", "state": "PA", "street": "2115 W 8TH ST", "postcode": "16505"}}},
{"geometry": {"type": "Point", "coordinates": [-80.143499894, 42.09652011]}, "type": "Feature", "properties": {"collection_times": [{"days": "Mon-Fri", "time": "5:00pm"}, {"days": "Sat-Sun", "time": "Closed"}], "id": "1650500039", "name": "USPS COLLECTION BOX - BLUE BOX", "address": {"city": "ERIE", "state": "PA", "street": "1600 PENINSULA DR", "postcode": "16505"}}},
{"geometry": {"type": "Point", "coordinates": [-80.1629974237, 42.0795955161]}, "type": "Feature", "properties": {"collection_times": [{"days": "Mon-Fri", "time": "5:00pm"}, {"days": "Sat", "time": "2:30pm"}, {"days": "Sun", "time": "Closed"}], "id": "1650600002", "name": "USPS COLLECTION BOX - BLUE BOX", "address": {"city": "ERIE", "state": "PA", "street": "3939 W RIDGE RD", "postcode": "16506"}}},
{"geometry": {"type": "Point", "coordinates": [-80.148632753, 42.0840517226]}, "type": "Feature", "properties": {"collection_times": [{"days": "Mon-Fri", "time": "5:00pm"}, {"days": "Sat-Sun", "time": "Closed"}], "id": "1650600003", "name": "USPS COLLECTION BOX - BLUE BOX", "address": {"city": "ERIE", "state": "PA", "street": "3330 W 26TH ST", "postcode": "16506"}}},
{"geometry": {"type": "Point", "coordinates": [-80.1395431847, 42.0914629811]}, "type": "Feature", "properties": {"collection_times": [{"days": "Mon-Fri", "time": "5:00pm"}, {"days": "Sat-Sun", "time": "Closed"}], "id": "1650600005", "name": "USPS COLLECTION BOX - BLUE BOX", "address": {"city": "ERIE", "state": "PA", "street": "2121 EBCO DR", "postcode": "16506"}}},
{"geometry": {"type": "Point", "coordinates": [-80.1886617184, 42.0682592204]}, "type": "Feature", "properties": {"collection_times": [{"days": "Mon-Fri", "time": "5:00pm"}, {"days": "Sat", "time": "2:15pm"}, {"days": "Sun", "time": "Closed"}], "id": "1650600006", "name": "USPS COLLECTION BOX - BLUE BOX", "address": {"city": "ERIE", "state": "PA", "street": "5028 W RIDGE RD", "postcode": "16506"}}},
{"geometry": {"type": "Point", "coordinates": [-80.1460988549, 42.0728692115]}, "type": "Feature", "properties": {"collection_times": [{"days": "Mon-Fri", "time": "2:00pm"}, {"days": "Sat", "time": "2:45pm"}, {"days": "Sun", "time": "Closed"}], "id": "1650600007", "name": "USPS COLLECTION BOX - BLUE BOX", "address": {"city": "ERIE", "state": "PA", "street": "3501 W 38TH ST", "postcode": "16506"}}},
{"geometry": {"type": "Point", "coordinates": [-80.1554418648, 42.0815261052]}, "type": "Feature", "properties": {"collection_times": [{"days": "Mon-Fri", "time": "5:00pm"}, {"days": "Sat-Sun", "time": "Closed"}], "id": "1650600011", "name": "USPS COLLECTION BOX - BLUE BOX", "address": {"city": "ERIE", "state": "PA", "street": "3608 W RIDGE RD", "postcode": "16506"}}},
{"geometry": {"type": "Point", "coordinates": [-80.1359702008, 42.0884064139]}, "type": "Feature", "properties": {"collection_times": [{"days": "Mon-Fri", "time": "5:00pm"}, {"days": "Sat", "time": "4:30pm"}, {"days": "Sun", "time": "Closed"}], "id": "1650600015", "name": "USPS COLLECTION BOX - BLUE BOX", "address": {"city": "ERIE", "state": "PA", "street": "2711 LEGION RD", "postcode": "16506"}}},
{"geometry": {"type": "Point", "coordinates": [-80.1359702008, 42.0884064139]}, "type": "Feature", "properties": {"collection_times": [{"days": "Mon-Fri", "time": "5:00pm"}, {"days": "Sat", "time": "4:30pm"}, {"days": "Sun", "time": "Closed"}], "id": "1650600016", "name": "USPS COLLECTION BOX - BLUE BOX", "address": {"city": "ERIE", "state": "PA", "street": "2711 LEGION RD", "postcode": "16506"}}},
{"geometry": {"type": "Point", "coordinates": [-80.1359702008, 42.0884064139]}, "type": "Feature", "properties": {"collection_times": [{"days": "Mon-Fri", "time": "5:00pm"}, {"days": "Sat", "time": "4:30pm"}, {"days": "Sun", "time": "Closed"}], "id": "1650600023", "name": "USPS COLLECTION BOX - BLUE BOX", "address": {"city": "ERIE", "state": "PA", "street": "2711 LEGION RD", "postcode": "16506"}}},
{"geometry": {"type": "Point", "coordinates": [-80.1359702008, 42.0884064139]}, "type": "Feature", "properties": {"collection_times": [{"days": "Mon-Fri", "time": "5:00pm"}, {"days": "Sat", "time": "4:30pm"}, {"days": "Sun", "time": "Closed"}], "id": "1650600024", "name": "USPS COLLECTION BOX - PO LOBBY", "address": {"city": "ERIE", "state": "PA", "street": "2711 LEGION RD", "postcode": "16506"}}},
{"geometry": {"type": "Point", "coordinates": [-80.1359702008, 42.0884064139]}, "type": "Feature", "properties": {"collection_times": [{"days": "Mon-Fri", "time": "5:00pm"}, {"days": "Sat", "time": "4:30pm"}, {"days": "Sun", "time": "Closed"}], "id": "1650600025", "name": "USPS COLLECTION BOX - APC", "address": {"city": "ERIE", "state": "PA", "street": "2711 LEGION RD", "postcode": "16506"}}},
{"geometry": {"type": "Point", "coordinates": [-80.1474078095, 42.0723530243]}, "type": "Feature", "properties": {"collection_times": [{"days": "Mon-Fri", "time": "5:00pm"}, {"days": "Sat", "time": "4:30pm"}, {"days": "Sun", "time": "Closed"}], "id": "1650600026", "name": "USPS COLLECTION BOX - EXPRESS", "address": {"city": "ERIE", "state": "PA", "street": "2711 LEGION RD", "postcode": "16506"}}},
{"geometry": {"type": "Point", "coordinates": [-80.1128120327, 42.0769486203]}, "type": "Feature", "properties": {"collection_times": [{"days": "Mon-Fri", "time": "2:15pm"}, {"days": "Sat-Sun", "time": "Closed"}], "id": "1650600027", "name": "USPS COLLECTION BOX - BLUE BOX", "address": {"city": "ERIE", "state": "PA", "street": "2201 W GRANDVIEW BLVD", "postcode": "16506"}}},
{"geometry": {"type": "Point", "coordinates": [-80.1359702008, 42.0884064139]}, "type": "Feature", "properties": {"collection_times": [{"days": "Mon-Fri", "time": "5:00pm"}, {"days": "Sat", "time": "4:30pm"}, {"days": "Sun", "time": "Closed"}], "id": "1650600028", "name": "USPS COLLECTION BOX - BLUE BOX", "address": {"city": "ERIE", "state": "PA", "street": "2711 LEGION RD", "postcode": "16506"}}},
{"geometry": {"type": "Point", "coordinates": [-80.1037986082, 42.1250341529]}, "type": "Feature", "properties": {"collection_times": [{"days": "Mon-Sat", "time": "9:00am"}, {"days": "Sun", "time": "Closed"}], "id": "1650700002", "name": "USPS COLLECTION BOX - BLUE BOX", "address": {"city": "ERIE", "state": "PA", "street": "801 W 4TH ST", "postcode": "16507"}}},
{"geometry": {"type": "Point", "coordinates": [-80.0893707966, 42.1279953211]}, "type": "Feature", "properties": {"collection_times": [{"days": "Mon-Fri", "time": "2:30pm"}, {"days": "Sat", "time": "3:30pm"}, {"days": "Sun", "time": "Closed"}], "id": "1650700008", "name": "USPS COLLECTION BOX - BLUE BOX", "address": {"city": "ERIE", "state": "PA", "street": "204 W 6TH ST", "postcode": "16507"}}},
{"geometry": {"type": "Point", "coordinates": [-80.0872094854, 42.1323040589]}, "type": "Feature", "properties": {"collection_times": [{"days": "Mon-Fri", "time": "3:30pm"}, {"days": "Sat", "time": "3:15pm"}, {"days": "Sun", "time": "Closed"}], "id": "1650700011", "name": "USPS COLLECTION BOX - BLUE BOX", "address": {"city": "ERIE", "state": "PA", "street": "300 STATE ST", "postcode": "16507"}}},
{"geometry": {"type": "Point", "coordinates": [-80.0852854722, 42.1343165105]}, "type": "Feature", "properties": {"collection_times": [{"days": "Mon-Fri", "time": "3:00pm"}, {"days": "Sat", "time": "2:00pm"}, {"days": "Sun", "time": "Closed"}], "id": "1650700014", "name": "USPS COLLECTION BOX - BLUE BOX", "address": {"city": "ERIE", "state": "PA", "street": "104 E 2ND ST", "postcode": "16507"}}},
{"geometry": {"type": "Point", "coordinates": [-80.0891750091, 42.1328808424]}, "type": "Feature", "properties": {"collection_times": [{"days": "Mon-Fri", "time": "3:30pm"}, {"days": "Sat", "time": "3:15pm"}, {"days": "Sun", "time": "Closed"}], "id": "1650700020", "name": "USPS COLLECTION BOX - BLUE BOX", "address": {"city": "ERIE", "state": "PA", "street": "98 W 2ND ST", "postcode": "16507"}}},
{"geometry": {"type": "Point", "coordinates": [-80.0670507042, 42.1362031796]}, "type": "Feature", "properties": {"collection_times": [{"days": "Mon-Fri", "time": "1:45pm"}, {"days": "Sat", "time": "1:30pm"}, {"days": "Sun", "time": "Closed"}], "id": "1650700026", "name": "USPS COLLECTION BOX - BLUE BOX", "address": {"city": "ERIE", "state": "PA", "street": "858 E 6TH ST", "postcode": "16507"}}},
{"geometry": {"type": "Point", "coordinates": [-80.0577318202, 42.1400612807]}, "type": "Feature", "properties": {"collection_times": [{"days": "Mon-Sat", "time": "1:30pm"}, {"days": "Sun", "time": "Closed"}], "id": "1650700030", "name": "USPS COLLECTION BOX - BLUE BOX", "address": {"city": "ERIE", "state": "PA", "street": "1306 E LAKE RD", "postcode": "16507"}}},
{"geometry": {"type": "Point", "coordinates": [-80.0858107078, 42.1327064564]}, "type": "Feature", "properties": {"collection_times": [{"days": "Mon-Fri", "time": "3:00pm"}, {"days": "Sat", "time": "2:00pm"}, {"days": "Sun", "time": "Closed"}], "id": "1650700034", "name": "USPS COLLECTION BOX - BLUE BOX", "address": {"city": "ERIE", "state": "PA", "street": "310 FRENCH ST", "postcode": "16507"}}},
{"geometry": {"type": "Point", "coordinates": [-80.0891750091, 42.1328808424]}, "type": "Feature", "properties": {"collection_times": [{"days": "Mon-Fri", "time": "3:30pm"}, {"days": "Sat", "time": "3:15pm"}, {"days": "Sun", "time": "Closed"}], "id": "1650700035", "name": "USPS COLLECTION BOX - BLUE BOX", "address": {"city": "ERIE", "state": "PA", "street": "98 W 2ND ST", "postcode": "16507"}}},
{"geometry": {"type": "Point", "coordinates": [-80.0832325372, 42.1362518088]}, "type": "Feature", "properties": {"collection_times": [{"days": "Mon-Fri", "time": "3:00pm"}, {"days": "Sat", "time": "1:45pm"}, {"days": "Sun", "time": "Closed"}], "id": "1650700037", "name": "USPS COLLECTION BOX - BLUE BOX", "address": {"city": "ERIE", "state": "PA", "street": "160 E FRONT ST", "postcode": "16507"}}},
{"geometry": {"type": "Point", "coordinates": [-80.1117366297, 42.1210124544]}, "type": "Feature", "properties": {"collection_times": [{"days": "Mon-Fri", "time": "1:30pm"}, {"days": "Sat-Sun", "time": "Closed"}], "id": "1650700038", "name": "USPS COLLECTION BOX - BLUE BOX", "address": {"city": "ERIE", "state": "PA", "street": "1220 W 5TH ST", "postcode": "16507"}}},
{"geometry": {"type": "Point", "coordinates": [-80.083335784, 42.1368282538]}, "type": "Feature", "properties": {"collection_times": [{"days": "Mon-Fri", "time": "3:00pm"}, {"days": "Sat", "time": "1:45pm"}, {"days": "Sun", "time": "Closed"}], "id": "1650700040", "name": "USPS COLLECTION BOX - BLUE BOX", "address": {"city": "ERIE", "state": "PA", "street": "208 E BAYFRONT PKWY", "postcode": "16507"}}},
{"geometry": {"type": "Point", "coordinates": [-80.1042315712, 42.1006651983]}, "type": "Feature", "properties": {"collection_times": [{"days": "Mon-Fri", "time": "4:30pm"}, {"days": "Sat", "time": "1:15pm"}, {"days": "Sun", "time": "Closed"}], "id": "1650800002", "name": "USPS COLLECTION BOX - BLUE BOX", "address": {"city": "ERIE", "state": "PA", "street": "1520 W 26TH ST", "postcode": "16508"}}},
{"geometry": {"type": "Point", "coordinates": [-80.0982099445, 42.0904426165]}, "type": "Feature", "properties": {"collection_times": [{"days": "Mon-Fri", "time": "12:30pm"}, {"days": "Sat", "time": "1:30pm"}, {"days": "Sun", "time": "Closed"}], "id": "1650800013", "name": "USPS COLLECTION BOX - BLUE BOX", "address": {"city": "ERIE", "state": "PA", "street": "1515 W 38TH ST", "postcode": "16508"}}},
{"geometry": {"type": "Point", "coordinates": [-80.0851194797, 42.0972313335]}, "type": "Feature", "properties": {"collection_times": [{"days": "Mon-Fri", "time": "4:15pm"}, {"days": "Sat", "time": "1:15pm"}, {"days": "Sun", "time": "Closed"}], "id": "1650800021", "name": "USPS COLLECTION BOX - BLUE BOX", "address": {"city": "ERIE", "state": "PA", "street": "3608 LIBERTY ST", "postcode": "16508"}}},
{"geometry": {"type": "Point", "coordinates": [-80.0804106235, 42.0996719517]}, "type": "Feature", "properties": {"collection_times": [{"days": "Mon-Fri", "time": "4:30pm"}, {"days": "Sat", "time": "1:15pm"}, {"days": "Sun", "time": "Closed"}], "id": "1650800025", "name": "USPS COLLECTION BOX - BLUE BOX", "address": {"city": "ERIE", "state": "PA", "street": "3580 PEACH ST", "postcode": "16508"}}},
{"geometry": {"type": "Point", "coordinates": [-80.0838438443, 42.0977841713]}, "type": "Feature", "properties": {"collection_times": [{"days": "Mon-Fri", "time": "5:00pm"}, {"days": "Sat", "time": "4:00pm"}, {"days": "Sun", "time": "Closed"}], "id": "1650800026", "name": "USPS COLLECTION BOX - BLUE BOX", "address": {"city": "ERIE", "state": "PA", "street": "3607 POPLAR ST", "postcode": "16508"}}},
{"geometry": {"type": "Point", "coordinates": [-80.0838438443, 42.0977841713]}, "type": "Feature", "properties": {"collection_times": [{"days": "Mon-Fri", "time": "5:00pm"}, {"days": "Sat", "time": "4:00pm"}, {"days": "Sun", "time": "Closed"}], "id": "1650800027", "name": "USPS COLLECTION BOX - BLUE BOX", "address": {"city": "ERIE", "state": "PA", "street": "3607 POPLAR ST", "postcode": "16508"}}},
{"geometry": {"type": "Point", "coordinates": [-80.0838438443, 42.0977841713]}, "type": "Feature", "properties": {"collection_times": [{"days": "Mon-Fri", "time": "5:00pm"}, {"days": "Sat", "time": "4:00pm"}, {"days": "Sun", "time": "Closed"}], "id": "1650800029", "name": "USPS COLLECTION BOX - BLUE BOX", "address": {"city": "ERIE", "state": "PA", "street": "3607 POPLAR ST", "postcode": "16508"}}},
{"geometry": {"type": "Point", "coordinates": [-80.11620075, 42.0904503476]}, "type": "Feature", "properties": {"collection_times": [{"days": "Mon-Fri", "time": "12:30pm"}, {"days": "Sat", "time": "1:15pm"}, {"days": "Sun", "time": "Closed"}], "id": "1650800032", "name": "USPS COLLECTION BOX - BLUE BOX", "address": {"city": "ERIE", "state": "PA", "street": "3129 POST AVE", "postcode": "16508"}}},
{"geometry": {"type": "Point", "coordinates": [-80.069846503, 42.1061576767]}, "type": "Feature", "properties": {"collection_times": [{"days": "Mon-Fri", "time": "4:45pm"}, {"days": "Sat", "time": "1:00pm"}, {"days": "Sun", "time": "Closed"}], "id": "1650800037", "name": "USPS COLLECTION BOX - BLUE BOX", "address": {"city": "ERIE", "state": "PA", "street": "3304 STATE ST", "postcode": "16508"}}},
{"geometry": {"type": "Point", "coordinates": [-80.0691044851, 42.1048371855]}, "type": "Feature", "properties": {"collection_times": [{"days": "Mon-Fri", "time": "4:45pm"}, {"days": "Sat", "time": "1:00pm"}, {"days": "Sun", "time": "Closed"}], "id": "1650800038", "name": "USPS COLLECTION BOX - BLUE BOX", "address": {"city": "ERIE", "state": "PA", "street": "3514 STATE ST", "postcode": "16508"}}},
{"geometry": {"type": "Point", "coordinates": [-80.0838438443, 42.0977841713]}, "type": "Feature", "properties": {"collection_times": [{"days": "Mon-Fri", "time": "5:00pm"}, {"days": "Sat", "time": "4:00pm"}, {"days": "Sun", "time": "Closed"}], "id": "1650800043", "name": "USPS COLLECTION BOX - PO LOBBY", "address": {"city": "ERIE", "state": "PA", "street": "3607 POPLAR ST", "postcode": "16508"}}},
{"geometry": {"type": "Point", "coordinates": [-80.0838438443, 42.0977841713]}, "type": "Feature", "properties": {"collection_times": [{"days": "Mon-Fri", "time": "5:00pm"}, {"days": "Sat", "time": "4:00pm"}, {"days": "Sun", "time": "Closed"}], "id": "1650800044", "name": "USPS COLLECTION BOX - APC", "address": {"city": "ERIE", "state": "PA", "street": "3607 POPLAR ST", "postcode": "16508"}}},
{"geometry": {"type": "Point", "coordinates": [-80.0905227887, 42.0805991266]}, "type": "Feature", "properties": {"collection_times": [{"days": "Mon-Fri", "time": "3:15pm"}, {"days": "Sat", "time": "3:45pm"}, {"days": "Sun", "time": "Closed"}], "id": "1650900009", "name": "USPS COLLECTION BOX - BLUE BOX", "address": {"city": "ERIE", "state": "PA", "street": "5041 PEACH ST", "postcode": "16509"}}},
{"geometry": {"type": "Point", "coordinates": [-80.0674379833, 42.0726311047]}, "type": "Feature", "properties": {"collection_times": [{"days": "Mon-Fri", "time": "2:30pm"}, {"days": "Sat", "time": "3:00pm"}, {"days": "Sun", "time": "Closed"}], "id": "1650900011", "name": "USPS COLLECTION BOX - BLUE BOX", "address": {"city": "ERIE", "state": "PA", "street": "200 MILLCREEK MALL", "postcode": "16509"}}},
{"geometry": {"type": "Point", "coordinates": [-80.0674379833, 42.0726311047]}, "type": "Feature", "properties": {"collection_times": [{"days": "Mon-Fri", "time": "2:30pm"}, {"days": "Sat", "time": "3:15pm"}, {"days": "Sun", "time": "Closed"}], "id": "1650900013", "name": "USPS COLLECTION BOX - BLUE BOX", "address": {"city": "ERIE", "state": "PA", "street": "547 MILLCREEK MALL", "postcode": "16509"}}},
{"geometry": {"type": "Point", "coordinates": [-80.0884943564, 42.0666062702]}, "type": "Feature", "properties": {"collection_times": [{"days": "Mon-Sat", "time": "10:00am"}, {"days": "Sun", "time": "Closed"}], "id": "1650900015", "name": "USPS COLLECTION BOX - BLUE BOX", "address": {"city": "ERIE", "state": "PA", "street": "1708 GRANADA DR", "postcode": "16509"}}},
{"geometry": {"type": "Point", "coordinates": [-80.0935183322, 42.0712825165]}, "type": "Feature", "properties": {"collection_times": [{"days": "Mon-Fri", "time": "2:30pm"}, {"days": "Sat", "time": "3:00pm"}, {"days": "Sun", "time": "Closed"}], "id": "1650900016", "name": "USPS COLLECTION BOX - BLUE BOX", "address": {"city": "ERIE", "state": "PA", "street": "9 MILLCREEK SQ", "postcode": "16509"}}},
{"geometry": {"type": "Point", "coordinates": [-80.0917664879, 42.0785796008]}, "type": "Feature", "properties": {"collection_times": [{"days": "Mon-Fri", "time": "2:30pm"}, {"days": "Sat", "time": "3:00pm"}, {"days": "Sun", "time": "Closed"}], "id": "1650900017", "name": "USPS COLLECTION BOX - BLUE BOX", "address": {"city": "ERIE", "state": "PA", "street": "5158 PEACH ST", "postcode": "16509"}}},
{"geometry": {"type": "Point", "coordinates": [-80.0935600984, 42.0607876515]}, "type": "Feature", "properties": {"collection_times": [{"days": "Mon-Sat", "time": "9:00am"}, {"days": "Sun", "time": "Closed"}], "id": "1650900022", "name": "USPS COLLECTION BOX - BLUE BOX", "address": {"city": "ERIE", "state": "PA", "street": "6143 PEACH ST", "postcode": "16509"}}},
{"geometry": {"type": "Point", "coordinates": [-80.0870396286, 42.0543902095]}, "type": "Feature", "properties": {"collection_times": [{"days": "Mon-Sat", "time": "9:00am"}, {"days": "Sun", "time": "Closed"}], "id": "1650900023", "name": "USPS COLLECTION BOX - BLUE BOX", "address": {"city": "ERIE", "state": "PA", "street": "7200 PEACH ST", "postcode": "16509"}}},
{"geometry": {"type": "Point", "coordinates": [-80.0913172082, 42.0792690195]}, "type": "Feature", "properties": {"collection_times": [{"days": "Mon-Fri", "time": "2:15pm"}, {"days": "Sat", "time": "3:00pm"}, {"days": "Sun", "time": "Closed"}], "id": "1650900025", "name": "USPS COLLECTION BOX - BLUE BOX", "address": {"city": "ERIE", "state": "PA", "street": "5100 PEACH ST", "postcode": "16509"}}},
{"geometry": {"type": "Point", "coordinates": [-80.0891405637, 42.0564296307]}, "type": "Feature", "properties": {"collection_times": [{"days": "Mon-Sat", "time": "9:00am"}, {"days": "Sun", "time": "Closed"}], "id": "1650900028", "name": "USPS COLLECTION BOX - BLUE BOX", "address": {"city": "ERIE", "state": "PA", "street": "6801 PEACH ST", "postcode": "16509"}}},
{"geometry": {"type": "Point", "coordinates": [-80.0887570108, 42.0558543852]}, "type": "Feature", "properties": {"collection_times": [{"days": "Mon-Sat", "time": "9:00am"}, {"days": "Sun", "time": "Closed"}], "id": "1650900029", "name": "USPS COLLECTION BOX - BLUE BOX", "address": {"city": "ERIE", "state": "PA", "street": "1900 KEYSTONE DR", "postcode": "16509"}}},
{"geometry": {"type": "Point", "coordinates": [-80.0388799007, 42.0688496053]}, "type": "Feature", "properties": {"collection_times": [{"days": "Mon-Sat", "time": "10:00am"}, {"days": "Sun", "time": "Closed"}], "id": "1650900030", "name": "USPS COLLECTION BOX - BLUE BOX", "address": {"city": "ERIE", "state": "PA", "street": "8035 PERRY HWY", "postcode": "16509"}}},
{"geometry": {"type": "Point", "coordinates": [-80.0794422627, 42.0476993915]}, "type": "Feature", "properties": {"collection_times": [{"days": "Mon-Sat", "time": "9:00am"}, {"days": "Sun", "time": "Closed"}], "id": "1650900033", "name": "USPS COLLECTION BOX - BLUE BOX", "address": {"city": "ERIE", "state": "PA", "street": "8080 PEACH ST", "postcode": "16509"}}},
{"geometry": {"type": "Point", "coordinates": [-80.0000040303, 42.1477778297]}, "type": "Feature", "properties": {"collection_times": [{"days": "Mon-Fri", "time": "1:00pm"}, {"days": "Sat", "time": "1:15pm"}, {"days": "Sun", "time": "Closed"}], "id": "1651000010", "name": "USPS COLLECTION BOX - BLUE BOX", "address": {"city": "ERIE", "state": "PA", "street": "4265 BUFFALO RD", "postcode": "16510"}}},
{"geometry": {"type": "Point", "coordinates": [-80.0028444988, 42.1461462878]}, "type": "Feature", "properties": {"collection_times": [{"days": "Mon-Sat", "time": "1:00pm"}, {"days": "Sun", "time": "Closed"}], "id": "1651000011", "name": "USPS COLLECTION BOX - BLUE BOX", "address": {"city": "ERIE", "state": "PA", "street": "4415 BUFFALO RD", "postcode": "16510"}}},
{"geometry": {"type": "Point", "coordinates": [-80.0099958771, 42.1173188946]}, "type": "Feature", "properties": {"collection_times": [{"days": "Mon-Fri", "time": "1:00pm"}, {"days": "Sat", "time": "12:45pm"}, {"days": "Sun", "time": "Closed"}], "id": "1651000017", "name": "USPS COLLECTION BOX - BLUE BOX", "address": {"city": "ERIE", "state": "PA", "street": "2504 E 43RD ST", "postcode": "16510"}}},
{"geometry": {"type": "Point", "coordinates": [-80.0179396911, 42.1401483873]}, "type": "Feature", "properties": {"collection_times": [{"days": "Mon-Fri", "time": "3:45pm"}, {"days": "Sat", "time": "1:00pm"}, {"days": "Sun", "time": "Closed"}], "id": "1651000019", "name": "USPS COLLECTION BOX - BLUE BOX", "address": {"city": "ERIE", "state": "PA", "street": "2921 NORTH ST", "postcode": "16510"}}},
{"geometry": {"type": "Point", "coordinates": [-79.9942594007, 42.1254620265]}, "type": "Feature", "properties": {"collection_times": [{"days": "Mon-Fri", "time": "3:45pm"}, {"days": "Sat", "time": "1:00pm"}, {"days": "Sun", "time": "Closed"}], "id": "1651000020", "name": "USPS COLLECTION BOX - EXPRESS", "address": {"city": "ERIE", "state": "PA", "street": "2921 NORTH ST", "postcode": "16510"}}},
{"geometry": {"type": "Point", "coordinates": [-80.0215025189, 42.1189407313]}, "type": "Feature", "properties": {"collection_times": [{"days": "Mon-Sat", "time": "6:00pm"}, {"days": "Sun", "time": "Closed"}], "id": "1651000024", "name": "USPS COLLECTION BOX - BLUE BOX", "address": {"city": "ERIE", "state": "PA", "street": "2108 E 38TH ST", "postcode": "16510"}}},
{"geometry": {"type": "Point", "coordinates": [-79.9942594007, 42.1254620265]}, "type": "Feature", "properties": {"collection_times": [{"days": "Mon-Fri", "time": "4:30pm"}, {"days": "Sat", "time": "6:00pm"}, {"days": "Sun", "time": "Closed"}], "id": "1651000025", "name": "USPS COLLECTION BOX - EXPRESS", "address": {"city": "ERIE", "state": "PA", "street": "2108 E 38TH ST", "postcode": "16510"}}},
{"geometry": {"type": "Point", "coordinates": [-80.029773768, 42.115894612]}, "type": "Feature", "properties": {"collection_times": [{"days": "Mon-Fri", "time": "12:15pm"}, {"days": "Sat", "time": "12:30pm"}, {"days": "Sun", "time": "Closed"}], "id": "1651000028", "name": "USPS COLLECTION BOX - BLUE BOX", "address": {"city": "ERIE", "state": "PA", "street": "1702 E 38TH ST", "postcode": "16510"}}},
{"geometry": {"type": "Point", "coordinates": [-79.9234103786, 42.1404492912]}, "type": "Feature", "properties": {"collection_times": [{"days": "Mon-Sat", "time": "10:15am"}, {"days": "Sun", "time": "Closed"}], "id": "1651000029", "name": "USPS COLLECTION BOX - BLUE BOX", "address": {"city": "ERIE", "state": "PA", "street": "4050 DEPOT RD", "postcode": "16510"}}},
{"geometry": {"type": "Point", "coordinates": [-80.0215025189, 42.1189407313]}, "type": "Feature", "properties": {"collection_times": [{"days": "Mon-Sat", "time": "6:00pm"}, {"days": "Sun", "time": "Closed"}], "id": "1651000033", "name": "USPS COLLECTION BOX - PO LOBBY", "address": {"city": "ERIE", "state": "PA", "street": "2108 E 38TH ST", "postcode": "16510"}}},
{"geometry": {"type": "Point", "coordinates": [-80.0215025189, 42.1189407313]}, "type": "Feature", "properties": {"collection_times": [{"days": "Mon-Sat", "time": "6:00pm"}, {"days": "Sun", "time": "Closed"}], "id": "1651000034", "name": "USPS COLLECTION BOX - APC", "address": {"city": "ERIE", "state": "PA", "street": "2108 E 38TH ST", "postcode": "16510"}}},
{"geometry": {"type": "Point", "coordinates": [-80.0289244035, 42.1511609846]}, "type": "Feature", "properties": {"collection_times": [{"days": "Mon-Sat", "time": "1:30pm"}, {"days": "Sun", "time": "Closed"}], "id": "1651100002", "name": "USPS COLLECTION BOX - BLUE BOX", "address": {"city": "ERIE", "state": "PA", "street": "443 LAKE CLIFF DR", "postcode": "16511"}}},
{"geometry": {"type": "Point", "coordinates": [-80.0153369368, 42.1504370137]}, "type": "Feature", "properties": {"collection_times": [{"days": "Mon-Sat", "time": "1:15pm"}, {"days": "Sun", "time": "Closed"}], "id": "1651100010", "name": "USPS COLLECTION BOX - BLUE BOX", "address": {"city": "ERIE", "state": "PA", "street": "3924 MAIN ST", "postcode": "16511"}}},
{"geometry": {"type": "Point", "coordinates": [-80.0121157395, 42.1521345599]}, "type": "Feature", "properties": {"collection_times": [{"days": "Mon-Sat", "time": "1:15pm"}, {"days": "Sun", "time": "Closed"}], "id": "1651100017", "name": "USPS COLLECTION BOX - BLUE BOX", "address": {"city": "ERIE", "state": "PA", "street": "4230 IROQUOIS AVE", "postcode": "16511"}}}
]}
