{"type": "FeatureCollection", "features": [
{"geometry": {"type": "Point", "coordinates": [-78.4101475041, 40.5048616575]}, "type": "Feature", "properties": {"collection_times": [{"days": "Mon-Sat", "time": "11:45am"}, {"days": "Sun", "time": "Closed"}], "id": "1660100009", "name": "USPS COLLECTION BOX - BLUE BOX", "address": {"city": "ALTOONA", "state": "PA", "street": "2400 BROAD AVE", "postcode": "16601"}}},
{"geometry": {"type": "Point", "coordinates": [-78.4021518322, 40.5170670233]}, "type": "Feature", "properties": {"collection_times": [{"days": "Mon-Sat", "time": "3:00pm"}, {"days": "Sun", "time": "Closed"}], "id": "1660100021", "name": "USPS COLLECTION BOX - BLUE BOX", "address": {"city": "ALTOONA", "state": "PA", "street": "1301 12TH ST", "postcode": "16601"}}},
{"geometry": {"type": "Point", "coordinates": [-78.3998070515, 40.5167389755]}, "type": "Feature", "properties": {"collection_times": [{"days": "Mon-Sat", "time": "3:45pm"}, {"days": "Sun", "time": "Closed"}], "id": "1660100028", "name": "USPS COLLECTION BOX - BLUE BOX", "address": {"city": "ALTOONA", "state": "PA", "street": "1100 GREEN AVE", "postcode": "16601"}}},
{"geometry": {"type": "Point", "coordinates": [-78.3978551823, 40.5214564162]}, "type": "Feature", "properties": {"collection_times": [{"days": "Mon-Sat", "time": "2:30pm"}, {"days": "Sun", "time": "Closed"}], "id": "1660100034", "name": "USPS COLLECTION BOX - BLUE BOX", "address": {"city": "ALTOONA", "state": "PA", "street": "615 HOWARD AVE", "postcode": "16601"}}},
{"geometry": {"type": "Point", "coordinates": [-78.3980581093, 40.5214280534]}, "type": "Feature", "properties": {"collection_times": [{"days": "Mon-Sat", "time": "2:30pm"}, {"days": "Sun", "time": "Closed"}], "id": "1660100035", "name": "USPS COLLECTION BOX - BLUE BOX", "address": {"city": "ALTOONA", "state": "PA", "street": "620 HOWARD AVE", "postcode": "16601"}}},
{"geometry": {"type": "Point", "coordinates": [-78.3980581093, 40.5214280534]}, "type": "Feature", "properties": {"collection_times": [{"days": "Mon-Sat", "time": "2:30pm"}, {"days": "Sun", "time": "Closed"}], "id": "1660100036", "name": "USPS COLLECTION BOX - BLUE BOX", "address": {"city": "ALTOONA", "state": "PA", "street": "620 HOWARD AVE", "postcode": "16601"}}},
{"geometry": {"type": "Point", "coordinates": [-78.4195965953, 40.5003520862]}, "type": "Feature", "properties": {"collection_times": [{"days": "Mon-Sat", "time": "12:00pm"}, {"days": "Sun", "time": "Closed"}], "id": "1660100043", "name": "USPS COLLECTION BOX - BLUE BOX", "address": {"city": "ALTOONA", "state": "PA", "street": "3009 WALNUT AVE", "postcode": "16601"}}},
{"geometry": {"type": "Point", "coordinates": [-78.4056946235, 40.538564076]}, "type": "Feature", "properties": {"collection_times": [{"days": "Mon-Sat", "time": "3:15pm"}, {"days": "Sun", "time": "Closed"}], "id": "1660100069", "name": "USPS COLLECTION BOX - BLUE BOX", "address": {"city": "ALTOONA", "state": "PA", "street": "3000 IVYSIDE PARK", "postcode": "16601"}}},
{"geometry": {"type": "Point", "coordinates": [-78.4008010819, 40.5156479485]}, "type": "Feature", "properties": {"collection_times": [{"days": "Mon-Sat", "time": "5:00pm"}, {"days": "Sun", "time": "Closed"}], "id": "1660100083", "name": "USPS COLLECTION BOX - BLUE BOX", "address": {"city": "ALTOONA", "state": "PA", "street": "1201 11TH AVE", "postcode": "16601"}}},
{"geometry": {"type": "Point", "coordinates": [-78.4008010819, 40.5156479485]}, "type": "Feature", "properties": {"collection_times": [{"days": "Mon-Sat", "time": "5:00pm"}, {"days": "Sun", "time": "Closed"}], "id": "1660100084", "name": "USPS COLLECTION BOX - BLUE BOX", "address": {"city": "ALTOONA", "state": "PA", "street": "1201 11TH AVE", "postcode": "16601"}}},
{"geometry": {"type": "Point", "coordinates": [-78.4008010819, 40.5156479485]}, "type": "Feature", "properties": {"collection_times": [{"days": "Mon-Sat", "time": "5:00pm"}, {"days": "Sun", "time": "Closed"}], "id": "1660100085", "name": "USPS COLLECTION BOX - BLUE BOX", "address": {"city": "ALTOONA", "state": "PA", "street": "1201 11TH AVE", "postcode": "16601"}}},
{"geometry": {"type": "Point", "coordinates": [-78.4008010819, 40.5156479485]}, "type": "Feature", "properties": {"collection_times": [{"days": "Mon-Sat", "time": "5:00pm"}, {"days": "Sun", "time": "Closed"}], "id": "1660100086", "name": "USPS COLLECTION BOX - BLUE BOX", "address": {"city": "ALTOONA", "state": "PA", "street": "1201 11TH AVE", "postcode": "16601"}}},
{"geometry": {"type": "Point", "coordinates": [-78.4175262035, 40.4939566867]}, "type": "Feature", "properties": {"collection_times": [{"days": "Mon-Sat", "time": "12:00pm"}, {"days": "Sun", "time": "Closed"}], "id": "1660100088", "name": "USPS COLLECTION BOX - BLUE BOX", "address": {"city": "ALTOONA", "state": "PA", "street": "3315 BEALE AVE", "postcode": "16601"}}},
{"geometry": {"type": "Point", "coordinates": [-78.3877204511, 40.531003977]}, "type": "Feature", "properties": {"collection_times": [{"days": "Mon-Sat", "time": "3:30pm"}, {"days": "Sun", "time": "Closed"}], "id": "1660100089", "name": "USPS COLLECTION BOX - BLUE BOX", "address": {"city": "ALTOONA", "state": "PA", "street": "600 E CHESTNUT AVE", "postcode": "16601"}}},
{"geometry": {"type": "Point", "coordinates": [-78.4308938559, 40.5378017046]}, "type": "Feature", "properties": {"collection_times": [{"days": "Mon-Sat", "time": "11:00am"}, {"days": "Sun", "time": "Closed"}], "id": "1660100091", "name": "USPS COLLECTION BOX - BLUE BOX", "address": {"city": "ALTOONA", "state": "PA", "street": "2720 PLANK RD", "postcode": "16601"}}},
{"geometry": {"type": "Point", "coordinates": [-78.4008010819, 40.5156479485]}, "type": "Feature", "properties": {"collection_times": [{"days": "Mon-Sat", "time": "4:45pm"}, {"days": "Sun", "time": "Closed"}], "id": "1660100094", "name": "USPS COLLECTION BOX - PO LOBBY", "address": {"city": "ALTOONA", "state": "PA", "street": "1201 11TH AVE", "postcode": "16601"}}},
{"geometry": {"type": "Point", "coordinates": [-78.3998070515, 40.5167389755]}, "type": "Feature", "properties": {"collection_times": [{"days": "Mon-Sat", "time": "3:45pm"}, {"days": "Sun", "time": "Closed"}], "id": "1660100097", "name": "USPS COLLECTION BOX - BLUE BOX", "address": {"city": "ALTOONA", "state": "PA", "street": "1100 GREEN AVE", "postcode": "16601"}}},
{"geometry": {"type": "Point", "coordinates": [-78.3978551823, 40.5214564162]}, "type": "Feature", "properties": {"collection_times": [{"days": "Mon-Sat", "time": "2:30pm"}, {"days": "Sun", "time": "Closed"}], "id": "1660100098", "name": "USPS COLLECTION BOX - BLUE BOX", "address": {"city": "ALTOONA", "state": "PA", "street": "615 HOWARD AVE", "postcode": "16601"}}},
{"geometry": {"type": "Point", "coordinates": [-78.3786965686, 40.5107616823]}, "type": "Feature", "properties": {"collection_times": [{"days": "Mon-Sat", "time": "2:00pm"}, {"days": "Sun", "time": "Closed"}], "id": "1660200000", "name": "USPS COLLECTION BOX - BLUE BOX", "address": {"city": "ALTOONA", "state": "PA", "street": "601 VALLEY VIEW BLVD", "postcode": "16602"}}},
{"geometry": {"type": "Point", "coordinates": [-78.3770981857, 40.5205876124]}, "type": "Feature", "properties": {"collection_times": [{"days": "Mon-Sat", "time": "2:00pm"}, {"days": "Sun", "time": "Closed"}], "id": "1660200002", "name": "USPS COLLECTION BOX - BLUE BOX", "address": {"city": "ALTOONA", "state": "PA", "street": "300 E GRANT AVE", "postcode": "16602"}}},
{"geometry": {"type": "Point", "coordinates": [-78.3972727174, 40.514288178]}, "type": "Feature", "properties": {"collection_times": [{"days": "Mon-Sat", "time": "3:00pm"}, {"days": "Sun", "time": "Closed"}], "id": "1660200014", "name": "USPS COLLECTION BOX - BLUE BOX", "address": {"city": "ALTOONA", "state": "PA", "street": "1128 8TH AVE", "postcode": "16602"}}},
{"geometry": {"type": "Point", "coordinates": [-78.3914390118, 40.5033020182]}, "type": "Feature", "properties": {"collection_times": [{"days": "Mon-Sat", "time": "12:15pm"}, {"days": "Sun", "time": "Closed"}], "id": "1660200046", "name": "USPS COLLECTION BOX - BLUE BOX", "address": {"city": "ALTOONA", "state": "PA", "street": "5580 GOODS LN STE 2178", "postcode": "16602"}}},
{"geometry": {"type": "Point", "coordinates": [-78.4060332129, 40.4727315188]}, "type": "Feature", "properties": {"collection_times": [{"days": "Mon-Sat", "time": "12:15pm"}, {"days": "Sun", "time": "Closed"}], "id": "1660200050", "name": "USPS COLLECTION BOX - BLUE BOX", "address": {"city": "ALTOONA", "state": "PA", "street": "100 PARK HILLS PLZ", "postcode": "16602"}}},
{"geometry": {"type": "Point", "coordinates": [-78.3914390118, 40.5033020182]}, "type": "Feature", "properties": {"collection_times": [{"days": "Mon-Sat", "time": "12:45pm"}, {"days": "Sun", "time": "Closed"}], "id": "1660200053", "name": "USPS COLLECTION BOX - BLUE BOX", "address": {"city": "ALTOONA", "state": "PA", "street": "9 LOGAN BLVD", "postcode": "16602"}}},
{"geometry": {"type": "Point", "coordinates": [-78.3945707262, 40.4703949786]}, "type": "Feature", "properties": {"collection_times": [{"days": "Mon-Sat", "time": "12:30pm"}, {"days": "Sun", "time": "Closed"}], "id": "1660200062", "name": "USPS COLLECTION BOX - BLUE BOX", "address": {"city": "ALTOONA", "state": "PA", "street": "206 LAKEMONT PARK BLVD", "postcode": "16602"}}},
{"geometry": {"type": "Point", "coordinates": [-78.3945707262, 40.4703949786]}, "type": "Feature", "properties": {"collection_times": [{"days": "Mon-Sat", "time": "12:30pm"}, {"days": "Sun", "time": "Closed"}], "id": "1660200063", "name": "USPS COLLECTION BOX - BLUE BOX", "address": {"city": "ALTOONA", "state": "PA", "street": "206 LAKEMONT PARK BLVD", "postcode": "16602"}}},
{"geometry": {"type": "Point", "coordinates": [-78.4243449454, 40.473247604]}, "type": "Feature", "properties": {"collection_times": [{"days": "Mon-Sat", "time": "4:00pm"}, {"days": "Sun", "time": "Closed"}], "id": "1660200068", "name": "USPS COLLECTION BOX - BLUE BOX", "address": {"city": "ALTOONA", "state": "PA", "street": "5700 6TH AVE", "postcode": "16602"}}},
{"geometry": {"type": "Point", "coordinates": [-78.4243449454, 40.473247604]}, "type": "Feature", "properties": {"collection_times": [{"days": "Mon-Sat", "time": "4:00pm"}, {"days": "Sun", "time": "Closed"}], "id": "1660200069", "name": "USPS COLLECTION BOX - BLUE BOX", "address": {"city": "ALTOONA", "state": "PA", "street": "5700 6TH AVE", "postcode": "16602"}}},
{"geometry": {"type": "Point", "coordinates": [-78.4007788268, 40.4838697525]}, "type": "Feature", "properties": {"collection_times": [{"days": "Mon-Sat", "time": "4:15pm"}, {"days": "Sun", "time": "Closed"}], "id": "1660200075", "name": "USPS COLLECTION BOX - BLUE BOX", "address": {"city": "ALTOONA", "state": "PA", "street": "3415 PLEASANT VALLEY BLVD", "postcode": "16602"}}},
{"geometry": {"type": "Point", "coordinates": [-78.4007788268, 40.4838697525]}, "type": "Feature", "properties": {"collection_times": [{"days": "Mon-Sat", "time": "4:15pm"}, {"days": "Sun", "time": "Closed"}], "id": "1660200077", "name": "USPS COLLECTION BOX - BLUE BOX", "address": {"city": "ALTOONA", "state": "PA", "street": "3415 PLEASANT VALLEY BLVD", "postcode": "16602"}}},
{"geometry": {"type": "Point", "coordinates": [-78.4007788268, 40.4838697525]}, "type": "Feature", "properties": {"collection_times": [{"days": "Mon-Sat", "time": "4:15pm"}, {"days": "Sun", "time": "Closed"}], "id": "1660200078", "name": "USPS COLLECTION BOX - BLUE BOX", "address": {"city": "ALTOONA", "state": "PA", "street": "3415 PLEASANT VALLEY BLVD", "postcode": "16602"}}},
{"geometry": {"type": "Point", "coordinates": [-78.3786965686, 40.5107616823]}, "type": "Feature", "properties": {"collection_times": [{"days": "Mon-Sat", "time": "2:00pm"}, {"days": "Sun", "time": "Closed"}], "id": "1660200086", "name": "USPS COLLECTION BOX - BLUE BOX", "address": {"city": "ALTOONA", "state": "PA", "street": "601 VALLEY VIEW BLVD", "postcode": "16602"}}},
{"geometry": {"type": "Point", "coordinates": [-78.4045216852, 40.475889075]}, "type": "Feature", "properties": {"collection_times": [{"days": "Mon-Sat", "time": "12:15pm"}, {"days": "Sun", "time": "Closed"}], "id": "1660200088", "name": "USPS COLLECTION BOX - BLUE BOX", "address": {"city": "ALTOONA", "state": "PA", "street": "301 W PLANK RD", "postcode": "16602"}}},
{"geometry": {"type": "Point", "coordinates": [-78.4061379872, 40.4997810308]}, "type": "Feature", "properties": {"collection_times": [{"days": "Mon-Sat", "time": "1:00pm"}, {"days": "Sun", "time": "Closed"}], "id": "1660200089", "name": "USPS COLLECTION BOX - BLUE BOX", "address": {"city": "ALTOONA", "state": "PA", "street": "2601 5TH AVE", "postcode": "16602"}}},
{"geometry": {"type": "Point", "coordinates": [-78.098025946, 40.5571065243]}, "type": "Feature", "properties": {"collection_times": [{"days": "Mon-Fri", "time": "4:30pm"}, {"days": "Sat", "time": "12:00pm"}, {"days": "Sun", "time": "Closed"}], "id": "1661100000", "name": "USPS COLLECTION BOX - BLUE BOX", "address": {"city": "ALEXANDRIA", "state": "PA", "street": "703 CANAL ST", "postcode": "16611"}}},
{"geometry": {"type": "Point", "coordinates": [-78.0998975492, 40.5575730966]}, "type": "Feature", "properties": {"collection_times": [{"days": "Mon-Sat", "time": "12:00pm"}, {"days": "Sun", "time": "Closed"}], "id": "1661100001", "name": "USPS COLLECTION BOX - BLUE BOX", "address": {"city": "ALEXANDRIA", "state": "PA", "street": "402 MAIN ST", "postcode": "16611"}}},
{"geometry": {"type": "Point", "coordinates": [-78.098025946, 40.5571065243]}, "type": "Feature", "properties": {"collection_times": [{"days": "Mon-Fri", "time": "4:30pm"}, {"days": "Sat", "time": "12:00pm"}, {"days": "Sun", "time": "Closed"}], "id": "1661100002", "name": "USPS COLLECTION BOX - PO LOBBY", "address": {"city": "ALEXANDRIA", "state": "PA", "street": "703 CANAL ST", "postcode": "16611"}}},
{"geometry": {"type": "Point", "coordinates": [-78.5491142883, 40.5601247907]}, "type": "Feature", "properties": {"collection_times": [{"days": "Mon-Fri", "time": "2:45pm"}, {"days": "Sat", "time": "11:15am"}, {"days": "Sun", "time": "Closed"}], "id": "1661300000", "name": "USPS COLLECTION BOX - BLUE BOX", "address": {"city": "ASHVILLE", "state": "PA", "street": "1657 LIBERTY ST", "postcode": "16613"}}},
{"geometry": {"type": "Point", "coordinates": [-78.5491142883, 40.5601247907]}, "type": "Feature", "properties": {"collection_times": [{"days": "Mon-Fri", "time": "2:45pm"}, {"days": "Sat", "time": "11:15am"}, {"days": "Sun", "time": "Closed"}], "id": "1661300002", "name": "USPS COLLECTION BOX - PO LOBBY", "address": {"city": "ASHVILLE", "state": "PA", "street": "1657 LIBERTY ST", "postcode": "16613"}}},
{"geometry": {"type": "Point", "coordinates": [-78.3324326402, 40.6010720794]}, "type": "Feature", "properties": {"collection_times": [{"days": "Mon-Fri", "time": "4:30pm"}, {"days": "Sat", "time": "11:30am"}, {"days": "Sun", "time": "Closed"}], "id": "1661700000", "name": "USPS COLLECTION BOX - BLUE BOX", "address": {"city": "BELLWOOD", "state": "PA", "street": "511 MAIN ST", "postcode": "16617"}}},
{"geometry": {"type": "Point", "coordinates": [-78.3363344918, 40.6038594027]}, "type": "Feature", "properties": {"collection_times": [{"days": "Mon-Sat", "time": "10:00am"}, {"days": "Sun", "time": "Closed"}], "id": "1661700002", "name": "USPS COLLECTION BOX - BLUE BOX", "address": {"city": "BELLWOOD", "state": "PA", "street": "539 N 4TH ST", "postcode": "16617"}}},
{"geometry": {"type": "Point", "coordinates": [-78.3361197973, 40.5957996735]}, "type": "Feature", "properties": {"collection_times": [{"days": "Mon-Sat", "time": "9:00am"}, {"days": "Sun", "time": "Closed"}], "id": "1661700003", "name": "USPS COLLECTION BOX - BLUE BOX", "address": {"city": "BELLWOOD", "state": "PA", "street": "104 MAIN ST", "postcode": "16617"}}},
{"geometry": {"type": "Point", "coordinates": [-78.3326109884, 40.5961363979]}, "type": "Feature", "properties": {"collection_times": [{"days": "Mon-Sat", "time": "9:00am"}, {"days": "Sun", "time": "Closed"}], "id": "1661700004", "name": "USPS COLLECTION BOX - BLUE BOX", "address": {"city": "BELLWOOD", "state": "PA", "street": "500 MARTIN ST", "postcode": "16617"}}},
{"geometry": {"type": "Point", "coordinates": [-78.3295533805, 40.6006585599]}, "type": "Feature", "properties": {"collection_times": [{"days": "Mon-Sat", "time": "9:00am"}, {"days": "Sun", "time": "Closed"}], "id": "1661700009", "name": "USPS COLLECTION BOX - BLUE BOX", "address": {"city": "BELLWOOD", "state": "PA", "street": "600 E 4TH ST", "postcode": "16617"}}},
{"geometry": {"type": "Point", "coordinates": [-78.3324326402, 40.6010720794]}, "type": "Feature", "properties": {"collection_times": [{"days": "Mon-Fri", "time": "4:30pm"}, {"days": "Sat", "time": "11:30am"}, {"days": "Sun", "time": "Closed"}], "id": "1661700010", "name": "USPS COLLECTION BOX - PO LOBBY", "address": {"city": "BELLWOOD", "state": "PA", "street": "511 MAIN ST", "postcode": "16617"}}},
{"geometry": {"type": "Point", "coordinates": [-78.4179917072, 40.685284872]}, "type": "Feature", "properties": {"collection_times": [{"days": "Mon-Fri", "time": "11:55am"}, {"days": "Sat", "time": "10:45am"}, {"days": "Sun", "time": "Closed"}], "id": "1661900000", "name": "USPS COLLECTION BOX - BLUE BOX", "address": {"city": "BLANDBURG", "state": "PA", "street": "143 POST OFFICE AVE", "postcode": "16619"}}},
{"geometry": {"type": "Point", "coordinates": [-78.4179917072, 40.685284872]}, "type": "Feature", "properties": {"collection_times": [{"days": "Mon-Fri", "time": "11:55am"}, {"days": "Sat", "time": "10:45am"}, {"days": "Sun", "time": "Closed"}], "id": "1661900001", "name": "USPS COLLECTION BOX - PO LOBBY", "address": {"city": "BLANDBURG", "state": "PA", "street": "143 POST OFFICE AVE", "postcode": "16619"}}},
{"geometry": {"type": "Point", "coordinates": [-78.3495663739, 40.8355003048]}, "type": "Feature", "properties": {"collection_times": [{"days": "Mon-Fri", "time": "11:55am"}, {"days": "Sat", "time": "11:15am"}, {"days": "Sun", "time": "Closed"}], "id": "1662000000", "name": "USPS COLLECTION BOX - BLUE BOX", "address": {"city": "BRISBIN", "state": "PA", "street": "181 SWOOPE ST", "postcode": "16620"}}},
{"geometry": {"type": "Point", "coordinates": [-78.3495663739, 40.8355003048]}, "type": "Feature", "properties": {"collection_times": [{"days": "Mon-Fri", "time": "11:55am"}, {"days": "Sat", "time": "11:15am"}, {"days": "Sun", "time": "Closed"}], "id": "1662000001", "name": "USPS COLLECTION BOX - PO LOBBY", "address": {"city": "BRISBIN", "state": "PA", "street": "181 SWOOPE ST", "postcode": "16620"}}},
{"geometry": {"type": "Point", "coordinates": [-78.1409741493, 40.2009151079]}, "type": "Feature", "properties": {"collection_times": [{"days": "Mon-Fri", "time": "4:00pm"}, {"days": "Sat", "time": "11:45am"}, {"days": "Sun", "time": "Closed"}], "id": "1662100000", "name": "USPS COLLECTION BOX - BLUE BOX", "address": {"city": "BROAD TOP", "state": "PA", "street": "3956 LOCUST ST", "postcode": "16621"}}},
{"geometry": {"type": "Point", "coordinates": [-78.1409741493, 40.2009151079]}, "type": "Feature", "properties": {"collection_times": [{"days": "Mon-Fri", "time": "4:00pm"}, {"days": "Sat", "time": "11:45am"}, {"days": "Sun", "time": "Closed"}], "id": "1662100001", "name": "USPS COLLECTION BOX - PO LOBBY", "address": {"city": "BROAD TOP", "state": "PA", "street": "3956 LOCUST ST", "postcode": "16621"}}},
{"geometry": {"type": "Point", "coordinates": [-78.0420875125, 40.3240190253]}, "type": "Feature", "properties": {"collection_times": [{"days": "Mon-Sat", "time": "11:55am"}, {"days": "Sun", "time": "Closed"}], "id": "1662200000", "name": "USPS COLLECTION BOX - BLUE BOX", "address": {"city": "CALVIN", "state": "PA", "street": "16281 TROUGH CREEK VALLEY PIKE", "postcode": "16622"}}},
{"geometry": {"type": "Point", "coordinates": [-78.0420875125, 40.3240190253]}, "type": "Feature", "properties": {"collection_times": [{"days": "Mon-Sat", "time": "11:55am"}, {"days": "Sun", "time": "Closed"}], "id": "1662200001", "name": "USPS COLLECTION BOX - PO LOBBY", "address": {"city": "CALVIN", "state": "PA", "street": "16281 TROUGH CREEK VALLEY PIKE", "postcode": "16622"}}},
{"geometry": {"type": "Point", "coordinates": [-78.0273227146, 40.2944027617]}, "type": "Feature", "properties": {"collection_times": [{"days": "Mon-Sat", "time": "11:55am"}, {"days": "Sun", "time": "Closed"}], "id": "1662300000", "name": "USPS COLLECTION BOX - BLUE BOX", "address": {"city": "CASSVILLE", "state": "PA", "street": "211 CHERRY ST", "postcode": "16623"}}},
{"geometry": {"type": "Point", "coordinates": [-78.0273227146, 40.2944027617]}, "type": "Feature", "properties": {"collection_times": [{"days": "Mon-Sat", "time": "11:55am"}, {"days": "Sun", "time": "Closed"}], "id": "1662300002", "name": "USPS COLLECTION BOX - PO LOBBY", "address": {"city": "CASSVILLE", "state": "PA", "street": "211 CHERRY ST", "postcode": "16623"}}},
{"geometry": {"type": "Point", "coordinates": [-78.6073127309, 40.5808983763]}, "type": "Feature", "properties": {"collection_times": [{"days": "Mon-Fri", "time": "10:50am"}, {"days": "Sat", "time": "11:45am"}, {"days": "Sun", "time": "Closed"}], "id": "1662400000", "name": "USPS COLLECTION BOX - PO LOBBY", "address": {"city": "CHEST SPRINGS", "state": "PA", "street": "142 WASHINGTON ST", "postcode": "16624"}}},
{"geometry": {"type": "Point", "coordinates": [-78.6073127309, 40.5808983763]}, "type": "Feature", "properties": {"collection_times": [{"days": "Mon-Fri", "time": "10:50am"}, {"days": "Sat", "time": "11:45am"}, {"days": "Sun", "time": "Closed"}], "id": "1662400001", "name": "USPS COLLECTION BOX - BLUE BOX", "address": {"city": "CHEST SPRINGS", "state": "PA", "street": "142 WASHINGTON ST", "postcode": "16624"}}},
{"geometry": {"type": "Point", "coordinates": [-78.4956670037, 40.2837532353]}, "type": "Feature", "properties": {"collection_times": [{"days": "Mon-Fri", "time": "4:15pm"}, {"days": "Sat", "time": "11:30am"}, {"days": "Sun", "time": "Closed"}], "id": "1662500000", "name": "USPS COLLECTION BOX - BLUE BOX", "address": {"city": "CLAYSBURG", "state": "PA", "street": "806 BEDFORD ST", "postcode": "16625"}}},
{"geometry": {"type": "Point", "coordinates": [-78.4956670037, 40.2837532353]}, "type": "Feature", "properties": {"collection_times": [{"days": "Mon-Sat", "time": "10:00am"}, {"days": "Sun", "time": "Closed"}], "id": "1662500001", "name": "USPS COLLECTION BOX - BLUE BOX", "address": {"city": "CLAYSBURG", "state": "PA", "street": "211 FRANCE ST", "postcode": "16625"}}},
{"geometry": {"type": "Point", "coordinates": [-78.5063338316, 40.2586447627]}, "type": "Feature", "properties": {"collection_times": [{"days": "Mon-Sat", "time": "10:30am"}, {"days": "Sun", "time": "Closed"}], "id": "1662500002", "name": "USPS COLLECTION BOX - BLUE BOX", "address": {"city": "CLAYSBURG", "state": "PA", "street": "1379 BEAVER DAM RD", "postcode": "16625"}}},
{"geometry": {"type": "Point", "coordinates": [-78.4956670037, 40.2837532353]}, "type": "Feature", "properties": {"collection_times": [{"days": "Mon-Fri", "time": "4:30pm"}, {"days": "Sat", "time": "12:00pm"}, {"days": "Sun", "time": "Closed"}], "id": "1662500003", "name": "USPS COLLECTION BOX - PO LOBBY", "address": {"city": "CLAYSBURG", "state": "PA", "street": "806 BEDFORD ST", "postcode": "16625"}}},
{"geometry": {"type": "Point", "coordinates": [-78.5348155345, 40.7468443597]}, "type": "Feature", "properties": {"collection_times": [{"days": "Mon-Fri", "time": "4:00pm"}, {"days": "Sat", "time": "12:00pm"}, {"days": "Sun", "time": "Closed"}], "id": "1662700000", "name": "USPS COLLECTION BOX - BLUE BOX", "address": {"city": "COALPORT", "state": "PA", "street": "745 MAIN ST", "postcode": "16627"}}},
{"geometry": {"type": "Point", "coordinates": [-78.5348155345, 40.7468443597]}, "type": "Feature", "properties": {"collection_times": [{"days": "Mon-Fri", "time": "4:00pm"}, {"days": "Sat", "time": "12:00pm"}, {"days": "Sun", "time": "Closed"}], "id": "1662700001", "name": "USPS COLLECTION BOX - PO LOBBY", "address": {"city": "COALPORT", "state": "PA", "street": "745 MAIN ST", "postcode": "16627"}}},
{"geometry": {"type": "Point", "coordinates": [-78.5891246363, 40.46333581]}, "type": "Feature", "properties": {"collection_times": [{"days": "Mon-Sat", "time": "2:30pm"}, {"days": "Sun", "time": "Closed"}], "id": "1663000000", "name": "USPS COLLECTION BOX - BLUE BOX", "address": {"city": "CRESSON", "state": "PA", "street": "700 2ND ST", "postcode": "16630"}}},
{"geometry": {"type": "Point", "coordinates": [-78.5768815547, 40.4594088003]}, "type": "Feature", "properties": {"collection_times": [{"days": "Mon-Fri", "time": "5:00pm"}, {"days": "Sat", "time": "12:00pm"}, {"days": "Sun", "time": "Closed"}], "id": "1663000001", "name": "USPS COLLECTION BOX - BLUE BOX", "address": {"city": "CRESSON", "state": "PA", "street": "832 KEYSTONE AVE", "postcode": "16630"}}},
{"geometry": {"type": "Point", "coordinates": [-78.5865371433, 40.4609546686]}, "type": "Feature", "properties": {"collection_times": [{"days": "Mon-Sat", "time": "1:15pm"}, {"days": "Sun", "time": "Closed"}], "id": "1663000008", "name": "USPS COLLECTION BOX - BLUE BOX", "address": {"city": "CRESSON", "state": "PA", "street": "421 LAUREL AVE", "postcode": "16630"}}},
{"geometry": {"type": "Point", "coordinates": [-78.5930532533, 40.4715214521]}, "type": "Feature", "properties": {"collection_times": [{"days": "Mon-Sat", "time": "9:30am"}, {"days": "Sun", "time": "Closed"}], "id": "1663000016", "name": "USPS COLLECTION BOX - BLUE BOX", "address": {"city": "CRESSON", "state": "PA", "street": "153 SUMNER ST", "postcode": "16630"}}},
{"geometry": {"type": "Point", "coordinates": [-78.5992578595, 40.4627340142]}, "type": "Feature", "properties": {"collection_times": [{"days": "Mon-Sat", "time": "9:30am"}, {"days": "Sun", "time": "Closed"}], "id": "1663000022", "name": "USPS COLLECTION BOX - BLUE BOX", "address": {"city": "CRESSON", "state": "PA", "street": "102 PEARY CIR", "postcode": "16630"}}},
{"geometry": {"type": "Point", "coordinates": [-78.591374477, 40.46021143]}, "type": "Feature", "properties": {"collection_times": [{"days": "Mon-Sat", "time": "9:00am"}, {"days": "Sun", "time": "Closed"}], "id": "1663000023", "name": "USPS COLLECTION BOX - BLUE BOX", "address": {"city": "CRESSON", "state": "PA", "street": "1207 2ND ST", "postcode": "16630"}}},
{"geometry": {"type": "Point", "coordinates": [-78.5768815547, 40.4594088003]}, "type": "Feature", "properties": {"collection_times": [{"days": "Mon-Fri", "time": "5:00pm"}, {"days": "Sat", "time": "12:00pm"}, {"days": "Sun", "time": "Closed"}], "id": "1663000024", "name": "USPS COLLECTION BOX - PO LOBBY", "address": {"city": "CRESSON", "state": "PA", "street": "832 KEYSTONE AVE", "postcode": "16630"}}},
{"geometry": {"type": "Point", "coordinates": [-78.5881341794, 40.4617900301]}, "type": "Feature", "properties": {"collection_times": [{"days": "Mon-Sat", "time": "1:00pm"}, {"days": "Sun", "time": "Closed"}], "id": "1663000025", "name": "USPS COLLECTION BOX - BLUE BOX", "address": {"city": "CRESSON", "state": "PA", "street": "300 LAUREL AVE", "postcode": "16630"}}},
{"geometry": {"type": "Point", "coordinates": [-78.3247171711, 40.3111978613]}, "type": "Feature", "properties": {"collection_times": [{"days": "Mon-Fri", "time": "4:15pm"}, {"days": "Sat", "time": "11:45am"}, {"days": "Sun", "time": "Closed"}], "id": "1663100000", "name": "USPS COLLECTION BOX - BLUE BOX", "address": {"city": "CURRYVILLE", "state": "PA", "street": "1590 CURRYVILLE RD", "postcode": "16631"}}},
{"geometry": {"type": "Point", "coordinates": [-78.3247171711, 40.3111978613]}, "type": "Feature", "properties": {"collection_times": [{"days": "Mon-Sat", "time": "11:45am"}, {"days": "Sun", "time": "Closed"}], "id": "1663100001", "name": "USPS COLLECTION BOX - PO LOBBY", "address": {"city": "CURRYVILLE", "state": "PA", "street": "1590 CURRYVILLE RD", "postcode": "16631"}}},
{"geometry": {"type": "Point", "coordinates": [-78.2310973843, 40.1606330112]}, "type": "Feature", "properties": {"collection_times": [{"days": "Mon-Fri", "time": "4:15pm"}, {"days": "Sat", "time": "11:15am"}, {"days": "Sun", "time": "Closed"}], "id": "1663300000", "name": "USPS COLLECTION BOX - BLUE BOX", "address": {"city": "DEFIANCE", "state": "PA", "street": "807 SIX MILE RUN RD", "postcode": "16633"}}},
{"geometry": {"type": "Point", "coordinates": [-78.2310973843, 40.1606330112]}, "type": "Feature", "properties": {"collection_times": [{"days": "Mon-Fri", "time": "9:20am"}, {"days": "Sat", "time": "11:15am"}, {"days": "Sun", "time": "Closed"}], "id": "1663300001", "name": "USPS COLLECTION BOX - PO LOBBY", "address": {"city": "DEFIANCE", "state": "PA", "street": "807 SIX MILE RUN RD", "postcode": "16633"}}},
{"geometry": {"type": "Point", "coordinates": [-78.1646992448, 40.2220715372]}, "type": "Feature", "properties": {"collection_times": [{"days": "Mon-Fri", "time": "4:30pm"}, {"days": "Sat", "time": "11:45am"}, {"days": "Sun", "time": "Closed"}], "id": "1663400000", "name": "USPS COLLECTION BOX - BLUE BOX", "address": {"city": "DUDLEY", "state": "PA", "street": "3878 BROADTOP MOUNTAIN RD", "postcode": "16634"}}},
{"geometry": {"type": "Point", "coordinates": [-78.1646992448, 40.2220715372]}, "type": "Feature", "properties": {"collection_times": [{"days": "Mon-Fri", "time": "9:50am"}, {"days": "Sat", "time": "11:45am"}, {"days": "Sun", "time": "Closed"}], "id": "1663400001", "name": "USPS COLLECTION BOX - PO LOBBY", "address": {"city": "DUDLEY", "state": "PA", "street": "3878 BROADTOP MOUNTAIN RD", "postcode": "16634"}}},
{"geometry": {"type": "Point", "coordinates": [-78.4459688308, 40.4201603379]}, "type": "Feature", "properties": {"collection_times": [{"days": "Mon-Sat", "time": "11:30am"}, {"days": "Sun", "time": "Closed"}], "id": "1663500000", "name": "USPS COLLECTION BOX - BLUE BOX", "address": {"city": "DUNCANSVILLE", "state": "PA", "street": "221 GLIMCHER DR", "postcode": "16635"}}},
{"geometry": {"type": "Point", "coordinates": [-78.4795145398, 40.4162933287]}, "type": "Feature", "properties": {"collection_times": [{"days": "Mon-Sat", "time": "9:30am"}, {"days": "Sun", "time": "Closed"}], "id": "1663500001", "name": "USPS COLLECTION BOX - BLUE BOX", "address": {"city": "DUNCANSVILLE", "state": "PA", "street": "100 HOLLIDAYSBURG PLZ", "postcode": "16635"}}},
{"geometry": {"type": "Point", "coordinates": [-78.4795145398, 40.4162933287]}, "type": "Feature", "properties": {"collection_times": [{"days": "Mon-Fri", "time": "4:45pm"}, {"days": "Sat", "time": "2:45pm"}, {"days": "Sun", "time": "Closed"}], "id": "1663500002", "name": "USPS COLLECTION BOX - BLUE BOX", "address": {"city": "DUNCANSVILLE", "state": "PA", "street": "146 DEVILLE DR", "postcode": "16635"}}},
{"geometry": {"type": "Point", "coordinates": [-78.4795145398, 40.4162933287]}, "type": "Feature", "properties": {"collection_times": [{"days": "Mon-Fri", "time": "4:45pm"}, {"days": "Sat", "time": "2:45pm"}, {"days": "Sun", "time": "Closed"}], "id": "1663500003", "name": "USPS COLLECTION BOX - BLUE BOX", "address": {"city": "DUNCANSVILLE", "state": "PA", "street": "146 DEVILLE DR", "postcode": "16635"}}},
{"geometry": {"type": "Point", "coordinates": [-78.4795145398, 40.4162933287]}, "type": "Feature", "properties": {"collection_times": [{"days": "Mon-Fri", "time": "4:45pm"}, {"days": "Sat", "time": "2:45pm"}, {"days": "Sun", "time": "Closed"}], "id": "1663500004", "name": "USPS COLLECTION BOX - PO LOBBY", "address": {"city": "DUNCANSVILLE", "state": "PA", "street": "146 DEVILLE DR", "postcode": "16635"}}},
{"geometry": {"type": "Point", "coordinates": [-78.5154836556, 40.5955067798]}, "type": "Feature", "properties": {"collection_times": [{"days": "Mon-Fri", "time": "11:55am"}, {"days": "Sat", "time": "11:45am"}, {"days": "Sun", "time": "Closed"}], "id": "1663600000", "name": "USPS COLLECTION BOX - BLUE BOX", "address": {"city": "DYSART", "state": "PA", "street": "1194 CLEARFIELD VALLEY BLVD", "postcode": "16636"}}},
{"geometry": {"type": "Point", "coordinates": [-78.5154836556, 40.5955067798]}, "type": "Feature", "properties": {"collection_times": [{"days": "Mon-Fri", "time": "11:55am"}, {"days": "Sat", "time": "11:45am"}, {"days": "Sun", "time": "Closed"}], "id": "1663600001", "name": "USPS COLLECTION BOX - PO LOBBY", "address": {"city": "DYSART", "state": "PA", "street": "1194 CLEARFIELD VALLEY BLVD", "postcode": "16636"}}},
{"geometry": {"type": "Point", "coordinates": [-78.4521473789, 40.330854422]}, "type": "Feature", "properties": {"collection_times": [{"days": "Mon-Fri", "time": "4:30pm"}, {"days": "Sat", "time": "12:30pm"}, {"days": "Sun", "time": "Closed"}], "id": "1663700000", "name": "USPS COLLECTION BOX - BLUE BOX", "address": {"city": "EAST FREEDOM", "state": "PA", "street": "2801 EVERETT RD", "postcode": "16637"}}},
{"geometry": {"type": "Point", "coordinates": [-78.4521473789, 40.330854422]}, "type": "Feature", "properties": {"collection_times": [{"days": "Mon-Fri", "time": "4:30pm"}, {"days": "Sat", "time": "12:30pm"}, {"days": "Sun", "time": "Closed"}], "id": "1663700001", "name": "USPS COLLECTION BOX - PO LOBBY", "address": {"city": "EAST FREEDOM", "state": "PA", "street": "2801 EVERETT RD", "postcode": "16637"}}},
{"geometry": {"type": "Point", "coordinates": [-78.5004779842, 40.6900217734]}, "type": "Feature", "properties": {"collection_times": [{"days": "Mon-Fri", "time": "11:55am"}, {"days": "Sat", "time": "10:45am"}, {"days": "Sun", "time": "Closed"}], "id": "1663900000", "name": "USPS COLLECTION BOX - BLUE BOX", "address": {"city": "FALLENTIMBER", "state": "PA", "street": "1664 GLENDALE VALLEY BLVD", "postcode": "16639"}}},
{"geometry": {"type": "Point", "coordinates": [-78.5004779842, 40.6900217734]}, "type": "Feature", "properties": {"collection_times": [{"days": "Mon-Fri", "time": "11:55am"}, {"days": "Sat", "time": "10:45am"}, {"days": "Sun", "time": "Closed"}], "id": "1663900001", "name": "USPS COLLECTION BOX - PO LOBBY", "address": {"city": "FALLENTIMBER", "state": "PA", "street": "1664 GLENDALE VALLEY BLVD", "postcode": "16639"}}},
{"geometry": {"type": "Point", "coordinates": [-78.5265827334, 40.718326613]}, "type": "Feature", "properties": {"collection_times": [{"days": "Mon-Fri", "time": "3:45pm"}, {"days": "Sat", "time": "10:30am"}, {"days": "Sun", "time": "Closed"}], "id": "1664000000", "name": "USPS COLLECTION BOX - BLUE BOX", "address": {"city": "FLINTON", "state": "PA", "street": "2154 BEAVER VALLEY RD", "postcode": "16640"}}},
{"geometry": {"type": "Point", "coordinates": [-78.5626949799, 40.6971091393]}, "type": "Feature", "properties": {"collection_times": [{"days": "Mon-Fri", "time": "12:00pm"}, {"days": "Sat", "time": "10:30am"}, {"days": "Sun", "time": "Closed"}], "id": "1664000001", "name": "USPS COLLECTION BOX - BLUE BOX", "address": {"city": "FLINTON", "state": "PA", "street": "214 TROXELL SPRING RD", "postcode": "16640"}}},
{"geometry": {"type": "Point", "coordinates": [-78.5265827334, 40.718326613]}, "type": "Feature", "properties": {"collection_times": [{"days": "Mon-Fri", "time": "10:55am"}, {"days": "Sat", "time": "10:30am"}, {"days": "Sun", "time": "Closed"}], "id": "1664000002", "name": "USPS COLLECTION BOX - PO LOBBY", "address": {"city": "FLINTON", "state": "PA", "street": "2154 BEAVER VALLEY RD", "postcode": "16640"}}},
{"geometry": {"type": "Point", "coordinates": [-78.5473768791, 40.481369396]}, "type": "Feature", "properties": {"collection_times": [{"days": "Mon-Sat", "time": "9:45am"}, {"days": "Sun", "time": "Closed"}], "id": "1664100002", "name": "USPS COLLECTION BOX - BLUE BOX", "address": {"city": "GALLITZIN", "state": "PA", "street": "621 CHURCH ST", "postcode": "16641"}}},
{"geometry": {"type": "Point", "coordinates": [-78.552520095, 40.4788738826]}, "type": "Feature", "properties": {"collection_times": [{"days": "Mon-Sat", "time": "11:30am"}, {"days": "Sun", "time": "Closed"}], "id": "1664100003", "name": "USPS COLLECTION BOX - BLUE BOX", "address": {"city": "GALLITZIN", "state": "PA", "street": "402 SHORT ST", "postcode": "16641"}}},
{"geometry": {"type": "Point", "coordinates": [-78.5548534722, 40.4847097066]}, "type": "Feature", "properties": {"collection_times": [{"days": "Mon-Sat", "time": "11:45am"}, {"days": "Sun", "time": "Closed"}], "id": "1664100006", "name": "USPS COLLECTION BOX - BLUE BOX", "address": {"city": "GALLITZIN", "state": "PA", "street": "301 FOREST ST", "postcode": "16641"}}},
{"geometry": {"type": "Point", "coordinates": [-78.5479983276, 40.4835235632]}, "type": "Feature", "properties": {"collection_times": [{"days": "Mon-Sat", "time": "10:15am"}, {"days": "Sun", "time": "Closed"}], "id": "1664100007", "name": "USPS COLLECTION BOX - BLUE BOX", "address": {"city": "GALLITZIN", "state": "PA", "street": "624 FOREST ST", "postcode": "16641"}}},
{"geometry": {"type": "Point", "coordinates": [-78.5422158302, 40.4765035416]}, "type": "Feature", "properties": {"collection_times": [{"days": "Mon-Sat", "time": "11:00am"}, {"days": "Sun", "time": "Closed"}], "id": "1664100008", "name": "USPS COLLECTION BOX - BLUE BOX", "address": {"city": "GALLITZIN", "state": "PA", "street": "808 PORTAGE ST", "postcode": "16641"}}},
{"geometry": {"type": "Point", "coordinates": [-78.5523300429, 40.4808511866]}, "type": "Feature", "properties": {"collection_times": [{"days": "Mon-Sat", "time": "11:30am"}, {"days": "Sun", "time": "Closed"}], "id": "1664100010", "name": "USPS COLLECTION BOX - BLUE BOX", "address": {"city": "GALLITZIN", "state": "PA", "street": "701 MAIN ST", "postcode": "16641"}}},
{"geometry": {"type": "Point", "coordinates": [-78.5531873427, 40.4832701515]}, "type": "Feature", "properties": {"collection_times": [{"days": "Mon-Fri", "time": "12:25pm"}, {"days": "Sat", "time": "12:00pm"}, {"days": "Sun", "time": "Closed"}], "id": "1664100011", "name": "USPS COLLECTION BOX - BLUE BOX", "address": {"city": "GALLITZIN", "state": "PA", "street": "312 CHURCH ST", "postcode": "16641"}}},
{"geometry": {"type": "Point", "coordinates": [-78.5531873427, 40.4832701515]}, "type": "Feature", "properties": {"collection_times": [{"days": "Mon-Fri", "time": "12:25pm"}, {"days": "Sat", "time": "12:00pm"}, {"days": "Sun", "time": "Closed"}], "id": "1664100012", "name": "USPS COLLECTION BOX - PO LOBBY", "address": {"city": "GALLITZIN", "state": "PA", "street": "312 CHURCH ST", "postcode": "16641"}}},
{"geometry": {"type": "Point", "coordinates": [-78.4463846748, 40.7076096669]}, "type": "Feature", "properties": {"collection_times": [{"days": "Mon-Fri", "time": "12:55pm"}, {"days": "Sat", "time": "11:15am"}, {"days": "Sun", "time": "Closed"}], "id": "1664400000", "name": "USPS COLLECTION BOX - BLUE BOX", "address": {"city": "GLASGOW", "state": "PA", "street": "2361 SKYLINE DR", "postcode": "16644"}}},
{"geometry": {"type": "Point", "coordinates": [-78.4463846748, 40.7076096669]}, "type": "Feature", "properties": {"collection_times": [{"days": "Mon-Fri", "time": "12:55pm"}, {"days": "Sat", "time": "11:15am"}, {"days": "Sun", "time": "Closed"}], "id": "1664400001", "name": "USPS COLLECTION BOX - PO LOBBY", "address": {"city": "GLASGOW", "state": "PA", "street": "2361 SKYLINE DR", "postcode": "16644"}}},
{"geometry": {"type": "Point", "coordinates": [-78.7132003033, 40.66445884]}, "type": "Feature", "properties": {"collection_times": [{"days": "Mon-Fri", "time": "4:30pm"}, {"days": "Sat", "time": "11:30am"}, {"days": "Sun", "time": "Closed"}], "id": "1664600000", "name": "USPS COLLECTION BOX - BLUE BOX", "address": {"city": "HASTINGS", "state": "PA", "street": "311 BEAVER ST", "postcode": "16646"}}},
{"geometry": {"type": "Point", "coordinates": [-78.7132003033, 40.66445884]}, "type": "Feature", "properties": {"collection_times": [{"days": "Mon-Fri", "time": "4:30pm"}, {"days": "Sat", "time": "11:30am"}, {"days": "Sun", "time": "Closed"}], "id": "1664600001", "name": "USPS COLLECTION BOX - PO LOBBY", "address": {"city": "HASTINGS", "state": "PA", "street": "311 BEAVER ST", "postcode": "16646"}}},
{"geometry": {"type": "Point", "coordinates": [-78.1097566502, 40.4153330368]}, "type": "Feature", "properties": {"collection_times": [{"days": "Mon-Fri", "time": "11:25am"}, {"days": "Sat", "time": "10:55am"}, {"days": "Sun", "time": "Closed"}], "id": "1664700000", "name": "USPS COLLECTION BOX - BLUE BOX", "address": {"city": "HESSTON", "state": "PA", "street": "12393 MAPLE LN", "postcode": "16647"}}},
{"geometry": {"type": "Point", "coordinates": [-78.1097566502, 40.4153330368]}, "type": "Feature", "properties": {"collection_times": [{"days": "Mon-Fri", "time": "11:25am"}, {"days": "Sat", "time": "10:55am"}, {"days": "Sun", "time": "Closed"}], "id": "1664700001", "name": "USPS COLLECTION BOX - PO LOBBY", "address": {"city": "HESSTON", "state": "PA", "street": "12393 MAPLE LN", "postcode": "16647"}}},
{"geometry": {"type": "Point", "coordinates": [-78.3971307597, 40.4284100134]}, "type": "Feature", "properties": {"collection_times": [{"days": "Mon-Sat", "time": "3:00pm"}, {"days": "Sun", "time": "Closed"}], "id": "1664800003", "name": "USPS COLLECTION BOX - BLUE BOX", "address": {"city": "HOLLIDAYSBURG", "state": "PA", "street": "422 N JUNIATA ST", "postcode": "16648"}}},
{"geometry": {"type": "Point", "coordinates": [-78.3954671954, 40.4285516384]}, "type": "Feature", "properties": {"collection_times": [{"days": "Mon-Fri", "time": "4:00pm"}, {"days": "Sat", "time": "8:00am"}, {"days": "Sun", "time": "Closed"}], "id": "1664800005", "name": "USPS COLLECTION BOX - BLUE BOX", "address": {"city": "HOLLIDAYSBURG", "state": "PA", "street": "224 ALLEGHENY ST", "postcode": "16648"}}},
{"geometry": {"type": "Point", "coordinates": [-78.3932644589, 40.4296521648]}, "type": "Feature", "properties": {"collection_times": [{"days": "Mon-Fri", "time": "4:00pm"}, {"days": "Sat", "time": "8:00am"}, {"days": "Sun", "time": "Closed"}], "id": "1664800006", "name": "USPS COLLECTION BOX - BLUE BOX", "address": {"city": "HOLLIDAYSBURG", "state": "PA", "street": "401 ALLEGHENY ST", "postcode": "16648"}}},
{"geometry": {"type": "Point", "coordinates": [-78.391571059, 40.4302783728]}, "type": "Feature", "properties": {"collection_times": [{"days": "Mon-Fri", "time": "5:00pm"}, {"days": "Sat", "time": "4:45pm"}, {"days": "Sun", "time": "Closed"}], "id": "1664800008", "name": "USPS COLLECTION BOX - BLUE BOX", "address": {"city": "HOLLIDAYSBURG", "state": "PA", "street": "525 ALLEGHENY ST", "postcode": "16648"}}},
{"geometry": {"type": "Point", "coordinates": [-78.391571059, 40.4302783728]}, "type": "Feature", "properties": {"collection_times": [{"days": "Mon-Fri", "time": "5:00pm"}, {"days": "Sat", "time": "4:45pm"}, {"days": "Sun", "time": "Closed"}], "id": "1664800009", "name": "USPS COLLECTION BOX - BLUE BOX", "address": {"city": "HOLLIDAYSBURG", "state": "PA", "street": "525 ALLEGHENY ST", "postcode": "16648"}}},
{"geometry": {"type": "Point", "coordinates": [-78.4055551563, 40.4348809413]}, "type": "Feature", "properties": {"collection_times": [{"days": "Mon-Sat", "time": "1:00pm"}, {"days": "Sun", "time": "Closed"}], "id": "1664800012", "name": "USPS COLLECTION BOX - BLUE BOX", "address": {"city": "HOLLIDAYSBURG", "state": "PA", "street": "1510 N JUNIATA ST", "postcode": "16648"}}},
{"geometry": {"type": "Point", "coordinates": [-78.3929201346, 40.4298092868]}, "type": "Feature", "properties": {"collection_times": [{"days": "Mon-Fri", "time": "4:00pm"}, {"days": "Sat", "time": "8:00am"}, {"days": "Sun", "time": "Closed"}], "id": "1664800013", "name": "USPS COLLECTION BOX - BLUE BOX", "address": {"city": "HOLLIDAYSBURG", "state": "PA", "street": "423 ALLEGHENY ST", "postcode": "16648"}}},
{"geometry": {"type": "Point", "coordinates": [-78.3858385283, 40.4326652462]}, "type": "Feature", "properties": {"collection_times": [{"days": "Mon-Sat", "time": "9:00am"}, {"days": "Sun", "time": "Closed"}], "id": "1664800014", "name": "USPS COLLECTION BOX - BLUE BOX", "address": {"city": "HOLLIDAYSBURG", "state": "PA", "street": "1017 WALNUT ST", "postcode": "16648"}}},
{"geometry": {"type": "Point", "coordinates": [-78.3828258995, 40.4320991288]}, "type": "Feature", "properties": {"collection_times": [{"days": "Mon-Fri", "time": "4:00pm"}, {"days": "Sat", "time": "12:00pm"}, {"days": "Sun", "time": "Closed"}], "id": "1664800016", "name": "USPS COLLECTION BOX - BLUE BOX", "address": {"city": "HOLLIDAYSBURG", "state": "PA", "street": "1301 ALLEGHENY ST", "postcode": "16648"}}},
{"geometry": {"type": "Point", "coordinates": [-78.3987942061, 40.4358781808]}, "type": "Feature", "properties": {"collection_times": [{"days": "Mon-Sat", "time": "2:00pm"}, {"days": "Sun", "time": "Closed"}], "id": "1664800018", "name": "USPS COLLECTION BOX - BLUE BOX", "address": {"city": "HOLLIDAYSBURG", "state": "PA", "street": "1201 N MONTGOMERY ST", "postcode": "16648"}}},
{"geometry": {"type": "Point", "coordinates": [-78.3980347187, 40.433482383]}, "type": "Feature", "properties": {"collection_times": [{"days": "Mon-Sat", "time": "12:00pm"}, {"days": "Sun", "time": "Closed"}], "id": "1664800019", "name": "USPS COLLECTION BOX - BLUE BOX", "address": {"city": "HOLLIDAYSBURG", "state": "PA", "street": "911 MAPLE AVE", "postcode": "16648"}}},
{"geometry": {"type": "Point", "coordinates": [-78.3947278414, 40.4337100561]}, "type": "Feature", "properties": {"collection_times": [{"days": "Mon-Sat", "time": "1:30pm"}, {"days": "Sun", "time": "Closed"}], "id": "1664800020", "name": "USPS COLLECTION BOX - BLUE BOX", "address": {"city": "HOLLIDAYSBURG", "state": "PA", "street": "819 UNION ST", "postcode": "16648"}}},
{"geometry": {"type": "Point", "coordinates": [-78.3916428439, 40.434289608]}, "type": "Feature", "properties": {"collection_times": [{"days": "Mon-Fri", "time": "11:00am"}, {"days": "Sat", "time": "8:00am"}, {"days": "Sun", "time": "Closed"}], "id": "1664800023", "name": "USPS COLLECTION BOX - BLUE BOX", "address": {"city": "HOLLIDAYSBURG", "state": "PA", "street": "800 PENN ST", "postcode": "16648"}}},
{"geometry": {"type": "Point", "coordinates": [-78.3969871773, 40.4266246525]}, "type": "Feature", "properties": {"collection_times": [{"days": "Mon-Sat", "time": "11:00am"}, {"days": "Sun", "time": "Closed"}], "id": "1664800029", "name": "USPS COLLECTION BOX - BLUE BOX", "address": {"city": "HOLLIDAYSBURG", "state": "PA", "street": "431 BEDFORD ST", "postcode": "16648"}}},
{"geometry": {"type": "Point", "coordinates": [-78.391571059, 40.4302783728]}, "type": "Feature", "properties": {"collection_times": [{"days": "Mon-Fri", "time": "5:00pm"}, {"days": "Sat", "time": "4:45pm"}, {"days": "Sun", "time": "Closed"}], "id": "1664800037", "name": "USPS COLLECTION BOX - PO LOBBY", "address": {"city": "HOLLIDAYSBURG", "state": "PA", "street": "525 ALLEGHENY ST", "postcode": "16648"}}},
{"geometry": {"type": "Point", "coordinates": [-78.3906320044, 40.4280035076]}, "type": "Feature", "properties": {"collection_times": [{"days": "Mon-Fri", "time": "4:00pm"}, {"days": "Sat", "time": "2:00pm"}, {"days": "Sun", "time": "Closed"}], "id": "1664800038", "name": "USPS COLLECTION BOX - BLUE BOX", "address": {"city": "HOLLIDAYSBURG", "state": "PA", "street": "510 BLAIR ST", "postcode": "16648"}}},
{"geometry": {"type": "Point", "coordinates": [-78.2685687433, 40.1364404815]}, "type": "Feature", "properties": {"collection_times": [{"days": "Mon-Fri", "time": "4:00pm"}, {"days": "Sat", "time": "10:15am"}, {"days": "Sun", "time": "Closed"}], "id": "1665000000", "name": "USPS COLLECTION BOX - BLUE BOX", "address": {"city": "HOPEWELL", "state": "PA", "street": "211 FRONT ST", "postcode": "16650"}}},
{"geometry": {"type": "Point", "coordinates": [-78.3416469219, 40.1366108813]}, "type": "Feature", "properties": {"collection_times": [{"days": "Mon-Fri", "time": "11:00am"}, {"days": "Sat", "time": "10:15am"}, {"days": "Sun", "time": "Closed"}], "id": "1665000001", "name": "USPS COLLECTION BOX - BLUE BOX", "address": {"city": "HOPEWELL", "state": "PA", "street": "4071 RAYSTOWN RD", "postcode": "16650"}}},
{"geometry": {"type": "Point", "coordinates": [-78.2685687433, 40.1364404815]}, "type": "Feature", "properties": {"collection_times": [{"days": "Mon-Fri", "time": "11:55am"}, {"days": "Sat", "time": "10:15am"}, {"days": "Sun", "time": "Closed"}], "id": "1665000002", "name": "USPS COLLECTION BOX - PO LOBBY", "address": {"city": "HOPEWELL", "state": "PA", "street": "211 FRONT ST", "postcode": "16650"}}},
{"geometry": {"type": "Point", "coordinates": [-78.3541227476, 40.8250669734]}, "type": "Feature", "properties": {"collection_times": [{"days": "Mon-Fri", "time": "4:30pm"}, {"days": "Sat", "time": "3:00pm"}, {"days": "Sun", "time": "Closed"}], "id": "1665100000", "name": "USPS COLLECTION BOX - BLUE BOX", "address": {"city": "HOUTZDALE", "state": "PA", "street": "721 MCATEER ST", "postcode": "16651"}}},
{"geometry": {"type": "Point", "coordinates": [-78.3459097618, 40.8254660177]}, "type": "Feature", "properties": {"collection_times": [{"days": "Mon-Sat", "time": "2:30pm"}, {"days": "Sun", "time": "Closed"}], "id": "1665100002", "name": "USPS COLLECTION BOX - BLUE BOX", "address": {"city": "HOUTZDALE", "state": "PA", "street": "565 SPRING ST", "postcode": "16651"}}},
{"geometry": {"type": "Point", "coordinates": [-78.3485704454, 40.8249884775]}, "type": "Feature", "properties": {"collection_times": [{"days": "Mon-Sat", "time": "2:30pm"}, {"days": "Sun", "time": "Closed"}], "id": "1665100003", "name": "USPS COLLECTION BOX - BLUE BOX", "address": {"city": "HOUTZDALE", "state": "PA", "street": "717 DON ST", "postcode": "16651"}}},
{"geometry": {"type": "Point", "coordinates": [-78.3541227476, 40.8250669734]}, "type": "Feature", "properties": {"collection_times": [{"days": "Mon-Fri", "time": "4:30pm"}, {"days": "Sat", "time": "3:00pm"}, {"days": "Sun", "time": "Closed"}], "id": "1665100005", "name": "USPS COLLECTION BOX - PO LOBBY", "address": {"city": "HOUTZDALE", "state": "PA", "street": "721 MCATEER ST", "postcode": "16651"}}},
{"geometry": {"type": "Point", "coordinates": [-78.01212414, 40.4857141229]}, "type": "Feature", "properties": {"collection_times": [{"days": "Mon-Sat", "time": "9:00am"}, {"days": "Sun", "time": "Closed"}], "id": "1665200001", "name": "USPS COLLECTION BOX - BLUE BOX", "address": {"city": "HUNTINGDON", "state": "PA", "street": "601 WASHINGTON ST", "postcode": "16652"}}},
{"geometry": {"type": "Point", "coordinates": [-78.0134630435, 40.4861605512]}, "type": "Feature", "properties": {"collection_times": [{"days": "Mon-Sat", "time": "9:00am"}, {"days": "Sun", "time": "Closed"}], "id": "1665200002", "name": "USPS COLLECTION BOX - BLUE BOX", "address": {"city": "HUNTINGDON", "state": "PA", "street": "711 WASHINGTON ST", "postcode": "16652"}}},
{"geometry": {"type": "Point", "coordinates": [-78.0143470423, 40.4864571951]}, "type": "Feature", "properties": {"collection_times": [{"days": "Mon-Fri", "time": "3:00pm"}, {"days": "Sat", "time": "9:00am"}, {"days": "Sun", "time": "Closed"}], "id": "1665200003", "name": "USPS COLLECTION BOX - BLUE BOX", "address": {"city": "HUNTINGDON", "state": "PA", "street": "803 WASHINGTON ST", "postcode": "16652"}}},
{"geometry": {"type": "Point", "coordinates": [-78.0162927553, 40.4869965348]}, "type": "Feature", "properties": {"collection_times": [{"days": "Mon-Sat", "time": "9:00am"}, {"days": "Sun", "time": "Closed"}], "id": "1665200004", "name": "USPS COLLECTION BOX - BLUE BOX", "address": {"city": "HUNTINGDON", "state": "PA", "street": "930 WASHINGTON ST", "postcode": "16652"}}},
{"geometry": {"type": "Point", "coordinates": [-78.0183165853, 40.49286896]}, "type": "Feature", "properties": {"collection_times": [{"days": "Mon-Sat", "time": "9:00am"}, {"days": "Sun", "time": "Closed"}], "id": "1665200005", "name": "USPS COLLECTION BOX - BLUE BOX", "address": {"city": "HUNTINGDON", "state": "PA", "street": "1401 WASHINGTON ST", "postcode": "16652"}}},
{"geometry": {"type": "Point", "coordinates": [-78.0191242148, 40.4959003774]}, "type": "Feature", "properties": {"collection_times": [{"days": "Mon-Sat", "time": "9:00am"}, {"days": "Sun", "time": "Closed"}], "id": "1665200006", "name": "USPS COLLECTION BOX - BLUE BOX", "address": {"city": "HUNTINGDON", "state": "PA", "street": "1629 WASHINGTON ST", "postcode": "16652"}}},
{"geometry": {"type": "Point", "coordinates": [-78.0065003634, 40.4844813266]}, "type": "Feature", "properties": {"collection_times": [{"days": "Mon-Sat", "time": "9:00am"}, {"days": "Sun", "time": "Closed"}], "id": "1665200007", "name": "USPS COLLECTION BOX - BLUE BOX", "address": {"city": "HUNTINGDON", "state": "PA", "street": "200 MIFFLIN ST", "postcode": "16652"}}},
{"geometry": {"type": "Point", "coordinates": [-78.0141933065, 40.4871662682]}, "type": "Feature", "properties": {"collection_times": [{"days": "Mon-Sat", "time": "9:00am"}, {"days": "Sun", "time": "Closed"}], "id": "1665200008", "name": "USPS COLLECTION BOX - BLUE BOX", "address": {"city": "HUNTINGDON", "state": "PA", "street": "701 MIFFLIN ST", "postcode": "16652"}}},
{"geometry": {"type": "Point", "coordinates": [-78.0149384666, 40.4874248856]}, "type": "Feature", "properties": {"collection_times": [{"days": "Mon-Sat", "time": "9:00am"}, {"days": "Sun", "time": "Closed"}], "id": "1665200009", "name": "USPS COLLECTION BOX - BLUE BOX", "address": {"city": "HUNTINGDON", "state": "PA", "street": "831 MIFFLIN ST", "postcode": "16652"}}},
{"geometry": {"type": "Point", "coordinates": [-78.0165077189, 40.4913420796]}, "type": "Feature", "properties": {"collection_times": [{"days": "Mon-Sat", "time": "12:00pm"}, {"days": "Sun", "time": "Closed"}], "id": "1665200011", "name": "USPS COLLECTION BOX - BLUE BOX", "address": {"city": "HUNTINGDON", "state": "PA", "street": "1135 MIFFLIN ST", "postcode": "16652"}}},
{"geometry": {"type": "Point", "coordinates": [-78.0175472027, 40.4952219599]}, "type": "Feature", "properties": {"collection_times": [{"days": "Mon-Sat", "time": "1:00pm"}, {"days": "Sun", "time": "Closed"}], "id": "1665200012", "name": "USPS COLLECTION BOX - BLUE BOX", "address": {"city": "HUNTINGDON", "state": "PA", "street": "1431 MIFFLIN ST", "postcode": "16652"}}},
{"geometry": {"type": "Point", "coordinates": [-78.0187429476, 40.4997439667]}, "type": "Feature", "properties": {"collection_times": [{"days": "Mon-Sat", "time": "1:30pm"}, {"days": "Sun", "time": "Closed"}], "id": "1665200013", "name": "USPS COLLECTION BOX - BLUE BOX", "address": {"city": "HUNTINGDON", "state": "PA", "street": "1801 MIFFLIN ST", "postcode": "16652"}}},
{"geometry": {"type": "Point", "coordinates": [-78.0098833248, 40.4872195471]}, "type": "Feature", "properties": {"collection_times": [{"days": "Mon-Sat", "time": "9:00am"}, {"days": "Sun", "time": "Closed"}], "id": "1665200014", "name": "USPS COLLECTION BOX - BLUE BOX", "address": {"city": "HUNTINGDON", "state": "PA", "street": "631 MOORE ST", "postcode": "16652"}}},
{"geometry": {"type": "Point", "coordinates": [-78.0152070311, 40.4910234593]}, "type": "Feature", "properties": {"collection_times": [{"days": "Mon-Sat", "time": "9:00am"}, {"days": "Sun", "time": "Closed"}], "id": "1665200015", "name": "USPS COLLECTION BOX - BLUE BOX", "address": {"city": "HUNTINGDON", "state": "PA", "street": "1200 MOORE ST", "postcode": "16652"}}},
{"geometry": {"type": "Point", "coordinates": [-78.0138463346, 40.4885439515]}, "type": "Feature", "properties": {"collection_times": [{"days": "Mon-Sat", "time": "9:00am"}, {"days": "Sun", "time": "Closed"}], "id": "1665200016", "name": "USPS COLLECTION BOX - BLUE BOX", "address": {"city": "HUNTINGDON", "state": "PA", "street": "1001 MOORE ST", "postcode": "16652"}}},
{"geometry": {"type": "Point", "coordinates": [-78.0173829554, 40.4947943771]}, "type": "Feature", "properties": {"collection_times": [{"days": "Mon-Sat", "time": "10:00am"}, {"days": "Sun", "time": "Closed"}], "id": "1665200017", "name": "USPS COLLECTION BOX - BLUE BOX", "address": {"city": "HUNTINGDON", "state": "PA", "street": "419 14TH ST", "postcode": "16652"}}},
{"geometry": {"type": "Point", "coordinates": [-78.0172520628, 40.4987053662]}, "type": "Feature", "properties": {"collection_times": [{"days": "Mon-Sat", "time": "9:00am"}, {"days": "Sun", "time": "Closed"}], "id": "1665200018", "name": "USPS COLLECTION BOX - BLUE BOX", "address": {"city": "HUNTINGDON", "state": "PA", "street": "1700 MOORE ST", "postcode": "16652"}}},
{"geometry": {"type": "Point", "coordinates": [-78.0138897999, 40.4935467817]}, "type": "Feature", "properties": {"collection_times": [{"days": "Mon-Sat", "time": "10:15am"}, {"days": "Sun", "time": "Closed"}], "id": "1665200020", "name": "USPS COLLECTION BOX - BLUE BOX", "address": {"city": "HUNTINGDON", "state": "PA", "street": "1225 WARM SPRINGS AVE", "postcode": "16652"}}},
{"geometry": {"type": "Point", "coordinates": [-78.0149073297, 40.4956486722]}, "type": "Feature", "properties": {"collection_times": [{"days": "Mon-Sat", "time": "9:00am"}, {"days": "Sun", "time": "Closed"}], "id": "1665200021", "name": "USPS COLLECTION BOX - BLUE BOX", "address": {"city": "HUNTINGDON", "state": "PA", "street": "1430 ONEIDA ST", "postcode": "16652"}}},
{"geometry": {"type": "Point", "coordinates": [-78.0145929149, 40.4953530385]}, "type": "Feature", "properties": {"collection_times": [{"days": "Mon-Sat", "time": "9:00am"}, {"days": "Sun", "time": "Closed"}], "id": "1665200022", "name": "USPS COLLECTION BOX - BLUE BOX", "address": {"city": "HUNTINGDON", "state": "PA", "street": "620 14TH ST", "postcode": "16652"}}},
{"geometry": {"type": "Point", "coordinates": [-78.0123168356, 40.4904460661]}, "type": "Feature", "properties": {"collection_times": [{"days": "Mon-Sat", "time": "9:00am"}, {"days": "Sun", "time": "Closed"}], "id": "1665200023", "name": "USPS COLLECTION BOX - BLUE BOX", "address": {"city": "HUNTINGDON", "state": "PA", "street": "700 WARM SPRINGS AVE", "postcode": "16652"}}},
{"geometry": {"type": "Point", "coordinates": [-78.0075550303, 40.4834419801]}, "type": "Feature", "properties": {"collection_times": [{"days": "Mon-Fri", "time": "3:00pm"}, {"days": "Sat", "time": "9:00am"}, {"days": "Sun", "time": "Closed"}], "id": "1665200024", "name": "USPS COLLECTION BOX - BLUE BOX", "address": {"city": "HUNTINGDON", "state": "PA", "street": "223 PENN ST", "postcode": "16652"}}},
{"geometry": {"type": "Point", "coordinates": [-78.010257627, 40.4842122445]}, "type": "Feature", "properties": {"collection_times": [{"days": "Mon-Fri", "time": "3:00pm"}, {"days": "Sat", "time": "9:00am"}, {"days": "Sun", "time": "Closed"}], "id": "1665200025", "name": "USPS COLLECTION BOX - BLUE BOX", "address": {"city": "HUNTINGDON", "state": "PA", "street": "400 PENN ST", "postcode": "16652"}}},
{"geometry": {"type": "Point", "coordinates": [-78.0121101353, 40.4849491433]}, "type": "Feature", "properties": {"collection_times": [{"days": "Mon-Fri", "time": "3:00pm"}, {"days": "Sat", "time": "9:00am"}, {"days": "Sun", "time": "Closed"}], "id": "1665200026", "name": "USPS COLLECTION BOX - BLUE BOX", "address": {"city": "HUNTINGDON", "state": "PA", "street": "431 PENN ST", "postcode": "16652"}}},
{"geometry": {"type": "Point", "coordinates": [-78.0219401836, 40.486724107]}, "type": "Feature", "properties": {"collection_times": [{"days": "Mon-Sat", "time": "1:00pm"}, {"days": "Sun", "time": "Closed"}], "id": "1665200027", "name": "USPS COLLECTION BOX - BLUE BOX", "address": {"city": "HUNTINGDON", "state": "PA", "street": "114 SPRUCE ST", "postcode": "16652"}}},
{"geometry": {"type": "Point", "coordinates": [-77.9119180312, 40.5544021566]}, "type": "Feature", "properties": {"collection_times": [{"days": "Mon-Sat", "time": "9:00am"}, {"days": "Sun", "time": "Closed"}], "id": "1665200028", "name": "USPS COLLECTION BOX - BLUE BOX", "address": {"city": "HUNTINGDON", "state": "PA", "street": "7527 HUNTINGDON PLZ", "postcode": "16652"}}},
{"geometry": {"type": "Point", "coordinates": [-78.0268821032, 40.4880790026]}, "type": "Feature", "properties": {"collection_times": [{"days": "Mon-Sat", "time": "12:00pm"}, {"days": "Sun", "time": "Closed"}], "id": "1665200029", "name": "USPS COLLECTION BOX - BLUE BOX", "address": {"city": "HUNTINGDON", "state": "PA", "street": "1001 MOUNT VERNON AVE", "postcode": "16652"}}},
{"geometry": {"type": "Point", "coordinates": [-77.9119180312, 40.5544021566]}, "type": "Feature", "properties": {"collection_times": [{"days": "Mon-Sat", "time": "10:30am"}, {"days": "Sun", "time": "Closed"}], "id": "1665200031", "name": "USPS COLLECTION BOX - BLUE BOX", "address": {"city": "HUNTINGDON", "state": "PA", "street": "9048 WILLIAM PENN HWY STE 1", "postcode": "16652"}}},
{"geometry": {"type": "Point", "coordinates": [-78.0095737408, 40.4848658246]}, "type": "Feature", "properties": {"collection_times": [{"days": "Mon-Fri", "time": "5:00pm"}, {"days": "Sat", "time": "3:15pm"}, {"days": "Sun", "time": "Closed"}], "id": "1665200033", "name": "USPS COLLECTION BOX - BLUE BOX", "address": {"city": "HUNTINGDON", "state": "PA", "street": "401 WASHINGTON ST", "postcode": "16652"}}},
{"geometry": {"type": "Point", "coordinates": [-78.0095737408, 40.4848658246]}, "type": "Feature", "properties": {"collection_times": [{"days": "Mon-Fri", "time": "5:00pm"}, {"days": "Sat", "time": "3:15pm"}, {"days": "Sun", "time": "Closed"}], "id": "1665200034", "name": "USPS COLLECTION BOX - BLUE BOX", "address": {"city": "HUNTINGDON", "state": "PA", "street": "401 WASHINGTON ST", "postcode": "16652"}}},
{"geometry": {"type": "Point", "coordinates": [-78.0095737408, 40.4848658246]}, "type": "Feature", "properties": {"collection_times": [{"days": "Mon-Fri", "time": "5:15pm"}, {"days": "Sat", "time": "3:45pm"}, {"days": "Sun", "time": "Closed"}], "id": "1665200035", "name": "USPS COLLECTION BOX - PO LOBBY", "address": {"city": "HUNTINGDON", "state": "PA", "street": "401 WASHINGTON ST", "postcode": "16652"}}},
{"geometry": {"type": "Point", "coordinates": [-78.012927788, 40.514489307]}, "type": "Feature", "properties": {"collection_times": [{"days": "Mon-Fri", "time": "11:00am"}, {"days": "Sat", "time": "10:00am"}, {"days": "Sun", "time": "Closed"}], "id": "1665200036", "name": "USPS COLLECTION BOX - BLUE BOX", "address": {"city": "HUNTINGDON", "state": "PA", "street": "120 ASPEN LN", "postcode": "16652"}}},
{"geometry": {"type": "Point", "coordinates": [-78.5247736777, 40.2031464492]}, "type": "Feature", "properties": {"collection_times": [{"days": "Mon-Fri", "time": "4:00pm"}, {"days": "Sat", "time": "10:50am"}, {"days": "Sun", "time": "Closed"}], "id": "1665500000", "name": "USPS COLLECTION BOX - BLUE BOX", "address": {"city": "IMLER", "state": "PA", "street": "1233 S IMLER VALLEY RD", "postcode": "16655"}}},
{"geometry": {"type": "Point", "coordinates": [-78.5247736777, 40.2031464492]}, "type": "Feature", "properties": {"collection_times": [{"days": "Mon-Fri", "time": "11:45am"}, {"days": "Sat", "time": "10:50am"}, {"days": "Sun", "time": "Closed"}], "id": "1665500001", "name": "USPS COLLECTION BOX - PO LOBBY", "address": {"city": "IMLER", "state": "PA", "street": "1233 S IMLER VALLEY RD", "postcode": "16655"}}},
{"geometry": {"type": "Point", "coordinates": [-78.5514186442, 40.7747299331]}, "type": "Feature", "properties": {"collection_times": [{"days": "Mon-Fri", "time": "4:00pm"}, {"days": "Sat", "time": "11:45am"}, {"days": "Sun", "time": "Closed"}], "id": "1665600000", "name": "USPS COLLECTION BOX - BLUE BOX", "address": {"city": "IRVONA", "state": "PA", "street": "133 JULIA ST", "postcode": "16656"}}},
{"geometry": {"type": "Point", "coordinates": [-78.5514186442, 40.7747299331]}, "type": "Feature", "properties": {"collection_times": [{"days": "Mon-Fri", "time": "4:15pm"}, {"days": "Sat", "time": "12:00pm"}, {"days": "Sun", "time": "Closed"}], "id": "1665600001", "name": "USPS COLLECTION BOX - PO LOBBY", "address": {"city": "IRVONA", "state": "PA", "street": "133 JULIA ST", "postcode": "16656"}}},
{"geometry": {"type": "Point", "coordinates": [-78.1823399671, 40.3310833802]}, "type": "Feature", "properties": {"collection_times": [{"days": "Mon-Fri", "time": "11:25am"}, {"days": "Sat", "time": "10:45am"}, {"days": "Sun", "time": "Closed"}], "id": "1665700000", "name": "USPS COLLECTION BOX - BLUE BOX", "address": {"city": "JAMES CREEK", "state": "PA", "street": "3322 OLD MOUNTAIN RD STE A", "postcode": "16657"}}},
{"geometry": {"type": "Point", "coordinates": [-78.1823399671, 40.3310833802]}, "type": "Feature", "properties": {"collection_times": [{"days": "Mon-Fri", "time": "11:25am"}, {"days": "Sat", "time": "10:45am"}, {"days": "Sun", "time": "Closed"}], "id": "1665700001", "name": "USPS COLLECTION BOX - PO LOBBY", "address": {"city": "JAMES CREEK", "state": "PA", "street": "3322 OLD MOUNTAIN RD STE A", "postcode": "16657"}}},
{"geometry": {"type": "Point", "coordinates": [-78.0094051948, 40.4847297012]}, "type": "Feature", "properties": {"collection_times": [{"days": "Mon-Fri", "time": "11:55am"}, {"days": "Sat", "time": "12:00pm"}, {"days": "Sun", "time": "Closed"}], "id": "1666000000", "name": "USPS COLLECTION BOX - BLUE BOX", "address": {"city": "MC CONNELLSTOWN", "state": "PA", "street": "11701 RAYSTOWN RD FL 1", "postcode": "16660"}}},
{"geometry": {"type": "Point", "coordinates": [-78.0094051948, 40.4847297012]}, "type": "Feature", "properties": {"collection_times": [{"days": "Mon-Fri", "time": "11:55am"}, {"days": "Sat", "time": "12:00pm"}, {"days": "Sun", "time": "Closed"}], "id": "1666000001", "name": "USPS COLLECTION BOX - PO LOBBY", "address": {"city": "MC CONNELLSTOWN", "state": "PA", "street": "11701 RAYSTOWN RD FL 1", "postcode": "16660"}}},
{"geometry": {"type": "Point", "coordinates": [-78.3196498469, 40.311665076]}, "type": "Feature", "properties": {"collection_times": [{"days": "Mon-Sat", "time": "9:00am"}, {"days": "Sun", "time": "Closed"}], "id": "1666200000", "name": "USPS COLLECTION BOX - BLUE BOX", "address": {"city": "MARTINSBURG", "state": "PA", "street": "403 E CHRISTIANA ST", "postcode": "16662"}}},
{"geometry": {"type": "Point", "coordinates": [-78.3267649253, 40.3122025859]}, "type": "Feature", "properties": {"collection_times": [{"days": "Mon-Sat", "time": "8:00am"}, {"days": "Sun", "time": "Closed"}], "id": "1666200001", "name": "USPS COLLECTION BOX - BLUE BOX", "address": {"city": "MARTINSBURG", "state": "PA", "street": "300 W ALLEGHENY ST", "postcode": "16662"}}},
{"geometry": {"type": "Point", "coordinates": [-78.3250361201, 40.3112261338]}, "type": "Feature", "properties": {"collection_times": [{"days": "Mon-Fri", "time": "4:30pm"}, {"days": "Sat", "time": "12:15pm"}, {"days": "Sun", "time": "Closed"}], "id": "1666200003", "name": "USPS COLLECTION BOX - BLUE BOX", "address": {"city": "MARTINSBURG", "state": "PA", "street": "101 E ALLEGHENY ST", "postcode": "16662"}}},
{"geometry": {"type": "Point", "coordinates": [-78.3250361201, 40.3112261338]}, "type": "Feature", "properties": {"collection_times": [{"days": "Mon-Fri", "time": "4:30pm"}, {"days": "Sat", "time": "12:15pm"}, {"days": "Sun", "time": "Closed"}], "id": "1666200004", "name": "USPS COLLECTION BOX - BLUE BOX", "address": {"city": "MARTINSBURG", "state": "PA", "street": "101 E ALLEGHENY ST", "postcode": "16662"}}},
{"geometry": {"type": "Point", "coordinates": [-78.3222094045, 40.3094334646]}, "type": "Feature", "properties": {"collection_times": [{"days": "Mon-Sat", "time": "8:15am"}, {"days": "Sun", "time": "Closed"}], "id": "1666200005", "name": "USPS COLLECTION BOX - BLUE BOX", "address": {"city": "MARTINSBURG", "state": "PA", "street": "300 WOODLAWN AVE", "postcode": "16662"}}},
{"geometry": {"type": "Point", "coordinates": [-78.320626856, 40.309870746]}, "type": "Feature", "properties": {"collection_times": [{"days": "Mon-Sat", "time": "9:00am"}, {"days": "Sun", "time": "Closed"}], "id": "1666200006", "name": "USPS COLLECTION BOX - BLUE BOX", "address": {"city": "MARTINSBURG", "state": "PA", "street": "401 E ALLEGHENY ST", "postcode": "16662"}}},
{"geometry": {"type": "Point", "coordinates": [-78.32667866, 40.3084625619]}, "type": "Feature", "properties": {"collection_times": [{"days": "Mon-Sat", "time": "8:15am"}, {"days": "Sun", "time": "Closed"}], "id": "1666200007", "name": "USPS COLLECTION BOX - BLUE BOX", "address": {"city": "MARTINSBURG", "state": "PA", "street": "316 S MARKET ST", "postcode": "16662"}}},
{"geometry": {"type": "Point", "coordinates": [-78.3262239529, 40.3086283263]}, "type": "Feature", "properties": {"collection_times": [{"days": "Mon-Sat", "time": "8:00am"}, {"days": "Sun", "time": "Closed"}], "id": "1666200008", "name": "USPS COLLECTION BOX - BLUE BOX", "address": {"city": "MARTINSBURG", "state": "PA", "street": "112 E STATE ST", "postcode": "16662"}}},
{"geometry": {"type": "Point", "coordinates": [-78.3250361201, 40.3112261338]}, "type": "Feature", "properties": {"collection_times": [{"days": "Mon-Fri", "time": "4:30pm"}, {"days": "Sat", "time": "12:15pm"}, {"days": "Sun", "time": "Closed"}], "id": "1666200009", "name": "USPS COLLECTION BOX - PO LOBBY", "address": {"city": "MARTINSBURG", "state": "PA", "street": "101 E ALLEGHENY ST", "postcode": "16662"}}},
{"geometry": {"type": "Point", "coordinates": [-78.3596770071, 40.7936140461]}, "type": "Feature", "properties": {"collection_times": [{"days": "Mon-Fri", "time": "4:15pm"}, {"days": "Sat", "time": "10:45am"}, {"days": "Sun", "time": "Closed"}], "id": "1666300000", "name": "USPS COLLECTION BOX - BLUE BOX", "address": {"city": "MORANN", "state": "PA", "street": "3492 GINTER MORANN HWY", "postcode": "16663"}}},
{"geometry": {"type": "Point", "coordinates": [-78.3596770071, 40.7936140461]}, "type": "Feature", "properties": {"collection_times": [{"days": "Mon-Fri", "time": "9:50am"}, {"days": "Sat", "time": "10:45am"}, {"days": "Sun", "time": "Closed"}], "id": "1666300001", "name": "USPS COLLECTION BOX - PO LOBBY", "address": {"city": "MORANN", "state": "PA", "street": "3492 GINTER MORANN HWY", "postcode": "16663"}}},
{"geometry": {"type": "Point", "coordinates": [-78.4082624025, 40.1694797878]}, "type": "Feature", "properties": {"collection_times": [{"days": "Mon-Fri", "time": "4:00pm"}, {"days": "Sat", "time": "11:00am"}, {"days": "Sun", "time": "Closed"}], "id": "1666400000", "name": "USPS COLLECTION BOX - BLUE BOX", "address": {"city": "NEW ENTERPRISE", "state": "PA", "street": "109 CHURCH ST", "postcode": "16664"}}},
{"geometry": {"type": "Point", "coordinates": [-78.4082624025, 40.1694797878]}, "type": "Feature", "properties": {"collection_times": [{"days": "Mon-Fri", "time": "3:00pm"}, {"days": "Sat", "time": "11:00am"}, {"days": "Sun", "time": "Closed"}], "id": "1666400001", "name": "USPS COLLECTION BOX - PO LOBBY", "address": {"city": "NEW ENTERPRISE", "state": "PA", "street": "109 CHURCH ST", "postcode": "16664"}}},
{"geometry": {"type": "Point", "coordinates": [-78.4359447466, 40.3926685155]}, "type": "Feature", "properties": {"collection_times": [{"days": "Mon-Fri", "time": "4:30pm"}, {"days": "Sat", "time": "12:00pm"}, {"days": "Sun", "time": "Closed"}], "id": "1666500000", "name": "USPS COLLECTION BOX - BLUE BOX", "address": {"city": "NEWRY", "state": "PA", "street": "825 PATRICK LN", "postcode": "16665"}}},
{"geometry": {"type": "Point", "coordinates": [-78.4359447466, 40.3926685155]}, "type": "Feature", "properties": {"collection_times": [{"days": "Mon-Fri", "time": "4:30pm"}, {"days": "Sat", "time": "12:00pm"}, {"days": "Sun", "time": "Closed"}], "id": "1666500001", "name": "USPS COLLECTION BOX - PO LOBBY", "address": {"city": "NEWRY", "state": "PA", "street": "825 PATRICK LN", "postcode": "16665"}}},
{"geometry": {"type": "Point", "coordinates": [-78.2970698373, 40.8696511569]}, "type": "Feature", "properties": {"collection_times": [{"days": "Mon-Fri", "time": "4:45pm"}, {"days": "Sat", "time": "3:00pm"}, {"days": "Sun", "time": "Closed"}], "id": "1666600000", "name": "USPS COLLECTION BOX - BLUE BOX", "address": {"city": "OSCEOLA MILLS", "state": "PA", "street": "602 LINGLE ST", "postcode": "16666"}}},
{"geometry": {"type": "Point", "coordinates": [-78.2970698373, 40.8696511569]}, "type": "Feature", "properties": {"collection_times": [{"days": "Mon-Sat", "time": "10:30am"}, {"days": "Sun", "time": "Closed"}], "id": "1666600002", "name": "USPS COLLECTION BOX - BLUE BOX", "address": {"city": "OSCEOLA MILLS", "state": "PA", "street": "391 STATE ST", "postcode": "16666"}}},
{"geometry": {"type": "Point", "coordinates": [-78.2970698373, 40.8696511569]}, "type": "Feature", "properties": {"collection_times": [{"days": "Mon-Fri", "time": "4:45pm"}, {"days": "Sat", "time": "3:00pm"}, {"days": "Sun", "time": "Closed"}], "id": "1666600003", "name": "USPS COLLECTION BOX - PO LOBBY", "address": {"city": "OSCEOLA MILLS", "state": "PA", "street": "602 LINGLE ST", "postcode": "16666"}}},
{"geometry": {"type": "Point", "coordinates": [-78.2970698373, 40.8696511569]}, "type": "Feature", "properties": {"collection_times": [{"days": "Mon-Fri", "time": "4:45pm"}, {"days": "Sat", "time": "3:00pm"}, {"days": "Sun", "time": "Closed"}], "id": "1666600004", "name": "USPS COLLECTION BOX - BLUE BOX", "address": {"city": "OSCEOLA MILLS", "state": "PA", "street": "602 LINGLE ST", "postcode": "16666"}}},
{"geometry": {"type": "Point", "coordinates": [-78.5188068006, 40.1695147658]}, "type": "Feature", "properties": {"collection_times": [{"days": "Mon-Fri", "time": "3:30pm"}, {"days": "Sat", "time": "11:30am"}, {"days": "Sun", "time": "Closed"}], "id": "1666700000", "name": "USPS COLLECTION BOX - BLUE BOX", "address": {"city": "OSTERBURG", "state": "PA", "street": "166 HERITAGE RD", "postcode": "16667"}}},
{"geometry": {"type": "Point", "coordinates": [-78.5188068006, 40.1695147658]}, "type": "Feature", "properties": {"collection_times": [{"days": "Mon-Fri", "time": "3:00pm"}, {"days": "Sat", "time": "11:30am"}, {"days": "Sun", "time": "Closed"}], "id": "1666700001", "name": "USPS COLLECTION BOX - PO LOBBY", "address": {"city": "OSTERBURG", "state": "PA", "street": "166 HERITAGE RD", "postcode": "16667"}}},
{"geometry": {"type": "Point", "coordinates": [-78.6452477754, 40.6339239006]}, "type": "Feature", "properties": {"collection_times": [{"days": "Mon-Sat", "time": "9:00am"}, {"days": "Sun", "time": "Closed"}], "id": "1666800002", "name": "USPS COLLECTION BOX - BLUE BOX", "address": {"city": "PATTON", "state": "PA", "street": "304 MAGEE AVE", "postcode": "16668"}}},
{"geometry": {"type": "Point", "coordinates": [-78.6596009456, 40.632451946]}, "type": "Feature", "properties": {"collection_times": [{"days": "Mon-Sat", "time": "1:30pm"}, {"days": "Sun", "time": "Closed"}], "id": "1666800004", "name": "USPS COLLECTION BOX - BLUE BOX", "address": {"city": "PATTON", "state": "PA", "street": "688 MURRAY AVE", "postcode": "16668"}}},
{"geometry": {"type": "Point", "coordinates": [-78.6503550626, 40.6383034648]}, "type": "Feature", "properties": {"collection_times": [{"days": "Mon-Sat", "time": "11:45am"}, {"days": "Sun", "time": "Closed"}], "id": "1666800005", "name": "USPS COLLECTION BOX - BLUE BOX", "address": {"city": "PATTON", "state": "PA", "street": "503 RAILROAD AVE", "postcode": "16668"}}},
{"geometry": {"type": "Point", "coordinates": [-78.648533552, 40.6339918741]}, "type": "Feature", "properties": {"collection_times": [{"days": "Mon-Fri", "time": "5:00pm"}, {"days": "Sat", "time": "12:00pm"}, {"days": "Sun", "time": "Closed"}], "id": "1666800007", "name": "USPS COLLECTION BOX - BLUE BOX", "address": {"city": "PATTON", "state": "PA", "street": "434 MAGEE AVE", "postcode": "16668"}}},
{"geometry": {"type": "Point", "coordinates": [-78.648533552, 40.6339918741]}, "type": "Feature", "properties": {"collection_times": [{"days": "Mon-Fri", "time": "5:00pm"}, {"days": "Sat", "time": "12:30pm"}, {"days": "Sun", "time": "Closed"}], "id": "1666800008", "name": "USPS COLLECTION BOX - PO LOBBY", "address": {"city": "PATTON", "state": "PA", "street": "434 MAGEE AVE", "postcode": "16668"}}},
{"geometry": {"type": "Point", "coordinates": [-78.0474015294, 40.5761907269]}, "type": "Feature", "properties": {"collection_times": [{"days": "Mon-Fri", "time": "4:00pm"}, {"days": "Sat", "time": "12:00pm"}, {"days": "Sun", "time": "Closed"}], "id": "1666900000", "name": "USPS COLLECTION BOX - BLUE BOX", "address": {"city": "PETERSBURG", "state": "PA", "street": "461 KING ST", "postcode": "16669"}}},
{"geometry": {"type": "Point", "coordinates": [-78.0474015294, 40.5761907269]}, "type": "Feature", "properties": {"collection_times": [{"days": "Mon-Fri", "time": "4:00pm"}, {"days": "Sat", "time": "12:00pm"}, {"days": "Sun", "time": "Closed"}], "id": "1666900001", "name": "USPS COLLECTION BOX - PO LOBBY", "address": {"city": "PETERSBURG", "state": "PA", "street": "461 KING ST", "postcode": "16669"}}},
{"geometry": {"type": "Point", "coordinates": [-78.3959533505, 40.7998331249]}, "type": "Feature", "properties": {"collection_times": [{"days": "Mon-Fri", "time": "3:45pm"}, {"days": "Sat", "time": "11:15am"}, {"days": "Sun", "time": "Closed"}], "id": "1667100000", "name": "USPS COLLECTION BOX - BLUE BOX", "address": {"city": "RAMEY", "state": "PA", "street": "351 MAIN ST", "postcode": "16671"}}},
{"geometry": {"type": "Point", "coordinates": [-78.3959533505, 40.7998331249]}, "type": "Feature", "properties": {"collection_times": [{"days": "Mon-Fri", "time": "11:55am"}, {"days": "Sat", "time": "11:15am"}, {"days": "Sun", "time": "Closed"}], "id": "1667100001", "name": "USPS COLLECTION BOX - PO LOBBY", "address": {"city": "RAMEY", "state": "PA", "street": "351 MAIN ST", "postcode": "16671"}}},
{"geometry": {"type": "Point", "coordinates": [-78.2528012961, 40.1616360854]}, "type": "Feature", "properties": {"collection_times": [{"days": "Mon-Fri", "time": "4:00pm"}, {"days": "Sat", "time": "10:45am"}, {"days": "Sun", "time": "Closed"}], "id": "1667200000", "name": "USPS COLLECTION BOX - BLUE BOX", "address": {"city": "RIDDLESBURG", "state": "PA", "street": "124 NEWTOWN RD", "postcode": "16672"}}},
{"geometry": {"type": "Point", "coordinates": [-78.2528012961, 40.1616360854]}, "type": "Feature", "properties": {"collection_times": [{"days": "Mon-Sat", "time": "10:45am"}, {"days": "Sun", "time": "Closed"}], "id": "1667200001", "name": "USPS COLLECTION BOX - PO LOBBY", "address": {"city": "RIDDLESBURG", "state": "PA", "street": "124 NEWTOWN RD", "postcode": "16672"}}},
{"geometry": {"type": "Point", "coordinates": [-78.401597279, 40.3354527149]}, "type": "Feature", "properties": {"collection_times": [{"days": "Mon-Fri", "time": "5:00pm"}, {"days": "Sat", "time": "12:00pm"}, {"days": "Sun", "time": "Closed"}], "id": "1667300000", "name": "USPS COLLECTION BOX - BLUE BOX", "address": {"city": "ROARING SPRING", "state": "PA", "street": "427 E MAIN ST", "postcode": "16673"}}},
{"geometry": {"type": "Point", "coordinates": [-78.3945941268, 40.3356167932]}, "type": "Feature", "properties": {"collection_times": [{"days": "Mon-Sat", "time": "11:30am"}, {"days": "Sun", "time": "Closed"}], "id": "1667300003", "name": "USPS COLLECTION BOX - BLUE BOX", "address": {"city": "ROARING SPRING", "state": "PA", "street": "800 E MAIN ST", "postcode": "16673"}}},
{"geometry": {"type": "Point", "coordinates": [-78.3888142079, 40.3380952999]}, "type": "Feature", "properties": {"collection_times": [{"days": "Mon-Fri", "time": "1:00pm"}, {"days": "Sat", "time": "10:00am"}, {"days": "Sun", "time": "Closed"}], "id": "1667300011", "name": "USPS COLLECTION BOX - BLUE BOX", "address": {"city": "ROARING SPRING", "state": "PA", "street": "105 NASON DR", "postcode": "16673"}}},
{"geometry": {"type": "Point", "coordinates": [-78.3913562505, 40.3082397869]}, "type": "Feature", "properties": {"collection_times": [{"days": "Mon-Fri", "time": "11:30am"}, {"days": "Sat", "time": "12:00pm"}, {"days": "Sun", "time": "Closed"}], "id": "1667300013", "name": "USPS COLLECTION BOX - BLUE BOX", "address": {"city": "ROARING SPRING", "state": "PA", "street": "300 SPRING PLZ", "postcode": "16673"}}},
{"geometry": {"type": "Point", "coordinates": [-78.3913562505, 40.3082397869]}, "type": "Feature", "properties": {"collection_times": [{"days": "Mon-Sat", "time": "9:45am"}, {"days": "Sun", "time": "Closed"}], "id": "1667300014", "name": "USPS COLLECTION BOX - BLUE BOX", "address": {"city": "ROARING SPRING", "state": "PA", "street": "510 MARWALT LN", "postcode": "16673"}}},
{"geometry": {"type": "Point", "coordinates": [-78.401597279, 40.3354527149]}, "type": "Feature", "properties": {"collection_times": [{"days": "Mon-Fri", "time": "5:00pm"}, {"days": "Sat", "time": "12:00pm"}, {"days": "Sun", "time": "Closed"}], "id": "1667300016", "name": "USPS COLLECTION BOX - PO LOBBY", "address": {"city": "ROARING SPRING", "state": "PA", "street": "427 E MAIN ST", "postcode": "16673"}}},
{"geometry": {"type": "Point", "coordinates": [-78.0989984769, 40.1774749967]}, "type": "Feature", "properties": {"collection_times": [{"days": "Mon-Fri", "time": "4:15pm"}, {"days": "Sat", "time": "11:45am"}, {"days": "Sun", "time": "Closed"}], "id": "1667400000", "name": "USPS COLLECTION BOX - BLUE BOX", "address": {"city": "ROBERTSDALE", "state": "PA", "street": "563 MAIN ST", "postcode": "16674"}}},
{"geometry": {"type": "Point", "coordinates": [-78.0989984769, 40.1774749967]}, "type": "Feature", "properties": {"collection_times": [{"days": "Mon-Sat", "time": "11:45am"}, {"days": "Sun", "time": "Closed"}], "id": "1667400001", "name": "USPS COLLECTION BOX - PO LOBBY", "address": {"city": "ROBERTSDALE", "state": "PA", "street": "563 MAIN ST", "postcode": "16674"}}},
{"geometry": {"type": "Point", "coordinates": [-78.2433103813, 40.2155251923]}, "type": "Feature", "properties": {"collection_times": [{"days": "Mon-Fri", "time": "1:45pm"}, {"days": "Sat", "time": "1:00pm"}, {"days": "Sun", "time": "Closed"}], "id": "1667800000", "name": "USPS COLLECTION BOX - BLUE BOX", "address": {"city": "SAXTON", "state": "PA", "street": "719 MAIN ST", "postcode": "16678"}}},
{"geometry": {"type": "Point", "coordinates": [-78.2553475723, 40.2166108449]}, "type": "Feature", "properties": {"collection_times": [{"days": "Mon-Sat", "time": "9:00am"}, {"days": "Sun", "time": "Closed"}], "id": "1667800001", "name": "USPS COLLECTION BOX - BLUE BOX", "address": {"city": "SAXTON", "state": "PA", "street": "507 16TH ST", "postcode": "16678"}}},
{"geometry": {"type": "Point", "coordinates": [-78.2463692548, 40.2134704138]}, "type": "Feature", "properties": {"collection_times": [{"days": "Mon-Sat", "time": "11:00am"}, {"days": "Sun", "time": "Closed"}], "id": "1667800004", "name": "USPS COLLECTION BOX - BLUE BOX", "address": {"city": "SAXTON", "state": "PA", "street": "900 MIFFLIN ST", "postcode": "16678"}}},
{"geometry": {"type": "Point", "coordinates": [-78.2398950074, 40.2161439488]}, "type": "Feature", "properties": {"collection_times": [{"days": "Mon-Fri", "time": "4:45pm"}, {"days": "Sat", "time": "12:00pm"}, {"days": "Sun", "time": "Closed"}], "id": "1667800005", "name": "USPS COLLECTION BOX - BLUE BOX", "address": {"city": "SAXTON", "state": "PA", "street": "508 MAIN ST", "postcode": "16678"}}},
{"geometry": {"type": "Point", "coordinates": [-78.2398950074, 40.2161439488]}, "type": "Feature", "properties": {"collection_times": [{"days": "Mon-Fri", "time": "4:45pm"}, {"days": "Sat", "time": "12:00pm"}, {"days": "Sun", "time": "Closed"}], "id": "1667800006", "name": "USPS COLLECTION BOX - PO LOBBY", "address": {"city": "SAXTON", "state": "PA", "street": "508 MAIN ST", "postcode": "16678"}}},
{"geometry": {"type": "Point", "coordinates": [-78.2137305947, 40.1670002421]}, "type": "Feature", "properties": {"collection_times": [{"days": "Mon-Fri", "time": "4:15pm"}, {"days": "Sat", "time": "11:45am"}, {"days": "Sun", "time": "Closed"}], "id": "1667900000", "name": "USPS COLLECTION BOX - BLUE BOX", "address": {"city": "SIX MILE RUN", "state": "PA", "street": "1384 MAIN ST", "postcode": "16679"}}},
{"geometry": {"type": "Point", "coordinates": [-78.2137305947, 40.1670002421]}, "type": "Feature", "properties": {"collection_times": [{"days": "Mon-Fri", "time": "11:55am"}, {"days": "Sat", "time": "11:45am"}, {"days": "Sun", "time": "Closed"}], "id": "1667900001", "name": "USPS COLLECTION BOX - PO LOBBY", "address": {"city": "SIX MILE RUN", "state": "PA", "street": "1384 MAIN ST", "postcode": "16679"}}},
{"geometry": {"type": "Point", "coordinates": [-78.4020973852, 40.7466045323]}, "type": "Feature", "properties": {"collection_times": [{"days": "Mon-Fri", "time": "2:45pm"}, {"days": "Sat", "time": "10:45am"}, {"days": "Sun", "time": "Closed"}], "id": "1668000000", "name": "USPS COLLECTION BOX - BLUE BOX", "address": {"city": "SMITHMILL", "state": "PA", "street": "726 WALNUT ST", "postcode": "16680"}}},
{"geometry": {"type": "Point", "coordinates": [-78.4020973852, 40.7466045323]}, "type": "Feature", "properties": {"collection_times": [{"days": "Mon-Fri", "time": "11:55am"}, {"days": "Sat", "time": "10:45am"}, {"days": "Sun", "time": "Closed"}], "id": "1668000001", "name": "USPS COLLECTION BOX - PO LOBBY", "address": {"city": "SMITHMILL", "state": "PA", "street": "726 WALNUT ST", "postcode": "16680"}}},
{"geometry": {"type": "Point", "coordinates": [-78.4271287756, 40.7977954163]}, "type": "Feature", "properties": {"collection_times": [{"days": "Mon-Fri", "time": "3:45pm"}, {"days": "Sat", "time": "10:45am"}, {"days": "Sun", "time": "Closed"}], "id": "1668100000", "name": "USPS COLLECTION BOX - BLUE BOX", "address": {"city": "SMOKE RUN", "state": "PA", "street": "6302 CROSS ROADS BLVD", "postcode": "16681"}}},
{"geometry": {"type": "Point", "coordinates": [-78.4271287756, 40.7977954163]}, "type": "Feature", "properties": {"collection_times": [{"days": "Mon-Fri", "time": "11:45am"}, {"days": "Sat", "time": "10:45am"}, {"days": "Sun", "time": "Closed"}], "id": "1668100001", "name": "USPS COLLECTION BOX - PO LOBBY", "address": {"city": "SMOKE RUN", "state": "PA", "street": "6302 CROSS ROADS BLVD", "postcode": "16681"}}},
{"geometry": {"type": "Point", "coordinates": [-78.0499203002, 40.6988661559]}, "type": "Feature", "properties": {"collection_times": [{"days": "Mon-Fri", "time": "11:45am"}, {"days": "Sat", "time": "10:45am"}, {"days": "Sun", "time": "Closed"}], "id": "1668300000", "name": "USPS COLLECTION BOX - PO LOBBY", "address": {"city": "SPRUCE CREEK", "state": "PA", "street": "5448 ISETT RD", "postcode": "16683"}}},
{"geometry": {"type": "Point", "coordinates": [-78.0499203002, 40.6988661559]}, "type": "Feature", "properties": {"collection_times": [{"days": "Mon-Fri", "time": "4:45pm"}, {"days": "Sat", "time": "10:45am"}, {"days": "Sun", "time": "Closed"}], "id": "1668300001", "name": "USPS COLLECTION BOX - BLUE BOX", "address": {"city": "SPRUCE CREEK", "state": "PA", "street": "5448 ISETT RD", "postcode": "16683"}}},
{"geometry": {"type": "Point", "coordinates": [-78.2968541562, 40.6378647514]}, "type": "Feature", "properties": {"collection_times": [{"days": "Mon-Fri", "time": "3:15pm"}, {"days": "Sat", "time": "11:00am"}, {"days": "Sun", "time": "Closed"}], "id": "1668400000", "name": "USPS COLLECTION BOX - BLUE BOX", "address": {"city": "TIPTON", "state": "PA", "street": "663 FOREST ST", "postcode": "16684"}}},
{"geometry": {"type": "Point", "coordinates": [-78.2968541562, 40.6378647514]}, "type": "Feature", "properties": {"collection_times": [{"days": "Mon-Fri", "time": "3:15pm"}, {"days": "Sat", "time": "11:00am"}, {"days": "Sun", "time": "Closed"}], "id": "1668400001", "name": "USPS COLLECTION BOX - PO LOBBY", "address": {"city": "TIPTON", "state": "PA", "street": "663 FOREST ST", "postcode": "16684"}}},
{"geometry": {"type": "Point", "coordinates": [-78.2380579883, 40.6713424185]}, "type": "Feature", "properties": {"collection_times": [{"days": "Mon-Fri", "time": "4:30pm"}, {"days": "Sat", "time": "3:15pm"}, {"days": "Sun", "time": "Closed"}], "id": "1668600000", "name": "USPS COLLECTION BOX - BLUE BOX", "address": {"city": "TYRONE", "state": "PA", "street": "1071 PENNSYLVANIA AVE", "postcode": "16686"}}},
{"geometry": {"type": "Point", "coordinates": [-78.2377910119, 40.6718458733]}, "type": "Feature", "properties": {"collection_times": [{"days": "Mon-Fri", "time": "4:30pm"}, {"days": "Sat", "time": "3:15pm"}, {"days": "Sun", "time": "Closed"}], "id": "1668600002", "name": "USPS COLLECTION BOX - BLUE BOX", "address": {"city": "TYRONE", "state": "PA", "street": "2 W 11TH ST", "postcode": "16686"}}},
{"geometry": {"type": "Point", "coordinates": [-78.2410009198, 40.6733881052]}, "type": "Feature", "properties": {"collection_times": [{"days": "Mon-Sat", "time": "2:30pm"}, {"days": "Sun", "time": "Closed"}], "id": "1668600004", "name": "USPS COLLECTION BOX - BLUE BOX", "address": {"city": "TYRONE", "state": "PA", "street": "1198 LINCOLN AVE", "postcode": "16686"}}},
{"geometry": {"type": "Point", "coordinates": [-78.2417673222, 40.6818709766]}, "type": "Feature", "properties": {"collection_times": [{"days": "Mon-Sat", "time": "12:00pm"}, {"days": "Sun", "time": "Closed"}], "id": "1668600010", "name": "USPS COLLECTION BOX - BLUE BOX", "address": {"city": "TYRONE", "state": "PA", "street": "1800 ADAMS AVE", "postcode": "16686"}}},
{"geometry": {"type": "Point", "coordinates": [-78.2378828173, 40.6750620434]}, "type": "Feature", "properties": {"collection_times": [{"days": "Mon-Sat", "time": "9:30am"}, {"days": "Sun", "time": "Closed"}], "id": "1668600017", "name": "USPS COLLECTION BOX - BLUE BOX", "address": {"city": "TYRONE", "state": "PA", "street": "1398 LOGAN AVE", "postcode": "16686"}}},
{"geometry": {"type": "Point", "coordinates": [-78.2460809782, 40.6786838356]}, "type": "Feature", "properties": {"collection_times": [{"days": "Mon-Sat", "time": "10:00am"}, {"days": "Sun", "time": "Closed"}], "id": "1668600023", "name": "USPS COLLECTION BOX - BLUE BOX", "address": {"city": "TYRONE", "state": "PA", "street": "1500 CLAY AVE", "postcode": "16686"}}},
{"geometry": {"type": "Point", "coordinates": [-78.1498469517, 40.6524533719]}, "type": "Feature", "properties": {"collection_times": [{"days": "Mon-Sat", "time": "9:00am"}, {"days": "Sun", "time": "Closed"}], "id": "1668600024", "name": "USPS COLLECTION BOX - BLUE BOX", "address": {"city": "TYRONE", "state": "PA", "street": "187 HOSPITAL DR", "postcode": "16686"}}},
{"geometry": {"type": "Point", "coordinates": [-78.1498469517, 40.6524533719]}, "type": "Feature", "properties": {"collection_times": [{"days": "Mon-Sat", "time": "9:00am"}, {"days": "Sun", "time": "Closed"}], "id": "1668600025", "name": "USPS COLLECTION BOX - BLUE BOX", "address": {"city": "TYRONE", "state": "PA", "street": "215 JEFFERSON AVE", "postcode": "16686"}}},
{"geometry": {"type": "Point", "coordinates": [-78.2385315325, 40.6698675735]}, "type": "Feature", "properties": {"collection_times": [{"days": "Mon-Sat", "time": "10:00am"}, {"days": "Sun", "time": "Closed"}], "id": "1668600027", "name": "USPS COLLECTION BOX - BLUE BOX", "address": {"city": "TYRONE", "state": "PA", "street": "998 PENNSYLVANIA AVE", "postcode": "16686"}}},
{"geometry": {"type": "Point", "coordinates": [-78.2416498442, 40.6709878839]}, "type": "Feature", "properties": {"collection_times": [{"days": "Mon-Sat", "time": "9:00am"}, {"days": "Sun", "time": "Closed"}], "id": "1668600028", "name": "USPS COLLECTION BOX - BLUE BOX", "address": {"city": "TYRONE", "state": "PA", "street": "951 WASHINGTON AVE", "postcode": "16686"}}},
{"geometry": {"type": "Point", "coordinates": [-78.2401899338, 40.6804911844]}, "type": "Feature", "properties": {"collection_times": [{"days": "Mon-Sat", "time": "9:00am"}, {"days": "Sun", "time": "Closed"}], "id": "1668600029", "name": "USPS COLLECTION BOX - BLUE BOX", "address": {"city": "TYRONE", "state": "PA", "street": "1700 COLUMBIA AVE", "postcode": "16686"}}},
{"geometry": {"type": "Point", "coordinates": [-78.2380579883, 40.6713424185]}, "type": "Feature", "properties": {"collection_times": [{"days": "Mon-Fri", "time": "4:30pm"}, {"days": "Sat", "time": "3:15pm"}, {"days": "Sun", "time": "Closed"}], "id": "1668600030", "name": "USPS COLLECTION BOX - PO LOBBY", "address": {"city": "TYRONE", "state": "PA", "street": "1071 PENNSYLVANIA AVE", "postcode": "16686"}}},
{"geometry": {"type": "Point", "coordinates": [-78.2377910119, 40.6718458733]}, "type": "Feature", "properties": {"collection_times": [{"days": "Mon-Fri", "time": "4:30pm"}, {"days": "Sat", "time": "3:15pm"}, {"days": "Sun", "time": "Closed"}], "id": "1668600031", "name": "USPS COLLECTION BOX - BLUE BOX", "address": {"city": "TYRONE", "state": "PA", "street": "2 W 11TH ST", "postcode": "16686"}}},
{"geometry": {"type": "Point", "coordinates": [-78.2472419832, 40.6644508991]}, "type": "Feature", "properties": {"collection_times": [{"days": "Mon-Sat", "time": "9:30am"}, {"days": "Sun", "time": "Closed"}], "id": "1668600032", "name": "USPS COLLECTION BOX - BLUE BOX", "address": {"city": "TYRONE", "state": "PA", "street": "501 PARK AVE", "postcode": "16686"}}},
{"geometry": {"type": "Point", "coordinates": [-78.0615070826, 40.1269262147]}, "type": "Feature", "properties": {"collection_times": [{"days": "Mon-Fri", "time": "4:00pm"}, {"days": "Sat", "time": "11:45am"}, {"days": "Sun", "time": "Closed"}], "id": "1668900000", "name": "USPS COLLECTION BOX - BLUE BOX", "address": {"city": "WATERFALL", "state": "PA", "street": "965 WATERFALL RD", "postcode": "16689"}}},
{"geometry": {"type": "Point", "coordinates": [-78.0615070826, 40.1269262147]}, "type": "Feature", "properties": {"collection_times": [{"days": "Mon-Fri", "time": "4:00pm"}, {"days": "Sat", "time": "11:45am"}, {"days": "Sun", "time": "Closed"}], "id": "1668900001", "name": "USPS COLLECTION BOX - PO LOBBY", "address": {"city": "WATERFALL", "state": "PA", "street": "965 WATERFALL RD", "postcode": "16689"}}},
{"geometry": {"type": "Point", "coordinates": [-78.162895339, 40.089222988]}, "type": "Feature", "properties": {"collection_times": [{"days": "Mon-Fri", "time": "1:15pm"}, {"days": "Sat", "time": "11:45am"}, {"days": "Sun", "time": "Closed"}], "id": "1669100000", "name": "USPS COLLECTION BOX - BLUE BOX", "address": {"city": "WELLS TANNERY", "state": "PA", "street": "704 W TANNERY RD", "postcode": "16691"}}},
{"geometry": {"type": "Point", "coordinates": [-78.162895339, 40.089222988]}, "type": "Feature", "properties": {"collection_times": [{"days": "Mon-Fri", "time": "11:55am"}, {"days": "Sat", "time": "11:45am"}, {"days": "Sun", "time": "Closed"}], "id": "1669100001", "name": "USPS COLLECTION BOX - PO LOBBY", "address": {"city": "WELLS TANNERY", "state": "PA", "street": "704 W TANNERY RD", "postcode": "16691"}}},
{"geometry": {"type": "Point", "coordinates": [-78.7202963966, 40.7550212628]}, "type": "Feature", "properties": {"collection_times": [{"days": "Mon-Fri", "time": "4:00pm"}, {"days": "Sat", "time": "11:30am"}, {"days": "Sun", "time": "Closed"}], "id": "1669200000", "name": "USPS COLLECTION BOX - BLUE BOX", "address": {"city": "WESTOVER", "state": "PA", "street": "103 CHURCH", "postcode": "16692"}}},
{"geometry": {"type": "Point", "coordinates": [-78.7202963966, 40.7550212628]}, "type": "Feature", "properties": {"collection_times": [{"days": "Mon-Fri", "time": "11:55am"}, {"days": "Sat", "time": "11:30am"}, {"days": "Sun", "time": "Closed"}], "id": "1669200001", "name": "USPS COLLECTION BOX - PO LOBBY", "address": {"city": "WESTOVER", "state": "PA", "street": "103 CHURCH", "postcode": "16692"}}},
{"geometry": {"type": "Point", "coordinates": [-78.20211743, 40.46011838]}, "type": "Feature", "properties": {"collection_times": [{"days": "Mon-Fri", "time": "4:30pm"}, {"days": "Sat", "time": "12:00pm"}, {"days": "Sun", "time": "Closed"}], "id": "1669300000", "name": "USPS COLLECTION BOX - BLUE BOX", "address": {"city": "WILLIAMSBURG", "state": "PA", "street": "234 HIGH ST", "postcode": "16693"}}},
{"geometry": {"type": "Point", "coordinates": [-78.200862166, 40.461983213]}, "type": "Feature", "properties": {"collection_times": [{"days": "Mon-Sat", "time": "9:00am"}, {"days": "Sun", "time": "Closed"}], "id": "1669300001", "name": "USPS COLLECTION BOX - BLUE BOX", "address": {"city": "WILLIAMSBURG", "state": "PA", "street": "101 HIGH ST", "postcode": "16693"}}},
{"geometry": {"type": "Point", "coordinates": [-78.20950787, 40.461421746]}, "type": "Feature", "properties": {"collection_times": [{"days": "Mon-Sat", "time": "9:00am"}, {"days": "Sun", "time": "Closed"}], "id": "1669300002", "name": "USPS COLLECTION BOX - BLUE BOX", "address": {"city": "WILLIAMSBURG", "state": "PA", "street": "804 SAGE HILL DR", "postcode": "16693"}}},
{"geometry": {"type": "Point", "coordinates": [-78.20211743, 40.46011838]}, "type": "Feature", "properties": {"collection_times": [{"days": "Mon-Fri", "time": "4:30pm"}, {"days": "Sat", "time": "12:00pm"}, {"days": "Sun", "time": "Closed"}], "id": "1669300014", "name": "USPS COLLECTION BOX - PO LOBBY", "address": {"city": "WILLIAMSBURG", "state": "PA", "street": "234 HIGH ST", "postcode": "16693"}}},
{"geometry": {"type": "Point", "coordinates": [-78.1354813945, 40.1675692836]}, "type": "Feature", "properties": {"collection_times": [{"days": "Mon-Fri", "time": "3:30pm"}, {"days": "Sat", "time": "11:45am"}, {"days": "Sun", "time": "Closed"}], "id": "1669400000", "name": "USPS COLLECTION BOX - BLUE BOX", "address": {"city": "WOOD", "state": "PA", "street": "242 MAIN ST", "postcode": "16694"}}},
{"geometry": {"type": "Point", "coordinates": [-78.1354813945, 40.1675692836]}, "type": "Feature", "properties": {"collection_times": [{"days": "Mon-Fri", "time": "10:50am"}, {"days": "Sat", "time": "11:45am"}, {"days": "Sun", "time": "Closed"}], "id": "1669400001", "name": "USPS COLLECTION BOX - PO LOBBY", "address": {"city": "WOOD", "state": "PA", "street": "242 MAIN ST", "postcode": "16694"}}},
{"geometry": {"type": "Point", "coordinates": [-78.3673311154, 40.2251309916]}, "type": "Feature", "properties": {"collection_times": [{"days": "Mon-Fri", "time": "4:30pm"}, {"days": "Sat", "time": "11:45am"}, {"days": "Sun", "time": "Closed"}], "id": "1669500000", "name": "USPS COLLECTION BOX - BLUE BOX", "address": {"city": "WOODBURY", "state": "PA", "street": "143 MAIN ST", "postcode": "16695"}}},
{"geometry": {"type": "Point", "coordinates": [-78.3673311154, 40.2251309916]}, "type": "Feature", "properties": {"collection_times": [{"days": "Mon-Fri", "time": "4:00pm"}, {"days": "Sat", "time": "11:45am"}, {"days": "Sun", "time": "Closed"}], "id": "1669500001", "name": "USPS COLLECTION BOX - PO LOBBY", "address": {"city": "WOODBURY", "state": "PA", "street": "143 MAIN ST", "postcode": "16695"}}}
]}
