{"type": "FeatureCollection", "features": [
{"geometry": {"type": "Point", "coordinates": [-78.645849804, 41.9560551816]}, "type": "Feature", "properties": {"collection_times": [{"days": "Mon-Sat", "time": "2:00pm"}, {"days": "Sun", "time": "Closed"}], "id": "1670100000", "name": "USPS COLLECTION BOX - BLUE BOX", "address": {"city": "BRADFORD", "state": "PA", "street": "150 MAIN ST", "postcode": "16701"}}},
{"geometry": {"type": "Point", "coordinates": [-78.6469989506, 41.9559207623]}, "type": "Feature", "properties": {"collection_times": [{"days": "Mon-Sat", "time": "2:00pm"}, {"days": "Sun", "time": "Closed"}], "id": "1670100004", "name": "USPS COLLECTION BOX - BLUE BOX", "address": {"city": "BRADFORD", "state": "PA", "street": "125 MAIN ST", "postcode": "16701"}}},
{"geometry": {"type": "Point", "coordinates": [-78.6504786373, 41.9558639421]}, "type": "Feature", "properties": {"collection_times": [{"days": "Mon-Sat", "time": "2:00pm"}, {"days": "Sun", "time": "Closed"}], "id": "1670100006", "name": "USPS COLLECTION BOX - BLUE BOX", "address": {"city": "BRADFORD", "state": "PA", "street": "78 MAIN ST", "postcode": "16701"}}},
{"geometry": {"type": "Point", "coordinates": [-78.6507393427, 41.9558383686]}, "type": "Feature", "properties": {"collection_times": [{"days": "Mon-Sat", "time": "2:00pm"}, {"days": "Sun", "time": "Closed"}], "id": "1670100007", "name": "USPS COLLECTION BOX - BLUE BOX", "address": {"city": "BRADFORD", "state": "PA", "street": "41 MAIN ST", "postcode": "16701"}}},
{"geometry": {"type": "Point", "coordinates": [-78.6532704185, 41.9555010136]}, "type": "Feature", "properties": {"collection_times": [{"days": "Mon-Sat", "time": "2:00pm"}, {"days": "Sun", "time": "Closed"}], "id": "1670100009", "name": "USPS COLLECTION BOX - BLUE BOX", "address": {"city": "BRADFORD", "state": "PA", "street": "3 CHAUTAUQUA PL", "postcode": "16701"}}},
{"geometry": {"type": "Point", "coordinates": [-78.6620156444, 41.9630549496]}, "type": "Feature", "properties": {"collection_times": [{"days": "Mon-Sat", "time": "2:00pm"}, {"days": "Sun", "time": "Closed"}], "id": "1670100018", "name": "USPS COLLECTION BOX - BLUE BOX", "address": {"city": "BRADFORD", "state": "PA", "street": "116 INTERSTATE PKWY", "postcode": "16701"}}},
{"geometry": {"type": "Point", "coordinates": [-78.617782233, 41.9811685383]}, "type": "Feature", "properties": {"collection_times": [{"days": "Mon-Sat", "time": "2:00pm"}, {"days": "Sun", "time": "Closed"}], "id": "1670100023", "name": "USPS COLLECTION BOX - BLUE BOX", "address": {"city": "BRADFORD", "state": "PA", "street": "1001 E MAIN ST", "postcode": "16701"}}},
{"geometry": {"type": "Point", "coordinates": [-78.6207830976, 41.9732230702]}, "type": "Feature", "properties": {"collection_times": [{"days": "Mon-Sat", "time": "2:00pm"}, {"days": "Sun", "time": "Closed"}], "id": "1670100024", "name": "USPS COLLECTION BOX - BLUE BOX", "address": {"city": "BRADFORD", "state": "PA", "street": "20 RUSSELL BLVD", "postcode": "16701"}}},
{"geometry": {"type": "Point", "coordinates": [-78.6279731534, 41.9638830289]}, "type": "Feature", "properties": {"collection_times": [{"days": "Mon-Sat", "time": "12:00pm"}, {"days": "Sun", "time": "Closed"}], "id": "1670100026", "name": "USPS COLLECTION BOX - BLUE BOX", "address": {"city": "BRADFORD", "state": "PA", "street": "393 E MAIN ST", "postcode": "16701"}}},
{"geometry": {"type": "Point", "coordinates": [-78.6479413821, 41.9571995559]}, "type": "Feature", "properties": {"collection_times": [{"days": "Mon-Sat", "time": "5:00pm"}, {"days": "Sun", "time": "Closed"}], "id": "1670100032", "name": "USPS COLLECTION BOX - BLUE BOX", "address": {"city": "BRADFORD", "state": "PA", "street": "115 BOYLSTON ST", "postcode": "16701"}}},
{"geometry": {"type": "Point", "coordinates": [-78.645631736, 41.957207866]}, "type": "Feature", "properties": {"collection_times": [{"days": "Mon-Sat", "time": "5:00pm"}, {"days": "Sun", "time": "Closed"}], "id": "1670100036", "name": "USPS COLLECTION BOX - BLUE BOX", "address": {"city": "BRADFORD", "state": "PA", "street": "115 BOYLSTON ST", "postcode": "16701"}}},
{"geometry": {"type": "Point", "coordinates": [-78.6694867896, 41.9476839216]}, "type": "Feature", "properties": {"collection_times": [{"days": "Mon-Sat", "time": "2:00pm"}, {"days": "Sun", "time": "Closed"}], "id": "1670100041", "name": "USPS COLLECTION BOX - BLUE BOX", "address": {"city": "BRADFORD", "state": "PA", "street": "300 CAMPUS DR", "postcode": "16701"}}},
{"geometry": {"type": "Point", "coordinates": [-78.6479413821, 41.9571995559]}, "type": "Feature", "properties": {"collection_times": [{"days": "Mon-Sat", "time": "5:00pm"}, {"days": "Sun", "time": "Closed"}], "id": "1670100042", "name": "USPS COLLECTION BOX - PO LOBBY", "address": {"city": "BRADFORD", "state": "PA", "street": "115 BOYLSTON ST", "postcode": "16701"}}},
{"geometry": {"type": "Point", "coordinates": [-78.6604973804, 41.9572793389]}, "type": "Feature", "properties": {"collection_times": [{"days": "Mon-Sat", "time": "2:15pm"}, {"days": "Sun", "time": "Closed"}], "id": "1670100043", "name": "USPS COLLECTION BOX - BLUE BOX", "address": {"city": "BRADFORD", "state": "PA", "street": "200 W WASHINGTON ST", "postcode": "16701"}}},
{"geometry": {"type": "Point", "coordinates": [-78.6170897324, 41.9809220921]}, "type": "Feature", "properties": {"collection_times": [{"days": "Mon-Sat", "time": "2:00pm"}, {"days": "Sun", "time": "Closed"}], "id": "1670100044", "name": "USPS COLLECTION BOX - BLUE BOX", "address": {"city": "BRADFORD", "state": "PA", "street": "50 FOSTER BROOK BLVD", "postcode": "16701"}}},
{"geometry": {"type": "Point", "coordinates": [-78.0905146277, 41.6307418478]}, "type": "Feature", "properties": {"collection_times": [{"days": "Mon-Fri", "time": "3:00pm"}, {"days": "Sat", "time": "12:00pm"}, {"days": "Sun", "time": "Closed"}], "id": "1672000000", "name": "USPS COLLECTION BOX - BLUE BOX", "address": {"city": "AUSTIN", "state": "PA", "street": "26 MAIN ST", "postcode": "16720"}}},
{"geometry": {"type": "Point", "coordinates": [-78.0905146277, 41.6307418478]}, "type": "Feature", "properties": {"collection_times": [{"days": "Mon-Fri", "time": "3:00pm"}, {"days": "Sat", "time": "12:00pm"}, {"days": "Sun", "time": "Closed"}], "id": "1672000001", "name": "USPS COLLECTION BOX - PO LOBBY", "address": {"city": "AUSTIN", "state": "PA", "street": "26 MAIN ST", "postcode": "16720"}}},
{"geometry": {"type": "Point", "coordinates": [-78.2968172158, 41.6559481431]}, "type": "Feature", "properties": {"collection_times": [{"days": "Mon-Fri", "time": "10:50am"}, {"days": "Sat", "time": "11:45am"}, {"days": "Sun", "time": "Closed"}], "id": "1672400000", "name": "USPS COLLECTION BOX - BLUE BOX", "address": {"city": "CROSBY", "state": "PA", "street": "27 CHRISTIAN HOLLOW RD", "postcode": "16724"}}},
{"geometry": {"type": "Point", "coordinates": [-78.2968172158, 41.6559481431]}, "type": "Feature", "properties": {"collection_times": [{"days": "Mon-Fri", "time": "10:50am"}, {"days": "Sat", "time": "11:45am"}, {"days": "Sun", "time": "Closed"}], "id": "1672400001", "name": "USPS COLLECTION BOX - PO LOBBY", "address": {"city": "CROSBY", "state": "PA", "street": "27 CHRISTIAN HOLLOW RD", "postcode": "16724"}}},
{"geometry": {"type": "Point", "coordinates": [-78.647724119, 41.9571360956]}, "type": "Feature", "properties": {"collection_times": [{"days": "Mon-Fri", "time": "11:55am"}, {"days": "Sat", "time": "11:45am"}, {"days": "Sun", "time": "Closed"}], "id": "1672500000", "name": "USPS COLLECTION BOX - BLUE BOX", "address": {"city": "CUSTER CITY", "state": "PA", "street": "1 E WARREN RD", "postcode": "16725"}}},
{"geometry": {"type": "Point", "coordinates": [-78.647724119, 41.9571360956]}, "type": "Feature", "properties": {"collection_times": [{"days": "Mon-Fri", "time": "11:55am"}, {"days": "Sat", "time": "11:45am"}, {"days": "Sun", "time": "Closed"}], "id": "1672500001", "name": "USPS COLLECTION BOX - PO LOBBY", "address": {"city": "CUSTER CITY", "state": "PA", "street": "1 E WARREN RD", "postcode": "16725"}}},
{"geometry": {"type": "Point", "coordinates": [-78.5886755665, 41.8356301732]}, "type": "Feature", "properties": {"collection_times": [{"days": "Mon-Fri", "time": "11:55am"}, {"days": "Sat", "time": "11:00am"}, {"days": "Sun", "time": "Closed"}], "id": "1672600001", "name": "USPS COLLECTION BOX - PO LOBBY", "address": {"city": "CYCLONE", "state": "PA", "street": "4241 ROUTE 646", "postcode": "16726"}}},
{"geometry": {"type": "Point", "coordinates": [-78.5376788619, 41.9901411752]}, "type": "Feature", "properties": {"collection_times": [{"days": "Mon-Fri", "time": "11:55am"}, {"days": "Sat", "time": "11:00am"}, {"days": "Sun", "time": "Closed"}], "id": "1672700000", "name": "USPS COLLECTION BOX - BLUE BOX", "address": {"city": "DERRICK CITY", "state": "PA", "street": "432 DERRICK RD", "postcode": "16727"}}},
{"geometry": {"type": "Point", "coordinates": [-78.5376788619, 41.9901411752]}, "type": "Feature", "properties": {"collection_times": [{"days": "Mon-Fri", "time": "11:55am"}, {"days": "Sat", "time": "11:00am"}, {"days": "Sun", "time": "Closed"}], "id": "1672700001", "name": "USPS COLLECTION BOX - PO LOBBY", "address": {"city": "DERRICK CITY", "state": "PA", "street": "432 DERRICK RD", "postcode": "16727"}}},
{"geometry": {"type": "Point", "coordinates": [-78.5066250086, 41.9619057763]}, "type": "Feature", "properties": {"collection_times": [{"days": "Mon-Fri", "time": "11:55am"}, {"days": "Sat", "time": "11:45am"}, {"days": "Sun", "time": "Closed"}], "id": "1672900000", "name": "USPS COLLECTION BOX - BLUE BOX", "address": {"city": "DUKE CENTER", "state": "PA", "street": "691 MAIN ST", "postcode": "16729"}}},
{"geometry": {"type": "Point", "coordinates": [-78.5066250086, 41.9619057763]}, "type": "Feature", "properties": {"collection_times": [{"days": "Mon-Fri", "time": "11:55am"}, {"days": "Sat", "time": "11:45am"}, {"days": "Sun", "time": "Closed"}], "id": "1672900001", "name": "USPS COLLECTION BOX - PO LOBBY", "address": {"city": "DUKE CENTER", "state": "PA", "street": "691 MAIN ST", "postcode": "16729"}}},
{"geometry": {"type": "Point", "coordinates": [-78.4417742275, 41.8085518197]}, "type": "Feature", "properties": {"collection_times": [{"days": "Mon-Fri", "time": "11:55am"}, {"days": "Sat", "time": "11:45am"}, {"days": "Sun", "time": "Closed"}], "id": "1673000000", "name": "USPS COLLECTION BOX - BLUE BOX", "address": {"city": "EAST SMETHPORT", "state": "PA", "street": "18253 ROUTE 6", "postcode": "16730"}}},
{"geometry": {"type": "Point", "coordinates": [-78.4417742275, 41.8085518197]}, "type": "Feature", "properties": {"collection_times": [{"days": "Mon-Fri", "time": "11:55am"}, {"days": "Sat", "time": "11:45am"}, {"days": "Sun", "time": "Closed"}], "id": "1673000001", "name": "USPS COLLECTION BOX - PO LOBBY", "address": {"city": "EAST SMETHPORT", "state": "PA", "street": "18253 ROUTE 6", "postcode": "16730"}}},
{"geometry": {"type": "Point", "coordinates": [-78.3815826755, 41.948787912]}, "type": "Feature", "properties": {"collection_times": [{"days": "Mon-Fri", "time": "4:40pm"}, {"days": "Sat", "time": "12:00pm"}, {"days": "Sun", "time": "Closed"}], "id": "1673100000", "name": "USPS COLLECTION BOX - BLUE BOX", "address": {"city": "ELDRED", "state": "PA", "street": "189 MAIN ST", "postcode": "16731"}}},
{"geometry": {"type": "Point", "coordinates": [-78.3815826755, 41.948787912]}, "type": "Feature", "properties": {"collection_times": [{"days": "Mon-Fri", "time": "4:40pm"}, {"days": "Sat", "time": "12:00pm"}, {"days": "Sun", "time": "Closed"}], "id": "1673100001", "name": "USPS COLLECTION BOX - PO LOBBY", "address": {"city": "ELDRED", "state": "PA", "street": "189 MAIN ST", "postcode": "16731"}}},
{"geometry": {"type": "Point", "coordinates": [-78.5964724988, 41.8580356602]}, "type": "Feature", "properties": {"collection_times": [{"days": "Mon-Fri", "time": "11:55am"}, {"days": "Sat", "time": "10:45am"}, {"days": "Sun", "time": "Closed"}], "id": "1673200000", "name": "USPS COLLECTION BOX - BLUE BOX", "address": {"city": "GIFFORD", "state": "PA", "street": "3444 ROUTE 646", "postcode": "16732"}}},
{"geometry": {"type": "Point", "coordinates": [-78.5964724988, 41.8580356602]}, "type": "Feature", "properties": {"collection_times": [{"days": "Mon-Fri", "time": "11:55am"}, {"days": "Sat", "time": "10:45am"}, {"days": "Sun", "time": "Closed"}], "id": "1673200001", "name": "USPS COLLECTION BOX - PO LOBBY", "address": {"city": "GIFFORD", "state": "PA", "street": "3444 ROUTE 646", "postcode": "16732"}}},
{"geometry": {"type": "Point", "coordinates": [-78.4417742275, 41.8085518197]}, "type": "Feature", "properties": {"collection_times": [{"days": "Mon-Fri", "time": "9:50am"}, {"days": "Sat", "time": "11:45am"}, {"days": "Sun", "time": "Closed"}], "id": "1673300000", "name": "USPS COLLECTION BOX - BLUE BOX", "address": {"city": "HAZEL HURST", "state": "PA", "street": "309 MAIN ST", "postcode": "16733"}}},
{"geometry": {"type": "Point", "coordinates": [-78.4417742275, 41.8085518197]}, "type": "Feature", "properties": {"collection_times": [{"days": "Mon-Fri", "time": "9:50am"}, {"days": "Sat", "time": "11:45am"}, {"days": "Sun", "time": "Closed"}], "id": "1673300001", "name": "USPS COLLECTION BOX - PO LOBBY", "address": {"city": "HAZEL HURST", "state": "PA", "street": "309 MAIN ST", "postcode": "16733"}}},
{"geometry": {"type": "Point", "coordinates": [-78.8398019136, 41.6196457924]}, "type": "Feature", "properties": {"collection_times": [{"days": "Mon-Fri", "time": "9:50am"}, {"days": "Sat", "time": "11:30am"}, {"days": "Sun", "time": "Closed"}], "id": "1673400000", "name": "USPS COLLECTION BOX - BLUE BOX", "address": {"city": "JAMES CITY", "state": "PA", "street": "147 DELAWARE AVE", "postcode": "16734"}}},
{"geometry": {"type": "Point", "coordinates": [-78.8398019136, 41.6196457924]}, "type": "Feature", "properties": {"collection_times": [{"days": "Mon-Fri", "time": "9:50am"}, {"days": "Sat", "time": "11:30am"}, {"days": "Sun", "time": "Closed"}], "id": "1673400001", "name": "USPS COLLECTION BOX - PO LOBBY", "address": {"city": "JAMES CITY", "state": "PA", "street": "147 DELAWARE AVE", "postcode": "16734"}}},
{"geometry": {"type": "Point", "coordinates": [-78.8109935258, 41.6590570276]}, "type": "Feature", "properties": {"collection_times": [{"days": "Mon-Sat", "time": "2:30pm"}, {"days": "Sun", "time": "Closed"}], "id": "1673500006", "name": "USPS COLLECTION BOX - BLUE BOX", "address": {"city": "KANE", "state": "PA", "street": "2 GREEVES ST", "postcode": "16735"}}},
{"geometry": {"type": "Point", "coordinates": [-78.8081195298, 41.6599585254]}, "type": "Feature", "properties": {"collection_times": [{"days": "Mon-Sat", "time": "8:45am"}, {"days": "Sun", "time": "Closed"}], "id": "1673500013", "name": "USPS COLLECTION BOX - BLUE BOX", "address": {"city": "KANE", "state": "PA", "street": "130 GREEVES ST", "postcode": "16735"}}},
{"geometry": {"type": "Point", "coordinates": [-78.7979140988, 41.6598036578]}, "type": "Feature", "properties": {"collection_times": [{"days": "Mon-Sat", "time": "9:45am"}, {"days": "Sun", "time": "Closed"}], "id": "1673500022", "name": "USPS COLLECTION BOX - BLUE BOX", "address": {"city": "KANE", "state": "PA", "street": "100 HIGH POINT DR", "postcode": "16735"}}},
{"geometry": {"type": "Point", "coordinates": [-78.8124059925, 41.6515557898]}, "type": "Feature", "properties": {"collection_times": [{"days": "Mon-Sat", "time": "4:45pm"}, {"days": "Sun", "time": "Closed"}], "id": "1673500024", "name": "USPS COLLECTION BOX - BLUE BOX", "address": {"city": "KANE", "state": "PA", "street": "131 FRALEY ST", "postcode": "16735"}}},
{"geometry": {"type": "Point", "coordinates": [-78.8124059925, 41.6515557898]}, "type": "Feature", "properties": {"collection_times": [{"days": "Mon-Sat", "time": "4:45pm"}, {"days": "Sun", "time": "Closed"}], "id": "1673500025", "name": "USPS COLLECTION BOX - BLUE BOX", "address": {"city": "KANE", "state": "PA", "street": "131 FRALEY ST", "postcode": "16735"}}},
{"geometry": {"type": "Point", "coordinates": [-78.8124059925, 41.6515557898]}, "type": "Feature", "properties": {"collection_times": [{"days": "Mon-Sat", "time": "4:45pm"}, {"days": "Sun", "time": "Closed"}], "id": "1673500026", "name": "USPS COLLECTION BOX - PO LOBBY", "address": {"city": "KANE", "state": "PA", "street": "131 FRALEY ST", "postcode": "16735"}}},
{"geometry": {"type": "Point", "coordinates": [-78.6555645004, 41.8733719468]}, "type": "Feature", "properties": {"collection_times": [{"days": "Mon-Fri", "time": "4:30pm"}, {"days": "Sat", "time": "10:45am"}, {"days": "Sun", "time": "Closed"}], "id": "1673800000", "name": "USPS COLLECTION BOX - BLUE BOX", "address": {"city": "LEWIS RUN", "state": "PA", "street": "59 MAIN ST", "postcode": "16738"}}},
{"geometry": {"type": "Point", "coordinates": [-78.6555645004, 41.8733719468]}, "type": "Feature", "properties": {"collection_times": [{"days": "Mon-Fri", "time": "4:30pm"}, {"days": "Sat", "time": "10:45am"}, {"days": "Sun", "time": "Closed"}], "id": "1673800001", "name": "USPS COLLECTION BOX - PO LOBBY", "address": {"city": "LEWIS RUN", "state": "PA", "street": "59 MAIN ST", "postcode": "16738"}}},
{"geometry": {"type": "Point", "coordinates": [-78.6405812626, 41.72499892]}, "type": "Feature", "properties": {"collection_times": [{"days": "Mon-Fri", "time": "4:45pm"}, {"days": "Sat", "time": "12:00pm"}, {"days": "Sun", "time": "Closed"}], "id": "1674000000", "name": "USPS COLLECTION BOX - BLUE BOX", "address": {"city": "MOUNT JEWETT", "state": "PA", "street": "2 W MAIN ST", "postcode": "16740"}}},
{"geometry": {"type": "Point", "coordinates": [-78.6405812626, 41.72499892]}, "type": "Feature", "properties": {"collection_times": [{"days": "Mon-Fri", "time": "4:45pm"}, {"days": "Sat", "time": "12:00pm"}, {"days": "Sun", "time": "Closed"}], "id": "1674000001", "name": "USPS COLLECTION BOX - PO LOBBY", "address": {"city": "MOUNT JEWETT", "state": "PA", "street": "2 W MAIN ST", "postcode": "16740"}}},
{"geometry": {"type": "Point", "coordinates": [-78.2817830994, 41.8100530989]}, "type": "Feature", "properties": {"collection_times": [{"days": "Mon-Sat", "time": "4:15pm"}, {"days": "Sun", "time": "Closed"}], "id": "1674300000", "name": "USPS COLLECTION BOX - BLUE BOX", "address": {"city": "PORT ALLEGANY", "state": "PA", "street": "64 W MILL ST", "postcode": "16743"}}},
{"geometry": {"type": "Point", "coordinates": [-78.2836626144, 41.8154402664]}, "type": "Feature", "properties": {"collection_times": [{"days": "Mon-Sat", "time": "3:00pm"}, {"days": "Sun", "time": "Closed"}], "id": "1674300001", "name": "USPS COLLECTION BOX - BLUE BOX", "address": {"city": "PORT ALLEGANY", "state": "PA", "street": "32 N MAIN ST", "postcode": "16743"}}},
{"geometry": {"type": "Point", "coordinates": [-78.28634231, 41.8193805909]}, "type": "Feature", "properties": {"collection_times": [{"days": "Mon-Sat", "time": "3:00pm"}, {"days": "Sun", "time": "Closed"}], "id": "1674300003", "name": "USPS COLLECTION BOX - BLUE BOX", "address": {"city": "PORT ALLEGANY", "state": "PA", "street": "303 N MAIN ST", "postcode": "16743"}}},
{"geometry": {"type": "Point", "coordinates": [-78.2892528155, 41.8223135939]}, "type": "Feature", "properties": {"collection_times": [{"days": "Mon-Sat", "time": "12:15pm"}, {"days": "Sun", "time": "Closed"}], "id": "1674300005", "name": "USPS COLLECTION BOX - BLUE BOX", "address": {"city": "PORT ALLEGANY", "state": "PA", "street": "700 N MAIN ST", "postcode": "16743"}}},
{"geometry": {"type": "Point", "coordinates": [-78.2840548865, 41.8179703215]}, "type": "Feature", "properties": {"collection_times": [{"days": "Mon-Sat", "time": "9:30am"}, {"days": "Sun", "time": "Closed"}], "id": "1674300006", "name": "USPS COLLECTION BOX - BLUE BOX", "address": {"city": "PORT ALLEGANY", "state": "PA", "street": "37 CHURCH ST", "postcode": "16743"}}},
{"geometry": {"type": "Point", "coordinates": [-78.2817830994, 41.8100530989]}, "type": "Feature", "properties": {"collection_times": [{"days": "Mon-Sat", "time": "4:15pm"}, {"days": "Sun", "time": "Closed"}], "id": "1674300011", "name": "USPS COLLECTION BOX - BLUE BOX", "address": {"city": "PORT ALLEGANY", "state": "PA", "street": "64 W MILL ST", "postcode": "16743"}}},
{"geometry": {"type": "Point", "coordinates": [-78.2817830994, 41.8100530989]}, "type": "Feature", "properties": {"collection_times": [{"days": "Mon-Sat", "time": "4:15pm"}, {"days": "Sun", "time": "Closed"}], "id": "1674300012", "name": "USPS COLLECTION BOX - PO LOBBY", "address": {"city": "PORT ALLEGANY", "state": "PA", "street": "64 W MILL ST", "postcode": "16743"}}},
{"geometry": {"type": "Point", "coordinates": [-78.5771579898, 41.8688101537]}, "type": "Feature", "properties": {"collection_times": [{"days": "Mon-Fri", "time": "11:55am"}, {"days": "Sat", "time": "10:15am"}, {"days": "Sun", "time": "Closed"}], "id": "1674400000", "name": "USPS COLLECTION BOX - BLUE BOX", "address": {"city": "REW", "state": "PA", "street": "1141 SUMMIT RD", "postcode": "16744"}}},
{"geometry": {"type": "Point", "coordinates": [-78.5771579898, 41.8688101537]}, "type": "Feature", "properties": {"collection_times": [{"days": "Mon-Fri", "time": "11:55am"}, {"days": "Sat", "time": "10:15am"}, {"days": "Sun", "time": "Closed"}], "id": "1674400001", "name": "USPS COLLECTION BOX - PO LOBBY", "address": {"city": "REW", "state": "PA", "street": "1141 SUMMIT RD", "postcode": "16744"}}},
{"geometry": {"type": "Point", "coordinates": [-78.499254053, 41.9261860303]}, "type": "Feature", "properties": {"collection_times": [{"days": "Mon-Fri", "time": "4:25pm"}, {"days": "Sat", "time": "11:45am"}, {"days": "Sun", "time": "Closed"}], "id": "1674500000", "name": "USPS COLLECTION BOX - BLUE BOX", "address": {"city": "RIXFORD", "state": "PA", "street": "1102 LOOKER MOUNTAIN TRL", "postcode": "16745"}}},
{"geometry": {"type": "Point", "coordinates": [-78.499254053, 41.9261860303]}, "type": "Feature", "properties": {"collection_times": [{"days": "Mon-Fri", "time": "4:25pm"}, {"days": "Sat", "time": "11:45am"}, {"days": "Sun", "time": "Closed"}], "id": "1674500001", "name": "USPS COLLECTION BOX - PO LOBBY", "address": {"city": "RIXFORD", "state": "PA", "street": "1102 LOOKER MOUNTAIN TRL", "postcode": "16745"}}},
{"geometry": {"type": "Point", "coordinates": [-78.1546949225, 41.7802747146]}, "type": "Feature", "properties": {"collection_times": [{"days": "Mon-Fri", "time": "12:00pm"}, {"days": "Sat", "time": "11:45am"}, {"days": "Sun", "time": "Closed"}], "id": "1674600000", "name": "USPS COLLECTION BOX - BLUE BOX", "address": {"city": "ROULETTE", "state": "PA", "street": "107 MAIN ST", "postcode": "16746"}}},
{"geometry": {"type": "Point", "coordinates": [-78.1546949225, 41.7802747146]}, "type": "Feature", "properties": {"collection_times": [{"days": "Mon-Fri", "time": "12:00pm"}, {"days": "Sat", "time": "11:45am"}, {"days": "Sun", "time": "Closed"}], "id": "1674600001", "name": "USPS COLLECTION BOX - PO LOBBY", "address": {"city": "ROULETTE", "state": "PA", "street": "107 MAIN ST", "postcode": "16746"}}},
{"geometry": {"type": "Point", "coordinates": [-78.1927591284, 41.9634512639]}, "type": "Feature", "properties": {"collection_times": [{"days": "Mon-Fri", "time": "4:00pm"}, {"days": "Sat", "time": "12:00pm"}, {"days": "Sun", "time": "Closed"}], "id": "1674800000", "name": "USPS COLLECTION BOX - BLUE BOX", "address": {"city": "SHINGLEHOUSE", "state": "PA", "street": "214 W ACADEMY ST", "postcode": "16748"}}},
{"geometry": {"type": "Point", "coordinates": [-78.1927591284, 41.9634512639]}, "type": "Feature", "properties": {"collection_times": [{"days": "Mon-Fri", "time": "4:00pm"}, {"days": "Sat", "time": "12:00pm"}, {"days": "Sun", "time": "Closed"}], "id": "1674800001", "name": "USPS COLLECTION BOX - PO LOBBY", "address": {"city": "SHINGLEHOUSE", "state": "PA", "street": "214 W ACADEMY ST", "postcode": "16748"}}},
{"geometry": {"type": "Point", "coordinates": [-78.4418934469, 41.8094201471]}, "type": "Feature", "properties": {"collection_times": [{"days": "Mon-Fri", "time": "4:15pm"}, {"days": "Sat", "time": "2:30pm"}, {"days": "Sun", "time": "Closed"}], "id": "1674900000", "name": "USPS COLLECTION BOX - BLUE BOX", "address": {"city": "SMETHPORT", "state": "PA", "street": "200 N MECHANIC ST", "postcode": "16749"}}},
{"geometry": {"type": "Point", "coordinates": [-78.4381692531, 41.8099663032]}, "type": "Feature", "properties": {"collection_times": [{"days": "Mon-Sat", "time": "2:00pm"}, {"days": "Sun", "time": "Closed"}], "id": "1674900005", "name": "USPS COLLECTION BOX - BLUE BOX", "address": {"city": "SMETHPORT", "state": "PA", "street": "403 E WATER ST", "postcode": "16749"}}},
{"geometry": {"type": "Point", "coordinates": [-78.4418934469, 41.8094201471]}, "type": "Feature", "properties": {"collection_times": [{"days": "Mon-Fri", "time": "4:15pm"}, {"days": "Sat", "time": "2:30pm"}, {"days": "Sun", "time": "Closed"}], "id": "1674900007", "name": "USPS COLLECTION BOX - PO LOBBY", "address": {"city": "SMETHPORT", "state": "PA", "street": "200 N MECHANIC ST", "postcode": "16749"}}},
{"geometry": {"type": "Point", "coordinates": [-78.3437078805, 41.8673323038]}, "type": "Feature", "properties": {"collection_times": [{"days": "Mon-Fri", "time": "11:50am"}, {"days": "Sat", "time": "11:45am"}, {"days": "Sun", "time": "Closed"}], "id": "1675000001", "name": "USPS COLLECTION BOX - PO LOBBY", "address": {"city": "TURTLEPOINT", "state": "PA", "street": "1787 CHAMPLIN HILL RD UNIT 2", "postcode": "16750"}}}
]}
