{"type": "FeatureCollection", "features": [
{"geometry": {"type": "Point", "coordinates": [-77.8590470557, 40.7944626986]}, "type": "Feature", "properties": {"collection_times": [{"days": "Mon-Fri", "time": "4:45pm"}, {"days": "Sat", "time": "2:15pm"}, {"days": "Sun", "time": "Closed"}], "id": "1680100002", "name": "USPS COLLECTION BOX - BLUE BOX", "address": {"city": "STATE COLLEGE", "state": "PA", "street": "205 E BEAVER AVE", "postcode": "16801"}}},
{"geometry": {"type": "Point", "coordinates": [-77.8633417572, 40.7911769424]}, "type": "Feature", "properties": {"collection_times": [{"days": "Mon-Fri", "time": "3:00pm"}, {"days": "Sat", "time": "2:15pm"}, {"days": "Sun", "time": "Closed"}], "id": "1680100008", "name": "USPS COLLECTION BOX - BLUE BOX", "address": {"city": "STATE COLLEGE", "state": "PA", "street": "320 E BEAVER AVE", "postcode": "16801"}}},
{"geometry": {"type": "Point", "coordinates": [-77.8664260371, 40.7908150311]}, "type": "Feature", "properties": {"collection_times": [{"days": "Mon-Fri", "time": "1:30pm"}, {"days": "Sat", "time": "2:00pm"}, {"days": "Sun", "time": "Closed"}], "id": "1680100010", "name": "USPS COLLECTION BOX - BLUE BOX", "address": {"city": "STATE COLLEGE", "state": "PA", "street": "100 S BARNARD ST", "postcode": "16801"}}},
{"geometry": {"type": "Point", "coordinates": [-77.801971029, 40.7813323579]}, "type": "Feature", "properties": {"collection_times": [{"days": "Mon-Sat", "time": "9:30am"}, {"days": "Sun", "time": "Closed"}], "id": "1680100011", "name": "USPS COLLECTION BOX - BLUE BOX", "address": {"city": "STATE COLLEGE", "state": "PA", "street": "3901 S ATHERTON ST", "postcode": "16801"}}},
{"geometry": {"type": "Point", "coordinates": [-77.8616649427, 40.7943924751]}, "type": "Feature", "properties": {"collection_times": [{"days": "Mon-Fri", "time": "2:50pm"}, {"days": "Sat", "time": "2:00pm"}, {"days": "Sun", "time": "Closed"}], "id": "1680100013", "name": "USPS COLLECTION BOX - BLUE BOX", "address": {"city": "STATE COLLEGE", "state": "PA", "street": "102 S ALLEN ST", "postcode": "16801"}}},
{"geometry": {"type": "Point", "coordinates": [-77.8596566904, 40.7938432449]}, "type": "Feature", "properties": {"collection_times": [{"days": "Mon-Fri", "time": "2:45pm"}, {"days": "Sat", "time": "2:15pm"}, {"days": "Sun", "time": "Closed"}], "id": "1680100016", "name": "USPS COLLECTION BOX - BLUE BOX", "address": {"city": "STATE COLLEGE", "state": "PA", "street": "120 E BEAVER AVE", "postcode": "16801"}}},
{"geometry": {"type": "Point", "coordinates": [-77.8625172348, 40.7917838003]}, "type": "Feature", "properties": {"collection_times": [{"days": "Mon-Fri", "time": "3:30pm"}, {"days": "Sat", "time": "2:00pm"}, {"days": "Sun", "time": "Closed"}], "id": "1680100018", "name": "USPS COLLECTION BOX - BLUE BOX", "address": {"city": "STATE COLLEGE", "state": "PA", "street": "232 W BEAVER AVE", "postcode": "16801"}}},
{"geometry": {"type": "Point", "coordinates": [-77.8789993918, 40.7638176442]}, "type": "Feature", "properties": {"collection_times": [{"days": "Mon-Fri", "time": "4:00pm"}, {"days": "Sat", "time": "10:00am"}, {"days": "Sun", "time": "Closed"}], "id": "1680100020", "name": "USPS COLLECTION BOX - BLUE BOX", "address": {"city": "STATE COLLEGE", "state": "PA", "street": "2021 CATO AVE", "postcode": "16801"}}},
{"geometry": {"type": "Point", "coordinates": [-77.8592137375, 40.7961716195]}, "type": "Feature", "properties": {"collection_times": [{"days": "Mon-Fri", "time": "3:15pm"}, {"days": "Sat", "time": "2:00pm"}, {"days": "Sun", "time": "Closed"}], "id": "1680100022", "name": "USPS COLLECTION BOX - BLUE BOX", "address": {"city": "STATE COLLEGE", "state": "PA", "street": "102 MCALLISTER ST", "postcode": "16801"}}},
{"geometry": {"type": "Point", "coordinates": [-77.8576196124, 40.7973057473]}, "type": "Feature", "properties": {"collection_times": [{"days": "Mon-Fri", "time": "3:15pm"}, {"days": "Sat", "time": "2:00pm"}, {"days": "Sun", "time": "Closed"}], "id": "1680100023", "name": "USPS COLLECTION BOX - BLUE BOX", "address": {"city": "STATE COLLEGE", "state": "PA", "street": "102 HEISTER ST", "postcode": "16801"}}},
{"geometry": {"type": "Point", "coordinates": [-77.8755853824, 40.7834746965]}, "type": "Feature", "properties": {"collection_times": [{"days": "Mon-Fri", "time": "3:45pm"}, {"days": "Sat", "time": "11:15am"}, {"days": "Sun", "time": "Closed"}], "id": "1680100024", "name": "USPS COLLECTION BOX - BLUE BOX", "address": {"city": "STATE COLLEGE", "state": "PA", "street": "1315 W COLLEGE AVE", "postcode": "16801"}}},
{"geometry": {"type": "Point", "coordinates": [-77.8476557213, 40.7894995065]}, "type": "Feature", "properties": {"collection_times": [{"days": "Mon-Fri", "time": "3:30pm"}, {"days": "Sat", "time": "1:45pm"}, {"days": "Sun", "time": "Closed"}], "id": "1680100027", "name": "USPS COLLECTION BOX - BLUE BOX", "address": {"city": "STATE COLLEGE", "state": "PA", "street": "233 EASTERLY PKWY", "postcode": "16801"}}},
{"geometry": {"type": "Point", "coordinates": [-77.8583928554, 40.7923788482]}, "type": "Feature", "properties": {"collection_times": [{"days": "Mon-Fri", "time": "4:30pm"}, {"days": "Sat", "time": "1:45pm"}, {"days": "Sun", "time": "Closed"}], "id": "1680100031", "name": "USPS COLLECTION BOX - BLUE BOX", "address": {"city": "STATE COLLEGE", "state": "PA", "street": "102 E FOSTER AVE", "postcode": "16801"}}},
{"geometry": {"type": "Point", "coordinates": [-77.8787817702, 40.7806997361]}, "type": "Feature", "properties": {"collection_times": [{"days": "Mon-Fri", "time": "3:45pm"}, {"days": "Sat", "time": "12:45pm"}, {"days": "Sun", "time": "Closed"}], "id": "1680100035", "name": "USPS COLLECTION BOX - BLUE BOX", "address": {"city": "STATE COLLEGE", "state": "PA", "street": "1524 W COLLEGE AVE", "postcode": "16801"}}},
{"geometry": {"type": "Point", "coordinates": [-77.8537319476, 40.7829192829]}, "type": "Feature", "properties": {"collection_times": [{"days": "Mon-Sat", "time": "2:00pm"}, {"days": "Sun", "time": "Closed"}], "id": "1680100038", "name": "USPS COLLECTION BOX - BLUE BOX", "address": {"city": "STATE COLLEGE", "state": "PA", "street": "500 WESTERLY PKWY", "postcode": "16801"}}},
{"geometry": {"type": "Point", "coordinates": [-77.8539608812, 40.7798173555]}, "type": "Feature", "properties": {"collection_times": [{"days": "Mon-Fri", "time": "2:15pm"}, {"days": "Sat", "time": "1:15pm"}, {"days": "Sun", "time": "Closed"}], "id": "1680100039", "name": "USPS COLLECTION BOX - BLUE BOX", "address": {"city": "STATE COLLEGE", "state": "PA", "street": "412 WAUPELANI DR", "postcode": "16801"}}},
{"geometry": {"type": "Point", "coordinates": [-77.8558414076, 40.7983587278]}, "type": "Feature", "properties": {"collection_times": [{"days": "Mon-Fri", "time": "5:00pm"}, {"days": "Sat", "time": "2:00pm"}, {"days": "Sun", "time": "Closed"}], "id": "1680100045", "name": "USPS COLLECTION BOX - BLUE BOX", "address": {"city": "STATE COLLEGE", "state": "PA", "street": "111 SOWERS ST", "postcode": "16801"}}},
{"geometry": {"type": "Point", "coordinates": [-77.8492692255, 40.7903113565]}, "type": "Feature", "properties": {"collection_times": [{"days": "Mon-Sat", "time": "2:30pm"}, {"days": "Sun", "time": "Closed"}], "id": "1680100048", "name": "USPS COLLECTION BOX - BLUE BOX", "address": {"city": "STATE COLLEGE", "state": "PA", "street": "498 SOUTH GATE DR", "postcode": "16801"}}},
{"geometry": {"type": "Point", "coordinates": [-77.822753185, 40.7847541037]}, "type": "Feature", "properties": {"collection_times": [{"days": "Mon-Fri", "time": "4:00pm"}, {"days": "Sat", "time": "12:45pm"}, {"days": "Sun", "time": "Closed"}], "id": "1680100049", "name": "USPS COLLECTION BOX - BLUE BOX", "address": {"city": "STATE COLLEGE", "state": "PA", "street": "100 REGENT CT", "postcode": "16801"}}},
{"geometry": {"type": "Point", "coordinates": [-77.8492692255, 40.7903113565]}, "type": "Feature", "properties": {"collection_times": [{"days": "Mon-Fri", "time": "5:00pm"}, {"days": "Sat", "time": "2:00pm"}, {"days": "Sun", "time": "Closed"}], "id": "1680100056", "name": "USPS COLLECTION BOX - BLUE BOX", "address": {"city": "STATE COLLEGE", "state": "PA", "street": "114 HETZEL ST", "postcode": "16801"}}},
{"geometry": {"type": "Point", "coordinates": [-77.8598842654, 40.7949390352]}, "type": "Feature", "properties": {"collection_times": [{"days": "Mon-Fri", "time": "4:45pm"}, {"days": "Sat", "time": "2:00pm"}, {"days": "Sun", "time": "Closed"}], "id": "1680100057", "name": "USPS COLLECTION BOX - BLUE BOX", "address": {"city": "STATE COLLEGE", "state": "PA", "street": "121 S PUGH ST", "postcode": "16801"}}},
{"geometry": {"type": "Point", "coordinates": [-77.8492692255, 40.7903113565]}, "type": "Feature", "properties": {"collection_times": [{"days": "Mon-Sat", "time": "5:15pm"}, {"days": "Sun", "time": "Closed"}], "id": "1680100059", "name": "USPS COLLECTION BOX - EXPRESS", "address": {"city": "STATE COLLEGE", "state": "PA", "street": "236 S FRASER ST", "postcode": "16801"}}},
{"geometry": {"type": "Point", "coordinates": [-77.8606422448, 40.7917222864]}, "type": "Feature", "properties": {"collection_times": [{"days": "Mon-Sat", "time": "5:45pm"}, {"days": "Sun", "time": "Closed"}], "id": "1680100060", "name": "USPS COLLECTION BOX - BLUE BOX", "address": {"city": "STATE COLLEGE", "state": "PA", "street": "236 S FRASER ST", "postcode": "16801"}}},
{"geometry": {"type": "Point", "coordinates": [-77.8630460174, 40.7934848953]}, "type": "Feature", "properties": {"collection_times": [{"days": "Mon-Fri", "time": "2:45pm"}, {"days": "Sat", "time": "2:00pm"}, {"days": "Sun", "time": "Closed"}], "id": "1680100062", "name": "USPS COLLECTION BOX - BLUE BOX", "address": {"city": "STATE COLLEGE", "state": "PA", "street": "200 W COLLEGE AVE", "postcode": "16801"}}},
{"geometry": {"type": "Point", "coordinates": [-77.8515949746, 40.7930259072]}, "type": "Feature", "properties": {"collection_times": [{"days": "Mon-Fri", "time": "2:30pm"}, {"days": "Sat", "time": "9:00am"}, {"days": "Sun", "time": "Closed"}], "id": "1680100066", "name": "USPS COLLECTION BOX - BLUE BOX", "address": {"city": "STATE COLLEGE", "state": "PA", "street": "300 W HAMILTON AVE", "postcode": "16801"}}},
{"geometry": {"type": "Point", "coordinates": [-77.8571847814, 40.7933605253]}, "type": "Feature", "properties": {"collection_times": [{"days": "Mon-Fri", "time": "2:30pm"}, {"days": "Sat", "time": "2:00pm"}, {"days": "Sun", "time": "Closed"}], "id": "1680100071", "name": "USPS COLLECTION BOX - BLUE BOX", "address": {"city": "STATE COLLEGE", "state": "PA", "street": "301 S PUGH ST", "postcode": "16801"}}},
{"geometry": {"type": "Point", "coordinates": [-77.8026418487, 40.8303629201]}, "type": "Feature", "properties": {"collection_times": [{"days": "Mon-Sat", "time": "11:00am"}, {"days": "Sun", "time": "Closed"}], "id": "1680100072", "name": "USPS COLLECTION BOX - BLUE BOX", "address": {"city": "STATE COLLEGE", "state": "PA", "street": "2901 E COLLEGE AVE", "postcode": "16801"}}},
{"geometry": {"type": "Point", "coordinates": [-77.8613627352, 40.7714858577]}, "type": "Feature", "properties": {"collection_times": [{"days": "Mon-Sat", "time": "1:00pm"}, {"days": "Sun", "time": "Closed"}], "id": "1680100075", "name": "USPS COLLECTION BOX - BLUE BOX", "address": {"city": "STATE COLLEGE", "state": "PA", "street": "855 STRATFORD DR", "postcode": "16801"}}},
{"geometry": {"type": "Point", "coordinates": [-77.8411044945, 40.7847475604]}, "type": "Feature", "properties": {"collection_times": [{"days": "Mon-Fri", "time": "4:00pm"}, {"days": "Sat", "time": "1:15pm"}, {"days": "Sun", "time": "Closed"}], "id": "1680100076", "name": "USPS COLLECTION BOX - BLUE BOX", "address": {"city": "STATE COLLEGE", "state": "PA", "street": "1402 S ATHERTON ST", "postcode": "16801"}}},
{"geometry": {"type": "Point", "coordinates": [-77.8607144053, 40.7917778855]}, "type": "Feature", "properties": {"collection_times": [{"days": "Mon-Sat", "time": "5:45pm"}, {"days": "Sun", "time": "Closed"}], "id": "1680100078", "name": "USPS COLLECTION BOX - PO LOBBY", "address": {"city": "STATE COLLEGE", "state": "PA", "street": "237 S FRASER ST", "postcode": "16801"}}},
{"geometry": {"type": "Point", "coordinates": [-77.8461935575, 40.7843143991]}, "type": "Feature", "properties": {"collection_times": [{"days": "Mon-Fri", "time": "4:00pm"}, {"days": "Sat", "time": "1:15pm"}, {"days": "Sun", "time": "Closed"}], "id": "1680100080", "name": "USPS COLLECTION BOX - BLUE BOX", "address": {"city": "STATE COLLEGE", "state": "PA", "street": "199 E SOUTH HILLS AVE", "postcode": "16801"}}},
{"geometry": {"type": "Point", "coordinates": [-77.8607144053, 40.7917778855]}, "type": "Feature", "properties": {"collection_times": [{"days": "Mon-Fri", "time": "5:00pm"}, {"days": "Sat", "time": "12:00pm"}, {"days": "Sun", "time": "Closed"}], "id": "1680100082", "name": "USPS COLLECTION BOX - APC", "address": {"city": "STATE COLLEGE", "state": "PA", "street": "237 S FRASER ST", "postcode": "16801"}}},
{"geometry": {"type": "Point", "coordinates": [-77.8292471811, 40.7849305811]}, "type": "Feature", "properties": {"collection_times": [{"days": "Mon-Fri", "time": "4:30pm"}, {"days": "Sat", "time": "1:30pm"}, {"days": "Sun", "time": "Closed"}], "id": "1680100083", "name": "USPS COLLECTION BOX - BLUE BOX", "address": {"city": "STATE COLLEGE", "state": "PA", "street": "110 ROLLING RIDGE DR", "postcode": "16801"}}},
{"geometry": {"type": "Point", "coordinates": [-77.8292471811, 40.7849305811]}, "type": "Feature", "properties": {"collection_times": [{"days": "Mon-Fri", "time": "4:30pm"}, {"days": "Sat", "time": "1:30pm"}, {"days": "Sun", "time": "Closed"}], "id": "1680100084", "name": "USPS COLLECTION BOX - BLUE BOX", "address": {"city": "STATE COLLEGE", "state": "PA", "street": "110 ROLLING RIDGE DR", "postcode": "16801"}}},
{"geometry": {"type": "Point", "coordinates": [-77.8589881063, 40.8040085092]}, "type": "Feature", "properties": {"collection_times": [{"days": "Mon-Sat", "time": "10:00am"}, {"days": "Sun", "time": "Closed"}], "id": "1680200004", "name": "USPS COLLECTION BOX - BLUE BOX", "address": {"city": "STATE COLLEGE", "state": "PA", "street": "10 FERGUSON BLDG", "postcode": "16802"}}},
{"geometry": {"type": "Point", "coordinates": [-77.8621260968, 40.8009435849]}, "type": "Feature", "properties": {"collection_times": [{"days": "Mon-Fri", "time": "4:45pm"}, {"days": "Sat", "time": "10:00am"}, {"days": "Sun", "time": "Closed"}], "id": "1680200006", "name": "USPS COLLECTION BOX - BLUE BOX", "address": {"city": "STATE COLLEGE", "state": "PA", "street": "54 MCALLISTER BLDG", "postcode": "16802"}}},
{"geometry": {"type": "Point", "coordinates": [-77.8589881063, 40.8040085092]}, "type": "Feature", "properties": {"collection_times": [{"days": "Mon-Fri", "time": "4:45pm"}, {"days": "Sat-Sun", "time": "Closed"}], "id": "1680200010", "name": "USPS COLLECTION BOX - PO LOBBY", "address": {"city": "STATE COLLEGE", "state": "PA", "street": "54 MCALLISTER BLDG", "postcode": "16802"}}},
{"geometry": {"type": "Point", "coordinates": [-77.8951594505, 40.8080229603]}, "type": "Feature", "properties": {"collection_times": [{"days": "Mon-Fri", "time": "4:00pm"}, {"days": "Sat", "time": "3:15pm"}, {"days": "Sun", "time": "Closed"}], "id": "1680300001", "name": "USPS COLLECTION BOX - BLUE BOX", "address": {"city": "STATE COLLEGE", "state": "PA", "street": "1659 N ATHERTON ST", "postcode": "16803"}}},
{"geometry": {"type": "Point", "coordinates": [-77.8701686133, 40.8001993704]}, "type": "Feature", "properties": {"collection_times": [{"days": "Mon-Sat", "time": "12:00pm"}, {"days": "Sun", "time": "Closed"}], "id": "1680300003", "name": "USPS COLLECTION BOX - BLUE BOX", "address": {"city": "STATE COLLEGE", "state": "PA", "street": "503 N ALLEN ST", "postcode": "16803"}}},
{"geometry": {"type": "Point", "coordinates": [-77.8961356129, 40.8037507235]}, "type": "Feature", "properties": {"collection_times": [{"days": "Mon-Sat", "time": "9:45am"}, {"days": "Sun", "time": "Closed"}], "id": "1680300004", "name": "USPS COLLECTION BOX - BLUE BOX", "address": {"city": "STATE COLLEGE", "state": "PA", "street": "801 W AARON DR", "postcode": "16803"}}},
{"geometry": {"type": "Point", "coordinates": [-77.9208624982, 40.8129997047]}, "type": "Feature", "properties": {"collection_times": [{"days": "Mon-Fri", "time": "3:45pm"}, {"days": "Sat", "time": "9:30am"}, {"days": "Sun", "time": "Closed"}], "id": "1680300006", "name": "USPS COLLECTION BOX - BLUE BOX", "address": {"city": "STATE COLLEGE", "state": "PA", "street": "2515 GREEN TECH DR", "postcode": "16803"}}},
{"geometry": {"type": "Point", "coordinates": [-77.8978076307, 40.8230753521]}, "type": "Feature", "properties": {"collection_times": [{"days": "Mon-Sat", "time": "9:30am"}, {"days": "Sun", "time": "Closed"}], "id": "1680300007", "name": "USPS COLLECTION BOX - BLUE BOX", "address": {"city": "STATE COLLEGE", "state": "PA", "street": "350 TOFTREES AVE", "postcode": "16803"}}},
{"geometry": {"type": "Point", "coordinates": [-77.8520681582, 40.8520011435]}, "type": "Feature", "properties": {"collection_times": [{"days": "Mon-Fri", "time": "11:00am"}, {"days": "Sat", "time": "10:30am"}, {"days": "Sun", "time": "Closed"}], "id": "1680300008", "name": "USPS COLLECTION BOX - BLUE BOX", "address": {"city": "STATE COLLEGE", "state": "PA", "street": "2493 FOX HILL RD", "postcode": "16803"}}},
{"geometry": {"type": "Point", "coordinates": [-77.8764651678, 40.7980239365]}, "type": "Feature", "properties": {"collection_times": [{"days": "Mon-Sat", "time": "12:00pm"}, {"days": "Sun", "time": "Closed"}], "id": "1680300009", "name": "USPS COLLECTION BOX - BLUE BOX", "address": {"city": "STATE COLLEGE", "state": "PA", "street": "401 HILLCREST AVE", "postcode": "16803"}}},
{"geometry": {"type": "Point", "coordinates": [-77.9020596086, 40.808725783]}, "type": "Feature", "properties": {"collection_times": [{"days": "Mon-Sat", "time": "1:00pm"}, {"days": "Sun", "time": "Closed"}], "id": "1680300011", "name": "USPS COLLECTION BOX - BLUE BOX", "address": {"city": "STATE COLLEGE", "state": "PA", "street": "1800 PARK FOREST AVE", "postcode": "16803"}}},
{"geometry": {"type": "Point", "coordinates": [-77.8480087588, 40.8204878124]}, "type": "Feature", "properties": {"collection_times": [{"days": "Mon-Fri", "time": "3:30pm"}, {"days": "Sat", "time": "12:30pm"}, {"days": "Sun", "time": "Closed"}], "id": "1680300012", "name": "USPS COLLECTION BOX - BLUE BOX", "address": {"city": "STATE COLLEGE", "state": "PA", "street": "1800 E PARK AVE", "postcode": "16803"}}},
{"geometry": {"type": "Point", "coordinates": [-77.8937099418, 40.8078217286]}, "type": "Feature", "properties": {"collection_times": [{"days": "Mon-Fri", "time": "4:00pm"}, {"days": "Sat-Sun", "time": "Closed"}], "id": "1680300014", "name": "USPS COLLECTION BOX - BLUE BOX", "address": {"city": "STATE COLLEGE", "state": "PA", "street": "500 SCIENCE PARK RD", "postcode": "16803"}}},
{"geometry": {"type": "Point", "coordinates": [-77.9024669693, 40.7951754888]}, "type": "Feature", "properties": {"collection_times": [{"days": "Mon-Fri", "time": "3:30pm"}, {"days": "Sat", "time": "12:30pm"}, {"days": "Sun", "time": "Closed"}], "id": "1680300015", "name": "USPS COLLECTION BOX - BLUE BOX", "address": {"city": "STATE COLLEGE", "state": "PA", "street": "215 INNOVATION BLVD", "postcode": "16803"}}},
{"geometry": {"type": "Point", "coordinates": [-77.8852524299, 40.831634712]}, "type": "Feature", "properties": {"collection_times": [{"days": "Mon-Sat", "time": "9:30am"}, {"days": "Sun", "time": "Closed"}], "id": "1680300017", "name": "USPS COLLECTION BOX - BLUE BOX", "address": {"city": "STATE COLLEGE", "state": "PA", "street": "860 CRICKLEWOOD DR", "postcode": "16803"}}},
{"geometry": {"type": "Point", "coordinates": [-77.8906066213, 40.8041509383]}, "type": "Feature", "properties": {"collection_times": [{"days": "Mon-Fri", "time": "4:30pm"}, {"days": "Sat", "time": "3:30pm"}, {"days": "Sun", "time": "Closed"}], "id": "1680300018", "name": "USPS COLLECTION BOX - BLUE BOX", "address": {"city": "STATE COLLEGE", "state": "PA", "street": "1471 MARTIN ST", "postcode": "16803"}}},
{"geometry": {"type": "Point", "coordinates": [-77.9064015667, 40.7890866637]}, "type": "Feature", "properties": {"collection_times": [{"days": "Mon-Fri", "time": "3:45pm"}, {"days": "Sat", "time": "2:30pm"}, {"days": "Sun", "time": "Closed"}], "id": "1680300019", "name": "USPS COLLECTION BOX - BLUE BOX", "address": {"city": "STATE COLLEGE", "state": "PA", "street": "101 VALLEY VISTA DR", "postcode": "16803"}}},
{"geometry": {"type": "Point", "coordinates": [-77.8987836285, 40.8157221205]}, "type": "Feature", "properties": {"collection_times": [{"days": "Mon-Fri", "time": "10:15am"}, {"days": "Sat", "time": "9:00am"}, {"days": "Sun", "time": "Closed"}], "id": "1680300020", "name": "USPS COLLECTION BOX - BLUE BOX", "address": {"city": "STATE COLLEGE", "state": "PA", "street": "1945 WADDLE RD", "postcode": "16803"}}},
{"geometry": {"type": "Point", "coordinates": [-77.4028692314, 40.9115974543]}, "type": "Feature", "properties": {"collection_times": [{"days": "Mon-Fri", "time": "3:00pm"}, {"days": "Sat", "time": "10:30am"}, {"days": "Sun", "time": "Closed"}], "id": "1682000000", "name": "USPS COLLECTION BOX - BLUE BOX", "address": {"city": "AARONSBURG", "state": "PA", "street": "164 S RACHELS WAY", "postcode": "16820"}}},
{"geometry": {"type": "Point", "coordinates": [-77.4028692314, 40.9115974543]}, "type": "Feature", "properties": {"collection_times": [{"days": "Mon-Fri", "time": "3:00pm"}, {"days": "Sat", "time": "11:00am"}, {"days": "Sun", "time": "Closed"}], "id": "1682000001", "name": "USPS COLLECTION BOX - PO LOBBY", "address": {"city": "AARONSBURG", "state": "PA", "street": "164 S RACHELS WAY", "postcode": "16820"}}},
{"geometry": {"type": "Point", "coordinates": [-78.1957894559, 40.9572501183]}, "type": "Feature", "properties": {"collection_times": [{"days": "Mon-Fri", "time": "4:00pm"}, {"days": "Sat", "time": "11:45am"}, {"days": "Sun", "time": "Closed"}], "id": "1682100000", "name": "USPS COLLECTION BOX - BLUE BOX", "address": {"city": "ALLPORT", "state": "PA", "street": "5695 MORRISDALE ALLPORT HWY", "postcode": "16821"}}},
{"geometry": {"type": "Point", "coordinates": [-78.1957894559, 40.9572501183]}, "type": "Feature", "properties": {"collection_times": [{"days": "Mon-Fri", "time": "11:55am"}, {"days": "Sat", "time": "11:45am"}, {"days": "Sun", "time": "Closed"}], "id": "1682100001", "name": "USPS COLLECTION BOX - PO LOBBY", "address": {"city": "ALLPORT", "state": "PA", "street": "5695 MORRISDALE ALLPORT HWY", "postcode": "16821"}}},
{"geometry": {"type": "Point", "coordinates": [-77.5884481188, 41.0756702927]}, "type": "Feature", "properties": {"collection_times": [{"days": "Mon-Fri", "time": "3:15pm"}, {"days": "Sat", "time": "12:00pm"}, {"days": "Sun", "time": "Closed"}], "id": "1682200000", "name": "USPS COLLECTION BOX - BLUE BOX", "address": {"city": "BEECH CREEK", "state": "PA", "street": "26 GRANT ST", "postcode": "16822"}}},
{"geometry": {"type": "Point", "coordinates": [-77.5884481188, 41.0756702927]}, "type": "Feature", "properties": {"collection_times": [{"days": "Mon-Fri", "time": "4:00pm"}, {"days": "Sat", "time": "12:00pm"}, {"days": "Sun", "time": "Closed"}], "id": "1682200001", "name": "USPS COLLECTION BOX - PO LOBBY", "address": {"city": "BEECH CREEK", "state": "PA", "street": "26 GRANT ST", "postcode": "16822"}}},
{"geometry": {"type": "Point", "coordinates": [-77.7752390218, 40.9130012768]}, "type": "Feature", "properties": {"collection_times": [{"days": "Mon-Sat", "time": "3:00pm"}, {"days": "Sun", "time": "Closed"}], "id": "1682300000", "name": "USPS COLLECTION BOX - BLUE BOX", "address": {"city": "BELLEFONTE", "state": "PA", "street": "106 W COLLEGE AVE", "postcode": "16823"}}},
{"geometry": {"type": "Point", "coordinates": [-77.7752390218, 40.9130012768]}, "type": "Feature", "properties": {"collection_times": [{"days": "Mon-Fri", "time": "5:00pm"}, {"days": "Sat", "time": "3:30pm"}, {"days": "Sun", "time": "Closed"}], "id": "1682300005", "name": "USPS COLLECTION BOX - BLUE BOX", "address": {"city": "BELLEFONTE", "state": "PA", "street": "132 N ALLEGHENY ST", "postcode": "16823"}}},
{"geometry": {"type": "Point", "coordinates": [-77.7752390218, 40.9130012768]}, "type": "Feature", "properties": {"collection_times": [{"days": "Mon-Sat", "time": "10:00am"}, {"days": "Sun", "time": "Closed"}], "id": "1682300007", "name": "USPS COLLECTION BOX - BLUE BOX", "address": {"city": "BELLEFONTE", "state": "PA", "street": "101 S SPRING ST", "postcode": "16823"}}},
{"geometry": {"type": "Point", "coordinates": [-77.7752390218, 40.9130012768]}, "type": "Feature", "properties": {"collection_times": [{"days": "Mon-Sat", "time": "2:30pm"}, {"days": "Sun", "time": "Closed"}], "id": "1682300009", "name": "USPS COLLECTION BOX - BLUE BOX", "address": {"city": "BELLEFONTE", "state": "PA", "street": "101 S ALLEGHENY ST", "postcode": "16823"}}},
{"geometry": {"type": "Point", "coordinates": [-77.7752390218, 40.9130012768]}, "type": "Feature", "properties": {"collection_times": [{"days": "Mon-Sat", "time": "2:30pm"}, {"days": "Sun", "time": "Closed"}], "id": "1682300011", "name": "USPS COLLECTION BOX - BLUE BOX", "address": {"city": "BELLEFONTE", "state": "PA", "street": "141 W BISHOP ST", "postcode": "16823"}}},
{"geometry": {"type": "Point", "coordinates": [-77.7752390218, 40.9130012768]}, "type": "Feature", "properties": {"collection_times": [{"days": "Mon-Sat", "time": "2:30pm"}, {"days": "Sun", "time": "Closed"}], "id": "1682300012", "name": "USPS COLLECTION BOX - BLUE BOX", "address": {"city": "BELLEFONTE", "state": "PA", "street": "141 S ALLEGHENY ST", "postcode": "16823"}}},
{"geometry": {"type": "Point", "coordinates": [-77.7752390218, 40.9130012768]}, "type": "Feature", "properties": {"collection_times": [{"days": "Mon-Sat", "time": "2:30pm"}, {"days": "Sun", "time": "Closed"}], "id": "1682300014", "name": "USPS COLLECTION BOX - BLUE BOX", "address": {"city": "BELLEFONTE", "state": "PA", "street": "437 BURNSIDE ST", "postcode": "16823"}}},
{"geometry": {"type": "Point", "coordinates": [-77.7752390218, 40.9130012768]}, "type": "Feature", "properties": {"collection_times": [{"days": "Mon-Sat", "time": "11:00am"}, {"days": "Sun", "time": "Closed"}], "id": "1682300017", "name": "USPS COLLECTION BOX - BLUE BOX", "address": {"city": "BELLEFONTE", "state": "PA", "street": "935 E BISHOP ST", "postcode": "16823"}}},
{"geometry": {"type": "Point", "coordinates": [-77.7752390218, 40.9130012768]}, "type": "Feature", "properties": {"collection_times": [{"days": "Mon-Sat", "time": "2:30pm"}, {"days": "Sun", "time": "Closed"}], "id": "1682300032", "name": "USPS COLLECTION BOX - BLUE BOX", "address": {"city": "BELLEFONTE", "state": "PA", "street": "125 W PIKE ST", "postcode": "16823"}}},
{"geometry": {"type": "Point", "coordinates": [-77.7752390218, 40.9130012768]}, "type": "Feature", "properties": {"collection_times": [{"days": "Mon-Fri", "time": "5:00pm"}, {"days": "Sat", "time": "4:00pm"}, {"days": "Sun", "time": "Closed"}], "id": "1682300034", "name": "USPS COLLECTION BOX - BLUE BOX", "address": {"city": "BELLEFONTE", "state": "PA", "street": "132 N ALLEGHENY ST", "postcode": "16823"}}},
{"geometry": {"type": "Point", "coordinates": [-77.7752390218, 40.9130012768]}, "type": "Feature", "properties": {"collection_times": [{"days": "Mon-Sat", "time": "9:30am"}, {"days": "Sun", "time": "Closed"}], "id": "1682300046", "name": "USPS COLLECTION BOX - BLUE BOX", "address": {"city": "BELLEFONTE", "state": "PA", "street": "400 GOVERNORS PARK RD", "postcode": "16823"}}},
{"geometry": {"type": "Point", "coordinates": [-77.7752390218, 40.9130012768]}, "type": "Feature", "properties": {"collection_times": [{"days": "Mon-Fri", "time": "5:00pm"}, {"days": "Sat", "time": "4:00pm"}, {"days": "Sun", "time": "Closed"}], "id": "1682300050", "name": "USPS COLLECTION BOX - PO LOBBY", "address": {"city": "BELLEFONTE", "state": "PA", "street": "132 N ALLEGHENY ST", "postcode": "16823"}}},
{"geometry": {"type": "Point", "coordinates": [-78.3113958908, 40.9861900882]}, "type": "Feature", "properties": {"collection_times": [{"days": "Mon-Fri", "time": "11:45am"}, {"days": "Sat", "time": "11:30am"}, {"days": "Sun", "time": "Closed"}], "id": "1682500000", "name": "USPS COLLECTION BOX - PO LOBBY", "address": {"city": "BIGLER", "state": "PA", "street": "336 BIGLER RD", "postcode": "16825"}}},
{"geometry": {"type": "Point", "coordinates": [-78.3113958908, 40.9861900882]}, "type": "Feature", "properties": {"collection_times": [{"days": "Mon-Fri", "time": "3:30pm"}, {"days": "Sat", "time": "11:30am"}, {"days": "Sun", "time": "Closed"}], "id": "1682500001", "name": "USPS COLLECTION BOX - BLUE BOX", "address": {"city": "BIGLER", "state": "PA", "street": "336 BIGLER RD", "postcode": "16825"}}},
{"geometry": {"type": "Point", "coordinates": [-77.5974457417, 41.0655717999]}, "type": "Feature", "properties": {"collection_times": [{"days": "Mon-Fri", "time": "3:55pm"}, {"days": "Sat", "time": "10:30am"}, {"days": "Sun", "time": "Closed"}], "id": "1682600000", "name": "USPS COLLECTION BOX - BLUE BOX", "address": {"city": "BLANCHARD", "state": "PA", "street": "113 BEACH ST", "postcode": "16826"}}},
{"geometry": {"type": "Point", "coordinates": [-77.5976261786, 41.0650010329]}, "type": "Feature", "properties": {"collection_times": [{"days": "Mon-Fri", "time": "3:00pm"}, {"days": "Sat", "time": "10:30am"}, {"days": "Sun", "time": "Closed"}], "id": "1682600001", "name": "USPS COLLECTION BOX - PO LOBBY", "address": {"city": "BLANCHARD", "state": "PA", "street": "113 BEACH ST", "postcode": "16826"}}},
{"geometry": {"type": "Point", "coordinates": [-77.7933689986, 40.776597874]}, "type": "Feature", "properties": {"collection_times": [{"days": "Mon-Fri", "time": "4:30pm"}, {"days": "Sat", "time": "12:00pm"}, {"days": "Sun", "time": "Closed"}], "id": "1682700000", "name": "USPS COLLECTION BOX - BLUE BOX", "address": {"city": "BOALSBURG", "state": "PA", "street": "110 W PINE ST", "postcode": "16827"}}},
{"geometry": {"type": "Point", "coordinates": [-77.7933689986, 40.776597874]}, "type": "Feature", "properties": {"collection_times": [{"days": "Mon-Fri", "time": "4:30pm"}, {"days": "Sat", "time": "12:00pm"}, {"days": "Sun", "time": "Closed"}], "id": "1682700001", "name": "USPS COLLECTION BOX - PO LOBBY", "address": {"city": "BOALSBURG", "state": "PA", "street": "110 W PINE ST", "postcode": "16827"}}},
{"geometry": {"type": "Point", "coordinates": [-77.6866529796, 40.8488122573]}, "type": "Feature", "properties": {"collection_times": [{"days": "Mon-Fri", "time": "4:00pm"}, {"days": "Sat", "time": "12:00pm"}, {"days": "Sun", "time": "Closed"}], "id": "1682800000", "name": "USPS COLLECTION BOX - BLUE BOX", "address": {"city": "CENTREHALL", "state": "PA", "street": "113 E CHURCH ST", "postcode": "16828"}}},
{"geometry": {"type": "Point", "coordinates": [-77.6866529796, 40.8488122573]}, "type": "Feature", "properties": {"collection_times": [{"days": "Mon-Fri", "time": "4:30pm"}, {"days": "Sat", "time": "12:00pm"}, {"days": "Sun", "time": "Closed"}], "id": "1682800001", "name": "USPS COLLECTION BOX - PO LOBBY", "address": {"city": "CENTREHALL", "state": "PA", "street": "113 E CHURCH ST", "postcode": "16828"}}},
{"geometry": {"type": "Point", "coordinates": [-77.9404585623, 41.0478713709]}, "type": "Feature", "properties": {"collection_times": [{"days": "Mon-Fri", "time": "3:30pm"}, {"days": "Sat", "time": "11:45am"}, {"days": "Sun", "time": "Closed"}], "id": "1682900000", "name": "USPS COLLECTION BOX - BLUE BOX", "address": {"city": "CLARENCE", "state": "PA", "street": "788 CLARENCE RD", "postcode": "16829"}}},
{"geometry": {"type": "Point", "coordinates": [-77.9404585623, 41.0478713709]}, "type": "Feature", "properties": {"collection_times": [{"days": "Mon-Fri", "time": "11:55am"}, {"days": "Sat", "time": "11:45am"}, {"days": "Sun", "time": "Closed"}], "id": "1682900001", "name": "USPS COLLECTION BOX - PO LOBBY", "address": {"city": "CLARENCE", "state": "PA", "street": "788 CLARENCE RD", "postcode": "16829"}}},
{"geometry": {"type": "Point", "coordinates": [-78.4381537852, 41.0234473991]}, "type": "Feature", "properties": {"collection_times": [{"days": "Mon-Sat", "time": "5:00pm"}, {"days": "Sun", "time": "Closed"}], "id": "1683000001", "name": "USPS COLLECTION BOX - BLUE BOX", "address": {"city": "CLEARFIELD", "state": "PA", "street": "118 N 2ND ST", "postcode": "16830"}}},
{"geometry": {"type": "Point", "coordinates": [-78.4381537852, 41.0234473991]}, "type": "Feature", "properties": {"collection_times": [{"days": "Mon-Sat", "time": "5:00pm"}, {"days": "Sun", "time": "Closed"}], "id": "1683000003", "name": "USPS COLLECTION BOX - BLUE BOX", "address": {"city": "CLEARFIELD", "state": "PA", "street": "118 N 2ND ST", "postcode": "16830"}}},
{"geometry": {"type": "Point", "coordinates": [-78.4381537852, 41.0234473991]}, "type": "Feature", "properties": {"collection_times": [{"days": "Mon-Sat", "time": "5:00pm"}, {"days": "Sun", "time": "Closed"}], "id": "1683000005", "name": "USPS COLLECTION BOX - BLUE BOX", "address": {"city": "CLEARFIELD", "state": "PA", "street": "118 N 2ND ST", "postcode": "16830"}}},
{"geometry": {"type": "Point", "coordinates": [-78.4380851639, 41.0221270561]}, "type": "Feature", "properties": {"collection_times": [{"days": "Mon-Fri", "time": "9:00am"}, {"days": "Sat", "time": "8:30am"}, {"days": "Sun", "time": "Closed"}], "id": "1683000006", "name": "USPS COLLECTION BOX - BLUE BOX", "address": {"city": "CLEARFIELD", "state": "PA", "street": "198 E MARKET ST", "postcode": "16830"}}},
{"geometry": {"type": "Point", "coordinates": [-78.437964938, 41.0208553877]}, "type": "Feature", "properties": {"collection_times": [{"days": "Mon-Fri", "time": "9:00am"}, {"days": "Sat", "time": "8:30am"}, {"days": "Sun", "time": "Closed"}], "id": "1683000009", "name": "USPS COLLECTION BOX - BLUE BOX", "address": {"city": "CLEARFIELD", "state": "PA", "street": "102 S 2ND ST", "postcode": "16830"}}},
{"geometry": {"type": "Point", "coordinates": [-78.4496539814, 41.0324276822]}, "type": "Feature", "properties": {"collection_times": [{"days": "Mon-Fri", "time": "4:45pm"}, {"days": "Sat", "time": "9:00am"}, {"days": "Sun", "time": "Closed"}], "id": "1683000017", "name": "USPS COLLECTION BOX - BLUE BOX", "address": {"city": "CLEARFIELD", "state": "PA", "street": "807 TURNPIKE AVE", "postcode": "16830"}}},
{"geometry": {"type": "Point", "coordinates": [-78.4420416291, 41.0284386169]}, "type": "Feature", "properties": {"collection_times": [{"days": "Mon-Sat", "time": "9:00am"}, {"days": "Sun", "time": "Closed"}], "id": "1683000021", "name": "USPS COLLECTION BOX - BLUE BOX", "address": {"city": "CLEARFIELD", "state": "PA", "street": "220 MERRILL ST", "postcode": "16830"}}},
{"geometry": {"type": "Point", "coordinates": [-78.4358069304, 41.0914461043]}, "type": "Feature", "properties": {"collection_times": [{"days": "Mon-Sat", "time": "10:00am"}, {"days": "Sun", "time": "Closed"}], "id": "1683000023", "name": "USPS COLLECTION BOX - BLUE BOX", "address": {"city": "CLEARFIELD", "state": "PA", "street": "170 PLAZA DR", "postcode": "16830"}}},
{"geometry": {"type": "Point", "coordinates": [-78.4145360675, 41.0224637931]}, "type": "Feature", "properties": {"collection_times": [{"days": "Mon-Sat", "time": "11:00am"}, {"days": "Sun", "time": "Closed"}], "id": "1683000024", "name": "USPS COLLECTION BOX - BLUE BOX", "address": {"city": "CLEARFIELD", "state": "PA", "street": "1800 DAISY STREET EXT", "postcode": "16830"}}},
{"geometry": {"type": "Point", "coordinates": [-78.4367235311, 41.0127119711]}, "type": "Feature", "properties": {"collection_times": [{"days": "Mon-Sat", "time": "9:00am"}, {"days": "Sun", "time": "Closed"}], "id": "1683000029", "name": "USPS COLLECTION BOX - BLUE BOX", "address": {"city": "CLEARFIELD", "state": "PA", "street": "502 PARK AVE", "postcode": "16830"}}},
{"geometry": {"type": "Point", "coordinates": [-78.4496647047, 41.0324645529]}, "type": "Feature", "properties": {"collection_times": [{"days": "Mon-Fri", "time": "4:45pm"}, {"days": "Sat", "time": "9:00am"}, {"days": "Sun", "time": "Closed"}], "id": "1683000038", "name": "USPS COLLECTION BOX - BLUE BOX", "address": {"city": "CLEARFIELD", "state": "PA", "street": "809 TURNPIKE AVE", "postcode": "16830"}}},
{"geometry": {"type": "Point", "coordinates": [-78.4371421259, 41.0220214851]}, "type": "Feature", "properties": {"collection_times": [{"days": "Mon-Fri", "time": "5:00pm"}, {"days": "Sat", "time": "9:00am"}, {"days": "Sun", "time": "Closed"}], "id": "1683000044", "name": "USPS COLLECTION BOX - BLUE BOX", "address": {"city": "CLEARFIELD", "state": "PA", "street": "231 E MARKET ST", "postcode": "16830"}}},
{"geometry": {"type": "Point", "coordinates": [-78.4381508832, 41.0232573213]}, "type": "Feature", "properties": {"collection_times": [{"days": "Mon-Fri", "time": "9:00am"}, {"days": "Sat", "time": "8:30am"}, {"days": "Sun", "time": "Closed"}], "id": "1683000045", "name": "USPS COLLECTION BOX - BLUE BOX", "address": {"city": "CLEARFIELD", "state": "PA", "street": "100 N 2ND ST", "postcode": "16830"}}},
{"geometry": {"type": "Point", "coordinates": [-78.4371421259, 41.0220214851]}, "type": "Feature", "properties": {"collection_times": [{"days": "Mon-Fri", "time": "5:00pm"}, {"days": "Sat", "time": "9:00am"}, {"days": "Sun", "time": "Closed"}], "id": "1683000046", "name": "USPS COLLECTION BOX - BLUE BOX", "address": {"city": "CLEARFIELD", "state": "PA", "street": "231 E MARKET ST", "postcode": "16830"}}},
{"geometry": {"type": "Point", "coordinates": [-78.4381537852, 41.0234473991]}, "type": "Feature", "properties": {"collection_times": [{"days": "Mon-Sat", "time": "5:00pm"}, {"days": "Sun", "time": "Closed"}], "id": "1683000049", "name": "USPS COLLECTION BOX - PO LOBBY", "address": {"city": "CLEARFIELD", "state": "PA", "street": "118 N 2ND ST", "postcode": "16830"}}},
{"geometry": {"type": "Point", "coordinates": [-77.4606526147, 40.8631546987]}, "type": "Feature", "properties": {"collection_times": [{"days": "Mon-Fri", "time": "3:00pm"}, {"days": "Sat", "time": "10:45am"}, {"days": "Sun", "time": "Closed"}], "id": "1683200000", "name": "USPS COLLECTION BOX - BLUE BOX", "address": {"city": "COBURN", "state": "PA", "street": "124 B ALY", "postcode": "16832"}}},
{"geometry": {"type": "Point", "coordinates": [-77.4606526147, 40.8631546987]}, "type": "Feature", "properties": {"collection_times": [{"days": "Mon-Fri", "time": "11:55am"}, {"days": "Sat", "time": "10:45am"}, {"days": "Sun", "time": "Closed"}], "id": "1683200001", "name": "USPS COLLECTION BOX - PO LOBBY", "address": {"city": "COBURN", "state": "PA", "street": "124 B ALY", "postcode": "16832"}}},
{"geometry": {"type": "Point", "coordinates": [-78.5272189313, 40.9760887103]}, "type": "Feature", "properties": {"collection_times": [{"days": "Mon-Fri", "time": "4:45pm"}, {"days": "Sat", "time": "3:45pm"}, {"days": "Sun", "time": "Closed"}], "id": "1683300000", "name": "USPS COLLECTION BOX - BLUE BOX", "address": {"city": "CURWENSVILLE", "state": "PA", "street": "525 STATE ST", "postcode": "16833"}}},
{"geometry": {"type": "Point", "coordinates": [-78.5248509266, 40.9759368327]}, "type": "Feature", "properties": {"collection_times": [{"days": "Mon-Sat", "time": "8:30am"}, {"days": "Sun", "time": "Closed"}], "id": "1683300002", "name": "USPS COLLECTION BOX - BLUE BOX", "address": {"city": "CURWENSVILLE", "state": "PA", "street": "435 FILBERT ST", "postcode": "16833"}}},
{"geometry": {"type": "Point", "coordinates": [-78.5266223484, 40.9735862732]}, "type": "Feature", "properties": {"collection_times": [{"days": "Mon-Sat", "time": "11:50am"}, {"days": "Sun", "time": "Closed"}], "id": "1683300003", "name": "USPS COLLECTION BOX - BLUE BOX", "address": {"city": "CURWENSVILLE", "state": "PA", "street": "226 FILBERT ST", "postcode": "16833"}}},
{"geometry": {"type": "Point", "coordinates": [-78.5305041588, 40.9773680967]}, "type": "Feature", "properties": {"collection_times": [{"days": "Mon-Sat", "time": "8:45am"}, {"days": "Sun", "time": "Closed"}], "id": "1683300004", "name": "USPS COLLECTION BOX - BLUE BOX", "address": {"city": "CURWENSVILLE", "state": "PA", "street": "801 STATE ST", "postcode": "16833"}}},
{"geometry": {"type": "Point", "coordinates": [-78.5233902378, 40.9672185615]}, "type": "Feature", "properties": {"collection_times": [{"days": "Mon-Sat", "time": "10:30am"}, {"days": "Sun", "time": "Closed"}], "id": "1683300005", "name": "USPS COLLECTION BOX - BLUE BOX", "address": {"city": "CURWENSVILLE", "state": "PA", "street": "526 SUSQUEHANNA AVE", "postcode": "16833"}}},
{"geometry": {"type": "Point", "coordinates": [-78.5254999157, 40.9699717843]}, "type": "Feature", "properties": {"collection_times": [{"days": "Mon-Sat", "time": "11:00am"}, {"days": "Sun", "time": "Closed"}], "id": "1683300007", "name": "USPS COLLECTION BOX - BLUE BOX", "address": {"city": "CURWENSVILLE", "state": "PA", "street": "236 SUSQUEHANNA AVE", "postcode": "16833"}}},
{"geometry": {"type": "Point", "coordinates": [-78.5238856533, 40.9678565221]}, "type": "Feature", "properties": {"collection_times": [{"days": "Mon-Sat", "time": "10:00am"}, {"days": "Sun", "time": "Closed"}], "id": "1683300008", "name": "USPS COLLECTION BOX - BLUE BOX", "address": {"city": "CURWENSVILLE", "state": "PA", "street": "490 SUSQUEHANNA AVE", "postcode": "16833"}}},
{"geometry": {"type": "Point", "coordinates": [-78.5221688297, 40.9656123054]}, "type": "Feature", "properties": {"collection_times": [{"days": "Mon-Sat", "time": "8:30am"}, {"days": "Sun", "time": "Closed"}], "id": "1683300009", "name": "USPS COLLECTION BOX - BLUE BOX", "address": {"city": "CURWENSVILLE", "state": "PA", "street": "626 SUSQUEHANNA AVE", "postcode": "16833"}}},
{"geometry": {"type": "Point", "coordinates": [-78.5272189313, 40.9760887103]}, "type": "Feature", "properties": {"collection_times": [{"days": "Mon-Fri", "time": "4:45pm"}, {"days": "Sat", "time": "3:45pm"}, {"days": "Sun", "time": "Closed"}], "id": "1683300010", "name": "USPS COLLECTION BOX - PO LOBBY", "address": {"city": "CURWENSVILLE", "state": "PA", "street": "525 STATE ST", "postcode": "16833"}}},
{"geometry": {"type": "Point", "coordinates": [-78.1085333652, 41.0215051205]}, "type": "Feature", "properties": {"collection_times": [{"days": "Mon-Fri", "time": "3:45pm"}, {"days": "Sat", "time": "11:45am"}, {"days": "Sun", "time": "Closed"}], "id": "1683400000", "name": "USPS COLLECTION BOX - BLUE BOX", "address": {"city": "DRIFTING", "state": "PA", "street": "5433 KYLERTOWN DRIFTING HWY", "postcode": "16834"}}},
{"geometry": {"type": "Point", "coordinates": [-78.1085333652, 41.0215051205]}, "type": "Feature", "properties": {"collection_times": [{"days": "Mon-Fri", "time": "11:55am"}, {"days": "Sat", "time": "11:45am"}, {"days": "Sun", "time": "Closed"}], "id": "1683400001", "name": "USPS COLLECTION BOX - PO LOBBY", "address": {"city": "DRIFTING", "state": "PA", "street": "5433 KYLERTOWN DRIFTING HWY", "postcode": "16834"}}},
{"geometry": {"type": "Point", "coordinates": [-77.8749250518, 40.9065153063]}, "type": "Feature", "properties": {"collection_times": [{"days": "Mon-Fri", "time": "3:45pm"}, {"days": "Sat", "time": "11:45am"}, {"days": "Sun", "time": "Closed"}], "id": "1683500000", "name": "USPS COLLECTION BOX - BLUE BOX", "address": {"city": "FLEMING", "state": "PA", "street": "241 MAIN ST", "postcode": "16835"}}},
{"geometry": {"type": "Point", "coordinates": [-77.8749250518, 40.9065153063]}, "type": "Feature", "properties": {"collection_times": [{"days": "Mon-Fri", "time": "11:55am"}, {"days": "Sat", "time": "11:45am"}, {"days": "Sun", "time": "Closed"}], "id": "1683500001", "name": "USPS COLLECTION BOX - PO LOBBY", "address": {"city": "FLEMING", "state": "PA", "street": "241 MAIN ST", "postcode": "16835"}}},
{"geometry": {"type": "Point", "coordinates": [-78.2275859782, 41.1040706742]}, "type": "Feature", "properties": {"collection_times": [{"days": "Mon-Fri", "time": "4:00pm"}, {"days": "Sat", "time": "10:45am"}, {"days": "Sun", "time": "Closed"}], "id": "1683600000", "name": "USPS COLLECTION BOX - BLUE BOX", "address": {"city": "FRENCHVILLE", "state": "PA", "street": "28478 FRENCHVILLE KARTHAUS HWY", "postcode": "16836"}}},
{"geometry": {"type": "Point", "coordinates": [-78.2275859782, 41.1040706742]}, "type": "Feature", "properties": {"collection_times": [{"days": "Mon-Fri", "time": "11:55am"}, {"days": "Sat", "time": "10:45am"}, {"days": "Sun", "time": "Closed"}], "id": "1683600001", "name": "USPS COLLECTION BOX - PO LOBBY", "address": {"city": "FRENCHVILLE", "state": "PA", "street": "28478 FRENCHVILLE KARTHAUS HWY", "postcode": "16836"}}},
{"geometry": {"type": "Point", "coordinates": [-78.6128010066, 40.9654288747]}, "type": "Feature", "properties": {"collection_times": [{"days": "Mon-Fri", "time": "4:00pm"}, {"days": "Sat", "time": "11:15am"}, {"days": "Sun", "time": "Closed"}], "id": "1683800000", "name": "USPS COLLECTION BOX - BLUE BOX", "address": {"city": "GRAMPIAN", "state": "PA", "street": "273 MAIN ST", "postcode": "16838"}}},
{"geometry": {"type": "Point", "coordinates": [-78.6128010066, 40.9654288747]}, "type": "Feature", "properties": {"collection_times": [{"days": "Mon-Fri", "time": "4:00pm"}, {"days": "Sat", "time": "11:15am"}, {"days": "Sun", "time": "Closed"}], "id": "1683800001", "name": "USPS COLLECTION BOX - PO LOBBY", "address": {"city": "GRAMPIAN", "state": "PA", "street": "273 MAIN ST", "postcode": "16838"}}},
{"geometry": {"type": "Point", "coordinates": [-78.1898107926, 40.9292237131]}, "type": "Feature", "properties": {"collection_times": [{"days": "Mon-Fri", "time": "4:30pm"}, {"days": "Sat", "time": "10:45am"}, {"days": "Sun", "time": "Closed"}], "id": "1684000000", "name": "USPS COLLECTION BOX - BLUE BOX", "address": {"city": "HAWK RUN", "state": "PA", "street": "398 POWELL ST", "postcode": "16840"}}},
{"geometry": {"type": "Point", "coordinates": [-78.1898107926, 40.9292237131]}, "type": "Feature", "properties": {"collection_times": [{"days": "Mon-Fri", "time": "11:55am"}, {"days": "Sat", "time": "10:45am"}, {"days": "Sun", "time": "Closed"}], "id": "1684000001", "name": "USPS COLLECTION BOX - PO LOBBY", "address": {"city": "HAWK RUN", "state": "PA", "street": "398 POWELL ST", "postcode": "16840"}}},
{"geometry": {"type": "Point", "coordinates": [-77.6565375439, 41.0136224706]}, "type": "Feature", "properties": {"collection_times": [{"days": "Mon-Fri", "time": "4:00pm"}, {"days": "Sat", "time": "11:00am"}, {"days": "Sun", "time": "Closed"}], "id": "1684100000", "name": "USPS COLLECTION BOX - BLUE BOX", "address": {"city": "HOWARD", "state": "PA", "street": "324 WALNUT ST", "postcode": "16841"}}},
{"geometry": {"type": "Point", "coordinates": [-77.6565375439, 41.0136224706]}, "type": "Feature", "properties": {"collection_times": [{"days": "Mon-Fri", "time": "4:00pm"}, {"days": "Sat", "time": "11:00am"}, {"days": "Sun", "time": "Closed"}], "id": "1684100001", "name": "USPS COLLECTION BOX - PO LOBBY", "address": {"city": "HOWARD", "state": "PA", "street": "324 WALNUT ST", "postcode": "16841"}}},
{"geometry": {"type": "Point", "coordinates": [-78.4615920236, 41.0045921669]}, "type": "Feature", "properties": {"collection_times": [{"days": "Mon-Fri", "time": "4:15pm"}, {"days": "Sat", "time": "11:45am"}, {"days": "Sun", "time": "Closed"}], "id": "1684300000", "name": "USPS COLLECTION BOX - BLUE BOX", "address": {"city": "HYDE", "state": "PA", "street": "1501 WASHINGTON AVE", "postcode": "16843"}}},
{"geometry": {"type": "Point", "coordinates": [-78.4615920236, 41.0045921669]}, "type": "Feature", "properties": {"collection_times": [{"days": "Mon-Fri", "time": "4:15pm"}, {"days": "Sat", "time": "11:45am"}, {"days": "Sun", "time": "Closed"}], "id": "1684300001", "name": "USPS COLLECTION BOX - PO LOBBY", "address": {"city": "HYDE", "state": "PA", "street": "1501 WASHINGTON AVE", "postcode": "16843"}}},
{"geometry": {"type": "Point", "coordinates": [-77.9438056506, 40.8626756306]}, "type": "Feature", "properties": {"collection_times": [{"days": "Mon-Fri", "time": "4:00pm"}, {"days": "Sat", "time": "12:00pm"}, {"days": "Sun", "time": "Closed"}], "id": "1684400000", "name": "USPS COLLECTION BOX - BLUE BOX", "address": {"city": "JULIAN", "state": "PA", "street": "4848 S EAGLE VALLEY RD", "postcode": "16844"}}},
{"geometry": {"type": "Point", "coordinates": [-77.9438056506, 40.8626756306]}, "type": "Feature", "properties": {"collection_times": [{"days": "Mon-Fri", "time": "2:00pm"}, {"days": "Sat", "time": "11:00am"}, {"days": "Sun", "time": "Closed"}], "id": "1684400001", "name": "USPS COLLECTION BOX - PO LOBBY", "address": {"city": "JULIAN", "state": "PA", "street": "4848 S EAGLE VALLEY RD", "postcode": "16844"}}},
{"geometry": {"type": "Point", "coordinates": [-77.9986072287, 41.1228184582]}, "type": "Feature", "properties": {"collection_times": [{"days": "Mon-Fri", "time": "3:30pm"}, {"days": "Sat", "time": "10:45am"}, {"days": "Sun", "time": "Closed"}], "id": "1684500000", "name": "USPS COLLECTION BOX - BLUE BOX", "address": {"city": "KARTHAUS", "state": "PA", "street": "48 SMITH ST", "postcode": "16845"}}},
{"geometry": {"type": "Point", "coordinates": [-77.9986072287, 41.1228184582]}, "type": "Feature", "properties": {"collection_times": [{"days": "Mon-Fri", "time": "3:30pm"}, {"days": "Sat", "time": "10:45am"}, {"days": "Sun", "time": "Closed"}], "id": "1684500002", "name": "USPS COLLECTION BOX - PO LOBBY", "address": {"city": "KARTHAUS", "state": "PA", "street": "48 SMITH ST", "postcode": "16845"}}},
{"geometry": {"type": "Point", "coordinates": [-78.1683441518, 40.9933892059]}, "type": "Feature", "properties": {"collection_times": [{"days": "Mon-Fri", "time": "4:00pm"}, {"days": "Sat", "time": "10:45am"}, {"days": "Sun", "time": "Closed"}], "id": "1684700000", "name": "USPS COLLECTION BOX - BLUE BOX", "address": {"city": "KYLERTOWN", "state": "PA", "street": "93 ROLLING STONE RD", "postcode": "16847"}}},
{"geometry": {"type": "Point", "coordinates": [-78.1683441518, 40.9933892059]}, "type": "Feature", "properties": {"collection_times": [{"days": "Mon-Fri", "time": "4:00pm"}, {"days": "Sat", "time": "10:45am"}, {"days": "Sun", "time": "Closed"}], "id": "1684700001", "name": "USPS COLLECTION BOX - PO LOBBY", "address": {"city": "KYLERTOWN", "state": "PA", "street": "93 ROLLING STONE RD", "postcode": "16847"}}},
{"geometry": {"type": "Point", "coordinates": [-77.5311831675, 41.0157750945]}, "type": "Feature", "properties": {"collection_times": [{"days": "Mon-Fri", "time": "3:00pm"}, {"days": "Sat", "time": "10:45am"}, {"days": "Sun", "time": "Closed"}], "id": "1684800000", "name": "USPS COLLECTION BOX - BLUE BOX", "address": {"city": "LAMAR", "state": "PA", "street": "5015 NITTANY VALLEY DR", "postcode": "16848"}}},
{"geometry": {"type": "Point", "coordinates": [-77.5311831675, 41.0157750945]}, "type": "Feature", "properties": {"collection_times": [{"days": "Mon-Fri", "time": "3:30pm"}, {"days": "Sat", "time": "10:45am"}, {"days": "Sun", "time": "Closed"}], "id": "1684800001", "name": "USPS COLLECTION BOX - PO LOBBY", "address": {"city": "LAMAR", "state": "PA", "street": "5015 NITTANY VALLEY DR", "postcode": "16848"}}},
{"geometry": {"type": "Point", "coordinates": [-78.1447321257, 40.9664212856]}, "type": "Feature", "properties": {"collection_times": [{"days": "Mon-Fri", "time": "3:00pm"}, {"days": "Sat", "time": "11:45am"}, {"days": "Sun", "time": "Closed"}], "id": "1684900000", "name": "USPS COLLECTION BOX - BLUE BOX", "address": {"city": "LANSE", "state": "PA", "street": "977 MAPLE ST", "postcode": "16849"}}},
{"geometry": {"type": "Point", "coordinates": [-78.1447321257, 40.9664212856]}, "type": "Feature", "properties": {"collection_times": [{"days": "Mon-Fri", "time": "11:55am"}, {"days": "Sat", "time": "11:45am"}, {"days": "Sun", "time": "Closed"}], "id": "1684900001", "name": "USPS COLLECTION BOX - PO LOBBY", "address": {"city": "LANSE", "state": "PA", "street": "977 MAPLE ST", "postcode": "16849"}}},
{"geometry": {"type": "Point", "coordinates": [-77.8183533698, 40.8096618649]}, "type": "Feature", "properties": {"collection_times": [{"days": "Mon-Fri", "time": "5:00pm"}, {"days": "Sat", "time": "12:00pm"}, {"days": "Sun", "time": "Closed"}], "id": "1685100000", "name": "USPS COLLECTION BOX - BLUE BOX", "address": {"city": "LEMONT", "state": "PA", "street": "141 MARY ST", "postcode": "16851"}}},
{"geometry": {"type": "Point", "coordinates": [-77.8183533698, 40.8096618649]}, "type": "Feature", "properties": {"collection_times": [{"days": "Mon-Fri", "time": "5:00pm"}, {"days": "Sat", "time": "12:00pm"}, {"days": "Sun", "time": "Closed"}], "id": "1685100001", "name": "USPS COLLECTION BOX - BLUE BOX", "address": {"city": "LEMONT", "state": "PA", "street": "141 MARY ST", "postcode": "16851"}}},
{"geometry": {"type": "Point", "coordinates": [-77.8183533698, 40.8096618649]}, "type": "Feature", "properties": {"collection_times": [{"days": "Mon-Fri", "time": "5:00pm"}, {"days": "Sat", "time": "12:00pm"}, {"days": "Sun", "time": "Closed"}], "id": "1685100002", "name": "USPS COLLECTION BOX - PO LOBBY", "address": {"city": "LEMONT", "state": "PA", "street": "141 MARY ST", "postcode": "16851"}}},
{"geometry": {"type": "Point", "coordinates": [-77.4844388405, 40.9323009113]}, "type": "Feature", "properties": {"collection_times": [{"days": "Mon-Fri", "time": "3:00pm"}, {"days": "Sat", "time": "10:45am"}, {"days": "Sun", "time": "Closed"}], "id": "1685200000", "name": "USPS COLLECTION BOX - BLUE BOX", "address": {"city": "MADISONBURG", "state": "PA", "street": "4682 BRUSH VALLEY RD STE 1", "postcode": "16852"}}},
{"geometry": {"type": "Point", "coordinates": [-77.4844388405, 40.9323009113]}, "type": "Feature", "properties": {"collection_times": [{"days": "Mon-Fri", "time": "12:55pm"}, {"days": "Sat", "time": "10:45am"}, {"days": "Sun", "time": "Closed"}], "id": "1685200001", "name": "USPS COLLECTION BOX - PO LOBBY", "address": {"city": "MADISONBURG", "state": "PA", "street": "4682 BRUSH VALLEY RD STE 1", "postcode": "16852"}}},
{"geometry": {"type": "Point", "coordinates": [-77.7856787753, 40.9420879947]}, "type": "Feature", "properties": {"collection_times": [{"days": "Mon-Fri", "time": "3:45pm"}, {"days": "Sat", "time": "12:00pm"}, {"days": "Sun", "time": "Closed"}], "id": "1685300000", "name": "USPS COLLECTION BOX - BLUE BOX", "address": {"city": "MILESBURG", "state": "PA", "street": "202 MILL ST", "postcode": "16853"}}},
{"geometry": {"type": "Point", "coordinates": [-77.7856787753, 40.9420879947]}, "type": "Feature", "properties": {"collection_times": [{"days": "Mon-Fri", "time": "3:45pm"}, {"days": "Sat", "time": "12:00pm"}, {"days": "Sun", "time": "Closed"}], "id": "1685300001", "name": "USPS COLLECTION BOX - PO LOBBY", "address": {"city": "MILESBURG", "state": "PA", "street": "202 MILL ST", "postcode": "16853"}}},
{"geometry": {"type": "Point", "coordinates": [-77.4769589682, 40.8909843732]}, "type": "Feature", "properties": {"collection_times": [{"days": "Mon-Fri", "time": "3:45pm"}, {"days": "Sat", "time": "11:15am"}, {"days": "Sun", "time": "Closed"}], "id": "1685400000", "name": "USPS COLLECTION BOX - BLUE BOX", "address": {"city": "MILLHEIM", "state": "PA", "street": "101 W MAIN ST", "postcode": "16854"}}},
{"geometry": {"type": "Point", "coordinates": [-77.4769589682, 40.8909843732]}, "type": "Feature", "properties": {"collection_times": [{"days": "Mon-Fri", "time": "3:45pm"}, {"days": "Sat", "time": "11:00am"}, {"days": "Sun", "time": "Closed"}], "id": "1685400001", "name": "USPS COLLECTION BOX - PO LOBBY", "address": {"city": "MILLHEIM", "state": "PA", "street": "101 W MAIN ST", "postcode": "16854"}}},
{"geometry": {"type": "Point", "coordinates": [-78.3632445983, 40.9988379164]}, "type": "Feature", "properties": {"collection_times": [{"days": "Mon-Fri", "time": "4:00pm"}, {"days": "Sat", "time": "11:45am"}, {"days": "Sun", "time": "Closed"}], "id": "1685500000", "name": "USPS COLLECTION BOX - BLUE BOX", "address": {"city": "MINERAL SPRINGS", "state": "PA", "street": "244 POST OFFICE RD", "postcode": "16855"}}},
{"geometry": {"type": "Point", "coordinates": [-78.3632445983, 40.9988379164]}, "type": "Feature", "properties": {"collection_times": [{"days": "Mon-Fri", "time": "11:55am"}, {"days": "Sat", "time": "11:45am"}, {"days": "Sun", "time": "Closed"}], "id": "1685500001", "name": "USPS COLLECTION BOX - PO LOBBY", "address": {"city": "MINERAL SPRINGS", "state": "PA", "street": "244 POST OFFICE RD", "postcode": "16855"}}},
{"geometry": {"type": "Point", "coordinates": [-77.7780516673, 40.9123874107]}, "type": "Feature", "properties": {"collection_times": [{"days": "Mon-Fri", "time": "3:00pm"}, {"days": "Sat", "time": "11:30am"}, {"days": "Sun", "time": "Closed"}], "id": "1685600000", "name": "USPS COLLECTION BOX - BLUE BOX", "address": {"city": "MINGOVILLE", "state": "PA", "street": "101 HECLA RD", "postcode": "16856"}}},
{"geometry": {"type": "Point", "coordinates": [-77.7780516673, 40.9123874107]}, "type": "Feature", "properties": {"collection_times": [{"days": "Mon-Fri", "time": "11:55am"}, {"days": "Sat", "time": "11:30am"}, {"days": "Sun", "time": "Closed"}], "id": "1685600001", "name": "USPS COLLECTION BOX - PO LOBBY", "address": {"city": "MINGOVILLE", "state": "PA", "street": "101 HECLA RD", "postcode": "16856"}}},
{"geometry": {"type": "Point", "coordinates": [-78.2222302219, 40.9386253361]}, "type": "Feature", "properties": {"collection_times": [{"days": "Mon-Fri", "time": "4:10pm"}, {"days": "Sat", "time": "11:30am"}, {"days": "Sun", "time": "Closed"}], "id": "1685800000", "name": "USPS COLLECTION BOX - BLUE BOX", "address": {"city": "MORRISDALE", "state": "PA", "street": "52 CHURCH ST", "postcode": "16858"}}},
{"geometry": {"type": "Point", "coordinates": [-78.2222302219, 40.9386253361]}, "type": "Feature", "properties": {"collection_times": [{"days": "Mon-Fri", "time": "4:10pm"}, {"days": "Sat", "time": "11:30am"}, {"days": "Sun", "time": "Closed"}], "id": "1685800003", "name": "USPS COLLECTION BOX - PO LOBBY", "address": {"city": "MORRISDALE", "state": "PA", "street": "52 CHURCH ST", "postcode": "16858"}}},
{"geometry": {"type": "Point", "coordinates": [-78.001022837, 41.0322448673]}, "type": "Feature", "properties": {"collection_times": [{"days": "Mon-Fri", "time": "3:30pm"}, {"days": "Sat", "time": "9:45am"}, {"days": "Sun", "time": "Closed"}], "id": "1685900000", "name": "USPS COLLECTION BOX - BLUE BOX", "address": {"city": "MOSHANNON", "state": "PA", "street": "1511 W SYCAMORE RD", "postcode": "16859"}}},
{"geometry": {"type": "Point", "coordinates": [-78.001022837, 41.0322448673]}, "type": "Feature", "properties": {"collection_times": [{"days": "Mon-Fri", "time": "10:55am"}, {"days": "Sat", "time": "9:45am"}, {"days": "Sun", "time": "Closed"}], "id": "1685900001", "name": "USPS COLLECTION BOX - PO LOBBY", "address": {"city": "MOSHANNON", "state": "PA", "street": "1511 W SYCAMORE RD", "postcode": "16859"}}},
{"geometry": {"type": "Point", "coordinates": [-78.5388889712, 40.8934526079]}, "type": "Feature", "properties": {"collection_times": [{"days": "Mon-Fri", "time": "4:15pm"}, {"days": "Sat", "time": "11:30am"}, {"days": "Sun", "time": "Closed"}], "id": "1686100000", "name": "USPS COLLECTION BOX - BLUE BOX", "address": {"city": "NEW MILLPORT", "state": "PA", "street": "7083 DOUGLAS RD", "postcode": "16861"}}},
{"geometry": {"type": "Point", "coordinates": [-78.5388889712, 40.8934526079]}, "type": "Feature", "properties": {"collection_times": [{"days": "Mon-Fri", "time": "10:50am"}, {"days": "Sat", "time": "11:45am"}, {"days": "Sun", "time": "Closed"}], "id": "1686100001", "name": "USPS COLLECTION BOX - PO LOBBY", "address": {"city": "NEW MILLPORT", "state": "PA", "street": "7083 DOUGLAS RD", "postcode": "16861"}}},
{"geometry": {"type": "Point", "coordinates": [-78.4657371875, 40.9062069959]}, "type": "Feature", "properties": {"collection_times": [{"days": "Mon-Fri", "time": "4:15pm"}, {"days": "Sat", "time": "10:45am"}, {"days": "Sun", "time": "Closed"}], "id": "1686300000", "name": "USPS COLLECTION BOX - BLUE BOX", "address": {"city": "OLANTA", "state": "PA", "street": "86 LITTLE CLEARFIELD CREEK RD", "postcode": "16863"}}},
{"geometry": {"type": "Point", "coordinates": [-78.4657371875, 40.9062069959]}, "type": "Feature", "properties": {"collection_times": [{"days": "Mon-Fri", "time": "11:55am"}, {"days": "Sat", "time": "10:45am"}, {"days": "Sun", "time": "Closed"}], "id": "1686300001", "name": "USPS COLLECTION BOX - PO LOBBY", "address": {"city": "OLANTA", "state": "PA", "street": "86 LITTLE CLEARFIELD CREEK RD", "postcode": "16863"}}},
{"geometry": {"type": "Point", "coordinates": [-77.9932631997, 40.7052179018]}, "type": "Feature", "properties": {"collection_times": [{"days": "Mon-Fri", "time": "3:00pm"}, {"days": "Sat", "time": "11:00am"}, {"days": "Sun", "time": "Closed"}], "id": "1686500000", "name": "USPS COLLECTION BOX - BLUE BOX", "address": {"city": "PA FURNACE", "state": "PA", "street": "6890 W WHITEHALL RD", "postcode": "16865"}}},
{"geometry": {"type": "Point", "coordinates": [-77.9932631997, 40.7052179018]}, "type": "Feature", "properties": {"collection_times": [{"days": "Mon-Fri", "time": "3:00pm"}, {"days": "Sat", "time": "11:00am"}, {"days": "Sun", "time": "Closed"}], "id": "1686500001", "name": "USPS COLLECTION BOX - PO LOBBY", "address": {"city": "PA FURNACE", "state": "PA", "street": "6890 W WHITEHALL RD", "postcode": "16865"}}},
{"geometry": {"type": "Point", "coordinates": [-78.221645807, 40.8966925881]}, "type": "Feature", "properties": {"collection_times": [{"days": "Mon-Fri", "time": "5:00pm"}, {"days": "Sat", "time": "3:30pm"}, {"days": "Sun", "time": "Closed"}], "id": "1686600000", "name": "USPS COLLECTION BOX - BLUE BOX", "address": {"city": "PHILIPSBURG", "state": "PA", "street": "222 E LAUREL ST", "postcode": "16866"}}},
{"geometry": {"type": "Point", "coordinates": [-78.1720495591, 40.8662033731]}, "type": "Feature", "properties": {"collection_times": [{"days": "Mon-Sat", "time": "9:30am"}, {"days": "Sun", "time": "Closed"}], "id": "1686600001", "name": "USPS COLLECTION BOX - BLUE BOX", "address": {"city": "PHILIPSBURG", "state": "PA", "street": "99 AMES PLZ", "postcode": "16866"}}},
{"geometry": {"type": "Point", "coordinates": [-78.221645807, 40.8966925881]}, "type": "Feature", "properties": {"collection_times": [{"days": "Mon-Fri", "time": "5:00pm"}, {"days": "Sat", "time": "3:30pm"}, {"days": "Sun", "time": "Closed"}], "id": "1686600020", "name": "USPS COLLECTION BOX - BLUE BOX", "address": {"city": "PHILIPSBURG", "state": "PA", "street": "222 E LAUREL ST", "postcode": "16866"}}},
{"geometry": {"type": "Point", "coordinates": [-78.221645807, 40.8966925881]}, "type": "Feature", "properties": {"collection_times": [{"days": "Mon-Fri", "time": "5:00pm"}, {"days": "Sat", "time": "3:30pm"}, {"days": "Sun", "time": "Closed"}], "id": "1686600023", "name": "USPS COLLECTION BOX - PO LOBBY", "address": {"city": "PHILIPSBURG", "state": "PA", "street": "222 E LAUREL ST", "postcode": "16866"}}},
{"geometry": {"type": "Point", "coordinates": [-77.8848177991, 40.7341443239]}, "type": "Feature", "properties": {"collection_times": [{"days": "Mon-Fri", "time": "4:00pm"}, {"days": "Sat", "time": "12:00pm"}, {"days": "Sun", "time": "Closed"}], "id": "1686800000", "name": "USPS COLLECTION BOX - BLUE BOX", "address": {"city": "PINE GRV MLS", "state": "PA", "street": "112 E PINE GROVE RD", "postcode": "16868"}}},
{"geometry": {"type": "Point", "coordinates": [-77.8848177991, 40.7341443239]}, "type": "Feature", "properties": {"collection_times": [{"days": "Mon-Fri", "time": "4:15pm"}, {"days": "Sat", "time": "12:00pm"}, {"days": "Sun", "time": "Closed"}], "id": "1686800001", "name": "USPS COLLECTION BOX - PO LOBBY", "address": {"city": "PINE GRV MLS", "state": "PA", "street": "112 E PINE GROVE RD", "postcode": "16868"}}},
{"geometry": {"type": "Point", "coordinates": [-78.0541719993, 40.7998183184]}, "type": "Feature", "properties": {"collection_times": [{"days": "Mon-Fri", "time": "5:00pm"}, {"days": "Sat", "time": "12:00pm"}, {"days": "Sun", "time": "Closed"}], "id": "1687000000", "name": "USPS COLLECTION BOX - BLUE BOX", "address": {"city": "PORT MATILDA", "state": "PA", "street": "109 N HIGH ST", "postcode": "16870"}}},
{"geometry": {"type": "Point", "coordinates": [-78.0541719993, 40.7998183184]}, "type": "Feature", "properties": {"collection_times": [{"days": "Mon-Fri", "time": "5:00pm"}, {"days": "Sat", "time": "12:00pm"}, {"days": "Sun", "time": "Closed"}], "id": "1687000001", "name": "USPS COLLECTION BOX - PO LOBBY", "address": {"city": "PORT MATILDA", "state": "PA", "street": "109 N HIGH ST", "postcode": "16870"}}},
{"geometry": {"type": "Point", "coordinates": [-77.446808893, 40.9441808549]}, "type": "Feature", "properties": {"collection_times": [{"days": "Mon-Fri", "time": "3:15pm"}, {"days": "Sat", "time": "11:00am"}, {"days": "Sun", "time": "Closed"}], "id": "1687200000", "name": "USPS COLLECTION BOX - BLUE BOX", "address": {"city": "REBERSBURG", "state": "PA", "street": "109 E MAIN ST", "postcode": "16872"}}},
{"geometry": {"type": "Point", "coordinates": [-77.446808893, 40.9441808549]}, "type": "Feature", "properties": {"collection_times": [{"days": "Mon-Fri", "time": "12:25pm"}, {"days": "Sat", "time": "11:00am"}, {"days": "Sun", "time": "Closed"}], "id": "1687200001", "name": "USPS COLLECTION BOX - PO LOBBY", "address": {"city": "REBERSBURG", "state": "PA", "street": "109 E MAIN ST", "postcode": "16872"}}},
{"geometry": {"type": "Point", "coordinates": [-78.4381043398, 41.0235297391]}, "type": "Feature", "properties": {"collection_times": [{"days": "Mon-Fri", "time": "3:45pm"}, {"days": "Sat", "time": "11:45am"}, {"days": "Sun", "time": "Closed"}], "id": "1687300000", "name": "USPS COLLECTION BOX - BLUE BOX", "address": {"city": "SHAWVILLE", "state": "PA", "street": "23 TROUTE RUN RD", "postcode": "16873"}}},
{"geometry": {"type": "Point", "coordinates": [-78.4381043398, 41.0235297391]}, "type": "Feature", "properties": {"collection_times": [{"days": "Mon-Fri", "time": "10:50am"}, {"days": "Sat", "time": "11:45am"}, {"days": "Sun", "time": "Closed"}], "id": "1687300001", "name": "USPS COLLECTION BOX - PO LOBBY", "address": {"city": "SHAWVILLE", "state": "PA", "street": "23 TROUTE RUN RD", "postcode": "16873"}}},
{"geometry": {"type": "Point", "coordinates": [-77.9464369661, 41.0308803497]}, "type": "Feature", "properties": {"collection_times": [{"days": "Mon-Fri", "time": "3:00pm"}, {"days": "Sat", "time": "11:00am"}, {"days": "Sun", "time": "Closed"}], "id": "1687400000", "name": "USPS COLLECTION BOX - BLUE BOX", "address": {"city": "SNOWSHOE", "state": "PA", "street": "105 S MOSHANNON AVE", "postcode": "16874"}}},
{"geometry": {"type": "Point", "coordinates": [-77.9464369661, 41.0308803497]}, "type": "Feature", "properties": {"collection_times": [{"days": "Mon-Fri", "time": "2:30pm"}, {"days": "Sat", "time": "11:15am"}, {"days": "Sun", "time": "Closed"}], "id": "1687400001", "name": "USPS COLLECTION BOX - PO LOBBY", "address": {"city": "SNOWSHOE", "state": "PA", "street": "105 S MOSHANNON AVE", "postcode": "16874"}}},
{"geometry": {"type": "Point", "coordinates": [-77.94364709, 41.0295430143]}, "type": "Feature", "properties": {"collection_times": [{"days": "Mon-Sat", "time": "2:30pm"}, {"days": "Sun", "time": "Closed"}], "id": "1687400002", "name": "USPS COLLECTION BOX - BLUE BOX", "address": {"city": "SNOWSHOE", "state": "PA", "street": "491 E SYCAMORE RD", "postcode": "16874"}}},
{"geometry": {"type": "Point", "coordinates": [-77.5728425914, 40.8531374774]}, "type": "Feature", "properties": {"collection_times": [{"days": "Mon-Fri", "time": "4:00pm"}, {"days": "Sat", "time": "11:30am"}, {"days": "Sun", "time": "Closed"}], "id": "1687500000", "name": "USPS COLLECTION BOX - BLUE BOX", "address": {"city": "SPRING MILLS", "state": "PA", "street": "136 SCHOOL ST", "postcode": "16875"}}},
{"geometry": {"type": "Point", "coordinates": [-77.5728425914, 40.8531374774]}, "type": "Feature", "properties": {"collection_times": [{"days": "Mon-Fri", "time": "4:00pm"}, {"days": "Sat", "time": "11:45am"}, {"days": "Sun", "time": "Closed"}], "id": "1687500001", "name": "USPS COLLECTION BOX - PO LOBBY", "address": {"city": "SPRING MILLS", "state": "PA", "street": "136 SCHOOL ST", "postcode": "16875"}}},
{"geometry": {"type": "Point", "coordinates": [-78.2885184105, 40.9590488321]}, "type": "Feature", "properties": {"collection_times": [{"days": "Mon-Fri", "time": "4:15pm"}, {"days": "Sat", "time": "11:45am"}, {"days": "Sun", "time": "Closed"}], "id": "1687600000", "name": "USPS COLLECTION BOX - BLUE BOX", "address": {"city": "WALLACETON", "state": "PA", "street": "445 CLEARFIELD ST", "postcode": "16876"}}},
{"geometry": {"type": "Point", "coordinates": [-78.2885184105, 40.9590488321]}, "type": "Feature", "properties": {"collection_times": [{"days": "Mon-Fri", "time": "11:55am"}, {"days": "Sat", "time": "11:45am"}, {"days": "Sun", "time": "Closed"}], "id": "1687600001", "name": "USPS COLLECTION BOX - PO LOBBY", "address": {"city": "WALLACETON", "state": "PA", "street": "445 CLEARFIELD ST", "postcode": "16876"}}},
{"geometry": {"type": "Point", "coordinates": [-78.1354757113, 40.704125902]}, "type": "Feature", "properties": {"collection_times": [{"days": "Mon-Fri", "time": "4:00pm"}, {"days": "Sat", "time": "10:45am"}, {"days": "Sun", "time": "Closed"}], "id": "1687700000", "name": "USPS COLLECTION BOX - BLUE BOX", "address": {"city": "WARRIORS MARK", "state": "PA", "street": "1883 CENTRE LINE RD", "postcode": "16877"}}},
{"geometry": {"type": "Point", "coordinates": [-78.1354757113, 40.704125902]}, "type": "Feature", "properties": {"collection_times": [{"days": "Mon-Fri", "time": "4:00pm"}, {"days": "Sat", "time": "10:45am"}, {"days": "Sun", "time": "Closed"}], "id": "1687700001", "name": "USPS COLLECTION BOX - PO LOBBY", "address": {"city": "WARRIORS MARK", "state": "PA", "street": "1883 CENTRE LINE RD", "postcode": "16877"}}},
{"geometry": {"type": "Point", "coordinates": [-78.35557378, 40.9438123337]}, "type": "Feature", "properties": {"collection_times": [{"days": "Mon-Fri", "time": "4:15pm"}, {"days": "Sat", "time": "11:15am"}, {"days": "Sun", "time": "Closed"}], "id": "1687800000", "name": "USPS COLLECTION BOX - BLUE BOX", "address": {"city": "WEST DECATUR", "state": "PA", "street": "105 BLUE BALL RD", "postcode": "16878"}}},
{"geometry": {"type": "Point", "coordinates": [-78.35557378, 40.9438123337]}, "type": "Feature", "properties": {"collection_times": [{"days": "Mon-Fri", "time": "4:15pm"}, {"days": "Sat", "time": "11:15am"}, {"days": "Sun", "time": "Closed"}], "id": "1687800001", "name": "USPS COLLECTION BOX - PO LOBBY", "address": {"city": "WEST DECATUR", "state": "PA", "street": "105 BLUE BALL RD", "postcode": "16878"}}},
{"geometry": {"type": "Point", "coordinates": [-78.1491820244, 40.9651383167]}, "type": "Feature", "properties": {"collection_times": [{"days": "Mon-Fri", "time": "3:30pm"}, {"days": "Sat", "time": "11:30am"}, {"days": "Sun", "time": "Closed"}], "id": "1687900000", "name": "USPS COLLECTION BOX - BLUE BOX", "address": {"city": "WINBURNE", "state": "PA", "street": "1208 MAIN ST", "postcode": "16879"}}},
{"geometry": {"type": "Point", "coordinates": [-78.1491820244, 40.9651383167]}, "type": "Feature", "properties": {"collection_times": [{"days": "Mon-Fri", "time": "3:30pm"}, {"days": "Sat", "time": "11:30am"}, {"days": "Sun", "time": "Closed"}], "id": "1687900001", "name": "USPS COLLECTION BOX - PO LOBBY", "address": {"city": "WINBURNE", "state": "PA", "street": "1208 MAIN ST", "postcode": "16879"}}},
{"geometry": {"type": "Point", "coordinates": [-78.3481875955, 41.0097644468]}, "type": "Feature", "properties": {"collection_times": [{"days": "Mon-Fri", "time": "4:00pm"}, {"days": "Sat", "time": "11:30am"}, {"days": "Sun", "time": "Closed"}], "id": "1688100000", "name": "USPS COLLECTION BOX - BLUE BOX", "address": {"city": "WOODLAND", "state": "PA", "street": "1374 SHAWVILLE HWY", "postcode": "16881"}}},
{"geometry": {"type": "Point", "coordinates": [-78.3481875955, 41.0097644468]}, "type": "Feature", "properties": {"collection_times": [{"days": "Mon-Fri", "time": "2:45pm"}, {"days": "Sat", "time": "11:30am"}, {"days": "Sun", "time": "Closed"}], "id": "1688100001", "name": "USPS COLLECTION BOX - PO LOBBY", "address": {"city": "WOODLAND", "state": "PA", "street": "1374 SHAWVILLE HWY", "postcode": "16881"}}},
{"geometry": {"type": "Point", "coordinates": [-77.3955578718, 40.8659234785]}, "type": "Feature", "properties": {"collection_times": [{"days": "Mon-Fri", "time": "3:00pm"}, {"days": "Sat", "time": "10:00am"}, {"days": "Sun", "time": "Closed"}], "id": "1688200000", "name": "USPS COLLECTION BOX - BLUE BOX", "address": {"city": "WOODWARD", "state": "PA", "street": "107 MOUNTAIN AVE", "postcode": "16882"}}},
{"geometry": {"type": "Point", "coordinates": [-77.3955578718, 40.8659234785]}, "type": "Feature", "properties": {"collection_times": [{"days": "Mon-Fri", "time": "11:55am"}, {"days": "Sat", "time": "10:15am"}, {"days": "Sun", "time": "Closed"}], "id": "1688200001", "name": "USPS COLLECTION BOX - PO LOBBY", "address": {"city": "WOODWARD", "state": "PA", "street": "107 MOUNTAIN AVE", "postcode": "16882"}}}
]}
