{"type": "FeatureCollection", "features": [
{"geometry": {"type": "Point", "coordinates": [-77.3001066029, 41.7476785238]}, "type": "Feature", "properties": {"collection_times": [{"days": "Mon-Sat", "time": "3:00pm"}, {"days": "Sun", "time": "Closed"}], "id": "1690100011", "name": "USPS COLLECTION BOX - BLUE BOX", "address": {"city": "WELLSBORO", "state": "PA", "street": "17 PEARL ST", "postcode": "16901"}}},
{"geometry": {"type": "Point", "coordinates": [-77.2991133892, 41.7498303528]}, "type": "Feature", "properties": {"collection_times": [{"days": "Mon-Sat", "time": "5:00pm"}, {"days": "Sun", "time": "Closed"}], "id": "1690100013", "name": "USPS COLLECTION BOX - BLUE BOX", "address": {"city": "WELLSBORO", "state": "PA", "street": "14 MAIN ST", "postcode": "16901"}}},
{"geometry": {"type": "Point", "coordinates": [-77.2991133892, 41.7498303528]}, "type": "Feature", "properties": {"collection_times": [{"days": "Mon-Sat", "time": "5:00pm"}, {"days": "Sun", "time": "Closed"}], "id": "1690100014", "name": "USPS COLLECTION BOX - BLUE BOX", "address": {"city": "WELLSBORO", "state": "PA", "street": "14 MAIN ST", "postcode": "16901"}}},
{"geometry": {"type": "Point", "coordinates": [-77.3017674773, 41.7475909848]}, "type": "Feature", "properties": {"collection_times": [{"days": "Mon-Sat", "time": "3:00pm"}, {"days": "Sun", "time": "Closed"}], "id": "1690100015", "name": "USPS COLLECTION BOX - BLUE BOX", "address": {"city": "WELLSBORO", "state": "PA", "street": "109 MAIN ST", "postcode": "16901"}}},
{"geometry": {"type": "Point", "coordinates": [-77.3011547045, 41.7491181849]}, "type": "Feature", "properties": {"collection_times": [{"days": "Mon-Sat", "time": "3:00pm"}, {"days": "Sun", "time": "Closed"}], "id": "1690100019", "name": "USPS COLLECTION BOX - BLUE BOX", "address": {"city": "WELLSBORO", "state": "PA", "street": "2 WALN ST", "postcode": "16901"}}},
{"geometry": {"type": "Point", "coordinates": [-77.2869722095, 41.7468575503]}, "type": "Feature", "properties": {"collection_times": [{"days": "Mon-Fri", "time": "2:00pm"}, {"days": "Sat", "time": "10:00am"}, {"days": "Sun", "time": "Closed"}], "id": "1690100023", "name": "USPS COLLECTION BOX - BLUE BOX", "address": {"city": "WELLSBORO", "state": "PA", "street": "38 PLAZA LN", "postcode": "16901"}}},
{"geometry": {"type": "Point", "coordinates": [-77.3446042588, 41.7340003886]}, "type": "Feature", "properties": {"collection_times": [{"days": "Mon-Sat", "time": "11:00am"}, {"days": "Sun", "time": "Closed"}], "id": "1690100028", "name": "USPS COLLECTION BOX - BLUE BOX", "address": {"city": "WELLSBORO", "state": "PA", "street": "11798 ROUTE 6", "postcode": "16901"}}},
{"geometry": {"type": "Point", "coordinates": [-77.2991133892, 41.7498303528]}, "type": "Feature", "properties": {"collection_times": [{"days": "Mon-Sat", "time": "5:00pm"}, {"days": "Sun", "time": "Closed"}], "id": "1690100029", "name": "USPS COLLECTION BOX - PO LOBBY", "address": {"city": "WELLSBORO", "state": "PA", "street": "14 MAIN ST", "postcode": "16901"}}},
{"geometry": {"type": "Point", "coordinates": [-76.8300030312, 41.7041454331]}, "type": "Feature", "properties": {"collection_times": [{"days": "Mon-Fri", "time": "3:45pm"}, {"days": "Sat", "time": "11:45am"}, {"days": "Sun", "time": "Closed"}], "id": "1691000001", "name": "USPS COLLECTION BOX - BLUE BOX", "address": {"city": "TROY", "state": "PA", "street": "107 SISTER ST", "postcode": "16910"}}},
{"geometry": {"type": "Point", "coordinates": [-77.1225099873, 41.6630748007]}, "type": "Feature", "properties": {"collection_times": [{"days": "Mon-Fri", "time": "11:00am"}, {"days": "Sat", "time": "10:30am"}, {"days": "Sun", "time": "Closed"}], "id": "1691100001", "name": "USPS COLLECTION BOX - BLUE BOX", "address": {"city": "ARNOT", "state": "PA", "street": "834 ARNOT RD", "postcode": "16911"}}},
{"geometry": {"type": "Point", "coordinates": [-77.1223280803, 41.6625538306]}, "type": "Feature", "properties": {"collection_times": [{"days": "Mon-Fri", "time": "11:00am"}, {"days": "Sat", "time": "10:30am"}, {"days": "Sun", "time": "Closed"}], "id": "1691100002", "name": "USPS COLLECTION BOX - PO LOBBY", "address": {"city": "ARNOT", "state": "PA", "street": "834 ARNOT RD", "postcode": "16911"}}},
{"geometry": {"type": "Point", "coordinates": [-77.0654736173, 41.6781149324]}, "type": "Feature", "properties": {"collection_times": [{"days": "Mon-Fri", "time": "3:45pm"}, {"days": "Sat", "time": "11:00am"}, {"days": "Sun", "time": "Closed"}], "id": "1691200006", "name": "USPS COLLECTION BOX - BLUE BOX", "address": {"city": "BLOSSBURG", "state": "PA", "street": "3 RIVERSIDE PL", "postcode": "16912"}}},
{"geometry": {"type": "Point", "coordinates": [-77.0654736173, 41.6781149324]}, "type": "Feature", "properties": {"collection_times": [{"days": "Mon-Fri", "time": "3:45pm"}, {"days": "Sat", "time": "11:00am"}, {"days": "Sun", "time": "Closed"}], "id": "1691200007", "name": "USPS COLLECTION BOX - PO LOBBY", "address": {"city": "BLOSSBURG", "state": "PA", "street": "3 RIVERSIDE PL", "postcode": "16912"}}},
{"geometry": {"type": "Point", "coordinates": [-76.90212735, 41.824882189]}, "type": "Feature", "properties": {"collection_times": [{"days": "Mon-Fri", "time": "4:15pm"}, {"days": "Sat", "time": "11:45am"}, {"days": "Sun", "time": "Closed"}], "id": "1691400001", "name": "USPS COLLECTION BOX - BLUE BOX", "address": {"city": "COLUMBIA X RDS", "state": "PA", "street": "6921 AUSTINVILLE RD", "postcode": "16914"}}},
{"geometry": {"type": "Point", "coordinates": [-76.90212735, 41.824882189]}, "type": "Feature", "properties": {"collection_times": [{"days": "Mon-Fri", "time": "4:15pm"}, {"days": "Sat", "time": "11:45am"}, {"days": "Sun", "time": "Closed"}], "id": "1691400002", "name": "USPS COLLECTION BOX - PO LOBBY", "address": {"city": "COLUMBIA X RDS", "state": "PA", "street": "6921 AUSTINVILLE RD", "postcode": "16914"}}},
{"geometry": {"type": "Point", "coordinates": [-78.020684747, 41.7793250147]}, "type": "Feature", "properties": {"collection_times": [{"days": "Mon-Fri", "time": "4:00pm"}, {"days": "Sat", "time": "3:00pm"}, {"days": "Sun", "time": "Closed"}], "id": "1691500007", "name": "USPS COLLECTION BOX - BLUE BOX", "address": {"city": "COUDERSPORT", "state": "PA", "street": "301 N MAIN ST", "postcode": "16915"}}},
{"geometry": {"type": "Point", "coordinates": [-78.020684747, 41.7793250147]}, "type": "Feature", "properties": {"collection_times": [{"days": "Mon-Fri", "time": "4:00pm"}, {"days": "Sat", "time": "3:00pm"}, {"days": "Sun", "time": "Closed"}], "id": "1691500008", "name": "USPS COLLECTION BOX - BLUE BOX", "address": {"city": "COUDERSPORT", "state": "PA", "street": "301 N MAIN ST", "postcode": "16915"}}},
{"geometry": {"type": "Point", "coordinates": [-78.0205682642, 41.7704663663]}, "type": "Feature", "properties": {"collection_times": [{"days": "Mon-Sat", "time": "11:30am"}, {"days": "Sun", "time": "Closed"}], "id": "1691500011", "name": "USPS COLLECTION BOX - BLUE BOX", "address": {"city": "COUDERSPORT", "state": "PA", "street": "79 MAPLE VIEW LN", "postcode": "16915"}}},
{"geometry": {"type": "Point", "coordinates": [-78.0209617456, 41.7746613481]}, "type": "Feature", "properties": {"collection_times": [{"days": "Mon-Sat", "time": "3:00pm"}, {"days": "Sun", "time": "Closed"}], "id": "1691500013", "name": "USPS COLLECTION BOX - BLUE BOX", "address": {"city": "COUDERSPORT", "state": "PA", "street": "2 E SECOND ST", "postcode": "16915"}}},
{"geometry": {"type": "Point", "coordinates": [-78.020684747, 41.7793250147]}, "type": "Feature", "properties": {"collection_times": [{"days": "Mon-Fri", "time": "5:00pm"}, {"days": "Sat", "time": "3:00pm"}, {"days": "Sun", "time": "Closed"}], "id": "1691500016", "name": "USPS COLLECTION BOX - PO LOBBY", "address": {"city": "COUDERSPORT", "state": "PA", "street": "301 N MAIN ST", "postcode": "16915"}}},
{"geometry": {"type": "Point", "coordinates": [-77.0962879791, 41.7274804061]}, "type": "Feature", "properties": {"collection_times": [{"days": "Mon-Fri", "time": "4:00pm"}, {"days": "Sat", "time": "11:30am"}, {"days": "Sun", "time": "Closed"}], "id": "1691700001", "name": "USPS COLLECTION BOX - BLUE BOX", "address": {"city": "COVINGTON", "state": "PA", "street": "2220 N WILLIAMSON RD", "postcode": "16917"}}},
{"geometry": {"type": "Point", "coordinates": [-77.0962879791, 41.7274804061]}, "type": "Feature", "properties": {"collection_times": [{"days": "Mon-Fri", "time": "4:00pm"}, {"days": "Sat", "time": "11:30am"}, {"days": "Sun", "time": "Closed"}], "id": "1691700002", "name": "USPS COLLECTION BOX - PO LOBBY", "address": {"city": "COVINGTON", "state": "PA", "street": "2220 N WILLIAMSON RD", "postcode": "16917"}}},
{"geometry": {"type": "Point", "coordinates": [-77.3130576377, 41.9863546905]}, "type": "Feature", "properties": {"collection_times": [{"days": "Mon-Fri", "time": "3:30pm"}, {"days": "Sat", "time": "12:00pm"}, {"days": "Sun", "time": "Closed"}], "id": "1692000002", "name": "USPS COLLECTION BOX - BLUE BOX", "address": {"city": "ELKLAND", "state": "PA", "street": "114 W MAIN ST", "postcode": "16920"}}},
{"geometry": {"type": "Point", "coordinates": [-77.3122366641, 41.9868905709]}, "type": "Feature", "properties": {"collection_times": [{"days": "Mon-Fri", "time": "4:00pm"}, {"days": "Sat", "time": "12:00pm"}, {"days": "Sun", "time": "Closed"}], "id": "1692000004", "name": "USPS COLLECTION BOX - BLUE BOX", "address": {"city": "ELKLAND", "state": "PA", "street": "104 S BUFFALO ST", "postcode": "16920"}}},
{"geometry": {"type": "Point", "coordinates": [-77.3122366641, 41.9868905709]}, "type": "Feature", "properties": {"collection_times": [{"days": "Mon-Fri", "time": "4:00pm"}, {"days": "Sat", "time": "12:00pm"}, {"days": "Sun", "time": "Closed"}], "id": "1692000005", "name": "USPS COLLECTION BOX - PO LOBBY", "address": {"city": "ELKLAND", "state": "PA", "street": "104 S BUFFALO ST", "postcode": "16920"}}},
{"geometry": {"type": "Point", "coordinates": [-77.5220674108, 41.6158720603]}, "type": "Feature", "properties": {"collection_times": [{"days": "Mon-Fri", "time": "4:00pm"}, {"days": "Sat", "time": "11:45am"}, {"days": "Sun", "time": "Closed"}], "id": "1692100001", "name": "USPS COLLECTION BOX - BLUE BOX", "address": {"city": "GAINES", "state": "PA", "street": "1977 ROUTE 6", "postcode": "16921"}}},
{"geometry": {"type": "Point", "coordinates": [-77.5220674108, 41.6158720603]}, "type": "Feature", "properties": {"collection_times": [{"days": "Mon-Fri", "time": "4:00pm"}, {"days": "Sat", "time": "11:45am"}, {"days": "Sun", "time": "Closed"}], "id": "1692100002", "name": "USPS COLLECTION BOX - PO LOBBY", "address": {"city": "GAINES", "state": "PA", "street": "1977 ROUTE 6", "postcode": "16921"}}},
{"geometry": {"type": "Point", "coordinates": [-77.6480082487, 41.7356023174]}, "type": "Feature", "properties": {"collection_times": [{"days": "Mon-Sat", "time": "9:15am"}, {"days": "Sun", "time": "Closed"}], "id": "1692200001", "name": "USPS COLLECTION BOX - BLUE BOX", "address": {"city": "GALETON", "state": "PA", "street": "5 WEST ST", "postcode": "16922"}}},
{"geometry": {"type": "Point", "coordinates": [-77.6486408867, 41.7352140817]}, "type": "Feature", "properties": {"collection_times": [{"days": "Mon-Sat", "time": "9:45am"}, {"days": "Sun", "time": "Closed"}], "id": "1692200004", "name": "USPS COLLECTION BOX - BLUE BOX", "address": {"city": "GALETON", "state": "PA", "street": "28 WEST ST", "postcode": "16922"}}},
{"geometry": {"type": "Point", "coordinates": [-77.6512741615, 41.7297878239]}, "type": "Feature", "properties": {"collection_times": [{"days": "Mon-Sat", "time": "11:15am"}, {"days": "Sun", "time": "Closed"}], "id": "1692200005", "name": "USPS COLLECTION BOX - BLUE BOX", "address": {"city": "GALETON", "state": "PA", "street": "9 PENN AVE", "postcode": "16922"}}},
{"geometry": {"type": "Point", "coordinates": [-77.642557443, 41.7347794775]}, "type": "Feature", "properties": {"collection_times": [{"days": "Mon-Fri", "time": "4:00pm"}, {"days": "Sat", "time": "3:30pm"}, {"days": "Sun", "time": "Closed"}], "id": "1692200006", "name": "USPS COLLECTION BOX - BLUE BOX", "address": {"city": "GALETON", "state": "PA", "street": "28 BRIDGE ST", "postcode": "16922"}}},
{"geometry": {"type": "Point", "coordinates": [-77.642557443, 41.7347794775]}, "type": "Feature", "properties": {"collection_times": [{"days": "Mon-Fri", "time": "4:00pm"}, {"days": "Sat", "time": "3:45pm"}, {"days": "Sun", "time": "Closed"}], "id": "1692200011", "name": "USPS COLLECTION BOX - PO LOBBY", "address": {"city": "GALETON", "state": "PA", "street": "28 BRIDGE ST", "postcode": "16922"}}},
{"geometry": {"type": "Point", "coordinates": [-77.8690790592, 41.9897698479]}, "type": "Feature", "properties": {"collection_times": [{"days": "Mon-Fri", "time": "3:30pm"}, {"days": "Sat", "time": "12:00pm"}, {"days": "Sun", "time": "Closed"}], "id": "1692300001", "name": "USPS COLLECTION BOX - BLUE BOX", "address": {"city": "GENESEE", "state": "PA", "street": "276 MAIN ST", "postcode": "16923"}}},
{"geometry": {"type": "Point", "coordinates": [-77.8690790592, 41.9897698479]}, "type": "Feature", "properties": {"collection_times": [{"days": "Mon-Fri", "time": "3:30pm"}, {"days": "Sat", "time": "12:00pm"}, {"days": "Sun", "time": "Closed"}], "id": "1692300002", "name": "USPS COLLECTION BOX - PO LOBBY", "address": {"city": "GENESEE", "state": "PA", "street": "276 MAIN ST", "postcode": "16923"}}},
{"geometry": {"type": "Point", "coordinates": [-76.7819535029, 41.9499710767]}, "type": "Feature", "properties": {"collection_times": [{"days": "Mon-Fri", "time": "4:00pm"}, {"days": "Sat", "time": "11:45am"}, {"days": "Sun", "time": "Closed"}], "id": "1692500001", "name": "USPS COLLECTION BOX - BLUE BOX", "address": {"city": "GILLETT", "state": "PA", "street": "33165 ROUTE 14", "postcode": "16925"}}},
{"geometry": {"type": "Point", "coordinates": [-76.7819535029, 41.9499710767]}, "type": "Feature", "properties": {"collection_times": [{"days": "Mon-Fri", "time": "4:00pm"}, {"days": "Sat", "time": "11:45am"}, {"days": "Sun", "time": "Closed"}], "id": "1692500003", "name": "USPS COLLECTION BOX - PO LOBBY", "address": {"city": "GILLETT", "state": "PA", "street": "33165 ROUTE 14", "postcode": "16925"}}},
{"geometry": {"type": "Point", "coordinates": [-76.7798986632, 41.718050116]}, "type": "Feature", "properties": {"collection_times": [{"days": "Mon-Fri", "time": "4:00pm"}, {"days": "Sat", "time": "11:00am"}, {"days": "Sun", "time": "Closed"}], "id": "1692600001", "name": "USPS COLLECTION BOX - BLUE BOX", "address": {"city": "GRANVILLE SUMMIT", "state": "PA", "street": "543 HIGH BRIDGE RD", "postcode": "16926"}}},
{"geometry": {"type": "Point", "coordinates": [-76.7798986632, 41.718050116]}, "type": "Feature", "properties": {"collection_times": [{"days": "Mon-Fri", "time": "12:15pm"}, {"days": "Sat", "time": "11:00am"}, {"days": "Sun", "time": "Closed"}], "id": "1692600002", "name": "USPS COLLECTION BOX - PO LOBBY", "address": {"city": "GRANVILLE SUMMIT", "state": "PA", "street": "543 HIGH BRIDGE RD", "postcode": "16926"}}},
{"geometry": {"type": "Point", "coordinates": [-77.5392157326, 41.9193944813]}, "type": "Feature", "properties": {"collection_times": [{"days": "Mon-Sat", "time": "12:00pm"}, {"days": "Sun", "time": "Closed"}], "id": "1692700000", "name": "USPS COLLECTION BOX - BLUE BOX", "address": {"city": "WESTFIELD", "state": "PA", "street": "101 E MAIN ST", "postcode": "16927"}}},
{"geometry": {"type": "Point", "coordinates": [-77.4395779238, 41.957228644]}, "type": "Feature", "properties": {"collection_times": [{"days": "Mon-Fri", "time": "4:00pm"}, {"days": "Sat", "time": "11:00am"}, {"days": "Sun", "time": "Closed"}], "id": "1692800001", "name": "USPS COLLECTION BOX - BLUE BOX", "address": {"city": "KNOXVILLE", "state": "PA", "street": "105 E MAIN ST", "postcode": "16928"}}},
{"geometry": {"type": "Point", "coordinates": [-77.4395779238, 41.957228644]}, "type": "Feature", "properties": {"collection_times": [{"days": "Mon-Fri", "time": "4:00pm"}, {"days": "Sat", "time": "11:00am"}, {"days": "Sun", "time": "Closed"}], "id": "1692800002", "name": "USPS COLLECTION BOX - PO LOBBY", "address": {"city": "KNOXVILLE", "state": "PA", "street": "105 E MAIN ST", "postcode": "16928"}}},
{"geometry": {"type": "Point", "coordinates": [-77.1264482268, 41.9982221348]}, "type": "Feature", "properties": {"collection_times": [{"days": "Mon-Fri", "time": "4:00pm"}, {"days": "Sat", "time": "11:30am"}, {"days": "Sun", "time": "Closed"}], "id": "1692900001", "name": "USPS COLLECTION BOX - BLUE BOX", "address": {"city": "LAWRENCEVILLE", "state": "PA", "street": "60 MAIN ST", "postcode": "16929"}}},
{"geometry": {"type": "Point", "coordinates": [-77.1264482268, 41.9982221348]}, "type": "Feature", "properties": {"collection_times": [{"days": "Mon-Fri", "time": "4:00pm"}, {"days": "Sat", "time": "11:30am"}, {"days": "Sun", "time": "Closed"}], "id": "1692900003", "name": "USPS COLLECTION BOX - PO LOBBY", "address": {"city": "LAWRENCEVILLE", "state": "PA", "street": "60 MAIN ST", "postcode": "16929"}}},
{"geometry": {"type": "Point", "coordinates": [-77.1276716992, 41.5522336788]}, "type": "Feature", "properties": {"collection_times": [{"days": "Mon-Fri", "time": "4:00pm"}, {"days": "Sat", "time": "10:00am"}, {"days": "Sun", "time": "Closed"}], "id": "1693000001", "name": "USPS COLLECTION BOX - BLUE BOX", "address": {"city": "LIBERTY", "state": "PA", "street": "4514 WILLIAMSON TRL", "postcode": "16930"}}},
{"geometry": {"type": "Point", "coordinates": [-77.1276716992, 41.5522336788]}, "type": "Feature", "properties": {"collection_times": [{"days": "Mon-Fri", "time": "4:00pm"}, {"days": "Sat", "time": "12:00pm"}, {"days": "Sun", "time": "Closed"}], "id": "1693000002", "name": "USPS COLLECTION BOX - PO LOBBY", "address": {"city": "LIBERTY", "state": "PA", "street": "4514 WILLIAMSON TRL", "postcode": "16930"}}},
{"geometry": {"type": "Point", "coordinates": [-76.997628149, 41.782072254]}, "type": "Feature", "properties": {"collection_times": [{"days": "Mon-Sat", "time": "11:00am"}, {"days": "Sun", "time": "Closed"}], "id": "1693200001", "name": "USPS COLLECTION BOX - BLUE BOX", "address": {"city": "MAINESBURG", "state": "PA", "street": "121 MAINESBURG RD", "postcode": "16932"}}},
{"geometry": {"type": "Point", "coordinates": [-76.9977139004, 41.7820908001]}, "type": "Feature", "properties": {"collection_times": [{"days": "Mon-Fri", "time": "1:00pm"}, {"days": "Sat", "time": "11:00am"}, {"days": "Sun", "time": "Closed"}], "id": "1693200002", "name": "USPS COLLECTION BOX - PO LOBBY", "address": {"city": "MAINESBURG", "state": "PA", "street": "121 MAINESBURG RD", "postcode": "16932"}}},
{"geometry": {"type": "Point", "coordinates": [-77.0779173353, 41.8067649582]}, "type": "Feature", "properties": {"collection_times": [{"days": "Mon-Sat", "time": "2:00pm"}, {"days": "Sun", "time": "Closed"}], "id": "1693300006", "name": "USPS COLLECTION BOX - BLUE BOX", "address": {"city": "MANSFIELD", "state": "PA", "street": "15 S MAIN ST", "postcode": "16933"}}},
{"geometry": {"type": "Point", "coordinates": [-77.0798609369, 41.8119214763]}, "type": "Feature", "properties": {"collection_times": [{"days": "Mon-Sat", "time": "2:00pm"}, {"days": "Sun", "time": "Closed"}], "id": "1693300008", "name": "USPS COLLECTION BOX - BLUE BOX", "address": {"city": "MANSFIELD", "state": "PA", "street": "187 N MAIN ST", "postcode": "16933"}}},
{"geometry": {"type": "Point", "coordinates": [-77.0727788163, 41.8056940317]}, "type": "Feature", "properties": {"collection_times": [{"days": "Mon-Sat", "time": "10:00am"}, {"days": "Sun", "time": "Closed"}], "id": "1693300011", "name": "USPS COLLECTION BOX - BLUE BOX", "address": {"city": "MANSFIELD", "state": "PA", "street": "15 PINECREST DR", "postcode": "16933"}}},
{"geometry": {"type": "Point", "coordinates": [-77.0758164002, 41.7976916629]}, "type": "Feature", "properties": {"collection_times": [{"days": "Mon-Fri", "time": "5:00pm"}, {"days": "Sat", "time": "3:00pm"}, {"days": "Sun", "time": "Closed"}], "id": "1693300016", "name": "USPS COLLECTION BOX - BLUE BOX", "address": {"city": "MANSFIELD", "state": "PA", "street": "320 S MAIN ST", "postcode": "16933"}}},
{"geometry": {"type": "Point", "coordinates": [-77.0758164002, 41.7976916629]}, "type": "Feature", "properties": {"collection_times": [{"days": "Mon-Fri", "time": "5:00pm"}, {"days": "Sat", "time": "3:00pm"}, {"days": "Sun", "time": "Closed"}], "id": "1693300017", "name": "USPS COLLECTION BOX - BLUE BOX", "address": {"city": "MANSFIELD", "state": "PA", "street": "320 S MAIN ST", "postcode": "16933"}}},
{"geometry": {"type": "Point", "coordinates": [-77.0758164002, 41.7976916629]}, "type": "Feature", "properties": {"collection_times": [{"days": "Mon-Fri", "time": "5:00pm"}, {"days": "Sat", "time": "3:00pm"}, {"days": "Sun", "time": "Closed"}], "id": "1693300018", "name": "USPS COLLECTION BOX - PO LOBBY", "address": {"city": "MANSFIELD", "state": "PA", "street": "320 S MAIN ST", "postcode": "16933"}}},
{"geometry": {"type": "Point", "coordinates": [-77.3132603207, 41.8973039971]}, "type": "Feature", "properties": {"collection_times": [{"days": "Mon-Fri", "time": "4:00pm"}, {"days": "Sat", "time": "11:30am"}, {"days": "Sun", "time": "Closed"}], "id": "1693500001", "name": "USPS COLLECTION BOX - BLUE BOX", "address": {"city": "MIDDLEBURY CENTE", "state": "PA", "street": "11660 ROUTE 287", "postcode": "16935"}}},
{"geometry": {"type": "Point", "coordinates": [-77.3168670117, 41.8698627793]}, "type": "Feature", "properties": {"collection_times": [{"days": "Mon-Fri", "time": "4:00pm"}, {"days": "Sat", "time": "11:30am"}, {"days": "Sun", "time": "Closed"}], "id": "1693500002", "name": "USPS COLLECTION BOX - PO LOBBY", "address": {"city": "MIDDLEBURY CENTE", "state": "PA", "street": "11660 ROUTE 287", "postcode": "16935"}}},
{"geometry": {"type": "Point", "coordinates": [-76.9407165716, 41.9842159007]}, "type": "Feature", "properties": {"collection_times": [{"days": "Mon-Fri", "time": "4:00pm"}, {"days": "Sat", "time": "11:30am"}, {"days": "Sun", "time": "Closed"}], "id": "1693600001", "name": "USPS COLLECTION BOX - BLUE BOX", "address": {"city": "MILLERTON", "state": "PA", "street": "45 BACK ST", "postcode": "16936"}}},
{"geometry": {"type": "Point", "coordinates": [-76.9407165716, 41.9842159007]}, "type": "Feature", "properties": {"collection_times": [{"days": "Mon-Fri", "time": "4:00pm"}, {"days": "Sat", "time": "11:30am"}, {"days": "Sun", "time": "Closed"}], "id": "1693600003", "name": "USPS COLLECTION BOX - PO LOBBY", "address": {"city": "MILLERTON", "state": "PA", "street": "45 BACK ST", "postcode": "16936"}}},
{"geometry": {"type": "Point", "coordinates": [-77.7171255644, 41.9652303078]}, "type": "Feature", "properties": {"collection_times": [{"days": "Mon-Fri", "time": "11:00am"}, {"days": "Sat", "time": "10:30am"}, {"days": "Sun", "time": "Closed"}], "id": "1693700001", "name": "USPS COLLECTION BOX - BLUE BOX", "address": {"city": "MILLS", "state": "PA", "street": "5021 STATE ROUTE 49", "postcode": "16937"}}},
{"geometry": {"type": "Point", "coordinates": [-77.7171255644, 41.9652303078]}, "type": "Feature", "properties": {"collection_times": [{"days": "Mon-Fri", "time": "11:00am"}, {"days": "Sat", "time": "10:30am"}, {"days": "Sun", "time": "Closed"}], "id": "1693700002", "name": "USPS COLLECTION BOX - PO LOBBY", "address": {"city": "MILLS", "state": "PA", "street": "5021 STATE ROUTE 49", "postcode": "16937"}}},
{"geometry": {"type": "Point", "coordinates": [-77.3316353333, 41.5839811199]}, "type": "Feature", "properties": {"collection_times": [{"days": "Mon-Fri", "time": "4:00pm"}, {"days": "Sat", "time": "10:45am"}, {"days": "Sun", "time": "Closed"}], "id": "1693800001", "name": "USPS COLLECTION BOX - BLUE BOX", "address": {"city": "MORRIS", "state": "PA", "street": "917 ROUTE 287", "postcode": "16938"}}},
{"geometry": {"type": "Point", "coordinates": [-77.2823891691, 41.566973778]}, "type": "Feature", "properties": {"collection_times": [{"days": "Mon-Fri", "time": "4:00pm"}, {"days": "Sat", "time": "10:45am"}, {"days": "Sun", "time": "Closed"}], "id": "1693800003", "name": "USPS COLLECTION BOX - PO LOBBY", "address": {"city": "MORRIS", "state": "PA", "street": "917 ROUTE 287", "postcode": "16938"}}},
{"geometry": {"type": "Point", "coordinates": [-77.0282678966, 41.6560518604]}, "type": "Feature", "properties": {"collection_times": [{"days": "Mon-Fri", "time": "4:00pm"}, {"days": "Sat", "time": "10:00am"}, {"days": "Sun", "time": "Closed"}], "id": "1693900001", "name": "USPS COLLECTION BOX - BLUE BOX", "address": {"city": "MORRIS RUN", "state": "PA", "street": "1043 MORRIS RUN RD", "postcode": "16939"}}},
{"geometry": {"type": "Point", "coordinates": [-77.0282678966, 41.6560518604]}, "type": "Feature", "properties": {"collection_times": [{"days": "Mon-Fri", "time": "4:00pm"}, {"days": "Sat", "time": "10:00am"}, {"days": "Sun", "time": "Closed"}], "id": "1693900002", "name": "USPS COLLECTION BOX - PO LOBBY", "address": {"city": "MORRIS RUN", "state": "PA", "street": "1043 MORRIS RUN RD", "postcode": "16939"}}},
{"geometry": {"type": "Point", "coordinates": [-77.2371105064, 41.9810848477]}, "type": "Feature", "properties": {"collection_times": [{"days": "Mon-Fri", "time": "12:00pm"}, {"days": "Sat", "time": "11:30am"}, {"days": "Sun", "time": "Closed"}], "id": "1694000001", "name": "USPS COLLECTION BOX - BLUE BOX", "address": {"city": "NELSON", "state": "PA", "street": "1 VILLAGE DR", "postcode": "16940"}}},
{"geometry": {"type": "Point", "coordinates": [-77.2371105064, 41.9810848477]}, "type": "Feature", "properties": {"collection_times": [{"days": "Mon-Fri", "time": "12:00pm"}, {"days": "Sat", "time": "11:45am"}, {"days": "Sun", "time": "Closed"}], "id": "1694000002", "name": "USPS COLLECTION BOX - PO LOBBY", "address": {"city": "NELSON", "state": "PA", "street": "1 VILLAGE DR", "postcode": "16940"}}},
{"geometry": {"type": "Point", "coordinates": [-77.3304674332, 41.9851389726]}, "type": "Feature", "properties": {"collection_times": [{"days": "Mon-Fri", "time": "12:00pm"}, {"days": "Sat", "time": "11:00am"}, {"days": "Sun", "time": "Closed"}], "id": "1694200001", "name": "USPS COLLECTION BOX - BLUE BOX", "address": {"city": "OSCEOLA", "state": "PA", "street": "153 MAIN ST", "postcode": "16942"}}},
{"geometry": {"type": "Point", "coordinates": [-77.3304674332, 41.9851389726]}, "type": "Feature", "properties": {"collection_times": [{"days": "Mon-Fri", "time": "12:00pm"}, {"days": "Sat", "time": "11:00am"}, {"days": "Sun", "time": "Closed"}], "id": "1694200002", "name": "USPS COLLECTION BOX - PO LOBBY", "address": {"city": "OSCEOLA", "state": "PA", "street": "153 MAIN ST", "postcode": "16942"}}},
{"geometry": {"type": "Point", "coordinates": [-77.5764408533, 41.8429234508]}, "type": "Feature", "properties": {"collection_times": [{"days": "Mon-Fri", "time": "4:00pm"}, {"days": "Sat", "time": "11:30am"}, {"days": "Sun", "time": "Closed"}], "id": "1694300001", "name": "USPS COLLECTION BOX - BLUE BOX", "address": {"city": "SABINSVILLE", "state": "PA", "street": "1056 SPRUCE ST", "postcode": "16943"}}},
{"geometry": {"type": "Point", "coordinates": [-76.8544902609, 41.8051703514]}, "type": "Feature", "properties": {"collection_times": [{"days": "Mon-Fri", "time": "12:45pm"}, {"days": "Sat", "time": "10:45am"}, {"days": "Sun", "time": "Closed"}], "id": "1694500001", "name": "USPS COLLECTION BOX - BLUE BOX", "address": {"city": "SYLVANIA", "state": "PA", "street": "18 IRON MINE RD", "postcode": "16945"}}},
{"geometry": {"type": "Point", "coordinates": [-76.8544902609, 41.8051703514]}, "type": "Feature", "properties": {"collection_times": [{"days": "Mon-Fri", "time": "1:00pm"}, {"days": "Sat", "time": "11:45am"}, {"days": "Sun", "time": "Closed"}], "id": "1694500002", "name": "USPS COLLECTION BOX - PO LOBBY", "address": {"city": "SYLVANIA", "state": "PA", "street": "18 IRON MINE RD", "postcode": "16945"}}},
{"geometry": {"type": "Point", "coordinates": [-77.1332892785, 41.9112545406]}, "type": "Feature", "properties": {"collection_times": [{"days": "Mon-Fri", "time": "4:30pm"}, {"days": "Sat", "time": "11:45am"}, {"days": "Sun", "time": "Closed"}], "id": "1694600001", "name": "USPS COLLECTION BOX - BLUE BOX", "address": {"city": "TIOGA", "state": "PA", "street": "34 N MAIN ST", "postcode": "16946"}}},
{"geometry": {"type": "Point", "coordinates": [-77.1332892785, 41.9112545406]}, "type": "Feature", "properties": {"collection_times": [{"days": "Mon-Fri", "time": "4:30pm"}, {"days": "Sat", "time": "11:45am"}, {"days": "Sun", "time": "Closed"}], "id": "1694600002", "name": "USPS COLLECTION BOX - PO LOBBY", "address": {"city": "TIOGA", "state": "PA", "street": "34 N MAIN ST", "postcode": "16946"}}},
{"geometry": {"type": "Point", "coordinates": [-76.7968509293, 41.7842122558]}, "type": "Feature", "properties": {"collection_times": [{"days": "Mon-Fri", "time": "11:45am"}, {"days": "Sat", "time": "11:30am"}, {"days": "Sun", "time": "Closed"}], "id": "1694700001", "name": "USPS COLLECTION BOX - BLUE BOX", "address": {"city": "TROY", "state": "PA", "street": "41 CANTON ST", "postcode": "16947"}}},
{"geometry": {"type": "Point", "coordinates": [-76.7843461117, 41.7859553989]}, "type": "Feature", "properties": {"collection_times": [{"days": "Mon-Sat", "time": "11:00am"}, {"days": "Sun", "time": "Closed"}], "id": "1694700003", "name": "USPS COLLECTION BOX - BLUE BOX", "address": {"city": "TROY", "state": "PA", "street": "684 ELMIRA ST", "postcode": "16947"}}},
{"geometry": {"type": "Point", "coordinates": [-76.7880311551, 41.7855418335]}, "type": "Feature", "properties": {"collection_times": [{"days": "Mon-Fri", "time": "11:30am"}, {"days": "Sat", "time": "11:00am"}, {"days": "Sun", "time": "Closed"}], "id": "1694700004", "name": "USPS COLLECTION BOX - BLUE BOX", "address": {"city": "TROY", "state": "PA", "street": "833 CANTON ST", "postcode": "16947"}}},
{"geometry": {"type": "Point", "coordinates": [-76.7916088611, 41.7813664502]}, "type": "Feature", "properties": {"collection_times": [{"days": "Mon-Fri", "time": "4:30pm"}, {"days": "Sat", "time": "3:00pm"}, {"days": "Sun", "time": "Closed"}], "id": "1694700005", "name": "USPS COLLECTION BOX - BLUE BOX", "address": {"city": "TROY", "state": "PA", "street": "416 CANTON ST", "postcode": "16947"}}},
{"geometry": {"type": "Point", "coordinates": [-76.7916088611, 41.7813664502]}, "type": "Feature", "properties": {"collection_times": [{"days": "Mon-Fri", "time": "4:30pm"}, {"days": "Sat", "time": "3:00pm"}, {"days": "Sun", "time": "Closed"}], "id": "1694700011", "name": "USPS COLLECTION BOX - PO LOBBY", "address": {"city": "TROY", "state": "PA", "street": "416 CANTON ST", "postcode": "16947"}}},
{"geometry": {"type": "Point", "coordinates": [-77.7567888491, 41.9111028565]}, "type": "Feature", "properties": {"collection_times": [{"days": "Mon-Fri", "time": "3:30pm"}, {"days": "Sat", "time": "11:00am"}, {"days": "Sun", "time": "Closed"}], "id": "1694800001", "name": "USPS COLLECTION BOX - BLUE BOX", "address": {"city": "ULYSSES", "state": "PA", "street": "408 N MAIN ST", "postcode": "16948"}}},
{"geometry": {"type": "Point", "coordinates": [-77.7567888491, 41.9111028565]}, "type": "Feature", "properties": {"collection_times": [{"days": "Mon-Fri", "time": "3:30pm"}, {"days": "Sat", "time": "11:00am"}, {"days": "Sun", "time": "Closed"}], "id": "1694800002", "name": "USPS COLLECTION BOX - PO LOBBY", "address": {"city": "ULYSSES", "state": "PA", "street": "408 N MAIN ST", "postcode": "16948"}}},
{"geometry": {"type": "Point", "coordinates": [-77.5392417577, 41.9193873835]}, "type": "Feature", "properties": {"collection_times": [{"days": "Mon-Fri", "time": "4:15pm"}, {"days": "Sat", "time": "12:00pm"}, {"days": "Sun", "time": "Closed"}], "id": "1695000001", "name": "USPS COLLECTION BOX - BLUE BOX", "address": {"city": "WESTFIELD", "state": "PA", "street": "103 W MAIN ST", "postcode": "16950"}}},
{"geometry": {"type": "Point", "coordinates": [-77.5392417577, 41.9193873835]}, "type": "Feature", "properties": {"collection_times": [{"days": "Mon-Fri", "time": "4:15pm"}, {"days": "Sat", "time": "12:00pm"}, {"days": "Sun", "time": "Closed"}], "id": "1695000006", "name": "USPS COLLECTION BOX - PO LOBBY", "address": {"city": "WESTFIELD", "state": "PA", "street": "103 W MAIN ST", "postcode": "16950"}}}
]}
