{"type": "FeatureCollection", "features": [
{"geometry": {"type": "Point", "coordinates": [-77.8192650164, 40.5335965909]}, "type": "Feature", "properties": {"collection_times": [{"days": "Mon-Fri", "time": "3:15pm"}, {"days": "Sat", "time": "11:15am"}, {"days": "Sun", "time": "Closed"}], "id": "1700200001", "name": "USPS COLLECTION BOX - BLUE BOX", "address": {"city": "ALLENSVILLE", "state": "PA", "street": "173 W MAIN ST", "postcode": "17002"}}},
{"geometry": {"type": "Point", "coordinates": [-77.8192650164, 40.5335965909]}, "type": "Feature", "properties": {"collection_times": [{"days": "Mon-Fri", "time": "3:15pm"}, {"days": "Sat", "time": "11:15am"}, {"days": "Sun", "time": "Closed"}], "id": "1700200002", "name": "USPS COLLECTION BOX - PO LOBBY", "address": {"city": "ALLENSVILLE", "state": "PA", "street": "173 W MAIN ST", "postcode": "17002"}}},
{"geometry": {"type": "Point", "coordinates": [-76.517594459, 40.330151076]}, "type": "Feature", "properties": {"collection_times": [{"days": "Mon-Fri", "time": "4:30pm"}, {"days": "Sat", "time": "3:15pm"}, {"days": "Sun", "time": "Closed"}], "id": "1700300002", "name": "USPS COLLECTION BOX - BLUE BOX", "address": {"city": "ANNVILLE", "state": "PA", "street": "51 N LANCASTER ST", "postcode": "17003"}}},
{"geometry": {"type": "Point", "coordinates": [-76.5131610513, 40.3311033373]}, "type": "Feature", "properties": {"collection_times": [{"days": "Mon-Sat", "time": "2:00pm"}, {"days": "Sun", "time": "Closed"}], "id": "1700300003", "name": "USPS COLLECTION BOX - BLUE BOX", "address": {"city": "ANNVILLE", "state": "PA", "street": "104 N COLLEGE AVE", "postcode": "17003"}}},
{"geometry": {"type": "Point", "coordinates": [-76.5051859182, 40.331124043]}, "type": "Feature", "properties": {"collection_times": [{"days": "Mon-Sat", "time": "10:00am"}, {"days": "Sun", "time": "Closed"}], "id": "1700300007", "name": "USPS COLLECTION BOX - BLUE BOX", "address": {"city": "ANNVILLE", "state": "PA", "street": "590 E MAIN ST", "postcode": "17003"}}},
{"geometry": {"type": "Point", "coordinates": [-76.5158744727, 40.3291182663]}, "type": "Feature", "properties": {"collection_times": [{"days": "Mon-Sat", "time": "1:00pm"}, {"days": "Sun", "time": "Closed"}], "id": "1700300011", "name": "USPS COLLECTION BOX - BLUE BOX", "address": {"city": "ANNVILLE", "state": "PA", "street": "22 W MAIN ST", "postcode": "17003"}}},
{"geometry": {"type": "Point", "coordinates": [-76.5244220657, 40.3277449557]}, "type": "Feature", "properties": {"collection_times": [{"days": "Mon-Sat", "time": "9:30am"}, {"days": "Sun", "time": "Closed"}], "id": "1700300013", "name": "USPS COLLECTION BOX - BLUE BOX", "address": {"city": "ANNVILLE", "state": "PA", "street": "1 STONEHILL PARK", "postcode": "17003"}}},
{"geometry": {"type": "Point", "coordinates": [-76.5174685475, 40.329594816]}, "type": "Feature", "properties": {"collection_times": [{"days": "Mon-Fri", "time": "4:30pm"}, {"days": "Sat", "time": "3:15pm"}, {"days": "Sun", "time": "Closed"}], "id": "1700300022", "name": "USPS COLLECTION BOX - PO LOBBY", "address": {"city": "ANNVILLE", "state": "PA", "street": "51 N LANCASTER ST", "postcode": "17003"}}},
{"geometry": {"type": "Point", "coordinates": [-77.716739782, 40.6081552276]}, "type": "Feature", "properties": {"collection_times": [{"days": "Mon-Fri", "time": "4:00pm"}, {"days": "Sat", "time": "11:30am"}, {"days": "Sun", "time": "Closed"}], "id": "1700400001", "name": "USPS COLLECTION BOX - BLUE BOX", "address": {"city": "BELLEVILLE", "state": "PA", "street": "4242 E MAIN ST", "postcode": "17004"}}},
{"geometry": {"type": "Point", "coordinates": [-77.716739782, 40.6081552276]}, "type": "Feature", "properties": {"collection_times": [{"days": "Mon-Fri", "time": "4:00pm"}, {"days": "Sat", "time": "12:00pm"}, {"days": "Sun", "time": "Closed"}], "id": "1700400003", "name": "USPS COLLECTION BOX - PO LOBBY", "address": {"city": "BELLEVILLE", "state": "PA", "street": "4242 E MAIN ST", "postcode": "17004"}}},
{"geometry": {"type": "Point", "coordinates": [-76.8135825998, 40.6023255244]}, "type": "Feature", "properties": {"collection_times": [{"days": "Mon-Fri", "time": "4:00pm"}, {"days": "Sat", "time": "10:30am"}, {"days": "Sun", "time": "Closed"}], "id": "1700500001", "name": "USPS COLLECTION BOX - BLUE BOX", "address": {"city": "BERRYSBURG", "state": "PA", "street": "137 N CHESTNUT ST", "postcode": "17005"}}},
{"geometry": {"type": "Point", "coordinates": [-76.8135825998, 40.6023255244]}, "type": "Feature", "properties": {"collection_times": [{"days": "Mon-Fri", "time": "4:00pm"}, {"days": "Sat", "time": "10:30am"}, {"days": "Sun", "time": "Closed"}], "id": "1700500002", "name": "USPS COLLECTION BOX - PO LOBBY", "address": {"city": "BERRYSBURG", "state": "PA", "street": "137 N CHESTNUT ST", "postcode": "17005"}}},
{"geometry": {"type": "Point", "coordinates": [-77.5246277946, 40.3184307242]}, "type": "Feature", "properties": {"collection_times": [{"days": "Mon-Fri", "time": "3:45pm"}, {"days": "Sat", "time": "11:45am"}, {"days": "Sun", "time": "Closed"}], "id": "1700600001", "name": "USPS COLLECTION BOX - BLUE BOX", "address": {"city": "BLAIN", "state": "PA", "street": "14 E MAIN ST", "postcode": "17006"}}},
{"geometry": {"type": "Point", "coordinates": [-77.5246277946, 40.3184307242]}, "type": "Feature", "properties": {"collection_times": [{"days": "Mon-Fri", "time": "3:45pm"}, {"days": "Sat", "time": "12:00pm"}, {"days": "Sun", "time": "Closed"}], "id": "1700600002", "name": "USPS COLLECTION BOX - PO LOBBY", "address": {"city": "BLAIN", "state": "PA", "street": "14 E MAIN ST", "postcode": "17006"}}},
{"geometry": {"type": "Point", "coordinates": [-77.1283822241, 40.1499160203]}, "type": "Feature", "properties": {"collection_times": [{"days": "Mon-Fri", "time": "4:30pm"}, {"days": "Sat", "time": "12:00pm"}, {"days": "Sun", "time": "Closed"}], "id": "1700700002", "name": "USPS COLLECTION BOX - BLUE BOX", "address": {"city": "BOILING SPRINGS", "state": "PA", "street": "3 E 1ST ST", "postcode": "17007"}}},
{"geometry": {"type": "Point", "coordinates": [-77.1286676093, 40.149942741]}, "type": "Feature", "properties": {"collection_times": [{"days": "Mon-Fri", "time": "4:30pm"}, {"days": "Sat", "time": "12:00pm"}, {"days": "Sun", "time": "Closed"}], "id": "1700700006", "name": "USPS COLLECTION BOX - PO LOBBY", "address": {"city": "BOILING SPRINGS", "state": "PA", "street": "3 E 1ST ST", "postcode": "17007"}}},
{"geometry": {"type": "Point", "coordinates": [-77.5645147957, 40.6329197718]}, "type": "Feature", "properties": {"collection_times": [{"days": "Mon-Fri", "time": "12:00pm"}, {"days": "Sat-Sun", "time": "Closed"}], "id": "1700900003", "name": "USPS COLLECTION BOX - BLUE BOX", "address": {"city": "BURNHAM", "state": "PA", "street": "15 N WALNUT ST", "postcode": "17009"}}},
{"geometry": {"type": "Point", "coordinates": [-77.5688201692, 40.6307496243]}, "type": "Feature", "properties": {"collection_times": [{"days": "Mon-Fri", "time": "4:15pm"}, {"days": "Sat", "time": "12:15pm"}, {"days": "Sun", "time": "Closed"}], "id": "1700900007", "name": "USPS COLLECTION BOX - BLUE BOX", "address": {"city": "BURNHAM", "state": "PA", "street": "229 N LOGAN BLVD", "postcode": "17009"}}},
{"geometry": {"type": "Point", "coordinates": [-77.5648190957, 40.6343430854]}, "type": "Feature", "properties": {"collection_times": [{"days": "Mon-Fri", "time": "9:00am"}, {"days": "Sat-Sun", "time": "Closed"}], "id": "1700900009", "name": "USPS COLLECTION BOX - BLUE BOX", "address": {"city": "BURNHAM", "state": "PA", "street": "W FREEDOM AVE", "postcode": "17009"}}},
{"geometry": {"type": "Point", "coordinates": [-77.5688201692, 40.6307496243]}, "type": "Feature", "properties": {"collection_times": [{"days": "Mon-Fri", "time": "4:15pm"}, {"days": "Sat", "time": "12:15pm"}, {"days": "Sun", "time": "Closed"}], "id": "1700900010", "name": "USPS COLLECTION BOX - PO LOBBY", "address": {"city": "BURNHAM", "state": "PA", "street": "229 N LOGAN BLVD", "postcode": "17009"}}},
{"geometry": {"type": "Point", "coordinates": [-76.5949142599, 40.3072324504]}, "type": "Feature", "properties": {"collection_times": [{"days": "Mon-Fri", "time": "4:15pm"}, {"days": "Sat", "time": "12:00pm"}, {"days": "Sun", "time": "Closed"}], "id": "1701000001", "name": "USPS COLLECTION BOX - BLUE BOX", "address": {"city": "CAMPBELLTOWN", "state": "PA", "street": "20 N PALMYRA RD", "postcode": "17010"}}},
{"geometry": {"type": "Point", "coordinates": [-76.5949142599, 40.3072324504]}, "type": "Feature", "properties": {"collection_times": [{"days": "Mon-Fri", "time": "4:15pm"}, {"days": "Sat", "time": "12:00pm"}, {"days": "Sun", "time": "Closed"}], "id": "1701000002", "name": "USPS COLLECTION BOX - PO LOBBY", "address": {"city": "CAMPBELLTOWN", "state": "PA", "street": "20 N PALMYRA RD", "postcode": "17010"}}},
{"geometry": {"type": "Point", "coordinates": [-76.914734695, 40.2399515933]}, "type": "Feature", "properties": {"collection_times": [{"days": "Mon-Fri", "time": "4:15pm"}, {"days": "Sat", "time": "10:00am"}, {"days": "Sun", "time": "Closed"}], "id": "1701100003", "name": "USPS COLLECTION BOX - BLUE BOX", "address": {"city": "CAMP HILL", "state": "PA", "street": "1801 MARKET ST", "postcode": "17011"}}},
{"geometry": {"type": "Point", "coordinates": [-76.9198599111, 40.2296627108]}, "type": "Feature", "properties": {"collection_times": [{"days": "Mon-Fri", "time": "2:00pm"}, {"days": "Sat", "time": "9:00am"}, {"days": "Sun", "time": "Closed"}], "id": "1701100006", "name": "USPS COLLECTION BOX - BLUE BOX", "address": {"city": "CAMP HILL", "state": "PA", "street": "2233 GETTYSBURG RD", "postcode": "17011"}}},
{"geometry": {"type": "Point", "coordinates": [-76.9323909064, 40.238697251]}, "type": "Feature", "properties": {"collection_times": [{"days": "Mon-Sat", "time": "9:30am"}, {"days": "Sun", "time": "Closed"}], "id": "1701100022", "name": "USPS COLLECTION BOX - BLUE BOX", "address": {"city": "CAMP HILL", "state": "PA", "street": "3101 CHESTNUT ST", "postcode": "17011"}}},
{"geometry": {"type": "Point", "coordinates": [-76.8910367396, 40.2254018166]}, "type": "Feature", "properties": {"collection_times": [{"days": "Mon-Sat", "time": "1:30pm"}, {"days": "Sun", "time": "Closed"}], "id": "1701100028", "name": "USPS COLLECTION BOX - BLUE BOX", "address": {"city": "CAMP HILL", "state": "PA", "street": "427 ALLENDALE WAY", "postcode": "17011"}}},
{"geometry": {"type": "Point", "coordinates": [-76.8924341014, 40.230136177]}, "type": "Feature", "properties": {"collection_times": [{"days": "Mon-Sat", "time": "10:30am"}, {"days": "Sun", "time": "Closed"}], "id": "1701100041", "name": "USPS COLLECTION BOX - BLUE BOX", "address": {"city": "CAMP HILL", "state": "PA", "street": "1104 CARLISLE RD", "postcode": "17011"}}},
{"geometry": {"type": "Point", "coordinates": [-76.9364406956, 40.2455905333]}, "type": "Feature", "properties": {"collection_times": [{"days": "Mon-Sat", "time": "9:00am"}, {"days": "Sun", "time": "Closed"}], "id": "1701100049", "name": "USPS COLLECTION BOX - BLUE BOX", "address": {"city": "CAMP HILL", "state": "PA", "street": "1 COUNTRY CLUB PL W", "postcode": "17011"}}},
{"geometry": {"type": "Point", "coordinates": [-76.8908172582, 40.207441325]}, "type": "Feature", "properties": {"collection_times": [{"days": "Mon-Sat", "time": "11:30am"}, {"days": "Sun", "time": "Closed"}], "id": "1701100059", "name": "USPS COLLECTION BOX - BLUE BOX", "address": {"city": "CAMP HILL", "state": "PA", "street": "95 GREEN LANE DR", "postcode": "17011"}}},
{"geometry": {"type": "Point", "coordinates": [-76.9161305377, 40.2569974224]}, "type": "Feature", "properties": {"collection_times": [{"days": "Mon-Sat", "time": "9:30am"}, {"days": "Sun", "time": "Closed"}], "id": "1701100063", "name": "USPS COLLECTION BOX - BLUE BOX", "address": {"city": "CAMP HILL", "state": "PA", "street": "100 SENATE AVE", "postcode": "17011"}}},
{"geometry": {"type": "Point", "coordinates": [-76.9151346511, 40.2573332474]}, "type": "Feature", "properties": {"collection_times": [{"days": "Mon-Sat", "time": "9:00am"}, {"days": "Sun", "time": "Closed"}], "id": "1701100065", "name": "USPS COLLECTION BOX - BLUE BOX", "address": {"city": "CAMP HILL", "state": "PA", "street": "29 HUNTER LN", "postcode": "17011"}}},
{"geometry": {"type": "Point", "coordinates": [-76.9147612689, 40.2287592127]}, "type": "Feature", "properties": {"collection_times": [{"days": "Mon-Sat", "time": "12:00pm"}, {"days": "Sun", "time": "Closed"}], "id": "1701100069", "name": "USPS COLLECTION BOX - BLUE BOX", "address": {"city": "CAMP HILL", "state": "PA", "street": "702 LISBURN RD", "postcode": "17011"}}},
{"geometry": {"type": "Point", "coordinates": [-76.8966998515, 40.2348798424]}, "type": "Feature", "properties": {"collection_times": [{"days": "Mon-Sat", "time": "10:00am"}, {"days": "Sun", "time": "Closed"}], "id": "1701100070", "name": "USPS COLLECTION BOX - BLUE BOX", "address": {"city": "CAMP HILL", "state": "PA", "street": "1195 LOWTHER RD", "postcode": "17011"}}},
{"geometry": {"type": "Point", "coordinates": [-76.9552847112, 40.2230194959]}, "type": "Feature", "properties": {"collection_times": [{"days": "Mon-Fri", "time": "4:00pm"}, {"days": "Sat", "time": "12:00pm"}, {"days": "Sun", "time": "Closed"}], "id": "1701100071", "name": "USPS COLLECTION BOX - BLUE BOX", "address": {"city": "CAMP HILL", "state": "PA", "street": "10 W MAIN ST", "postcode": "17011"}}},
{"geometry": {"type": "Point", "coordinates": [-76.9210661952, 40.2411776361]}, "type": "Feature", "properties": {"collection_times": [{"days": "Mon-Fri", "time": "4:30pm"}, {"days": "Sat", "time": "9:00am"}, {"days": "Sun", "time": "Closed"}], "id": "1701100075", "name": "USPS COLLECTION BOX - BLUE BOX", "address": {"city": "CAMP HILL", "state": "PA", "street": "2145 WALNUT ST", "postcode": "17011"}}},
{"geometry": {"type": "Point", "coordinates": [-76.940185423, 40.2393561592]}, "type": "Feature", "properties": {"collection_times": [{"days": "Mon-Fri", "time": "3:45pm"}, {"days": "Sat", "time": "10:00am"}, {"days": "Sun", "time": "Closed"}], "id": "1701100078", "name": "USPS COLLECTION BOX - BLUE BOX", "address": {"city": "CAMP HILL", "state": "PA", "street": "3461 MARKET ST", "postcode": "17011"}}},
{"geometry": {"type": "Point", "coordinates": [-76.9383592911, 40.2370563121]}, "type": "Feature", "properties": {"collection_times": [{"days": "Mon-Fri", "time": "4:15pm"}, {"days": "Sat", "time": "9:30am"}, {"days": "Sun", "time": "Closed"}], "id": "1701100081", "name": "USPS COLLECTION BOX - BLUE BOX", "address": {"city": "CAMP HILL", "state": "PA", "street": "3433 TRINDLE RD", "postcode": "17011"}}},
{"geometry": {"type": "Point", "coordinates": [-76.9238274664, 40.2548777637]}, "type": "Feature", "properties": {"collection_times": [{"days": "Mon-Fri", "time": "10:00am"}, {"days": "Sat-Sun", "time": "Closed"}], "id": "1701100084", "name": "USPS COLLECTION BOX - BLUE BOX", "address": {"city": "CAMP HILL", "state": "PA", "street": "890 POPLAR CHURCH RD", "postcode": "17011"}}},
{"geometry": {"type": "Point", "coordinates": [-76.9380247795, 40.2227212893]}, "type": "Feature", "properties": {"collection_times": [{"days": "Mon-Sat", "time": "12:00pm"}, {"days": "Sun", "time": "Closed"}], "id": "1701100086", "name": "USPS COLLECTION BOX - BLUE BOX", "address": {"city": "CAMP HILL", "state": "PA", "street": "3607 ROSEMONT AVE", "postcode": "17011"}}},
{"geometry": {"type": "Point", "coordinates": [-76.9178588906, 40.2558381323]}, "type": "Feature", "properties": {"collection_times": [{"days": "Mon-Sat", "time": "10:30am"}, {"days": "Sun", "time": "Closed"}], "id": "1701100091", "name": "USPS COLLECTION BOX - BLUE BOX", "address": {"city": "CAMP HILL", "state": "PA", "street": "208 SENATE AVE", "postcode": "17011"}}},
{"geometry": {"type": "Point", "coordinates": [-76.9210661952, 40.2411776361]}, "type": "Feature", "properties": {"collection_times": [{"days": "Mon-Fri", "time": "4:30pm"}, {"days": "Sat", "time": "9:00am"}, {"days": "Sun", "time": "Closed"}], "id": "1701100099", "name": "USPS COLLECTION BOX - BLUE BOX", "address": {"city": "CAMP HILL", "state": "PA", "street": "2145 WALNUT ST", "postcode": "17011"}}},
{"geometry": {"type": "Point", "coordinates": [-76.9376595309, 40.2057016857]}, "type": "Feature", "properties": {"collection_times": [{"days": "Mon-Fri", "time": "11:30am"}, {"days": "Sat-Sun", "time": "Closed"}], "id": "1701100100", "name": "USPS COLLECTION BOX - BLUE BOX", "address": {"city": "CAMP HILL", "state": "PA", "street": "2905 WINCHESTER DR", "postcode": "17011"}}},
{"geometry": {"type": "Point", "coordinates": [-76.9552847112, 40.2230194959]}, "type": "Feature", "properties": {"collection_times": [{"days": "Mon-Fri", "time": "4:00pm"}, {"days": "Sat", "time": "12:00pm"}, {"days": "Sun", "time": "Closed"}], "id": "1701100101", "name": "USPS COLLECTION BOX - BLUE BOX", "address": {"city": "CAMP HILL", "state": "PA", "street": "10 W MAIN ST", "postcode": "17011"}}},
{"geometry": {"type": "Point", "coordinates": [-76.9174144325, 40.2501937101]}, "type": "Feature", "properties": {"collection_times": [{"days": "Mon-Fri", "time": "5:30pm"}, {"days": "Sat", "time": "3:15pm"}, {"days": "Sun", "time": "Closed"}], "id": "1701100104", "name": "USPS COLLECTION BOX - BLUE BOX", "address": {"city": "CAMP HILL", "state": "PA", "street": "1675 CAMP HILL BYP", "postcode": "17011"}}},
{"geometry": {"type": "Point", "coordinates": [-76.9299495737, 40.2345664009]}, "type": "Feature", "properties": {"collection_times": [{"days": "Mon-Fri", "time": "3:30pm"}, {"days": "Sat", "time": "11:00am"}, {"days": "Sun", "time": "Closed"}], "id": "1701100108", "name": "USPS COLLECTION BOX - BLUE BOX", "address": {"city": "CAMP HILL", "state": "PA", "street": "3301 TRINDLE RD", "postcode": "17011"}}},
{"geometry": {"type": "Point", "coordinates": [-76.9306105531, 40.2585697787]}, "type": "Feature", "properties": {"collection_times": [{"days": "Mon-Fri", "time": "10:00am"}, {"days": "Sat-Sun", "time": "Closed"}], "id": "1701100111", "name": "USPS COLLECTION BOX - BLUE BOX", "address": {"city": "CAMP HILL", "state": "PA", "street": "1800 CENTER ST", "postcode": "17011"}}},
{"geometry": {"type": "Point", "coordinates": [-76.9456311644, 40.2389739165]}, "type": "Feature", "properties": {"collection_times": [{"days": "Mon-Fri", "time": "3:45pm"}, {"days": "Sat", "time": "10:00am"}, {"days": "Sun", "time": "Closed"}], "id": "1701100114", "name": "USPS COLLECTION BOX - BLUE BOX", "address": {"city": "CAMP HILL", "state": "PA", "street": "3700 MARKET ST", "postcode": "17011"}}},
{"geometry": {"type": "Point", "coordinates": [-76.922443195, 40.2491315366]}, "type": "Feature", "properties": {"collection_times": [{"days": "Mon-Fri", "time": "5:30pm"}, {"days": "Sat", "time": "3:15pm"}, {"days": "Sun", "time": "Closed"}], "id": "1701100117", "name": "USPS COLLECTION BOX - BLUE BOX", "address": {"city": "CAMP HILL", "state": "PA", "street": "1675 CAMP HILL BYP", "postcode": "17011"}}},
{"geometry": {"type": "Point", "coordinates": [-76.9302881417, 40.2225358597]}, "type": "Feature", "properties": {"collection_times": [{"days": "Mon-Sat", "time": "10:00am"}, {"days": "Sun", "time": "Closed"}], "id": "1701100118", "name": "USPS COLLECTION BOX - BLUE BOX", "address": {"city": "CAMP HILL", "state": "PA", "street": "3507 CAPITAL CITY MALL DR", "postcode": "17011"}}},
{"geometry": {"type": "Point", "coordinates": [-76.9437950465, 40.2128231852]}, "type": "Feature", "properties": {"collection_times": [{"days": "Mon-Fri", "time": "2:30pm"}, {"days": "Sat", "time": "10:30am"}, {"days": "Sun", "time": "Closed"}], "id": "1701100119", "name": "USPS COLLECTION BOX - BLUE BOX", "address": {"city": "CAMP HILL", "state": "PA", "street": "3913 HARTZDALE DR", "postcode": "17011"}}},
{"geometry": {"type": "Point", "coordinates": [-76.9546719385, 40.2379034855]}, "type": "Feature", "properties": {"collection_times": [{"days": "Mon-Fri", "time": "4:00pm"}, {"days": "Sat", "time": "10:30am"}, {"days": "Sun", "time": "Closed"}], "id": "1701100123", "name": "USPS COLLECTION BOX - BLUE BOX", "address": {"city": "CAMP HILL", "state": "PA", "street": "4242 CARLISLE PIKE", "postcode": "17011"}}},
{"geometry": {"type": "Point", "coordinates": [-76.922443195, 40.2491315366]}, "type": "Feature", "properties": {"collection_times": [{"days": "Mon-Fri", "time": "5:30pm"}, {"days": "Sat", "time": "3:15pm"}, {"days": "Sun", "time": "Closed"}], "id": "1701100124", "name": "USPS COLLECTION BOX - PO LOBBY", "address": {"city": "CAMP HILL", "state": "PA", "street": "1675 CAMP HILL BYP", "postcode": "17011"}}},
{"geometry": {"type": "Point", "coordinates": [-76.9552847112, 40.2230194959]}, "type": "Feature", "properties": {"collection_times": [{"days": "Mon-Fri", "time": "4:00pm"}, {"days": "Sat-Sun", "time": "Closed"}], "id": "1701100126", "name": "USPS COLLECTION BOX - PO LOBBY", "address": {"city": "CAMP HILL", "state": "PA", "street": "10 W MAIN ST", "postcode": "17011"}}},
{"geometry": {"type": "Point", "coordinates": [-76.9206151611, 40.2632712969]}, "type": "Feature", "properties": {"collection_times": [{"days": "Mon-Fri", "time": "3:45pm"}, {"days": "Sat-Sun", "time": "Closed"}], "id": "1701100129", "name": "USPS COLLECTION BOX - BLUE BOX", "address": {"city": "CAMP HILL", "state": "PA", "street": "100 CORPORATE CENTER DR", "postcode": "17011"}}},
{"geometry": {"type": "Point", "coordinates": [-76.9206151611, 40.2632712969]}, "type": "Feature", "properties": {"collection_times": [{"days": "Mon-Fri", "time": "3:45pm"}, {"days": "Sat-Sun", "time": "Closed"}], "id": "1701100130", "name": "USPS COLLECTION BOX - BLUE BOX", "address": {"city": "CAMP HILL", "state": "PA", "street": "100 CORPORATE CENTER DR", "postcode": "17011"}}},
{"geometry": {"type": "Point", "coordinates": [-77.2003134946, 40.20930794]}, "type": "Feature", "properties": {"collection_times": [{"days": "Mon-Sat", "time": "9:30am"}, {"days": "Sun", "time": "Closed"}], "id": "1701300001", "name": "USPS COLLECTION BOX - BLUE BOX", "address": {"city": "CARLISLE", "state": "PA", "street": "523 3RD ST", "postcode": "17013"}}},
{"geometry": {"type": "Point", "coordinates": [-77.1944257826, 40.1974310309]}, "type": "Feature", "properties": {"collection_times": [{"days": "Mon-Sat", "time": "3:00pm"}, {"days": "Sun", "time": "Closed"}], "id": "1701300005", "name": "USPS COLLECTION BOX - BLUE BOX", "address": {"city": "CARLISLE", "state": "PA", "street": "311 S WEST ST", "postcode": "17013"}}},
{"geometry": {"type": "Point", "coordinates": [-77.186866673, 40.2012826249]}, "type": "Feature", "properties": {"collection_times": [{"days": "Mon-Sat", "time": "4:00pm"}, {"days": "Sun", "time": "Closed"}], "id": "1701300006", "name": "USPS COLLECTION BOX - BLUE BOX", "address": {"city": "CARLISLE", "state": "PA", "street": "52 E HIGH ST", "postcode": "17013"}}},
{"geometry": {"type": "Point", "coordinates": [-77.1909574422, 40.2114306187]}, "type": "Feature", "properties": {"collection_times": [{"days": "Mon-Fri", "time": "2:00pm"}, {"days": "Sat", "time": "9:00am"}, {"days": "Sun", "time": "Closed"}], "id": "1701300012", "name": "USPS COLLECTION BOX - BLUE BOX", "address": {"city": "CARLISLE", "state": "PA", "street": "844 SUMNER RD", "postcode": "17013"}}},
{"geometry": {"type": "Point", "coordinates": [-77.2059974854, 40.2028571433]}, "type": "Feature", "properties": {"collection_times": [{"days": "Mon-Sat", "time": "12:00pm"}, {"days": "Sun", "time": "Closed"}], "id": "1701300014", "name": "USPS COLLECTION BOX - BLUE BOX", "address": {"city": "CARLISLE", "state": "PA", "street": "800 HIGH ST", "postcode": "17013"}}},
{"geometry": {"type": "Point", "coordinates": [-77.2005097388, 40.2055436431]}, "type": "Feature", "properties": {"collection_times": [{"days": "Mon-Sat", "time": "9:45am"}, {"days": "Sun", "time": "Closed"}], "id": "1701300016", "name": "USPS COLLECTION BOX - BLUE BOX", "address": {"city": "CARLISLE", "state": "PA", "street": "501 W NORTH ST", "postcode": "17013"}}},
{"geometry": {"type": "Point", "coordinates": [-77.1891671833, 40.2011933102]}, "type": "Feature", "properties": {"collection_times": [{"days": "Mon-Fri", "time": "4:00pm"}, {"days": "Sat", "time": "2:00pm"}, {"days": "Sun", "time": "Closed"}], "id": "1701300023", "name": "USPS COLLECTION BOX - BLUE BOX", "address": {"city": "CARLISLE", "state": "PA", "street": "1 COURT HOUSE SQ", "postcode": "17013"}}},
{"geometry": {"type": "Point", "coordinates": [-77.1948895007, 40.2128531465]}, "type": "Feature", "properties": {"collection_times": [{"days": "Mon-Sat", "time": "3:30pm"}, {"days": "Sun", "time": "Closed"}], "id": "1701300025", "name": "USPS COLLECTION BOX - BLUE BOX", "address": {"city": "CARLISLE", "state": "PA", "street": "901 N COLLEGE ST", "postcode": "17013"}}},
{"geometry": {"type": "Point", "coordinates": [-77.1832793872, 40.208055246]}, "type": "Feature", "properties": {"collection_times": [{"days": "Mon-Sat", "time": "3:00pm"}, {"days": "Sun", "time": "Closed"}], "id": "1701300031", "name": "USPS COLLECTION BOX - BLUE BOX", "address": {"city": "CARLISLE", "state": "PA", "street": "619 N EAST ST", "postcode": "17013"}}},
{"geometry": {"type": "Point", "coordinates": [-77.199553817, 40.2074867451]}, "type": "Feature", "properties": {"collection_times": [{"days": "Mon-Fri", "time": "2:00pm"}, {"days": "Sat", "time": "9:00am"}, {"days": "Sun", "time": "Closed"}], "id": "1701300033", "name": "USPS COLLECTION BOX - BLUE BOX", "address": {"city": "CARLISLE", "state": "PA", "street": "453 LINCOLN ST", "postcode": "17013"}}},
{"geometry": {"type": "Point", "coordinates": [-77.1907396807, 40.2144501411]}, "type": "Feature", "properties": {"collection_times": [{"days": "Mon-Sat", "time": "3:00pm"}, {"days": "Sun", "time": "Closed"}], "id": "1701300034", "name": "USPS COLLECTION BOX - BLUE BOX", "address": {"city": "CARLISLE", "state": "PA", "street": "101 G ST", "postcode": "17013"}}},
{"geometry": {"type": "Point", "coordinates": [-77.1888907158, 40.2029198401]}, "type": "Feature", "properties": {"collection_times": [{"days": "Mon-Fri", "time": "4:00pm"}, {"days": "Sat", "time": "1:00pm"}, {"days": "Sun", "time": "Closed"}], "id": "1701300038", "name": "USPS COLLECTION BOX - BLUE BOX", "address": {"city": "CARLISLE", "state": "PA", "street": "40 S HANOVER ST", "postcode": "17013"}}},
{"geometry": {"type": "Point", "coordinates": [-77.1897897646, 40.1966880122]}, "type": "Feature", "properties": {"collection_times": [{"days": "Mon-Sat", "time": "2:00pm"}, {"days": "Sun", "time": "Closed"}], "id": "1701300041", "name": "USPS COLLECTION BOX - BLUE BOX", "address": {"city": "CARLISLE", "state": "PA", "street": "266 S HANOVER ST", "postcode": "17013"}}},
{"geometry": {"type": "Point", "coordinates": [-77.1792815401, 40.2022467364]}, "type": "Feature", "properties": {"collection_times": [{"days": "Mon-Sat", "time": "10:30am"}, {"days": "Sun", "time": "Closed"}], "id": "1701300046", "name": "USPS COLLECTION BOX - BLUE BOX", "address": {"city": "CARLISLE", "state": "PA", "street": "401 E LOUTHER ST", "postcode": "17013"}}},
{"geometry": {"type": "Point", "coordinates": [-77.2028582701, 40.1990808867]}, "type": "Feature", "properties": {"collection_times": [{"days": "Mon-Fri", "time": "12:00pm"}, {"days": "Sat-Sun", "time": "Closed"}], "id": "1701300049", "name": "USPS COLLECTION BOX - BLUE BOX", "address": {"city": "CARLISLE", "state": "PA", "street": "220 WILSON ST", "postcode": "17013"}}},
{"geometry": {"type": "Point", "coordinates": [-77.1918423808, 40.1908663492]}, "type": "Feature", "properties": {"collection_times": [{"days": "Mon-Sat", "time": "10:00am"}, {"days": "Sun", "time": "Closed"}], "id": "1701300050", "name": "USPS COLLECTION BOX - BLUE BOX", "address": {"city": "CARLISLE", "state": "PA", "street": "40 NOBLE BLVD", "postcode": "17013"}}},
{"geometry": {"type": "Point", "coordinates": [-77.2037216589, 40.192945046]}, "type": "Feature", "properties": {"collection_times": [{"days": "Mon-Sat", "time": "10:00am"}, {"days": "Sun", "time": "Closed"}], "id": "1701300051", "name": "USPS COLLECTION BOX - BLUE BOX", "address": {"city": "CARLISLE", "state": "PA", "street": "612 WILSON ST", "postcode": "17013"}}},
{"geometry": {"type": "Point", "coordinates": [-77.1916978774, 40.2002463528]}, "type": "Feature", "properties": {"collection_times": [{"days": "Mon-Sat", "time": "2:00pm"}, {"days": "Sun", "time": "Closed"}], "id": "1701300056", "name": "USPS COLLECTION BOX - BLUE BOX", "address": {"city": "CARLISLE", "state": "PA", "street": "64 S PITT ST", "postcode": "17013"}}},
{"geometry": {"type": "Point", "coordinates": [-77.1923201138, 40.1950342356]}, "type": "Feature", "properties": {"collection_times": [{"days": "Mon-Sat", "time": "3:00pm"}, {"days": "Sun", "time": "Closed"}], "id": "1701300058", "name": "USPS COLLECTION BOX - BLUE BOX", "address": {"city": "CARLISLE", "state": "PA", "street": "76 W WILLOW ST", "postcode": "17013"}}},
{"geometry": {"type": "Point", "coordinates": [-77.190367416, 40.2092860183]}, "type": "Feature", "properties": {"collection_times": [{"days": "Mon-Sat", "time": "9:00am"}, {"days": "Sun", "time": "Closed"}], "id": "1701300059", "name": "USPS COLLECTION BOX - BLUE BOX", "address": {"city": "CARLISLE", "state": "PA", "street": "99 B ST", "postcode": "17013"}}},
{"geometry": {"type": "Point", "coordinates": [-77.1797866636, 40.2353826]}, "type": "Feature", "properties": {"collection_times": [{"days": "Mon-Sat", "time": "12:00pm"}, {"days": "Sun", "time": "Closed"}], "id": "1701300064", "name": "USPS COLLECTION BOX - BLUE BOX", "address": {"city": "CARLISLE", "state": "PA", "street": "1958 SPRING RD", "postcode": "17013"}}},
{"geometry": {"type": "Point", "coordinates": [-77.192357434, 40.2068327505]}, "type": "Feature", "properties": {"collection_times": [{"days": "Mon-Sat", "time": "9:00am"}, {"days": "Sun", "time": "Closed"}], "id": "1701300067", "name": "USPS COLLECTION BOX - BLUE BOX", "address": {"city": "CARLISLE", "state": "PA", "street": "165 LINCOLN ST", "postcode": "17013"}}},
{"geometry": {"type": "Point", "coordinates": [-77.1953474329, 40.1937831023]}, "type": "Feature", "properties": {"collection_times": [{"days": "Mon-Sat", "time": "10:00am"}, {"days": "Sun", "time": "Closed"}], "id": "1701300068", "name": "USPS COLLECTION BOX - BLUE BOX", "address": {"city": "CARLISLE", "state": "PA", "street": "205 W RIDGE ST", "postcode": "17013"}}},
{"geometry": {"type": "Point", "coordinates": [-77.2141480727, 40.1833335885]}, "type": "Feature", "properties": {"collection_times": [{"days": "Mon-Fri", "time": "3:00pm"}, {"days": "Sat", "time": "10:00am"}, {"days": "Sun", "time": "Closed"}], "id": "1701300070", "name": "USPS COLLECTION BOX - BLUE BOX", "address": {"city": "CARLISLE", "state": "PA", "street": "950 WALNUT BOTTOM RD", "postcode": "17013"}}},
{"geometry": {"type": "Point", "coordinates": [-77.1906876305, 40.2031741763]}, "type": "Feature", "properties": {"collection_times": [{"days": "Mon-Fri", "time": "5:15pm"}, {"days": "Sat", "time": "5:00pm"}, {"days": "Sun", "time": "Closed"}], "id": "1701300074", "name": "USPS COLLECTION BOX - BLUE BOX", "address": {"city": "CARLISLE", "state": "PA", "street": "66 W LOUTHER ST", "postcode": "17013"}}},
{"geometry": {"type": "Point", "coordinates": [-77.1906876305, 40.2031741763]}, "type": "Feature", "properties": {"collection_times": [{"days": "Mon-Fri", "time": "5:15pm"}, {"days": "Sat", "time": "5:00pm"}, {"days": "Sun", "time": "Closed"}], "id": "1701300076", "name": "USPS COLLECTION BOX - BLUE BOX", "address": {"city": "CARLISLE", "state": "PA", "street": "66 W LOUTHER ST", "postcode": "17013"}}},
{"geometry": {"type": "Point", "coordinates": [-77.1906876305, 40.2031741763]}, "type": "Feature", "properties": {"collection_times": [{"days": "Mon-Fri", "time": "5:15pm"}, {"days": "Sat", "time": "5:00pm"}, {"days": "Sun", "time": "Closed"}], "id": "1701300077", "name": "USPS COLLECTION BOX - BLUE BOX", "address": {"city": "CARLISLE", "state": "PA", "street": "66 W LOUTHER ST", "postcode": "17013"}}},
{"geometry": {"type": "Point", "coordinates": [-77.1891671833, 40.2011933102]}, "type": "Feature", "properties": {"collection_times": [{"days": "Mon-Fri", "time": "4:00pm"}, {"days": "Sat", "time": "2:00pm"}, {"days": "Sun", "time": "Closed"}], "id": "1701300082", "name": "USPS COLLECTION BOX - BLUE BOX", "address": {"city": "CARLISLE", "state": "PA", "street": "1 COURT HOUSE SQ", "postcode": "17013"}}},
{"geometry": {"type": "Point", "coordinates": [-77.2123026567, 40.2014896427]}, "type": "Feature", "properties": {"collection_times": [{"days": "Mon-Sat", "time": "9:00am"}, {"days": "Sun", "time": "Closed"}], "id": "1701300093", "name": "USPS COLLECTION BOX - BLUE BOX", "address": {"city": "CARLISLE", "state": "PA", "street": "1225 RITNER HWY", "postcode": "17013"}}},
{"geometry": {"type": "Point", "coordinates": [-77.1906876305, 40.2031741763]}, "type": "Feature", "properties": {"collection_times": [{"days": "Mon-Fri", "time": "5:15pm"}, {"days": "Sat", "time": "5:00pm"}, {"days": "Sun", "time": "Closed"}], "id": "1701300099", "name": "USPS COLLECTION BOX - PO LOBBY", "address": {"city": "CARLISLE", "state": "PA", "street": "66 W LOUTHER ST", "postcode": "17013"}}},
{"geometry": {"type": "Point", "coordinates": [-77.191334709, 40.19340885]}, "type": "Feature", "properties": {"collection_times": [{"days": "Mon-Sat", "time": "9:00am"}, {"days": "Sun", "time": "Closed"}], "id": "1701300102", "name": "USPS COLLECTION BOX - BLUE BOX", "address": {"city": "CARLISLE", "state": "PA", "street": "29 W RIDGE ST", "postcode": "17013"}}},
{"geometry": {"type": "Point", "coordinates": [-77.1418436126, 40.2324222302]}, "type": "Feature", "properties": {"collection_times": [{"days": "Mon-Sat", "time": "10:00am"}, {"days": "Sun", "time": "Closed"}], "id": "1701300104", "name": "USPS COLLECTION BOX - BLUE BOX", "address": {"city": "CARLISLE", "state": "PA", "street": "1201 HARRISBURG PIKE", "postcode": "17013"}}},
{"geometry": {"type": "Point", "coordinates": [-77.1761902519, 40.2098886484]}, "type": "Feature", "properties": {"collection_times": [{"days": "Mon-Sat", "time": "2:00pm"}, {"days": "Sun", "time": "Closed"}], "id": "1701300106", "name": "USPS COLLECTION BOX - BLUE BOX", "address": {"city": "CARLISLE", "state": "PA", "street": "122 FORBES AVE", "postcode": "17013"}}},
{"geometry": {"type": "Point", "coordinates": [-77.2141480727, 40.1833335885]}, "type": "Feature", "properties": {"collection_times": [{"days": "Mon-Fri", "time": "3:00pm"}, {"days": "Sat", "time": "10:00am"}, {"days": "Sun", "time": "Closed"}], "id": "1701300107", "name": "USPS COLLECTION BOX - BLUE BOX", "address": {"city": "CARLISLE", "state": "PA", "street": "950 WALNUT BOTTOM RD", "postcode": "17013"}}},
{"geometry": {"type": "Point", "coordinates": [-77.2231171913, 40.1847183791]}, "type": "Feature", "properties": {"collection_times": [{"days": "Mon-Sat", "time": "11:00am"}, {"days": "Sun", "time": "Closed"}], "id": "1701500001", "name": "USPS COLLECTION BOX - BLUE BOX", "address": {"city": "CARLISLE", "state": "PA", "street": "361 ALEXANDER SPRING RD", "postcode": "17015"}}},
{"geometry": {"type": "Point", "coordinates": [-77.1068506706, 40.2570785043]}, "type": "Feature", "properties": {"collection_times": [{"days": "Mon-Sat", "time": "11:30am"}, {"days": "Sun", "time": "Closed"}], "id": "1701500002", "name": "USPS COLLECTION BOX - BLUE BOX", "address": {"city": "CARLISLE", "state": "PA", "street": "2 APPLE ALY", "postcode": "17015"}}},
{"geometry": {"type": "Point", "coordinates": [-77.1024482284, 40.2324446028]}, "type": "Feature", "properties": {"collection_times": [{"days": "Mon-Sat", "time": "11:00am"}, {"days": "Sun", "time": "Closed"}], "id": "1701500003", "name": "USPS COLLECTION BOX - BLUE BOX", "address": {"city": "CARLISLE", "state": "PA", "street": "7073 CARLISLE PIKE", "postcode": "17015"}}},
{"geometry": {"type": "Point", "coordinates": [-77.1235611012, 40.234169191]}, "type": "Feature", "properties": {"collection_times": [{"days": "Mon-Sat", "time": "11:45am"}, {"days": "Sun", "time": "Closed"}], "id": "1701500004", "name": "USPS COLLECTION BOX - BLUE BOX", "address": {"city": "CARLISLE", "state": "PA", "street": "1501 HARRISBURG PIKE", "postcode": "17015"}}},
{"geometry": {"type": "Point", "coordinates": [-76.4739670942, 40.3379725549]}, "type": "Feature", "properties": {"collection_times": [{"days": "Mon-Fri", "time": "4:00pm"}, {"days": "Sat", "time": "11:00am"}, {"days": "Sun", "time": "Closed"}], "id": "1701600001", "name": "USPS COLLECTION BOX - BLUE BOX", "address": {"city": "CORNWALL", "state": "PA", "street": "7 BOYD ST", "postcode": "17016"}}},
{"geometry": {"type": "Point", "coordinates": [-76.4739670942, 40.3379725549]}, "type": "Feature", "properties": {"collection_times": [{"days": "Mon-Fri", "time": "4:15pm"}, {"days": "Sat", "time": "11:15am"}, {"days": "Sun", "time": "Closed"}], "id": "1701600002", "name": "USPS COLLECTION BOX - PO LOBBY", "address": {"city": "CORNWALL", "state": "PA", "street": "7 BOYD ST", "postcode": "17016"}}},
{"geometry": {"type": "Point", "coordinates": [-76.9004724283, 40.6523732981]}, "type": "Feature", "properties": {"collection_times": [{"days": "Mon-Sat", "time": "10:00am"}, {"days": "Sun", "time": "Closed"}], "id": "1701700001", "name": "USPS COLLECTION BOX - BLUE BOX", "address": {"city": "DALMATIA", "state": "PA", "street": "132 SCHOOL RD", "postcode": "17017"}}},
{"geometry": {"type": "Point", "coordinates": [-76.9293176117, 40.3655480266]}, "type": "Feature", "properties": {"collection_times": [{"days": "Mon-Fri", "time": "4:30pm"}, {"days": "Sat", "time": "12:00pm"}, {"days": "Sun", "time": "Closed"}], "id": "1701800001", "name": "USPS COLLECTION BOX - BLUE BOX", "address": {"city": "DAUPHIN", "state": "PA", "street": "204 ALLEGHENY ST", "postcode": "17018"}}},
{"geometry": {"type": "Point", "coordinates": [-76.9332128658, 40.3810192933]}, "type": "Feature", "properties": {"collection_times": [{"days": "Mon-Sat", "time": "10:00am"}, {"days": "Sun", "time": "Closed"}], "id": "1701800002", "name": "USPS COLLECTION BOX - BLUE BOX", "address": {"city": "DAUPHIN", "state": "PA", "street": "1001 PETERS MOUNTAIN RD", "postcode": "17018"}}},
{"geometry": {"type": "Point", "coordinates": [-76.9293176117, 40.3655480266]}, "type": "Feature", "properties": {"collection_times": [{"days": "Mon-Fri", "time": "4:30pm"}, {"days": "Sat", "time": "12:00pm"}, {"days": "Sun", "time": "Closed"}], "id": "1701800003", "name": "USPS COLLECTION BOX - PO LOBBY", "address": {"city": "DAUPHIN", "state": "PA", "street": "204 ALLEGHENY ST", "postcode": "17018"}}},
{"geometry": {"type": "Point", "coordinates": [-77.0251172723, 40.1038439375]}, "type": "Feature", "properties": {"collection_times": [{"days": "Mon-Sat", "time": "2:00pm"}, {"days": "Sun", "time": "Closed"}], "id": "1701900003", "name": "USPS COLLECTION BOX - BLUE BOX", "address": {"city": "DILLSBURG", "state": "PA", "street": "100 S BALTIMORE ST", "postcode": "17019"}}},
{"geometry": {"type": "Point", "coordinates": [-77.0356567589, 40.1112572476]}, "type": "Feature", "properties": {"collection_times": [{"days": "Mon-Fri", "time": "5:00pm"}, {"days": "Sat", "time": "2:45pm"}, {"days": "Sun", "time": "Closed"}], "id": "1701900006", "name": "USPS COLLECTION BOX - BLUE BOX", "address": {"city": "DILLSBURG", "state": "PA", "street": "30 N BALTIMORE ST", "postcode": "17019"}}},
{"geometry": {"type": "Point", "coordinates": [-77.0198947202, 40.1307803929]}, "type": "Feature", "properties": {"collection_times": [{"days": "Mon-Sat", "time": "10:00am"}, {"days": "Sun", "time": "Closed"}], "id": "1701900008", "name": "USPS COLLECTION BOX - BLUE BOX", "address": {"city": "DILLSBURG", "state": "PA", "street": "836 N US ROUTE 15", "postcode": "17019"}}},
{"geometry": {"type": "Point", "coordinates": [-77.0356567589, 40.1112572476]}, "type": "Feature", "properties": {"collection_times": [{"days": "Mon-Fri", "time": "5:00pm"}, {"days": "Sat", "time": "3:00pm"}, {"days": "Sun", "time": "Closed"}], "id": "1701900010", "name": "USPS COLLECTION BOX - PO LOBBY", "address": {"city": "DILLSBURG", "state": "PA", "street": "30 N BALTIMORE ST", "postcode": "17019"}}},
{"geometry": {"type": "Point", "coordinates": [-77.0304842297, 40.3897977826]}, "type": "Feature", "properties": {"collection_times": [{"days": "Mon-Fri", "time": "2:30pm"}, {"days": "Sat-Sun", "time": "Closed"}], "id": "1702000002", "name": "USPS COLLECTION BOX - BLUE BOX", "address": {"city": "DUNCANNON", "state": "PA", "street": "1 S MARKET ST", "postcode": "17020"}}},
{"geometry": {"type": "Point", "coordinates": [-77.0274880237, 40.3959443232]}, "type": "Feature", "properties": {"collection_times": [{"days": "Mon-Fri", "time": "9:00am"}, {"days": "Sat-Sun", "time": "Closed"}], "id": "1702000007", "name": "USPS COLLECTION BOX - BLUE BOX", "address": {"city": "DUNCANNON", "state": "PA", "street": "PFAUTZ RD", "postcode": "17020"}}},
{"geometry": {"type": "Point", "coordinates": [-77.0290711625, 40.3926012571]}, "type": "Feature", "properties": {"collection_times": [{"days": "Mon-Fri", "time": "4:00pm"}, {"days": "Sat", "time": "12:00pm"}, {"days": "Sun", "time": "Closed"}], "id": "1702000012", "name": "USPS COLLECTION BOX - BLUE BOX", "address": {"city": "DUNCANNON", "state": "PA", "street": "203 N MARKET ST", "postcode": "17020"}}},
{"geometry": {"type": "Point", "coordinates": [-77.0290711625, 40.3926012571]}, "type": "Feature", "properties": {"collection_times": [{"days": "Mon-Fri", "time": "4:00pm"}, {"days": "Sat", "time": "12:00pm"}, {"days": "Sun", "time": "Closed"}], "id": "1702000013", "name": "USPS COLLECTION BOX - BLUE BOX", "address": {"city": "DUNCANNON", "state": "PA", "street": "203 N MARKET ST", "postcode": "17020"}}},
{"geometry": {"type": "Point", "coordinates": [-77.0290711625, 40.3926012571]}, "type": "Feature", "properties": {"collection_times": [{"days": "Mon-Fri", "time": "4:00pm"}, {"days": "Sat", "time": "12:00pm"}, {"days": "Sun", "time": "Closed"}], "id": "1702000017", "name": "USPS COLLECTION BOX - PO LOBBY", "address": {"city": "DUNCANNON", "state": "PA", "street": "203 N MARKET ST", "postcode": "17020"}}},
{"geometry": {"type": "Point", "coordinates": [-77.6616866481, 40.3432233255]}, "type": "Feature", "properties": {"collection_times": [{"days": "Mon-Fri", "time": "3:45pm"}, {"days": "Sat", "time": "11:45am"}, {"days": "Sun", "time": "Closed"}], "id": "1702100001", "name": "USPS COLLECTION BOX - BLUE BOX", "address": {"city": "EAST WATERFORD", "state": "PA", "street": "9393 ROUTE 75 S", "postcode": "17021"}}},
{"geometry": {"type": "Point", "coordinates": [-77.6616866481, 40.3432233255]}, "type": "Feature", "properties": {"collection_times": [{"days": "Mon-Fri", "time": "12:00pm"}, {"days": "Sat", "time": "11:45am"}, {"days": "Sun", "time": "Closed"}], "id": "1702100003", "name": "USPS COLLECTION BOX - PO LOBBY", "address": {"city": "EAST WATERFORD", "state": "PA", "street": "9393 ROUTE 75 S", "postcode": "17021"}}},
{"geometry": {"type": "Point", "coordinates": [-76.6057808539, 40.1515476866]}, "type": "Feature", "properties": {"collection_times": [{"days": "Mon-Sat", "time": "9:00am"}, {"days": "Sun", "time": "Closed"}], "id": "1702200003", "name": "USPS COLLECTION BOX - BLUE BOX", "address": {"city": "ELIZABETHTOWN", "state": "PA", "street": "2 E HIGH ST", "postcode": "17022"}}},
{"geometry": {"type": "Point", "coordinates": [-76.6080969016, 40.1650202008]}, "type": "Feature", "properties": {"collection_times": [{"days": "Mon-Sat", "time": "11:00am"}, {"days": "Sun", "time": "Closed"}], "id": "1702200008", "name": "USPS COLLECTION BOX - BLUE BOX", "address": {"city": "ELIZABETHTOWN", "state": "PA", "street": "977 N HANOVER ST", "postcode": "17022"}}},
{"geometry": {"type": "Point", "coordinates": [-76.6048005414, 40.1498204447]}, "type": "Feature", "properties": {"collection_times": [{"days": "Mon-Fri", "time": "5:00pm"}, {"days": "Sat", "time": "4:00pm"}, {"days": "Sun", "time": "Closed"}], "id": "1702200013", "name": "USPS COLLECTION BOX - BLUE BOX", "address": {"city": "ELIZABETHTOWN", "state": "PA", "street": "137 S MARKET ST", "postcode": "17022"}}},
{"geometry": {"type": "Point", "coordinates": [-76.6048005414, 40.1498204447]}, "type": "Feature", "properties": {"collection_times": [{"days": "Mon-Fri", "time": "5:00pm"}, {"days": "Sat", "time": "4:00pm"}, {"days": "Sun", "time": "Closed"}], "id": "1702200014", "name": "USPS COLLECTION BOX - BLUE BOX", "address": {"city": "ELIZABETHTOWN", "state": "PA", "street": "137 S MARKET ST", "postcode": "17022"}}},
{"geometry": {"type": "Point", "coordinates": [-76.603755234, 40.1494133773]}, "type": "Feature", "properties": {"collection_times": [{"days": "Mon-Fri", "time": "5:00pm"}, {"days": "Sat", "time": "4:00pm"}, {"days": "Sun", "time": "Closed"}], "id": "1702200015", "name": "USPS COLLECTION BOX - BLUE BOX", "address": {"city": "ELIZABETHTOWN", "state": "PA", "street": "27 E WASHINGTON ST", "postcode": "17022"}}},
{"geometry": {"type": "Point", "coordinates": [-76.603755234, 40.1494133773]}, "type": "Feature", "properties": {"collection_times": [{"days": "Mon-Fri", "time": "5:00pm"}, {"days": "Sat", "time": "4:00pm"}, {"days": "Sun", "time": "Closed"}], "id": "1702200016", "name": "USPS COLLECTION BOX - BLUE BOX", "address": {"city": "ELIZABETHTOWN", "state": "PA", "street": "27 E WASHINGTON ST", "postcode": "17022"}}},
{"geometry": {"type": "Point", "coordinates": [-76.5875270431, 40.1443524602]}, "type": "Feature", "properties": {"collection_times": [{"days": "Mon-Fri", "time": "1:30pm"}, {"days": "Sat", "time": "12:30pm"}, {"days": "Sun", "time": "Closed"}], "id": "1702200017", "name": "USPS COLLECTION BOX - BLUE BOX", "address": {"city": "ELIZABETHTOWN", "state": "PA", "street": "600 GROFF AVE", "postcode": "17022"}}},
{"geometry": {"type": "Point", "coordinates": [-76.583950373, 40.1378238886]}, "type": "Feature", "properties": {"collection_times": [{"days": "Mon-Sat", "time": "10:30am"}, {"days": "Sun", "time": "Closed"}], "id": "1702200019", "name": "USPS COLLECTION BOX - BLUE BOX", "address": {"city": "ELIZABETHTOWN", "state": "PA", "street": "1629 S MARKET ST", "postcode": "17022"}}},
{"geometry": {"type": "Point", "coordinates": [-76.6048005414, 40.1498204447]}, "type": "Feature", "properties": {"collection_times": [{"days": "Mon-Fri", "time": "5:00pm"}, {"days": "Sat", "time": "4:00pm"}, {"days": "Sun", "time": "Closed"}], "id": "1702200023", "name": "USPS COLLECTION BOX - PO LOBBY", "address": {"city": "ELIZABETHTOWN", "state": "PA", "street": "137 S MARKET ST", "postcode": "17022"}}},
{"geometry": {"type": "Point", "coordinates": [-76.5902440889, 40.1401070669]}, "type": "Feature", "properties": {"collection_times": [{"days": "Mon-Sat", "time": "11:00am"}, {"days": "Sun", "time": "Closed"}], "id": "1702200027", "name": "USPS COLLECTION BOX - BLUE BOX", "address": {"city": "ELIZABETHTOWN", "state": "PA", "street": "1270 S MARKET ST", "postcode": "17022"}}},
{"geometry": {"type": "Point", "coordinates": [-76.8115641266, 40.5518318044]}, "type": "Feature", "properties": {"collection_times": [{"days": "Mon-Fri", "time": "4:30pm"}, {"days": "Sat", "time": "11:45am"}, {"days": "Sun", "time": "Closed"}], "id": "1702300001", "name": "USPS COLLECTION BOX - BLUE BOX", "address": {"city": "ELIZABETHVILLE", "state": "PA", "street": "40 N COLLIER ST", "postcode": "17023"}}},
{"geometry": {"type": "Point", "coordinates": [-76.8115641266, 40.5518318044]}, "type": "Feature", "properties": {"collection_times": [{"days": "Mon-Fri", "time": "4:30pm"}, {"days": "Sat", "time": "11:45am"}, {"days": "Sun", "time": "Closed"}], "id": "1702300003", "name": "USPS COLLECTION BOX - PO LOBBY", "address": {"city": "ELIZABETHVILLE", "state": "PA", "street": "40 N COLLIER ST", "postcode": "17023"}}},
{"geometry": {"type": "Point", "coordinates": [-77.2874364998, 40.3611376134]}, "type": "Feature", "properties": {"collection_times": [{"days": "Mon-Fri", "time": "3:00pm"}, {"days": "Sat", "time": "11:45am"}, {"days": "Sun", "time": "Closed"}], "id": "1702400001", "name": "USPS COLLECTION BOX - BLUE BOX", "address": {"city": "ELLIOTTSBURG", "state": "PA", "street": "50 VETERANS WAY", "postcode": "17024"}}},
{"geometry": {"type": "Point", "coordinates": [-77.2874364998, 40.3611376134]}, "type": "Feature", "properties": {"collection_times": [{"days": "Mon-Fri", "time": "3:00pm"}, {"days": "Sat", "time": "11:45am"}, {"days": "Sun", "time": "Closed"}], "id": "1702400002", "name": "USPS COLLECTION BOX - PO LOBBY", "address": {"city": "ELLIOTTSBURG", "state": "PA", "street": "50 VETERANS WAY", "postcode": "17024"}}},
{"geometry": {"type": "Point", "coordinates": [-76.9333276639, 40.3030730571]}, "type": "Feature", "properties": {"collection_times": [{"days": "Mon-Sat", "time": "11:30am"}, {"days": "Sun", "time": "Closed"}], "id": "1702500019", "name": "USPS COLLECTION BOX - BLUE BOX", "address": {"city": "ENOLA", "state": "PA", "street": "100 SUMMER LN", "postcode": "17025"}}},
{"geometry": {"type": "Point", "coordinates": [-76.9284585672, 40.2984899797]}, "type": "Feature", "properties": {"collection_times": [{"days": "Mon-Sat", "time": "10:00am"}, {"days": "Sun", "time": "Closed"}], "id": "1702500021", "name": "USPS COLLECTION BOX - BLUE BOX", "address": {"city": "ENOLA", "state": "PA", "street": "413 N ENOLA RD", "postcode": "17025"}}},
{"geometry": {"type": "Point", "coordinates": [-76.9394344814, 40.2798758206]}, "type": "Feature", "properties": {"collection_times": [{"days": "Mon-Fri", "time": "4:30pm"}, {"days": "Sat", "time": "12:00pm"}, {"days": "Sun", "time": "Closed"}], "id": "1702500027", "name": "USPS COLLECTION BOX - PO LOBBY", "address": {"city": "ENOLA", "state": "PA", "street": "514 MAGARO RD", "postcode": "17025"}}},
{"geometry": {"type": "Point", "coordinates": [-76.9394344814, 40.2798758206]}, "type": "Feature", "properties": {"collection_times": [{"days": "Mon-Fri", "time": "4:30pm"}, {"days": "Sat", "time": "3:00pm"}, {"days": "Sun", "time": "Closed"}], "id": "1702500030", "name": "USPS COLLECTION BOX - BLUE BOX", "address": {"city": "ENOLA", "state": "PA", "street": "514 MAGARO RD", "postcode": "17025"}}},
{"geometry": {"type": "Point", "coordinates": [-76.9394344814, 40.2798758206]}, "type": "Feature", "properties": {"collection_times": [{"days": "Mon-Fri", "time": "4:30pm"}, {"days": "Sat", "time": "3:00pm"}, {"days": "Sun", "time": "Closed"}], "id": "1702500031", "name": "USPS COLLECTION BOX - BLUE BOX", "address": {"city": "ENOLA", "state": "PA", "street": "514 MAGARO RD", "postcode": "17025"}}},
{"geometry": {"type": "Point", "coordinates": [-76.9461206285, 40.288372566]}, "type": "Feature", "properties": {"collection_times": [{"days": "Mon-Sat", "time": "9:30am"}, {"days": "Sun", "time": "Closed"}], "id": "1702500032", "name": "USPS COLLECTION BOX - BLUE BOX", "address": {"city": "ENOLA", "state": "PA", "street": "310 E PENN DR", "postcode": "17025"}}},
{"geometry": {"type": "Point", "coordinates": [-76.9306401271, 40.2909012301]}, "type": "Feature", "properties": {"collection_times": [{"days": "Mon-Sat", "time": "9:00am"}, {"days": "Sun", "time": "Closed"}], "id": "1702500033", "name": "USPS COLLECTION BOX - BLUE BOX", "address": {"city": "ENOLA", "state": "PA", "street": "21 SUSQUEHANNA AVE", "postcode": "17025"}}},
{"geometry": {"type": "Point", "coordinates": [-76.4322169875, 40.4442636188]}, "type": "Feature", "properties": {"collection_times": [{"days": "Mon-Fri", "time": "3:45pm"}, {"days": "Sat", "time": "12:00pm"}, {"days": "Sun", "time": "Closed"}], "id": "1702600001", "name": "USPS COLLECTION BOX - BLUE BOX", "address": {"city": "FREDERICKSBURG", "state": "PA", "street": "3024 S PINE GROVE ST", "postcode": "17026"}}},
{"geometry": {"type": "Point", "coordinates": [-76.4322169875, 40.4442636188]}, "type": "Feature", "properties": {"collection_times": [{"days": "Mon-Fri", "time": "3:45pm"}, {"days": "Sat", "time": "12:00pm"}, {"days": "Sun", "time": "Closed"}], "id": "1702600003", "name": "USPS COLLECTION BOX - PO LOBBY", "address": {"city": "FREDERICKSBURG", "state": "PA", "street": "3024 S PINE GROVE ST", "postcode": "17026"}}},
{"geometry": {"type": "Point", "coordinates": [-76.988870949, 40.1595432691]}, "type": "Feature", "properties": {"collection_times": [{"days": "Mon-Fri", "time": "4:30pm"}, {"days": "Sat", "time": "12:00pm"}, {"days": "Sun", "time": "Closed"}], "id": "1702700001", "name": "USPS COLLECTION BOX - BLUE BOX", "address": {"city": "GRANTHAM", "state": "PA", "street": "1 COLLEGE AVE", "postcode": "17027"}}},
{"geometry": {"type": "Point", "coordinates": [-76.988870949, 40.1595432691]}, "type": "Feature", "properties": {"collection_times": [{"days": "Mon-Fri", "time": "4:30pm"}, {"days": "Sat", "time": "12:00pm"}, {"days": "Sun", "time": "Closed"}], "id": "1702700002", "name": "USPS COLLECTION BOX - PO LOBBY", "address": {"city": "GRANTHAM", "state": "PA", "street": "1 COLLEGE AVE", "postcode": "17027"}}},
{"geometry": {"type": "Point", "coordinates": [-76.6473900666, 40.3792209465]}, "type": "Feature", "properties": {"collection_times": [{"days": "Mon-Fri", "time": "4:30pm"}, {"days": "Sat", "time": "12:00pm"}, {"days": "Sun", "time": "Closed"}], "id": "1702800001", "name": "USPS COLLECTION BOX - BLUE BOX", "address": {"city": "GRANTVILLE", "state": "PA", "street": "251 FIREHOUSE RD", "postcode": "17028"}}},
{"geometry": {"type": "Point", "coordinates": [-76.7033312729, 40.3716818119]}, "type": "Feature", "properties": {"collection_times": [{"days": "Mon-Sat", "time": "10:00am"}, {"days": "Sun", "time": "Closed"}], "id": "1702800002", "name": "USPS COLLECTION BOX - BLUE BOX", "address": {"city": "GRANTVILLE", "state": "PA", "street": "112 GOTHIER LN", "postcode": "17028"}}},
{"geometry": {"type": "Point", "coordinates": [-76.660673688, 40.3854023756]}, "type": "Feature", "properties": {"collection_times": [{"days": "Mon-Sat", "time": "9:30am"}, {"days": "Sun", "time": "Closed"}], "id": "1702800003", "name": "USPS COLLECTION BOX - BLUE BOX", "address": {"city": "GRANTVILLE", "state": "PA", "street": "173 TYLER ST", "postcode": "17028"}}},
{"geometry": {"type": "Point", "coordinates": [-76.6473900666, 40.3792209465]}, "type": "Feature", "properties": {"collection_times": [{"days": "Mon-Fri", "time": "4:30pm"}, {"days": "Sat", "time": "12:00pm"}, {"days": "Sun", "time": "Closed"}], "id": "1702800005", "name": "USPS COLLECTION BOX - PO LOBBY", "address": {"city": "GRANTVILLE", "state": "PA", "street": "251 FIREHOUSE RD", "postcode": "17028"}}},
{"geometry": {"type": "Point", "coordinates": [-77.6241395708, 40.550068049]}, "type": "Feature", "properties": {"collection_times": [{"days": "Mon-Fri", "time": "3:45pm"}, {"days": "Sat", "time": "11:30am"}, {"days": "Sun", "time": "Closed"}], "id": "1702900001", "name": "USPS COLLECTION BOX - BLUE BOX", "address": {"city": "GRANVILLE", "state": "PA", "street": "324 GRANVILLE RD", "postcode": "17029"}}},
{"geometry": {"type": "Point", "coordinates": [-77.6241395708, 40.550068049]}, "type": "Feature", "properties": {"collection_times": [{"days": "Mon-Fri", "time": "11:00am"}, {"days": "Sat", "time": "11:30am"}, {"days": "Sun", "time": "Closed"}], "id": "1702900002", "name": "USPS COLLECTION BOX - PO LOBBY", "address": {"city": "GRANVILLE", "state": "PA", "street": "324 GRANVILLE RD", "postcode": "17029"}}},
{"geometry": {"type": "Point", "coordinates": [-76.7186112941, 40.6108206526]}, "type": "Feature", "properties": {"collection_times": [{"days": "Mon-Fri", "time": "3:45pm"}, {"days": "Sat", "time": "11:30am"}, {"days": "Sun", "time": "Closed"}], "id": "1703000001", "name": "USPS COLLECTION BOX - BLUE BOX", "address": {"city": "GRATZ", "state": "PA", "street": "102 S CENTER ST", "postcode": "17030"}}},
{"geometry": {"type": "Point", "coordinates": [-76.7186112941, 40.6108206526]}, "type": "Feature", "properties": {"collection_times": [{"days": "Mon-Fri", "time": "3:45pm"}, {"days": "Sat", "time": "11:30am"}, {"days": "Sun", "time": "Closed"}], "id": "1703000002", "name": "USPS COLLECTION BOX - PO LOBBY", "address": {"city": "GRATZ", "state": "PA", "street": "102 S CENTER ST", "postcode": "17030"}}},
{"geometry": {"type": "Point", "coordinates": [-76.9322954133, 40.4698506654]}, "type": "Feature", "properties": {"collection_times": [{"days": "Mon-Fri", "time": "4:30pm"}, {"days": "Sat", "time": "11:45am"}, {"days": "Sun", "time": "Closed"}], "id": "1703200002", "name": "USPS COLLECTION BOX - BLUE BOX", "address": {"city": "HALIFAX", "state": "PA", "street": "201 ARMSTRONG ST", "postcode": "17032"}}},
{"geometry": {"type": "Point", "coordinates": [-76.9262681965, 40.4542882921]}, "type": "Feature", "properties": {"collection_times": [{"days": "Mon-Sat", "time": "10:30am"}, {"days": "Sun", "time": "Closed"}], "id": "1703200003", "name": "USPS COLLECTION BOX - BLUE BOX", "address": {"city": "HALIFAX", "state": "PA", "street": "3773 PETERS MOUNTAIN RD", "postcode": "17032"}}},
{"geometry": {"type": "Point", "coordinates": [-76.9322954133, 40.4698506654]}, "type": "Feature", "properties": {"collection_times": [{"days": "Mon-Fri", "time": "4:30pm"}, {"days": "Sat", "time": "12:00pm"}, {"days": "Sun", "time": "Closed"}], "id": "1703200006", "name": "USPS COLLECTION BOX - PO LOBBY", "address": {"city": "HALIFAX", "state": "PA", "street": "201 ARMSTRONG ST", "postcode": "17032"}}},
{"geometry": {"type": "Point", "coordinates": [-76.6521048585, 40.2840482463]}, "type": "Feature", "properties": {"collection_times": [{"days": "Mon-Fri", "time": "5:00pm"}, {"days": "Sat", "time": "3:00pm"}, {"days": "Sun", "time": "Closed"}], "id": "1703300001", "name": "USPS COLLECTION BOX - BLUE BOX", "address": {"city": "HERSHEY", "state": "PA", "street": "50 N LINDEN RD", "postcode": "17033"}}},
{"geometry": {"type": "Point", "coordinates": [-76.673592386, 40.2669851059]}, "type": "Feature", "properties": {"collection_times": [{"days": "Mon-Sat", "time": "10:00am"}, {"days": "Sun", "time": "Closed"}], "id": "1703300019", "name": "USPS COLLECTION BOX - BLUE BOX", "address": {"city": "HERSHEY", "state": "PA", "street": "325 UNIVERSITY DR", "postcode": "17033"}}},
{"geometry": {"type": "Point", "coordinates": [-76.6722604964, 40.2706574143]}, "type": "Feature", "properties": {"collection_times": [{"days": "Mon-Sat", "time": "10:00am"}, {"days": "Sun", "time": "Closed"}], "id": "1703300020", "name": "USPS COLLECTION BOX - BLUE BOX", "address": {"city": "HERSHEY", "state": "PA", "street": "9 BRIARCREST SQ", "postcode": "17033"}}},
{"geometry": {"type": "Point", "coordinates": [-76.6298371555, 40.2692363968]}, "type": "Feature", "properties": {"collection_times": [{"days": "Mon-Sat", "time": "10:00am"}, {"days": "Sun", "time": "Closed"}], "id": "1703300021", "name": "USPS COLLECTION BOX - BLUE BOX", "address": {"city": "HERSHEY", "state": "PA", "street": "11 KILLARNEY", "postcode": "17033"}}},
{"geometry": {"type": "Point", "coordinates": [-76.6298371555, 40.2692363968]}, "type": "Feature", "properties": {"collection_times": [{"days": "Mon-Sat", "time": "10:00am"}, {"days": "Sun", "time": "Closed"}], "id": "1703300022", "name": "USPS COLLECTION BOX - BLUE BOX", "address": {"city": "HERSHEY", "state": "PA", "street": "11 SWARTHMORE", "postcode": "17033"}}},
{"geometry": {"type": "Point", "coordinates": [-76.6687235394, 40.2734539466]}, "type": "Feature", "properties": {"collection_times": [{"days": "Mon-Sat", "time": "12:00pm"}, {"days": "Sun", "time": "Closed"}], "id": "1703300024", "name": "USPS COLLECTION BOX - BLUE BOX", "address": {"city": "HERSHEY", "state": "PA", "street": "100 TOWNHOUSE", "postcode": "17033"}}},
{"geometry": {"type": "Point", "coordinates": [-76.6846863969, 40.2895006067]}, "type": "Feature", "properties": {"collection_times": [{"days": "Mon-Sat", "time": "11:00am"}, {"days": "Sun", "time": "Closed"}], "id": "1703300025", "name": "USPS COLLECTION BOX - BLUE BOX", "address": {"city": "HERSHEY", "state": "PA", "street": "41 W MAIN ST", "postcode": "17033"}}},
{"geometry": {"type": "Point", "coordinates": [-76.6616742961, 40.2813736786]}, "type": "Feature", "properties": {"collection_times": [{"days": "Mon-Sat", "time": "9:00am"}, {"days": "Sun", "time": "Closed"}], "id": "1703300028", "name": "USPS COLLECTION BOX - BLUE BOX", "address": {"city": "HERSHEY", "state": "PA", "street": "545 W CHOCOLATE AVE", "postcode": "17033"}}},
{"geometry": {"type": "Point", "coordinates": [-76.6649493273, 40.2800602625]}, "type": "Feature", "properties": {"collection_times": [{"days": "Mon-Sat", "time": "9:30am"}, {"days": "Sun", "time": "Closed"}], "id": "1703300041", "name": "USPS COLLECTION BOX - BLUE BOX", "address": {"city": "HERSHEY", "state": "PA", "street": "710 W CHOCOLATE AVE", "postcode": "17033"}}},
{"geometry": {"type": "Point", "coordinates": [-76.6298371555, 40.2692363968]}, "type": "Feature", "properties": {"collection_times": [{"days": "Mon-Sat", "time": "12:00pm"}, {"days": "Sun", "time": "Closed"}], "id": "1703300042", "name": "USPS COLLECTION BOX - BLUE BOX", "address": {"city": "HERSHEY", "state": "PA", "street": "199 ROSEDALE", "postcode": "17033"}}},
{"geometry": {"type": "Point", "coordinates": [-76.6577155487, 40.2699665436]}, "type": "Feature", "properties": {"collection_times": [{"days": "Mon-Sat", "time": "10:00am"}, {"days": "Sun", "time": "Closed"}], "id": "1703300050", "name": "USPS COLLECTION BOX - BLUE BOX", "address": {"city": "HERSHEY", "state": "PA", "street": "731 CHERRY DR", "postcode": "17033"}}},
{"geometry": {"type": "Point", "coordinates": [-76.6479474867, 40.2944368559]}, "type": "Feature", "properties": {"collection_times": [{"days": "Mon-Sat", "time": "11:00am"}, {"days": "Sun", "time": "Closed"}], "id": "1703300052", "name": "USPS COLLECTION BOX - BLUE BOX", "address": {"city": "HERSHEY", "state": "PA", "street": "127 OUTLET SQ", "postcode": "17033"}}},
{"geometry": {"type": "Point", "coordinates": [-76.6240012684, 40.2691802387]}, "type": "Feature", "properties": {"collection_times": [{"days": "Mon-Sat", "time": "10:00am"}, {"days": "Sun", "time": "Closed"}], "id": "1703300054", "name": "USPS COLLECTION BOX - BLUE BOX", "address": {"city": "HERSHEY", "state": "PA", "street": "690 BROOK DR", "postcode": "17033"}}},
{"geometry": {"type": "Point", "coordinates": [-76.6521048585, 40.2840482463]}, "type": "Feature", "properties": {"collection_times": [{"days": "Mon-Fri", "time": "5:00pm"}, {"days": "Sat", "time": "3:00pm"}, {"days": "Sun", "time": "Closed"}], "id": "1703300056", "name": "USPS COLLECTION BOX - PO LOBBY", "address": {"city": "HERSHEY", "state": "PA", "street": "50 N LINDEN RD", "postcode": "17033"}}},
{"geometry": {"type": "Point", "coordinates": [-76.6478727139, 40.2690649906]}, "type": "Feature", "properties": {"collection_times": [{"days": "Mon-Sat", "time": "10:00am"}, {"days": "Sun", "time": "Closed"}], "id": "1703300059", "name": "USPS COLLECTION BOX - BLUE BOX", "address": {"city": "HERSHEY", "state": "PA", "street": "1250 COCOA AVE", "postcode": "17033"}}},
{"geometry": {"type": "Point", "coordinates": [-76.6736953386, 40.266878071]}, "type": "Feature", "properties": {"collection_times": [{"days": "Mon-Sat", "time": "12:00pm"}, {"days": "Sun", "time": "Closed"}], "id": "1703300060", "name": "USPS COLLECTION BOX - BLUE BOX", "address": {"city": "HERSHEY", "state": "PA", "street": "174 UNIVERSITY MNR E", "postcode": "17033"}}},
{"geometry": {"type": "Point", "coordinates": [-76.7861629828, 40.2104150681]}, "type": "Feature", "properties": {"collection_times": [{"days": "Mon-Fri", "time": "12:00pm"}, {"days": "Sat-Sun", "time": "Closed"}], "id": "1703400004", "name": "USPS COLLECTION BOX - BLUE BOX", "address": {"city": "HIGHSPIRE", "state": "PA", "street": "305 MARKET ST", "postcode": "17034"}}},
{"geometry": {"type": "Point", "coordinates": [-76.7840247348, 40.2077505004]}, "type": "Feature", "properties": {"collection_times": [{"days": "Mon-Fri", "time": "9:30am"}, {"days": "Sat-Sun", "time": "Closed"}], "id": "1703400005", "name": "USPS COLLECTION BOX - BLUE BOX", "address": {"city": "HIGHSPIRE", "state": "PA", "street": "47 ANN ST", "postcode": "17034"}}},
{"geometry": {"type": "Point", "coordinates": [-76.7733468054, 40.2040069794]}, "type": "Feature", "properties": {"collection_times": [{"days": "Mon-Fri", "time": "10:00am"}, {"days": "Sat-Sun", "time": "Closed"}], "id": "1703400010", "name": "USPS COLLECTION BOX - BLUE BOX", "address": {"city": "HIGHSPIRE", "state": "PA", "street": "649 ESHELMAN ST", "postcode": "17034"}}},
{"geometry": {"type": "Point", "coordinates": [-76.7896219548, 40.2107723217]}, "type": "Feature", "properties": {"collection_times": [{"days": "Mon-Fri", "time": "12:00pm"}, {"days": "Sat-Sun", "time": "Closed"}], "id": "1703400012", "name": "USPS COLLECTION BOX - BLUE BOX", "address": {"city": "HIGHSPIRE", "state": "PA", "street": "74 PAXTON ST", "postcode": "17034"}}},
{"geometry": {"type": "Point", "coordinates": [-76.7910847289, 40.2092471222]}, "type": "Feature", "properties": {"collection_times": [{"days": "Mon-Fri", "time": "8:30am"}, {"days": "Sat-Sun", "time": "Closed"}], "id": "1703400013", "name": "USPS COLLECTION BOX - BLUE BOX", "address": {"city": "HIGHSPIRE", "state": "PA", "street": "202 2ND ST", "postcode": "17034"}}},
{"geometry": {"type": "Point", "coordinates": [-76.7966085105, 40.2108101764]}, "type": "Feature", "properties": {"collection_times": [{"days": "Mon-Fri", "time": "10:30am"}, {"days": "Sat-Sun", "time": "Closed"}], "id": "1703400014", "name": "USPS COLLECTION BOX - BLUE BOX", "address": {"city": "HIGHSPIRE", "state": "PA", "street": "28 MUMMA ST", "postcode": "17034"}}},
{"geometry": {"type": "Point", "coordinates": [-76.7876930055, 40.2075165384]}, "type": "Feature", "properties": {"collection_times": [{"days": "Mon-Fri", "time": "2:30pm"}, {"days": "Sat-Sun", "time": "Closed"}], "id": "1703400016", "name": "USPS COLLECTION BOX - BLUE BOX", "address": {"city": "HIGHSPIRE", "state": "PA", "street": "315 2ND ST", "postcode": "17034"}}},
{"geometry": {"type": "Point", "coordinates": [-76.7876930055, 40.2075165384]}, "type": "Feature", "properties": {"collection_times": [{"days": "Mon-Fri", "time": "4:00pm"}, {"days": "Sat", "time": "11:30am"}, {"days": "Sun", "time": "Closed"}], "id": "1703400020", "name": "USPS COLLECTION BOX - PO LOBBY", "address": {"city": "HIGHSPIRE", "state": "PA", "street": "315 2ND ST", "postcode": "17034"}}},
{"geometry": {"type": "Point", "coordinates": [-76.7876930055, 40.2075165384]}, "type": "Feature", "properties": {"collection_times": [{"days": "Mon-Fri", "time": "4:00pm"}, {"days": "Sat", "time": "11:30am"}, {"days": "Sun", "time": "Closed"}], "id": "1703400022", "name": "USPS COLLECTION BOX - BLUE BOX", "address": {"city": "HIGHSPIRE", "state": "PA", "street": "315 2ND ST", "postcode": "17034"}}},
{"geometry": {"type": "Point", "coordinates": [-77.5848376927, 40.4309572508]}, "type": "Feature", "properties": {"collection_times": [{"days": "Mon-Fri", "time": "4:00pm"}, {"days": "Sat", "time": "11:45am"}, {"days": "Sun", "time": "Closed"}], "id": "1703500001", "name": "USPS COLLECTION BOX - BLUE BOX", "address": {"city": "HONEY GROVE", "state": "PA", "street": "13134 ROUTE 75 S", "postcode": "17035"}}},
{"geometry": {"type": "Point", "coordinates": [-77.5848376927, 40.4309572508]}, "type": "Feature", "properties": {"collection_times": [{"days": "Mon-Fri", "time": "12:00pm"}, {"days": "Sat", "time": "11:45am"}, {"days": "Sun", "time": "Closed"}], "id": "1703500002", "name": "USPS COLLECTION BOX - PO LOBBY", "address": {"city": "HONEY GROVE", "state": "PA", "street": "13134 ROUTE 75 S", "postcode": "17035"}}},
{"geometry": {"type": "Point", "coordinates": [-76.7106440654, 40.265191983]}, "type": "Feature", "properties": {"collection_times": [{"days": "Mon-Sat", "time": "9:45am"}, {"days": "Sun", "time": "Closed"}], "id": "1703600002", "name": "USPS COLLECTION BOX - BLUE BOX", "address": {"city": "HUMMELSTOWN", "state": "PA", "street": "119 W MAIN ST", "postcode": "17036"}}},
{"geometry": {"type": "Point", "coordinates": [-76.7082272803, 40.2653019981]}, "type": "Feature", "properties": {"collection_times": [{"days": "Mon-Fri", "time": "1:45pm"}, {"days": "Sat", "time": "11:30am"}, {"days": "Sun", "time": "Closed"}], "id": "1703600006", "name": "USPS COLLECTION BOX - BLUE BOX", "address": {"city": "HUMMELSTOWN", "state": "PA", "street": "8 E MAIN ST", "postcode": "17036"}}},
{"geometry": {"type": "Point", "coordinates": [-76.6957480337, 40.2668316481]}, "type": "Feature", "properties": {"collection_times": [{"days": "Mon-Fri", "time": "5:00pm"}, {"days": "Sat", "time": "2:00pm"}, {"days": "Sun", "time": "Closed"}], "id": "1703600009", "name": "USPS COLLECTION BOX - BLUE BOX", "address": {"city": "HUMMELSTOWN", "state": "PA", "street": "448 WALTON AVE", "postcode": "17036"}}},
{"geometry": {"type": "Point", "coordinates": [-76.6861230588, 40.2712518911]}, "type": "Feature", "properties": {"collection_times": [{"days": "Mon-Sat", "time": "10:45am"}, {"days": "Sun", "time": "Closed"}], "id": "1703600010", "name": "USPS COLLECTION BOX - BLUE BOX", "address": {"city": "HUMMELSTOWN", "state": "PA", "street": "1130 MAE ST", "postcode": "17036"}}},
{"geometry": {"type": "Point", "coordinates": [-76.6957480337, 40.2668316481]}, "type": "Feature", "properties": {"collection_times": [{"days": "Mon-Fri", "time": "5:00pm"}, {"days": "Sat", "time": "2:00pm"}, {"days": "Sun", "time": "Closed"}], "id": "1703600011", "name": "USPS COLLECTION BOX - BLUE BOX", "address": {"city": "HUMMELSTOWN", "state": "PA", "street": "448 WALTON AVE", "postcode": "17036"}}},
{"geometry": {"type": "Point", "coordinates": [-76.6957480337, 40.2668316481]}, "type": "Feature", "properties": {"collection_times": [{"days": "Mon-Fri", "time": "5:00pm"}, {"days": "Sat", "time": "2:00pm"}, {"days": "Sun", "time": "Closed"}], "id": "1703600013", "name": "USPS COLLECTION BOX - PO LOBBY", "address": {"city": "HUMMELSTOWN", "state": "PA", "street": "448 WALTON AVE", "postcode": "17036"}}},
{"geometry": {"type": "Point", "coordinates": [-76.7070303812, 40.247447174]}, "type": "Feature", "properties": {"collection_times": [{"days": "Mon-Sat", "time": "10:00am"}, {"days": "Sun", "time": "Closed"}], "id": "1703600014", "name": "USPS COLLECTION BOX - BLUE BOX", "address": {"city": "HUMMELSTOWN", "state": "PA", "street": "2151 GRAMERCY PL", "postcode": "17036"}}},
{"geometry": {"type": "Point", "coordinates": [-76.707716242, 40.2550587565]}, "type": "Feature", "properties": {"collection_times": [{"days": "Mon-Sat", "time": "10:00am"}, {"days": "Sun", "time": "Closed"}], "id": "1703600015", "name": "USPS COLLECTION BOX - BLUE BOX", "address": {"city": "HUMMELSTOWN", "state": "PA", "street": "1697 MACINTOSH WAY", "postcode": "17036"}}},
{"geometry": {"type": "Point", "coordinates": [-76.693208423, 40.3058240152]}, "type": "Feature", "properties": {"collection_times": [{"days": "Mon-Sat", "time": "11:00am"}, {"days": "Sun", "time": "Closed"}], "id": "1703600016", "name": "USPS COLLECTION BOX - BLUE BOX", "address": {"city": "HUMMELSTOWN", "state": "PA", "street": "237 HERSHEY RD", "postcode": "17036"}}},
{"geometry": {"type": "Point", "coordinates": [-77.3516396356, 40.4556056139]}, "type": "Feature", "properties": {"collection_times": [{"days": "Mon-Fri", "time": "4:00pm"}, {"days": "Sat", "time": "11:45am"}, {"days": "Sun", "time": "Closed"}], "id": "1703700001", "name": "USPS COLLECTION BOX - BLUE BOX", "address": {"city": "ICKESBURG", "state": "PA", "street": "6978 VETERANS WAY", "postcode": "17037"}}},
{"geometry": {"type": "Point", "coordinates": [-77.3516396356, 40.4556056139]}, "type": "Feature", "properties": {"collection_times": [{"days": "Mon-Fri", "time": "12:00pm"}, {"days": "Sat", "time": "11:45am"}, {"days": "Sun", "time": "Closed"}], "id": "1703700002", "name": "USPS COLLECTION BOX - PO LOBBY", "address": {"city": "ICKESBURG", "state": "PA", "street": "6978 VETERANS WAY", "postcode": "17037"}}},
{"geometry": {"type": "Point", "coordinates": [-76.2802785054, 41.1344716425]}, "type": "Feature", "properties": {"collection_times": [{"days": "Mon-Sat", "time": "10:30am"}, {"days": "Sun", "time": "Closed"}], "id": "1703800001", "name": "USPS COLLECTION BOX - BLUE BOX", "address": {"city": "JONESTOWN", "state": "PA", "street": "FISHER AVE", "postcode": "17038"}}},
{"geometry": {"type": "Point", "coordinates": [-76.4765757904, 40.4093923681]}, "type": "Feature", "properties": {"collection_times": [{"days": "Mon-Fri", "time": "4:00pm"}, {"days": "Sat", "time": "12:00pm"}, {"days": "Sun", "time": "Closed"}], "id": "1703800003", "name": "USPS COLLECTION BOX - BLUE BOX", "address": {"city": "JONESTOWN", "state": "PA", "street": "217 S LANCASTER ST", "postcode": "17038"}}},
{"geometry": {"type": "Point", "coordinates": [-76.4765757904, 40.4093923681]}, "type": "Feature", "properties": {"collection_times": [{"days": "Mon-Fri", "time": "4:00pm"}, {"days": "Sat", "time": "12:00pm"}, {"days": "Sun", "time": "Closed"}], "id": "1703800004", "name": "USPS COLLECTION BOX - BLUE BOX", "address": {"city": "JONESTOWN", "state": "PA", "street": "217 S LANCASTER ST", "postcode": "17038"}}},
{"geometry": {"type": "Point", "coordinates": [-76.4952395065, 40.4303319958]}, "type": "Feature", "properties": {"collection_times": [{"days": "Mon-Fri", "time": "4:00pm"}, {"days": "Sat", "time": "12:00pm"}, {"days": "Sun", "time": "Closed"}], "id": "1703800005", "name": "USPS COLLECTION BOX - EXPRESS", "address": {"city": "JONESTOWN", "state": "PA", "street": "217 S LANCASTER ST", "postcode": "17038"}}},
{"geometry": {"type": "Point", "coordinates": [-76.5117431592, 40.4517142664]}, "type": "Feature", "properties": {"collection_times": [{"days": "Mon-Sat", "time": "11:30am"}, {"days": "Sun", "time": "Closed"}], "id": "1703800006", "name": "USPS COLLECTION BOX - BLUE BOX", "address": {"city": "JONESTOWN", "state": "PA", "street": "11 LICKDALE RD", "postcode": "17038"}}},
{"geometry": {"type": "Point", "coordinates": [-76.4765757904, 40.4093923681]}, "type": "Feature", "properties": {"collection_times": [{"days": "Mon-Fri", "time": "4:00pm"}, {"days": "Sat", "time": "12:00pm"}, {"days": "Sun", "time": "Closed"}], "id": "1703800009", "name": "USPS COLLECTION BOX - PO LOBBY", "address": {"city": "JONESTOWN", "state": "PA", "street": "217 S LANCASTER ST", "postcode": "17038"}}},
{"geometry": {"type": "Point", "coordinates": [-77.3078850839, 40.3424573631]}, "type": "Feature", "properties": {"collection_times": [{"days": "Mon-Fri", "time": "3:00pm"}, {"days": "Sat", "time": "11:30am"}, {"days": "Sun", "time": "Closed"}], "id": "1704000001", "name": "USPS COLLECTION BOX - BLUE BOX", "address": {"city": "LANDISBURG", "state": "PA", "street": "101 N CARLISLE ST", "postcode": "17040"}}},
{"geometry": {"type": "Point", "coordinates": [-77.3078850839, 40.3424573631]}, "type": "Feature", "properties": {"collection_times": [{"days": "Mon-Fri", "time": "3:00pm"}, {"days": "Sat", "time": "11:30am"}, {"days": "Sun", "time": "Closed"}], "id": "1704000002", "name": "USPS COLLECTION BOX - PO LOBBY", "address": {"city": "LANDISBURG", "state": "PA", "street": "101 N CARLISLE ST", "postcode": "17040"}}},
{"geometry": {"type": "Point", "coordinates": [-76.5397196038, 40.2200900224]}, "type": "Feature", "properties": {"collection_times": [{"days": "Mon-Fri", "time": "4:00pm"}, {"days": "Sat", "time": "11:30am"}, {"days": "Sun", "time": "Closed"}], "id": "1704100001", "name": "USPS COLLECTION BOX - BLUE BOX", "address": {"city": "LAWN", "state": "PA", "street": "5575 ELIZABETHTOWN RD", "postcode": "17041"}}},
{"geometry": {"type": "Point", "coordinates": [-76.5397196038, 40.2200900224]}, "type": "Feature", "properties": {"collection_times": [{"days": "Mon-Fri", "time": "4:00pm"}, {"days": "Sat", "time": "11:30am"}, {"days": "Sun", "time": "Closed"}], "id": "1704100002", "name": "USPS COLLECTION BOX - PO LOBBY", "address": {"city": "LAWN", "state": "PA", "street": "5575 ELIZABETHTOWN RD", "postcode": "17041"}}},
{"geometry": {"type": "Point", "coordinates": [-76.4095113423, 40.3359934689]}, "type": "Feature", "properties": {"collection_times": [{"days": "Mon-Sat", "time": "9:00am"}, {"days": "Sun", "time": "Closed"}], "id": "1704200026", "name": "USPS COLLECTION BOX - BLUE BOX", "address": {"city": "LEBANON", "state": "PA", "street": "301 S 1ST AVE", "postcode": "17042"}}},
{"geometry": {"type": "Point", "coordinates": [-76.407565765, 40.3371388608]}, "type": "Feature", "properties": {"collection_times": [{"days": "Mon-Sat", "time": "9:00am"}, {"days": "Sun", "time": "Closed"}], "id": "1704200027", "name": "USPS COLLECTION BOX - BLUE BOX", "address": {"city": "LEBANON", "state": "PA", "street": "226 E HIGH ST", "postcode": "17042"}}},
{"geometry": {"type": "Point", "coordinates": [-76.4449950574, 40.3354647894]}, "type": "Feature", "properties": {"collection_times": [{"days": "Mon-Sat", "time": "9:00am"}, {"days": "Sun", "time": "Closed"}], "id": "1704200036", "name": "USPS COLLECTION BOX - BLUE BOX", "address": {"city": "LEBANON", "state": "PA", "street": "1934 CENTER ST", "postcode": "17042"}}},
{"geometry": {"type": "Point", "coordinates": [-76.4035420318, 40.3296649297]}, "type": "Feature", "properties": {"collection_times": [{"days": "Mon-Sat", "time": "11:00am"}, {"days": "Sun", "time": "Closed"}], "id": "1704200042", "name": "USPS COLLECTION BOX - BLUE BOX", "address": {"city": "LEBANON", "state": "PA", "street": "910 S 3RD AVE", "postcode": "17042"}}},
{"geometry": {"type": "Point", "coordinates": [-76.4117979535, 40.3334469815]}, "type": "Feature", "properties": {"collection_times": [{"days": "Mon-Sat", "time": "9:00am"}, {"days": "Sun", "time": "Closed"}], "id": "1704200046", "name": "USPS COLLECTION BOX - BLUE BOX", "address": {"city": "LEBANON", "state": "PA", "street": "505 S LINCOLN AVE", "postcode": "17042"}}},
{"geometry": {"type": "Point", "coordinates": [-76.4108819512, 40.331622452]}, "type": "Feature", "properties": {"collection_times": [{"days": "Mon-Sat", "time": "9:00am"}, {"days": "Sun", "time": "Closed"}], "id": "1704200047", "name": "USPS COLLECTION BOX - BLUE BOX", "address": {"city": "LEBANON", "state": "PA", "street": "10 E POPLAR ST", "postcode": "17042"}}},
{"geometry": {"type": "Point", "coordinates": [-76.3971422034, 40.345192627]}, "type": "Feature", "properties": {"collection_times": [{"days": "Mon-Sat", "time": "11:00am"}, {"days": "Sun", "time": "Closed"}], "id": "1704200052", "name": "USPS COLLECTION BOX - BLUE BOX", "address": {"city": "LEBANON", "state": "PA", "street": "835 BOWMAN ST", "postcode": "17042"}}},
{"geometry": {"type": "Point", "coordinates": [-76.4209658968, 40.3156975267]}, "type": "Feature", "properties": {"collection_times": [{"days": "Mon-Sat", "time": "11:00am"}, {"days": "Sun", "time": "Closed"}], "id": "1704200055", "name": "USPS COLLECTION BOX - BLUE BOX", "address": {"city": "LEBANON", "state": "PA", "street": "918 RUSSELL DR", "postcode": "17042"}}},
{"geometry": {"type": "Point", "coordinates": [-76.4365566671, 40.3289860668]}, "type": "Feature", "properties": {"collection_times": [{"days": "Mon-Sat", "time": "9:00am"}, {"days": "Sun", "time": "Closed"}], "id": "1704200056", "name": "USPS COLLECTION BOX - BLUE BOX", "address": {"city": "LEBANON", "state": "PA", "street": "1573 ELM ST", "postcode": "17042"}}},
{"geometry": {"type": "Point", "coordinates": [-76.4301377217, 40.332868285]}, "type": "Feature", "properties": {"collection_times": [{"days": "Mon-Sat", "time": "9:00am"}, {"days": "Sun", "time": "Closed"}], "id": "1704200057", "name": "USPS COLLECTION BOX - BLUE BOX", "address": {"city": "LEBANON", "state": "PA", "street": "401 S 12TH ST", "postcode": "17042"}}},
{"geometry": {"type": "Point", "coordinates": [-76.4335441804, 40.3286662043]}, "type": "Feature", "properties": {"collection_times": [{"days": "Mon-Sat", "time": "9:00am"}, {"days": "Sun", "time": "Closed"}], "id": "1704200060", "name": "USPS COLLECTION BOX - BLUE BOX", "address": {"city": "LEBANON", "state": "PA", "street": "625 S 15TH ST", "postcode": "17042"}}},
{"geometry": {"type": "Point", "coordinates": [-76.4261250834, 40.3295268984]}, "type": "Feature", "properties": {"collection_times": [{"days": "Mon-Sat", "time": "9:00am"}, {"days": "Sun", "time": "Closed"}], "id": "1704200069", "name": "USPS COLLECTION BOX - BLUE BOX", "address": {"city": "LEBANON", "state": "PA", "street": "1100 JACKSON BLVD", "postcode": "17042"}}},
{"geometry": {"type": "Point", "coordinates": [-76.4739554308, 40.3377486173]}, "type": "Feature", "properties": {"collection_times": [{"days": "Mon-Fri", "time": "4:30pm"}, {"days": "Sat", "time": "1:00pm"}, {"days": "Sun", "time": "Closed"}], "id": "1704200074", "name": "USPS COLLECTION BOX - BLUE BOX", "address": {"city": "LEBANON", "state": "PA", "street": "21 N LINCOLN ST", "postcode": "17042"}}},
{"geometry": {"type": "Point", "coordinates": [-76.3745844113, 40.353795339]}, "type": "Feature", "properties": {"collection_times": [{"days": "Mon-Sat", "time": "9:00am"}, {"days": "Sun", "time": "Closed"}], "id": "1704200075", "name": "USPS COLLECTION BOX - BLUE BOX", "address": {"city": "LEBANON", "state": "PA", "street": "2201 W CUMBERLAND ST", "postcode": "17042"}}},
{"geometry": {"type": "Point", "coordinates": [-76.4116034685, 40.3404388141]}, "type": "Feature", "properties": {"collection_times": [{"days": "Mon-Sat", "time": "9:00am"}, {"days": "Sun", "time": "Closed"}], "id": "1704200079", "name": "USPS COLLECTION BOX - BLUE BOX", "address": {"city": "LEBANON", "state": "PA", "street": "1 CUMBERLAND ST", "postcode": "17042"}}},
{"geometry": {"type": "Point", "coordinates": [-76.4286903857, 40.3283381428]}, "type": "Feature", "properties": {"collection_times": [{"days": "Mon-Sat", "time": "11:00am"}, {"days": "Sun", "time": "Closed"}], "id": "1704200080", "name": "USPS COLLECTION BOX - BLUE BOX", "address": {"city": "LEBANON", "state": "PA", "street": "800 S 12TH ST", "postcode": "17042"}}},
{"geometry": {"type": "Point", "coordinates": [-76.4253373627, 40.3392728862]}, "type": "Feature", "properties": {"collection_times": [{"days": "Mon-Sat", "time": "3:00pm"}, {"days": "Sun", "time": "Closed"}], "id": "1704200084", "name": "USPS COLLECTION BOX - BLUE BOX", "address": {"city": "LEBANON", "state": "PA", "street": "827 CUMBERLAND ST", "postcode": "17042"}}},
{"geometry": {"type": "Point", "coordinates": [-76.4178541575, 40.3398575387]}, "type": "Feature", "properties": {"collection_times": [{"days": "Mon-Sat", "time": "9:00am"}, {"days": "Sun", "time": "Closed"}], "id": "1704200086", "name": "USPS COLLECTION BOX - BLUE BOX", "address": {"city": "LEBANON", "state": "PA", "street": "401 CUMBERLAND ST", "postcode": "17042"}}},
{"geometry": {"type": "Point", "coordinates": [-76.4259286463, 40.3301936374]}, "type": "Feature", "properties": {"collection_times": [{"days": "Mon-Sat", "time": "3:00pm"}, {"days": "Sun", "time": "Closed"}], "id": "1704200087", "name": "USPS COLLECTION BOX - BLUE BOX", "address": {"city": "LEBANON", "state": "PA", "street": "HATHAWAY PK", "postcode": "17042"}}},
{"geometry": {"type": "Point", "coordinates": [-76.4244101656, 40.3379372995]}, "type": "Feature", "properties": {"collection_times": [{"days": "Mon-Fri", "time": "5:00pm"}, {"days": "Sat", "time": "3:00pm"}, {"days": "Sun", "time": "Closed"}], "id": "1704200089", "name": "USPS COLLECTION BOX - BLUE BOX", "address": {"city": "LEBANON", "state": "PA", "street": "101 S 8TH ST", "postcode": "17042"}}},
{"geometry": {"type": "Point", "coordinates": [-76.4256654156, 40.3315660784]}, "type": "Feature", "properties": {"collection_times": [{"days": "Mon-Sat", "time": "3:00pm"}, {"days": "Sun", "time": "Closed"}], "id": "1704200090", "name": "USPS COLLECTION BOX - BLUE BOX", "address": {"city": "LEBANON", "state": "PA", "street": "500 S 9TH ST", "postcode": "17042"}}},
{"geometry": {"type": "Point", "coordinates": [-76.3988242912, 40.3422713051]}, "type": "Feature", "properties": {"collection_times": [{"days": "Mon-Sat", "time": "3:00pm"}, {"days": "Sun", "time": "Closed"}], "id": "1704200091", "name": "USPS COLLECTION BOX - BLUE BOX", "address": {"city": "LEBANON", "state": "PA", "street": "700 E CUMBERLAND ST", "postcode": "17042"}}},
{"geometry": {"type": "Point", "coordinates": [-76.4237126486, 40.3334127893]}, "type": "Feature", "properties": {"collection_times": [{"days": "Mon-Sat", "time": "3:00pm"}, {"days": "Sun", "time": "Closed"}], "id": "1704200092", "name": "USPS COLLECTION BOX - BLUE BOX", "address": {"city": "LEBANON", "state": "PA", "street": "400 S 8TH ST", "postcode": "17042"}}},
{"geometry": {"type": "Point", "coordinates": [-76.423471944, 40.3367444365]}, "type": "Feature", "properties": {"collection_times": [{"days": "Mon-Sat", "time": "3:00pm"}, {"days": "Sun", "time": "Closed"}], "id": "1704200094", "name": "USPS COLLECTION BOX - BLUE BOX", "address": {"city": "LEBANON", "state": "PA", "street": "725 WALNUT ST", "postcode": "17042"}}},
{"geometry": {"type": "Point", "coordinates": [-76.4188584529, 40.3397811828]}, "type": "Feature", "properties": {"collection_times": [{"days": "Mon-Sat", "time": "9:00am"}, {"days": "Sun", "time": "Closed"}], "id": "1704200097", "name": "USPS COLLECTION BOX - BLUE BOX", "address": {"city": "LEBANON", "state": "PA", "street": "441 CUMBERLAND ST", "postcode": "17042"}}},
{"geometry": {"type": "Point", "coordinates": [-76.4236901043, 40.3392933812]}, "type": "Feature", "properties": {"collection_times": [{"days": "Mon-Sat", "time": "3:00pm"}, {"days": "Sun", "time": "Closed"}], "id": "1704200098", "name": "USPS COLLECTION BOX - BLUE BOX", "address": {"city": "LEBANON", "state": "PA", "street": "744 CUMBERLAND ST", "postcode": "17042"}}},
{"geometry": {"type": "Point", "coordinates": [-76.4297083429, 40.3362290851]}, "type": "Feature", "properties": {"collection_times": [{"days": "Mon-Sat", "time": "3:00pm"}, {"days": "Sun", "time": "Closed"}], "id": "1704200099", "name": "USPS COLLECTION BOX - BLUE BOX", "address": {"city": "LEBANON", "state": "PA", "street": "1141 WALNUT ST", "postcode": "17042"}}},
{"geometry": {"type": "Point", "coordinates": [-76.4246139078, 40.3123760782]}, "type": "Feature", "properties": {"collection_times": [{"days": "Mon-Sat", "time": "11:00am"}, {"days": "Sun", "time": "Closed"}], "id": "1704200100", "name": "USPS COLLECTION BOX - BLUE BOX", "address": {"city": "LEBANON", "state": "PA", "street": "1750 QUENTIN RD", "postcode": "17042"}}},
{"geometry": {"type": "Point", "coordinates": [-76.4205112516, 40.3395400698]}, "type": "Feature", "properties": {"collection_times": [{"days": "Mon-Sat", "time": "9:00am"}, {"days": "Sun", "time": "Closed"}], "id": "1704200101", "name": "USPS COLLECTION BOX - BLUE BOX", "address": {"city": "LEBANON", "state": "PA", "street": "542 CUMBERLAND ST", "postcode": "17042"}}},
{"geometry": {"type": "Point", "coordinates": [-76.41355105, 40.3287995754]}, "type": "Feature", "properties": {"collection_times": [{"days": "Mon-Sat", "time": "9:00am"}, {"days": "Sun", "time": "Closed"}], "id": "1704200105", "name": "USPS COLLECTION BOX - BLUE BOX", "address": {"city": "LEBANON", "state": "PA", "street": "3 DANIEL AVE", "postcode": "17042"}}},
{"geometry": {"type": "Point", "coordinates": [-76.3817050571, 40.3578160459]}, "type": "Feature", "properties": {"collection_times": [{"days": "Mon-Sat", "time": "1:30pm"}, {"days": "Sun", "time": "Closed"}], "id": "1704200108", "name": "USPS COLLECTION BOX - BLUE BOX", "address": {"city": "LEBANON", "state": "PA", "street": "1 NORTHCREST ACRES", "postcode": "17042"}}},
{"geometry": {"type": "Point", "coordinates": [-76.4244101656, 40.3379372995]}, "type": "Feature", "properties": {"collection_times": [{"days": "Mon-Fri", "time": "5:00pm"}, {"days": "Sat", "time": "3:00pm"}, {"days": "Sun", "time": "Closed"}], "id": "1704200111", "name": "USPS COLLECTION BOX - BLUE BOX", "address": {"city": "LEBANON", "state": "PA", "street": "101 S 8TH ST", "postcode": "17042"}}},
{"geometry": {"type": "Point", "coordinates": [-76.422472598, 40.3156622839]}, "type": "Feature", "properties": {"collection_times": [{"days": "Mon-Sat", "time": "11:00am"}, {"days": "Sun", "time": "Closed"}], "id": "1704200113", "name": "USPS COLLECTION BOX - BLUE BOX", "address": {"city": "LEBANON", "state": "PA", "street": "984 ISABEL DR", "postcode": "17042"}}},
{"geometry": {"type": "Point", "coordinates": [-76.4060687748, 40.3108401629]}, "type": "Feature", "properties": {"collection_times": [{"days": "Mon-Sat", "time": "8:30am"}, {"days": "Sun", "time": "Closed"}], "id": "1704200115", "name": "USPS COLLECTION BOX - BLUE BOX", "address": {"city": "LEBANON", "state": "PA", "street": "1700 S LINCOLN AVE", "postcode": "17042"}}},
{"geometry": {"type": "Point", "coordinates": [-76.4244101656, 40.3379372995]}, "type": "Feature", "properties": {"collection_times": [{"days": "Mon-Fri", "time": "5:00pm"}, {"days": "Sat", "time": "3:00pm"}, {"days": "Sun", "time": "Closed"}], "id": "1704200120", "name": "USPS COLLECTION BOX - BLUE BOX", "address": {"city": "LEBANON", "state": "PA", "street": "101 S 8TH ST", "postcode": "17042"}}},
{"geometry": {"type": "Point", "coordinates": [-76.3816752914, 40.350035064]}, "type": "Feature", "properties": {"collection_times": [{"days": "Mon-Sat", "time": "1:30pm"}, {"days": "Sun", "time": "Closed"}], "id": "1704200123", "name": "USPS COLLECTION BOX - BLUE BOX", "address": {"city": "LEBANON", "state": "PA", "street": "1651 E CUMBERLAND ST", "postcode": "17042"}}},
{"geometry": {"type": "Point", "coordinates": [-76.4244101656, 40.3379372995]}, "type": "Feature", "properties": {"collection_times": [{"days": "Mon-Fri", "time": "5:00pm"}, {"days": "Sat", "time": "3:00pm"}, {"days": "Sun", "time": "Closed"}], "id": "1704200124", "name": "USPS COLLECTION BOX - PO LOBBY", "address": {"city": "LEBANON", "state": "PA", "street": "101 S 8TH ST", "postcode": "17042"}}},
{"geometry": {"type": "Point", "coordinates": [-76.8967127829, 40.2414226246]}, "type": "Feature", "properties": {"collection_times": [{"days": "Mon-Fri", "time": "2:00pm"}, {"days": "Sat", "time": "1:30pm"}, {"days": "Sun", "time": "Closed"}], "id": "1704300002", "name": "USPS COLLECTION BOX - BLUE BOX", "address": {"city": "LEMOYNE", "state": "PA", "street": "701 HUMMEL AVE", "postcode": "17043"}}},
{"geometry": {"type": "Point", "coordinates": [-76.8992585917, 40.2398577338]}, "type": "Feature", "properties": {"collection_times": [{"days": "Mon-Sat", "time": "1:30pm"}, {"days": "Sun", "time": "Closed"}], "id": "1704300003", "name": "USPS COLLECTION BOX - BLUE BOX", "address": {"city": "LEMOYNE", "state": "PA", "street": "905 HUMMEL AVE", "postcode": "17043"}}},
{"geometry": {"type": "Point", "coordinates": [-76.9142344723, 40.2549525414]}, "type": "Feature", "properties": {"collection_times": [{"days": "Mon-Fri", "time": "12:00pm"}, {"days": "Sat", "time": "10:00am"}, {"days": "Sun", "time": "Closed"}], "id": "1704300005", "name": "USPS COLLECTION BOX - BLUE BOX", "address": {"city": "LEMOYNE", "state": "PA", "street": "20 ERFORD RD", "postcode": "17043"}}},
{"geometry": {"type": "Point", "coordinates": [-76.8919104741, 40.2442466347]}, "type": "Feature", "properties": {"collection_times": [{"days": "Mon-Fri", "time": "2:00pm"}, {"days": "Sat", "time": "1:30pm"}, {"days": "Sun", "time": "Closed"}], "id": "1704300010", "name": "USPS COLLECTION BOX - BLUE BOX", "address": {"city": "LEMOYNE", "state": "PA", "street": "312 HUMMEL AVE", "postcode": "17043"}}},
{"geometry": {"type": "Point", "coordinates": [-76.9015961186, 40.2439637843]}, "type": "Feature", "properties": {"collection_times": [{"days": "Mon-Sat", "time": "2:00pm"}, {"days": "Sun", "time": "Closed"}], "id": "1704300012", "name": "USPS COLLECTION BOX - BLUE BOX", "address": {"city": "LEMOYNE", "state": "PA", "street": "809 MARKET ST", "postcode": "17043"}}},
{"geometry": {"type": "Point", "coordinates": [-76.9083626439, 40.241636904]}, "type": "Feature", "properties": {"collection_times": [{"days": "Mon-Sat", "time": "2:00pm"}, {"days": "Sun", "time": "Closed"}], "id": "1704300015", "name": "USPS COLLECTION BOX - BLUE BOX", "address": {"city": "LEMOYNE", "state": "PA", "street": "1200 MARKET ST", "postcode": "17043"}}},
{"geometry": {"type": "Point", "coordinates": [-76.8947963794, 40.2463764141]}, "type": "Feature", "properties": {"collection_times": [{"days": "Mon-Fri", "time": "4:30pm"}, {"days": "Sat", "time": "12:00pm"}, {"days": "Sun", "time": "Closed"}], "id": "1704300016", "name": "USPS COLLECTION BOX - BLUE BOX", "address": {"city": "LEMOYNE", "state": "PA", "street": "333 MARKET ST", "postcode": "17043"}}},
{"geometry": {"type": "Point", "coordinates": [-76.9010117594, 40.2425517735]}, "type": "Feature", "properties": {"collection_times": [{"days": "Mon-Sat", "time": "2:00pm"}, {"days": "Sun", "time": "Closed"}], "id": "1704300019", "name": "USPS COLLECTION BOX - BLUE BOX", "address": {"city": "LEMOYNE", "state": "PA", "street": "829 STATE ST", "postcode": "17043"}}},
{"geometry": {"type": "Point", "coordinates": [-76.8947963794, 40.2463764141]}, "type": "Feature", "properties": {"collection_times": [{"days": "Mon-Fri", "time": "4:30pm"}, {"days": "Sat", "time": "12:00pm"}, {"days": "Sun", "time": "Closed"}], "id": "1704300022", "name": "USPS COLLECTION BOX - PO LOBBY", "address": {"city": "LEMOYNE", "state": "PA", "street": "333 MARKET ST", "postcode": "17043"}}},
{"geometry": {"type": "Point", "coordinates": [-77.6003970623, 40.5888291754]}, "type": "Feature", "properties": {"collection_times": [{"days": "Mon-Fri", "time": "3:00pm"}, {"days": "Sat", "time": "12:00pm"}, {"days": "Sun", "time": "Closed"}], "id": "1704400002", "name": "USPS COLLECTION BOX - BLUE BOX", "address": {"city": "LEWISTOWN", "state": "PA", "street": "1200 W 4TH ST", "postcode": "17044"}}},
{"geometry": {"type": "Point", "coordinates": [-77.5754042321, 40.5986966738]}, "type": "Feature", "properties": {"collection_times": [{"days": "Mon-Fri", "time": "4:00pm"}, {"days": "Sat", "time": "12:00pm"}, {"days": "Sun", "time": "Closed"}], "id": "1704400006", "name": "USPS COLLECTION BOX - BLUE BOX", "address": {"city": "LEWISTOWN", "state": "PA", "street": "17 E 3RD ST", "postcode": "17044"}}},
{"geometry": {"type": "Point", "coordinates": [-77.5746851746, 40.5976022776]}, "type": "Feature", "properties": {"collection_times": [{"days": "Mon-Fri", "time": "4:00pm"}, {"days": "Sat", "time": "11:00am"}, {"days": "Sun", "time": "Closed"}], "id": "1704400007", "name": "USPS COLLECTION BOX - BLUE BOX", "address": {"city": "LEWISTOWN", "state": "PA", "street": "1 W MARKET ST", "postcode": "17044"}}},
{"geometry": {"type": "Point", "coordinates": [-77.5683537778, 40.6049585137]}, "type": "Feature", "properties": {"collection_times": [{"days": "Mon-Sat", "time": "9:00am"}, {"days": "Sun", "time": "Closed"}], "id": "1704400008", "name": "USPS COLLECTION BOX - BLUE BOX", "address": {"city": "LEWISTOWN", "state": "PA", "street": "112 S WALNUT ST", "postcode": "17044"}}},
{"geometry": {"type": "Point", "coordinates": [-77.5738703109, 40.5977897355]}, "type": "Feature", "properties": {"collection_times": [{"days": "Mon-Fri", "time": "4:00pm"}, {"days": "Sat", "time": "12:00pm"}, {"days": "Sun", "time": "Closed"}], "id": "1704400010", "name": "USPS COLLECTION BOX - BLUE BOX", "address": {"city": "LEWISTOWN", "state": "PA", "street": "32 E MARKET ST", "postcode": "17044"}}},
{"geometry": {"type": "Point", "coordinates": [-77.5863599055, 40.594592289]}, "type": "Feature", "properties": {"collection_times": [{"days": "Mon-Sat", "time": "10:00am"}, {"days": "Sun", "time": "Closed"}], "id": "1704400013", "name": "USPS COLLECTION BOX - BLUE BOX", "address": {"city": "LEWISTOWN", "state": "PA", "street": "437 W 4TH ST", "postcode": "17044"}}},
{"geometry": {"type": "Point", "coordinates": [-77.5734111687, 40.5963188675]}, "type": "Feature", "properties": {"collection_times": [{"days": "Mon-Sat", "time": "8:30am"}, {"days": "Sun", "time": "Closed"}], "id": "1704400016", "name": "USPS COLLECTION BOX - BLUE BOX", "address": {"city": "LEWISTOWN", "state": "PA", "street": "20 S MAIN ST", "postcode": "17044"}}},
{"geometry": {"type": "Point", "coordinates": [-77.5613650567, 40.591455356]}, "type": "Feature", "properties": {"collection_times": [{"days": "Mon-Sat", "time": "12:00pm"}, {"days": "Sun", "time": "Closed"}], "id": "1704400017", "name": "USPS COLLECTION BOX - BLUE BOX", "address": {"city": "LEWISTOWN", "state": "PA", "street": "129 GRAND PKWY N", "postcode": "17044"}}},
{"geometry": {"type": "Point", "coordinates": [-77.5674412864, 40.6179107232]}, "type": "Feature", "properties": {"collection_times": [{"days": "Mon-Fri", "time": "3:00pm"}, {"days": "Sat", "time": "12:00pm"}, {"days": "Sun", "time": "Closed"}], "id": "1704400024", "name": "USPS COLLECTION BOX - BLUE BOX", "address": {"city": "LEWISTOWN", "state": "PA", "street": "400 HIGHLAND AVE", "postcode": "17044"}}},
{"geometry": {"type": "Point", "coordinates": [-77.5762130771, 40.5968158155]}, "type": "Feature", "properties": {"collection_times": [{"days": "Mon-Fri", "time": "4:00pm"}, {"days": "Sat", "time": "12:00pm"}, {"days": "Sun", "time": "Closed"}], "id": "1704400027", "name": "USPS COLLECTION BOX - BLUE BOX", "address": {"city": "LEWISTOWN", "state": "PA", "street": "20 N WAYNE ST", "postcode": "17044"}}},
{"geometry": {"type": "Point", "coordinates": [-77.5759314248, 40.5965693519]}, "type": "Feature", "properties": {"collection_times": [{"days": "Mon-Fri", "time": "5:00pm"}, {"days": "Sat", "time": "4:00pm"}, {"days": "Sun", "time": "Closed"}], "id": "1704400029", "name": "USPS COLLECTION BOX - BLUE BOX", "address": {"city": "LEWISTOWN", "state": "PA", "street": "100 W MARKET ST", "postcode": "17044"}}},
{"geometry": {"type": "Point", "coordinates": [-77.5705416848, 40.6036969794]}, "type": "Feature", "properties": {"collection_times": [{"days": "Mon-Sat", "time": "9:00am"}, {"days": "Sun", "time": "Closed"}], "id": "1704400030", "name": "USPS COLLECTION BOX - BLUE BOX", "address": {"city": "LEWISTOWN", "state": "PA", "street": "230 VALLEY ST", "postcode": "17044"}}},
{"geometry": {"type": "Point", "coordinates": [-77.5782348078, 40.5867413076]}, "type": "Feature", "properties": {"collection_times": [{"days": "Mon-Sat", "time": "10:00am"}, {"days": "Sun", "time": "Closed"}], "id": "1704400034", "name": "USPS COLLECTION BOX - BLUE BOX", "address": {"city": "LEWISTOWN", "state": "PA", "street": "40 TERRACE BLVD", "postcode": "17044"}}},
{"geometry": {"type": "Point", "coordinates": [-77.5712938172, 40.6009718105]}, "type": "Feature", "properties": {"collection_times": [{"days": "Mon-Sat", "time": "9:00am"}, {"days": "Sun", "time": "Closed"}], "id": "1704400037", "name": "USPS COLLECTION BOX - BLUE BOX", "address": {"city": "LEWISTOWN", "state": "PA", "street": "100 VALLEY ST", "postcode": "17044"}}},
{"geometry": {"type": "Point", "coordinates": [-77.5776194819, 40.5974018486]}, "type": "Feature", "properties": {"collection_times": [{"days": "Mon-Fri", "time": "3:00pm"}, {"days": "Sat", "time": "9:00am"}, {"days": "Sun", "time": "Closed"}], "id": "1704400038", "name": "USPS COLLECTION BOX - BLUE BOX", "address": {"city": "LEWISTOWN", "state": "PA", "street": "27 SANDY LN", "postcode": "17044"}}},
{"geometry": {"type": "Point", "coordinates": [-77.5738703109, 40.5977897355]}, "type": "Feature", "properties": {"collection_times": [{"days": "Mon-Fri", "time": "4:00pm"}, {"days": "Sat", "time": "12:00pm"}, {"days": "Sun", "time": "Closed"}], "id": "1704400044", "name": "USPS COLLECTION BOX - BLUE BOX", "address": {"city": "LEWISTOWN", "state": "PA", "street": "32 E MARKET ST", "postcode": "17044"}}},
{"geometry": {"type": "Point", "coordinates": [-77.5760220633, 40.5966547072]}, "type": "Feature", "properties": {"collection_times": [{"days": "Mon-Fri", "time": "4:00pm"}, {"days": "Sat", "time": "1:00pm"}, {"days": "Sun", "time": "Closed"}], "id": "1704400050", "name": "USPS COLLECTION BOX - BLUE BOX", "address": {"city": "LEWISTOWN", "state": "PA", "street": "101 W MARKET ST", "postcode": "17044"}}},
{"geometry": {"type": "Point", "coordinates": [-77.5760220633, 40.5966547072]}, "type": "Feature", "properties": {"collection_times": [{"days": "Mon-Fri", "time": "4:00pm"}, {"days": "Sat", "time": "1:00pm"}, {"days": "Sun", "time": "Closed"}], "id": "1704400051", "name": "USPS COLLECTION BOX - BLUE BOX", "address": {"city": "LEWISTOWN", "state": "PA", "street": "101 W MARKET ST", "postcode": "17044"}}},
{"geometry": {"type": "Point", "coordinates": [-77.5759314248, 40.5965693519]}, "type": "Feature", "properties": {"collection_times": [{"days": "Mon-Fri", "time": "5:00pm"}, {"days": "Sat", "time": "4:00pm"}, {"days": "Sun", "time": "Closed"}], "id": "1704400054", "name": "USPS COLLECTION BOX - PO LOBBY", "address": {"city": "LEWISTOWN", "state": "PA", "street": "100 W MARKET ST", "postcode": "17044"}}},
{"geometry": {"type": "Point", "coordinates": [-76.9989081991, 40.6050142519]}, "type": "Feature", "properties": {"collection_times": [{"days": "Mon-Fri", "time": "3:45pm"}, {"days": "Sat", "time": "12:00pm"}, {"days": "Sun", "time": "Closed"}], "id": "1704500001", "name": "USPS COLLECTION BOX - BLUE BOX", "address": {"city": "LIVERPOOL", "state": "PA", "street": "102 RACE ST", "postcode": "17045"}}},
{"geometry": {"type": "Point", "coordinates": [-76.9989081991, 40.6050142519]}, "type": "Feature", "properties": {"collection_times": [{"days": "Mon-Fri", "time": "3:45pm"}, {"days": "Sat", "time": "12:00pm"}, {"days": "Sun", "time": "Closed"}], "id": "1704500002", "name": "USPS COLLECTION BOX - PO LOBBY", "address": {"city": "LIVERPOOL", "state": "PA", "street": "102 RACE ST", "postcode": "17045"}}},
{"geometry": {"type": "Point", "coordinates": [-76.4500971568, 40.3453150209]}, "type": "Feature", "properties": {"collection_times": [{"days": "Mon-Sat", "time": "11:00am"}, {"days": "Sun", "time": "Closed"}], "id": "1704600001", "name": "USPS COLLECTION BOX - BLUE BOX", "address": {"city": "LEBANON", "state": "PA", "street": "2202 LEHMAN ST", "postcode": "17046"}}},
{"geometry": {"type": "Point", "coordinates": [-76.4330540498, 40.3450242344]}, "type": "Feature", "properties": {"collection_times": [{"days": "Mon-Sat", "time": "9:00am"}, {"days": "Sun", "time": "Closed"}], "id": "1704600003", "name": "USPS COLLECTION BOX - BLUE BOX", "address": {"city": "LEBANON", "state": "PA", "street": "1300 LEHMAN ST", "postcode": "17046"}}},
{"geometry": {"type": "Point", "coordinates": [-76.4256843231, 40.3480774385]}, "type": "Feature", "properties": {"collection_times": [{"days": "Mon-Sat", "time": "10:00am"}, {"days": "Sun", "time": "Closed"}], "id": "1704600008", "name": "USPS COLLECTION BOX - BLUE BOX", "address": {"city": "LEBANON", "state": "PA", "street": "541 N 8TH ST", "postcode": "17046"}}},
{"geometry": {"type": "Point", "coordinates": [-76.4181614606, 40.363938639]}, "type": "Feature", "properties": {"collection_times": [{"days": "Mon-Sat", "time": "9:00am"}, {"days": "Sun", "time": "Closed"}], "id": "1704600010", "name": "USPS COLLECTION BOX - BLUE BOX", "address": {"city": "LEBANON", "state": "PA", "street": "1650 N 7TH ST", "postcode": "17046"}}},
{"geometry": {"type": "Point", "coordinates": [-76.4256194412, 40.351221714]}, "type": "Feature", "properties": {"collection_times": [{"days": "Mon-Sat", "time": "9:00am"}, {"days": "Sun", "time": "Closed"}], "id": "1704600011", "name": "USPS COLLECTION BOX - BLUE BOX", "address": {"city": "LEBANON", "state": "PA", "street": "781 HILL ST", "postcode": "17046"}}},
{"geometry": {"type": "Point", "coordinates": [-76.4213786885, 40.3492370235]}, "type": "Feature", "properties": {"collection_times": [{"days": "Mon-Sat", "time": "9:00am"}, {"days": "Sun", "time": "Closed"}], "id": "1704600012", "name": "USPS COLLECTION BOX - BLUE BOX", "address": {"city": "LEBANON", "state": "PA", "street": "600 CANAL ST", "postcode": "17046"}}},
{"geometry": {"type": "Point", "coordinates": [-76.4142641952, 40.3491407581]}, "type": "Feature", "properties": {"collection_times": [{"days": "Mon-Sat", "time": "9:00am"}, {"days": "Sun", "time": "Closed"}], "id": "1704600013", "name": "USPS COLLECTION BOX - BLUE BOX", "address": {"city": "LEBANON", "state": "PA", "street": "116 CANAL ST", "postcode": "17046"}}},
{"geometry": {"type": "Point", "coordinates": [-76.4064167155, 40.346362452]}, "type": "Feature", "properties": {"collection_times": [{"days": "Mon-Sat", "time": "9:00am"}, {"days": "Sun", "time": "Closed"}], "id": "1704600016", "name": "USPS COLLECTION BOX - BLUE BOX", "address": {"city": "LEBANON", "state": "PA", "street": "360 E LEHMAN ST", "postcode": "17046"}}},
{"geometry": {"type": "Point", "coordinates": [-76.3906738606, 40.3473037658]}, "type": "Feature", "properties": {"collection_times": [{"days": "Mon-Sat", "time": "1:30pm"}, {"days": "Sun", "time": "Closed"}], "id": "1704600017", "name": "USPS COLLECTION BOX - BLUE BOX", "address": {"city": "LEBANON", "state": "PA", "street": "1355 E LEHMAN ST", "postcode": "17046"}}},
{"geometry": {"type": "Point", "coordinates": [-76.4072839358, 40.3475305237]}, "type": "Feature", "properties": {"collection_times": [{"days": "Mon-Sat", "time": "9:00am"}, {"days": "Sun", "time": "Closed"}], "id": "1704600019", "name": "USPS COLLECTION BOX - BLUE BOX", "address": {"city": "LEBANON", "state": "PA", "street": "301 E MIFFLIN ST", "postcode": "17046"}}},
{"geometry": {"type": "Point", "coordinates": [-76.4121643068, 40.3463549223]}, "type": "Feature", "properties": {"collection_times": [{"days": "Mon-Sat", "time": "9:00am"}, {"days": "Sun", "time": "Closed"}], "id": "1704600020", "name": "USPS COLLECTION BOX - BLUE BOX", "address": {"city": "LEBANON", "state": "PA", "street": "21 LEHMAN ST", "postcode": "17046"}}},
{"geometry": {"type": "Point", "coordinates": [-76.4147326006, 40.3460550918]}, "type": "Feature", "properties": {"collection_times": [{"days": "Mon-Sat", "time": "9:00am"}, {"days": "Sun", "time": "Closed"}], "id": "1704600023", "name": "USPS COLLECTION BOX - BLUE BOX", "address": {"city": "LEBANON", "state": "PA", "street": "146 LEHMAN ST", "postcode": "17046"}}},
{"geometry": {"type": "Point", "coordinates": [-76.4192407961, 40.3457957283]}, "type": "Feature", "properties": {"collection_times": [{"days": "Mon-Sat", "time": "9:00am"}, {"days": "Sun", "time": "Closed"}], "id": "1704600025", "name": "USPS COLLECTION BOX - BLUE BOX", "address": {"city": "LEBANON", "state": "PA", "street": "442 LEHMAN ST", "postcode": "17046"}}},
{"geometry": {"type": "Point", "coordinates": [-76.4224746004, 40.3458663043]}, "type": "Feature", "properties": {"collection_times": [{"days": "Mon-Sat", "time": "9:00am"}, {"days": "Sun", "time": "Closed"}], "id": "1704600026", "name": "USPS COLLECTION BOX - BLUE BOX", "address": {"city": "LEBANON", "state": "PA", "street": "701 LEHMAN ST", "postcode": "17046"}}},
{"geometry": {"type": "Point", "coordinates": [-76.4177575844, 40.3458295214]}, "type": "Feature", "properties": {"collection_times": [{"days": "Mon-Sat", "time": "9:00am"}, {"days": "Sun", "time": "Closed"}], "id": "1704600028", "name": "USPS COLLECTION BOX - BLUE BOX", "address": {"city": "LEBANON", "state": "PA", "street": "336 LEHMAN ST", "postcode": "17046"}}},
{"geometry": {"type": "Point", "coordinates": [-77.4261843135, 40.3565379527]}, "type": "Feature", "properties": {"collection_times": [{"days": "Mon-Fri", "time": "3:45pm"}, {"days": "Sat", "time": "11:00am"}, {"days": "Sun", "time": "Closed"}], "id": "1704700001", "name": "USPS COLLECTION BOX - BLUE BOX", "address": {"city": "LOYSVILLE", "state": "PA", "street": "3555 SHERMANS VALLEY RD", "postcode": "17047"}}},
{"geometry": {"type": "Point", "coordinates": [-77.4261843135, 40.3565379527]}, "type": "Feature", "properties": {"collection_times": [{"days": "Mon-Fri", "time": "3:45pm"}, {"days": "Sat", "time": "11:00am"}, {"days": "Sun", "time": "Closed"}], "id": "1704700002", "name": "USPS COLLECTION BOX - PO LOBBY", "address": {"city": "LOYSVILLE", "state": "PA", "street": "3555 SHERMANS VALLEY RD", "postcode": "17047"}}},
{"geometry": {"type": "Point", "coordinates": [-76.6982453368, 40.5670103671]}, "type": "Feature", "properties": {"collection_times": [{"days": "Mon-Fri", "time": "4:30pm"}, {"days": "Sat", "time": "12:00pm"}, {"days": "Sun", "time": "Closed"}], "id": "1704800011", "name": "USPS COLLECTION BOX - BLUE BOX", "address": {"city": "LYKENS", "state": "PA", "street": "666 MAIN ST", "postcode": "17048"}}},
{"geometry": {"type": "Point", "coordinates": [-76.6980892826, 40.5669582744]}, "type": "Feature", "properties": {"collection_times": [{"days": "Mon-Fri", "time": "4:30pm"}, {"days": "Sat", "time": "12:00pm"}, {"days": "Sun", "time": "Closed"}], "id": "1704800014", "name": "USPS COLLECTION BOX - PO LOBBY", "address": {"city": "LYKENS", "state": "PA", "street": "666 MAIN ST", "postcode": "17048"}}},
{"geometry": {"type": "Point", "coordinates": [-77.2451570408, 40.6505021145]}, "type": "Feature", "properties": {"collection_times": [{"days": "Mon-Fri", "time": "4:00pm"}, {"days": "Sat", "time": "12:00pm"}, {"days": "Sun", "time": "Closed"}], "id": "1704900001", "name": "USPS COLLECTION BOX - BLUE BOX", "address": {"city": "MC ALISTERVILLE", "state": "PA", "street": "132 WESTFALL ST", "postcode": "17049"}}},
{"geometry": {"type": "Point", "coordinates": [-77.2451570408, 40.6505021145]}, "type": "Feature", "properties": {"collection_times": [{"days": "Mon-Fri", "time": "4:00pm"}, {"days": "Sat", "time": "12:00pm"}, {"days": "Sun", "time": "Closed"}], "id": "1704900002", "name": "USPS COLLECTION BOX - PO LOBBY", "address": {"city": "MC ALISTERVILLE", "state": "PA", "street": "132 WESTFALL ST", "postcode": "17049"}}},
{"geometry": {"type": "Point", "coordinates": [-76.9680366322, 40.2372457643]}, "type": "Feature", "properties": {"collection_times": [{"days": "Mon-Sat", "time": "10:00am"}, {"days": "Sun", "time": "Closed"}], "id": "1705000004", "name": "USPS COLLECTION BOX - BLUE BOX", "address": {"city": "MECHANICSBURG", "state": "PA", "street": "4900 CARLISLE PIKE", "postcode": "17050"}}},
{"geometry": {"type": "Point", "coordinates": [-76.9642505283, 40.2283591949]}, "type": "Feature", "properties": {"collection_times": [{"days": "Mon-Fri", "time": "5:00pm"}, {"days": "Sat", "time": "3:45pm"}, {"days": "Sun", "time": "Closed"}], "id": "1705000005", "name": "USPS COLLECTION BOX - BLUE BOX", "address": {"city": "MECHANICSBURG", "state": "PA", "street": "325 MANOR DR", "postcode": "17050"}}},
{"geometry": {"type": "Point", "coordinates": [-77.0284597026, 40.2479047306]}, "type": "Feature", "properties": {"collection_times": [{"days": "Mon-Sat", "time": "1:00pm"}, {"days": "Sun", "time": "Closed"}], "id": "1705000006", "name": "USPS COLLECTION BOX - BLUE BOX", "address": {"city": "MECHANICSBURG", "state": "PA", "street": "900 ANTRIM DR", "postcode": "17050"}}},
{"geometry": {"type": "Point", "coordinates": [-77.0239684917, 40.2464018628]}, "type": "Feature", "properties": {"collection_times": [{"days": "Mon-Fri", "time": "4:30pm"}, {"days": "Sat", "time": "3:00pm"}, {"days": "Sun", "time": "Closed"}], "id": "1705000007", "name": "USPS COLLECTION BOX - BLUE BOX", "address": {"city": "MECHANICSBURG", "state": "PA", "street": "6520 CARLISLE PIKE", "postcode": "17050"}}},
{"geometry": {"type": "Point", "coordinates": [-76.9913865145, 40.2460600725]}, "type": "Feature", "properties": {"collection_times": [{"days": "Mon-Sat", "time": "2:00pm"}, {"days": "Sun", "time": "Closed"}], "id": "1705000008", "name": "USPS COLLECTION BOX - BLUE BOX", "address": {"city": "MECHANICSBURG", "state": "PA", "street": "26 SKYPORT RD", "postcode": "17050"}}},
{"geometry": {"type": "Point", "coordinates": [-76.9755417006, 40.2189690444]}, "type": "Feature", "properties": {"collection_times": [{"days": "Mon-Sat", "time": "9:30am"}, {"days": "Sun", "time": "Closed"}], "id": "1705000009", "name": "USPS COLLECTION BOX - BLUE BOX", "address": {"city": "MECHANICSBURG", "state": "PA", "street": "5140 SIMPSON FERRY RD", "postcode": "17050"}}},
{"geometry": {"type": "Point", "coordinates": [-76.9734691108, 40.2395902368]}, "type": "Feature", "properties": {"collection_times": [{"days": "Mon-Fri", "time": "4:45pm"}, {"days": "Sat", "time": "3:30pm"}, {"days": "Sun", "time": "Closed"}], "id": "1705000010", "name": "USPS COLLECTION BOX - BLUE BOX", "address": {"city": "MECHANICSBURG", "state": "PA", "street": "5002 LENKER ST", "postcode": "17050"}}},
{"geometry": {"type": "Point", "coordinates": [-76.9769186222, 40.2784817423]}, "type": "Feature", "properties": {"collection_times": [{"days": "Mon-Fri", "time": "10:00am"}, {"days": "Sat", "time": "9:30am"}, {"days": "Sun", "time": "Closed"}], "id": "1705000012", "name": "USPS COLLECTION BOX - BLUE BOX", "address": {"city": "MECHANICSBURG", "state": "PA", "street": "4185 MOUNTAIN VIEW RD", "postcode": "17050"}}},
{"geometry": {"type": "Point", "coordinates": [-76.9773779843, 40.2831662279]}, "type": "Feature", "properties": {"collection_times": [{"days": "Mon-Sat", "time": "10:00am"}, {"days": "Sun", "time": "Closed"}], "id": "1705000013", "name": "USPS COLLECTION BOX - BLUE BOX", "address": {"city": "MECHANICSBURG", "state": "PA", "street": "2015 TECHNOLOGY PKWY", "postcode": "17050"}}},
{"geometry": {"type": "Point", "coordinates": [-77.0195158922, 40.2464300258]}, "type": "Feature", "properties": {"collection_times": [{"days": "Mon-Fri", "time": "4:30pm"}, {"days": "Sat", "time": "12:30pm"}, {"days": "Sun", "time": "Closed"}], "id": "1705000014", "name": "USPS COLLECTION BOX - BLUE BOX", "address": {"city": "MECHANICSBURG", "state": "PA", "street": "6483 CARLISLE PIKE", "postcode": "17050"}}},
{"geometry": {"type": "Point", "coordinates": [-77.0287260697, 40.2514836798]}, "type": "Feature", "properties": {"collection_times": [{"days": "Mon-Fri", "time": "4:15pm"}, {"days": "Sat", "time": "2:45pm"}, {"days": "Sun", "time": "Closed"}], "id": "1705000017", "name": "USPS COLLECTION BOX - BLUE BOX", "address": {"city": "MECHANICSBURG", "state": "PA", "street": "3 BADEN POWELL LN", "postcode": "17050"}}},
{"geometry": {"type": "Point", "coordinates": [-77.0077347458, 40.2466869559]}, "type": "Feature", "properties": {"collection_times": [{"days": "Mon-Fri", "time": "4:30pm"}, {"days": "Sat", "time": "3:00pm"}, {"days": "Sun", "time": "Closed"}], "id": "1705000018", "name": "USPS COLLECTION BOX - BLUE BOX", "address": {"city": "MECHANICSBURG", "state": "PA", "street": "6416 CARLISLE PIKE", "postcode": "17050"}}},
{"geometry": {"type": "Point", "coordinates": [-77.7415411098, 40.4979806855]}, "type": "Feature", "properties": {"collection_times": [{"days": "Mon-Fri", "time": "3:30pm"}, {"days": "Sat", "time": "11:00am"}, {"days": "Sun", "time": "Closed"}], "id": "1705100001", "name": "USPS COLLECTION BOX - BLUE BOX", "address": {"city": "MCVEYTOWN", "state": "PA", "street": "1 E JOHN ST", "postcode": "17051"}}},
{"geometry": {"type": "Point", "coordinates": [-77.7415411098, 40.4979806855]}, "type": "Feature", "properties": {"collection_times": [{"days": "Mon-Fri", "time": "3:30pm"}, {"days": "Sat", "time": "11:00am"}, {"days": "Sun", "time": "Closed"}], "id": "1705100002", "name": "USPS COLLECTION BOX - PO LOBBY", "address": {"city": "MCVEYTOWN", "state": "PA", "street": "1 E JOHN ST", "postcode": "17051"}}},
{"geometry": {"type": "Point", "coordinates": [-77.9877662758, 40.3171706726]}, "type": "Feature", "properties": {"collection_times": [{"days": "Mon-Fri", "time": "3:45pm"}, {"days": "Sat", "time": "12:00pm"}, {"days": "Sun", "time": "Closed"}], "id": "1705200002", "name": "USPS COLLECTION BOX - BLUE BOX", "address": {"city": "MAPLETON DEPOT", "state": "PA", "street": "617 MAIN ST", "postcode": "17052"}}},
{"geometry": {"type": "Point", "coordinates": [-77.9877662758, 40.3171706726]}, "type": "Feature", "properties": {"collection_times": [{"days": "Mon-Fri", "time": "3:45pm"}, {"days": "Sat", "time": "12:00pm"}, {"days": "Sun", "time": "Closed"}], "id": "1705200005", "name": "USPS COLLECTION BOX - PO LOBBY", "address": {"city": "MAPLETON DEPOT", "state": "PA", "street": "617 MAIN ST", "postcode": "17052"}}},
{"geometry": {"type": "Point", "coordinates": [-76.9316456422, 40.3414171268]}, "type": "Feature", "properties": {"collection_times": [{"days": "Mon-Fri", "time": "4:15pm"}, {"days": "Sat", "time": "12:00pm"}, {"days": "Sun", "time": "Closed"}], "id": "1705300008", "name": "USPS COLLECTION BOX - BLUE BOX", "address": {"city": "MARYSVILLE", "state": "PA", "street": "309 CAMERON ST", "postcode": "17053"}}},
{"geometry": {"type": "Point", "coordinates": [-76.9316456422, 40.3414171268]}, "type": "Feature", "properties": {"collection_times": [{"days": "Mon-Fri", "time": "4:15pm"}, {"days": "Sat", "time": "12:00pm"}, {"days": "Sun", "time": "Closed"}], "id": "1705300012", "name": "USPS COLLECTION BOX - PO LOBBY", "address": {"city": "MARYSVILLE", "state": "PA", "street": "309 CAMERON ST", "postcode": "17053"}}},
{"geometry": {"type": "Point", "coordinates": [-76.9705797818, 40.2131415957]}, "type": "Feature", "properties": {"collection_times": [{"days": "Mon-Sat", "time": "11:00am"}, {"days": "Sun", "time": "Closed"}], "id": "1705500001", "name": "USPS COLLECTION BOX - BLUE BOX", "address": {"city": "MECHANICSBURG", "state": "PA", "street": "325 WESLEY DR", "postcode": "17055"}}},
{"geometry": {"type": "Point", "coordinates": [-76.9933856966, 40.1950021992]}, "type": "Feature", "properties": {"collection_times": [{"days": "Mon-Sat", "time": "2:00pm"}, {"days": "Sun", "time": "Closed"}], "id": "1705500002", "name": "USPS COLLECTION BOX - BLUE BOX", "address": {"city": "MECHANICSBURG", "state": "PA", "street": "5349 OXFORD CIR", "postcode": "17055"}}},
{"geometry": {"type": "Point", "coordinates": [-76.9615730491, 40.2045379921]}, "type": "Feature", "properties": {"collection_times": [{"days": "Mon-Fri", "time": "5:15pm"}, {"days": "Sat", "time": "9:30am"}, {"days": "Sun", "time": "Closed"}], "id": "1705500010", "name": "USPS COLLECTION BOX - BLUE BOX", "address": {"city": "MECHANICSBURG", "state": "PA", "street": "5020 RITTER RD", "postcode": "17055"}}},
{"geometry": {"type": "Point", "coordinates": [-77.0086985034, 40.2145314504]}, "type": "Feature", "properties": {"collection_times": [{"days": "Mon-Sat", "time": "2:00pm"}, {"days": "Sun", "time": "Closed"}], "id": "1705500014", "name": "USPS COLLECTION BOX - BLUE BOX", "address": {"city": "MECHANICSBURG", "state": "PA", "street": "2 W ALLEN ST", "postcode": "17055"}}},
{"geometry": {"type": "Point", "coordinates": [-76.9933856971, 40.1950108429]}, "type": "Feature", "properties": {"collection_times": [{"days": "Mon-Fri", "time": "4:00pm"}, {"days": "Sat", "time": "2:30pm"}, {"days": "Sun", "time": "Closed"}], "id": "1705500016", "name": "USPS COLLECTION BOX - EXPRESS", "address": {"city": "MECHANICSBURG", "state": "PA", "street": "2 E MAIN ST", "postcode": "17055"}}},
{"geometry": {"type": "Point", "coordinates": [-76.9775018636, 40.2174016237]}, "type": "Feature", "properties": {"collection_times": [{"days": "Mon-Sat", "time": "12:00pm"}, {"days": "Sun", "time": "Closed"}], "id": "1705500022", "name": "USPS COLLECTION BOX - BLUE BOX", "address": {"city": "MECHANICSBURG", "state": "PA", "street": "5202 WINDSOR BLVD", "postcode": "17055"}}},
{"geometry": {"type": "Point", "coordinates": [-77.0156806812, 40.2110479511]}, "type": "Feature", "properties": {"collection_times": [{"days": "Mon-Sat", "time": "2:00pm"}, {"days": "Sun", "time": "Closed"}], "id": "1705500025", "name": "USPS COLLECTION BOX - BLUE BOX", "address": {"city": "MECHANICSBURG", "state": "PA", "street": "400 W MAIN ST", "postcode": "17055"}}},
{"geometry": {"type": "Point", "coordinates": [-77.0011468473, 40.2151977712]}, "type": "Feature", "properties": {"collection_times": [{"days": "Mon-Sat", "time": "2:00pm"}, {"days": "Sun", "time": "Closed"}], "id": "1705500027", "name": "USPS COLLECTION BOX - BLUE BOX", "address": {"city": "MECHANICSBURG", "state": "PA", "street": "400 E MAIN ST", "postcode": "17055"}}},
{"geometry": {"type": "Point", "coordinates": [-76.9612657518, 40.204652875]}, "type": "Feature", "properties": {"collection_times": [{"days": "Mon-Fri", "time": "5:15pm"}, {"days": "Sat", "time": "9:30am"}, {"days": "Sun", "time": "Closed"}], "id": "1705500028", "name": "USPS COLLECTION BOX - BLUE BOX", "address": {"city": "MECHANICSBURG", "state": "PA", "street": "5010 RITTER RD", "postcode": "17055"}}},
{"geometry": {"type": "Point", "coordinates": [-76.9591044857, 40.2116441624]}, "type": "Feature", "properties": {"collection_times": [{"days": "Mon-Fri", "time": "4:00pm"}, {"days": "Sat", "time": "9:00am"}, {"days": "Sun", "time": "Closed"}], "id": "1705500029", "name": "USPS COLLECTION BOX - BLUE BOX", "address": {"city": "MECHANICSBURG", "state": "PA", "street": "4718 GETTYSBURG RD", "postcode": "17055"}}},
{"geometry": {"type": "Point", "coordinates": [-76.9640757905, 40.2104280452]}, "type": "Feature", "properties": {"collection_times": [{"days": "Mon-Fri", "time": "4:00pm"}, {"days": "Sat", "time": "9:00am"}, {"days": "Sun", "time": "Closed"}], "id": "1705500030", "name": "USPS COLLECTION BOX - BLUE BOX", "address": {"city": "MECHANICSBURG", "state": "PA", "street": "801 CENTURY DR", "postcode": "17055"}}},
{"geometry": {"type": "Point", "coordinates": [-76.9546729457, 40.2047700516]}, "type": "Feature", "properties": {"collection_times": [{"days": "Mon-Fri", "time": "5:15pm"}, {"days": "Sat", "time": "9:30am"}, {"days": "Sun", "time": "Closed"}], "id": "1705500033", "name": "USPS COLLECTION BOX - BLUE BOX", "address": {"city": "MECHANICSBURG", "state": "PA", "street": "4901 LOUISE DR", "postcode": "17055"}}},
{"geometry": {"type": "Point", "coordinates": [-77.0115120747, 40.2148701554]}, "type": "Feature", "properties": {"collection_times": [{"days": "Mon-Sat", "time": "2:00pm"}, {"days": "Sun", "time": "Closed"}], "id": "1705500039", "name": "USPS COLLECTION BOX - BLUE BOX", "address": {"city": "MECHANICSBURG", "state": "PA", "street": "202 N FREDERICK ST", "postcode": "17055"}}},
{"geometry": {"type": "Point", "coordinates": [-76.9664494779, 40.2015499736]}, "type": "Feature", "properties": {"collection_times": [{"days": "Mon-Fri", "time": "5:15pm"}, {"days": "Sat", "time": "9:30am"}, {"days": "Sun", "time": "Closed"}], "id": "1705500043", "name": "USPS COLLECTION BOX - BLUE BOX", "address": {"city": "MECHANICSBURG", "state": "PA", "street": "5060 RITTER RD", "postcode": "17055"}}},
{"geometry": {"type": "Point", "coordinates": [-76.9790412365, 40.2083134076]}, "type": "Feature", "properties": {"collection_times": [{"days": "Mon-Sat", "time": "1:30pm"}, {"days": "Sun", "time": "Closed"}], "id": "1705500045", "name": "USPS COLLECTION BOX - BLUE BOX", "address": {"city": "MECHANICSBURG", "state": "PA", "street": "640 GENEVA DR", "postcode": "17055"}}},
{"geometry": {"type": "Point", "coordinates": [-77.0087467721, 40.2130212294]}, "type": "Feature", "properties": {"collection_times": [{"days": "Mon-Fri", "time": "4:00pm"}, {"days": "Sat", "time": "2:30pm"}, {"days": "Sun", "time": "Closed"}], "id": "1705500047", "name": "USPS COLLECTION BOX - BLUE BOX", "address": {"city": "MECHANICSBURG", "state": "PA", "street": "25 W MAIN ST", "postcode": "17055"}}},
{"geometry": {"type": "Point", "coordinates": [-77.0078926147, 40.2133042878]}, "type": "Feature", "properties": {"collection_times": [{"days": "Mon-Fri", "time": "4:00pm"}, {"days": "Sat", "time": "2:30pm"}, {"days": "Sun", "time": "Closed"}], "id": "1705500049", "name": "USPS COLLECTION BOX - BLUE BOX", "address": {"city": "MECHANICSBURG", "state": "PA", "street": "2 E MAIN ST", "postcode": "17055"}}},
{"geometry": {"type": "Point", "coordinates": [-76.9945375823, 40.2153643926]}, "type": "Feature", "properties": {"collection_times": [{"days": "Mon-Fri", "time": "6:00pm"}, {"days": "Sat", "time": "4:00pm"}, {"days": "Sun", "time": "Closed"}], "id": "1705500051", "name": "USPS COLLECTION BOX - BLUE BOX", "address": {"city": "MECHANICSBURG", "state": "PA", "street": "702 E SIMPSON ST", "postcode": "17055"}}},
{"geometry": {"type": "Point", "coordinates": [-76.963210094, 40.2000092242]}, "type": "Feature", "properties": {"collection_times": [{"days": "Mon-Fri", "time": "5:15pm"}, {"days": "Sat", "time": "9:30am"}, {"days": "Sun", "time": "Closed"}], "id": "1705500055", "name": "USPS COLLECTION BOX - BLUE BOX", "address": {"city": "MECHANICSBURG", "state": "PA", "street": "5001 LOUISE DR", "postcode": "17055"}}},
{"geometry": {"type": "Point", "coordinates": [-76.9505069731, 40.2055159291]}, "type": "Feature", "properties": {"collection_times": [{"days": "Mon-Fri", "time": "5:30pm"}, {"days": "Sat", "time": "9:00am"}, {"days": "Sun", "time": "Closed"}], "id": "1705500061", "name": "USPS COLLECTION BOX - BLUE BOX", "address": {"city": "MECHANICSBURG", "state": "PA", "street": "4600 WESTPORT DR", "postcode": "17055"}}},
{"geometry": {"type": "Point", "coordinates": [-76.9945375823, 40.2153643926]}, "type": "Feature", "properties": {"collection_times": [{"days": "Mon-Fri", "time": "6:00pm"}, {"days": "Sat", "time": "4:30pm"}, {"days": "Sun", "time": "Closed"}], "id": "1705500063", "name": "USPS COLLECTION BOX - PO LOBBY", "address": {"city": "MECHANICSBURG", "state": "PA", "street": "702 E SIMPSON ST", "postcode": "17055"}}},
{"geometry": {"type": "Point", "coordinates": [-76.9688503176, 40.2001483656]}, "type": "Feature", "properties": {"collection_times": [{"days": "Mon-Fri", "time": "5:15pm"}, {"days": "Sat", "time": "9:15am"}, {"days": "Sun", "time": "Closed"}], "id": "1705500065", "name": "USPS COLLECTION BOX - BLUE BOX", "address": {"city": "MECHANICSBURG", "state": "PA", "street": "5080 RITTER RD", "postcode": "17055"}}},
{"geometry": {"type": "Point", "coordinates": [-76.9522973122, 40.205491695]}, "type": "Feature", "properties": {"collection_times": [{"days": "Mon-Fri", "time": "5:15pm"}, {"days": "Sat", "time": "10:00am"}, {"days": "Sun", "time": "Closed"}], "id": "1705500067", "name": "USPS COLLECTION BOX - BLUE BOX", "address": {"city": "MECHANICSBURG", "state": "PA", "street": "1205 MANOR DR", "postcode": "17055"}}},
{"geometry": {"type": "Point", "coordinates": [-76.9823529338, 40.1937931199]}, "type": "Feature", "properties": {"collection_times": [{"days": "Mon-Sat", "time": "12:00pm"}, {"days": "Sun", "time": "Closed"}], "id": "1705500068", "name": "USPS COLLECTION BOX - BLUE BOX", "address": {"city": "MECHANICSBURG", "state": "PA", "street": "275 CUMBERLAND PKWY", "postcode": "17055"}}},
{"geometry": {"type": "Point", "coordinates": [-76.9522973122, 40.205491695]}, "type": "Feature", "properties": {"collection_times": [{"days": "Mon-Fri", "time": "5:15pm"}, {"days": "Sat", "time": "10:00am"}, {"days": "Sun", "time": "Closed"}], "id": "1705500069", "name": "USPS COLLECTION BOX - BLUE BOX", "address": {"city": "MECHANICSBURG", "state": "PA", "street": "1205 MANOR DR", "postcode": "17055"}}},
{"geometry": {"type": "Point", "coordinates": [-76.9945375823, 40.2153643926]}, "type": "Feature", "properties": {"collection_times": [{"days": "Mon-Fri", "time": "6:00pm"}, {"days": "Sat", "time": "4:30pm"}, {"days": "Sun", "time": "Closed"}], "id": "1705500071", "name": "USPS COLLECTION BOX - APC", "address": {"city": "MECHANICSBURG", "state": "PA", "street": "702 E SIMPSON ST", "postcode": "17055"}}},
{"geometry": {"type": "Point", "coordinates": [-76.9963461222, 40.1700728283]}, "type": "Feature", "properties": {"collection_times": [{"days": "Mon-Sat", "time": "11:00am"}, {"days": "Sun", "time": "Closed"}], "id": "1705500073", "name": "USPS COLLECTION BOX - BLUE BOX", "address": {"city": "MECHANICSBURG", "state": "PA", "street": "555 GETTYSBURG PIKE", "postcode": "17055"}}},
{"geometry": {"type": "Point", "coordinates": [-77.3526288526, 40.5365542553]}, "type": "Feature", "properties": {"collection_times": [{"days": "Mon-Fri", "time": "4:00pm"}, {"days": "Sat", "time": "10:45am"}, {"days": "Sun", "time": "Closed"}], "id": "1705600001", "name": "USPS COLLECTION BOX - BLUE BOX", "address": {"city": "MEXICO", "state": "PA", "street": "6798 WILLIAM PENN HWY", "postcode": "17056"}}},
{"geometry": {"type": "Point", "coordinates": [-77.3526288526, 40.5365542553]}, "type": "Feature", "properties": {"collection_times": [{"days": "Mon-Fri", "time": "12:00pm"}, {"days": "Sat", "time": "10:45am"}, {"days": "Sun", "time": "Closed"}], "id": "1705600002", "name": "USPS COLLECTION BOX - PO LOBBY", "address": {"city": "MEXICO", "state": "PA", "street": "6798 WILLIAM PENN HWY", "postcode": "17056"}}},
{"geometry": {"type": "Point", "coordinates": [-76.7806078075, 40.2094568713]}, "type": "Feature", "properties": {"collection_times": [{"days": "Mon-Sat", "time": "1:00pm"}, {"days": "Sun", "time": "Closed"}], "id": "1705700003", "name": "USPS COLLECTION BOX - BLUE BOX", "address": {"city": "MIDDLETOWN", "state": "PA", "street": "2103 MARKET STREET EXT", "postcode": "17057"}}},
{"geometry": {"type": "Point", "coordinates": [-76.7202429248, 40.194922171]}, "type": "Feature", "properties": {"collection_times": [{"days": "Mon-Sat", "time": "12:00pm"}, {"days": "Sun", "time": "Closed"}], "id": "1705700004", "name": "USPS COLLECTION BOX - BLUE BOX", "address": {"city": "MIDDLETOWN", "state": "PA", "street": "2 PINEFORD DR", "postcode": "17057"}}},
{"geometry": {"type": "Point", "coordinates": [-76.7223494444, 40.205200585]}, "type": "Feature", "properties": {"collection_times": [{"days": "Mon-Sat", "time": "12:00pm"}, {"days": "Sun", "time": "Closed"}], "id": "1705700009", "name": "USPS COLLECTION BOX - BLUE BOX", "address": {"city": "MIDDLETOWN", "state": "PA", "street": "422 MAPLE RD", "postcode": "17057"}}},
{"geometry": {"type": "Point", "coordinates": [-76.7313458473, 40.1944332925]}, "type": "Feature", "properties": {"collection_times": [{"days": "Mon-Sat", "time": "9:30am"}, {"days": "Sun", "time": "Closed"}], "id": "1705700012", "name": "USPS COLLECTION BOX - BLUE BOX", "address": {"city": "MIDDLETOWN", "state": "PA", "street": "26 S UNION ST", "postcode": "17057"}}},
{"geometry": {"type": "Point", "coordinates": [-76.7238837422, 40.1869061246]}, "type": "Feature", "properties": {"collection_times": [{"days": "Mon-Sat", "time": "11:15am"}, {"days": "Sun", "time": "Closed"}], "id": "1705700021", "name": "USPS COLLECTION BOX - BLUE BOX", "address": {"city": "MIDDLETOWN", "state": "PA", "street": "601 SHIPPEN ST", "postcode": "17057"}}},
{"geometry": {"type": "Point", "coordinates": [-76.7226984173, 40.2012364895]}, "type": "Feature", "properties": {"collection_times": [{"days": "Mon-Sat", "time": "11:45am"}, {"days": "Sun", "time": "Closed"}], "id": "1705700023", "name": "USPS COLLECTION BOX - BLUE BOX", "address": {"city": "MIDDLETOWN", "state": "PA", "street": "450 E MAIN ST", "postcode": "17057"}}},
{"geometry": {"type": "Point", "coordinates": [-76.7306496487, 40.1929202121]}, "type": "Feature", "properties": {"collection_times": [{"days": "Mon-Sat", "time": "9:45am"}, {"days": "Sun", "time": "Closed"}], "id": "1705700037", "name": "USPS COLLECTION BOX - BLUE BOX", "address": {"city": "MIDDLETOWN", "state": "PA", "street": "107 MILL ST", "postcode": "17057"}}},
{"geometry": {"type": "Point", "coordinates": [-76.6621294178, 40.181203572]}, "type": "Feature", "properties": {"collection_times": [{"days": "Mon-Sat", "time": "11:30am"}, {"days": "Sun", "time": "Closed"}], "id": "1705700054", "name": "USPS COLLECTION BOX - BLUE BOX", "address": {"city": "MIDDLETOWN", "state": "PA", "street": "1 PARK AVE", "postcode": "17057"}}},
{"geometry": {"type": "Point", "coordinates": [-76.7361190867, 40.1977775175]}, "type": "Feature", "properties": {"collection_times": [{"days": "Mon-Fri", "time": "5:00pm"}, {"days": "Sat", "time": "3:00pm"}, {"days": "Sun", "time": "Closed"}], "id": "1705700055", "name": "USPS COLLECTION BOX - PO LOBBY", "address": {"city": "MIDDLETOWN", "state": "PA", "street": "330 W MAIN ST", "postcode": "17057"}}},
{"geometry": {"type": "Point", "coordinates": [-76.7361190867, 40.1977775175]}, "type": "Feature", "properties": {"collection_times": [{"days": "Mon-Fri", "time": "5:00pm"}, {"days": "Sat", "time": "3:00pm"}, {"days": "Sun", "time": "Closed"}], "id": "1705700058", "name": "USPS COLLECTION BOX - BLUE BOX", "address": {"city": "MIDDLETOWN", "state": "PA", "street": "330 W MAIN ST", "postcode": "17057"}}},
{"geometry": {"type": "Point", "coordinates": [-76.7570681898, 40.1962201935]}, "type": "Feature", "properties": {"collection_times": [{"days": "Mon-Sat", "time": "10:00am"}, {"days": "Sun", "time": "Closed"}], "id": "1705700061", "name": "USPS COLLECTION BOX - BLUE BOX", "address": {"city": "MIDDLETOWN", "state": "PA", "street": "1 TERMINAL DR", "postcode": "17057"}}},
{"geometry": {"type": "Point", "coordinates": [-77.4018483678, 40.5697555592]}, "type": "Feature", "properties": {"collection_times": [{"days": "Mon-Fri", "time": "4:45pm"}, {"days": "Sat", "time": "11:45am"}, {"days": "Sun", "time": "Closed"}], "id": "1705800001", "name": "USPS COLLECTION BOX - BLUE BOX", "address": {"city": "MIFFLIN", "state": "PA", "street": "112 MAIN ST", "postcode": "17058"}}},
{"geometry": {"type": "Point", "coordinates": [-77.4018483678, 40.5697555592]}, "type": "Feature", "properties": {"collection_times": [{"days": "Mon-Fri", "time": "4:45pm"}, {"days": "Sat", "time": "11:45am"}, {"days": "Sun", "time": "Closed"}], "id": "1705800003", "name": "USPS COLLECTION BOX - PO LOBBY", "address": {"city": "MIFFLIN", "state": "PA", "street": "112 MAIN ST", "postcode": "17058"}}},
{"geometry": {"type": "Point", "coordinates": [-77.3861806907, 40.5788382381]}, "type": "Feature", "properties": {"collection_times": [{"days": "Mon-Fri", "time": "11:00am"}, {"days": "Sat-Sun", "time": "Closed"}], "id": "1705900001", "name": "USPS COLLECTION BOX - BLUE BOX", "address": {"city": "MIFFLINTOWN", "state": "PA", "street": "501 NORTH ST", "postcode": "17059"}}},
{"geometry": {"type": "Point", "coordinates": [-77.392655368, 40.5624359179]}, "type": "Feature", "properties": {"collection_times": [{"days": "Mon-Fri", "time": "11:00am"}, {"days": "Sat-Sun", "time": "Closed"}], "id": "1705900003", "name": "USPS COLLECTION BOX - BLUE BOX", "address": {"city": "MIFFLINTOWN", "state": "PA", "street": "4048 WILLIAM PENN HWY", "postcode": "17059"}}},
{"geometry": {"type": "Point", "coordinates": [-77.3861806907, 40.5788382381]}, "type": "Feature", "properties": {"collection_times": [{"days": "Mon-Fri", "time": "11:30am"}, {"days": "Sat-Sun", "time": "Closed"}], "id": "1705900005", "name": "USPS COLLECTION BOX - BLUE BOX", "address": {"city": "MIFFLINTOWN", "state": "PA", "street": "33 STOP PLAZA DR", "postcode": "17059"}}},
{"geometry": {"type": "Point", "coordinates": [-77.3972604506, 40.5699748817]}, "type": "Feature", "properties": {"collection_times": [{"days": "Mon-Fri", "time": "4:30pm"}, {"days": "Sat", "time": "11:00am"}, {"days": "Sun", "time": "Closed"}], "id": "1705900006", "name": "USPS COLLECTION BOX - BLUE BOX", "address": {"city": "MIFFLINTOWN", "state": "PA", "street": "150 BRIDGE ST", "postcode": "17059"}}},
{"geometry": {"type": "Point", "coordinates": [-77.3972604506, 40.5699748817]}, "type": "Feature", "properties": {"collection_times": [{"days": "Mon-Fri", "time": "4:30pm"}, {"days": "Sat", "time": "11:00am"}, {"days": "Sun", "time": "Closed"}], "id": "1705900007", "name": "USPS COLLECTION BOX - PO LOBBY", "address": {"city": "MIFFLINTOWN", "state": "PA", "street": "150 BRIDGE ST", "postcode": "17059"}}},
{"geometry": {"type": "Point", "coordinates": [-77.9058281621, 40.4709621422]}, "type": "Feature", "properties": {"collection_times": [{"days": "Mon-Fri", "time": "3:45pm"}, {"days": "Sat", "time": "11:45am"}, {"days": "Sun", "time": "Closed"}], "id": "1706000001", "name": "USPS COLLECTION BOX - BLUE BOX", "address": {"city": "MILL CREEK", "state": "PA", "street": "9787 MAIN ST", "postcode": "17060"}}},
{"geometry": {"type": "Point", "coordinates": [-77.9017111117, 40.4462733133]}, "type": "Feature", "properties": {"collection_times": [{"days": "Mon-Fri", "time": "1:30pm"}, {"days": "Sat", "time": "11:45am"}, {"days": "Sun", "time": "Closed"}], "id": "1706000003", "name": "USPS COLLECTION BOX - PO LOBBY", "address": {"city": "MILL CREEK", "state": "PA", "street": "9787 MAIN ST", "postcode": "17060"}}},
{"geometry": {"type": "Point", "coordinates": [-76.952410121, 40.540787116]}, "type": "Feature", "properties": {"collection_times": [{"days": "Mon-Sat", "time": "10:30am"}, {"days": "Sun", "time": "Closed"}], "id": "1706100005", "name": "USPS COLLECTION BOX - BLUE BOX", "address": {"city": "MILLERSBURG", "state": "PA", "street": "710 UNION ST", "postcode": "17061"}}},
{"geometry": {"type": "Point", "coordinates": [-76.9586549613, 40.5428005121]}, "type": "Feature", "properties": {"collection_times": [{"days": "Mon-Sat", "time": "9:30am"}, {"days": "Sun", "time": "Closed"}], "id": "1706100008", "name": "USPS COLLECTION BOX - BLUE BOX", "address": {"city": "MILLERSBURG", "state": "PA", "street": "379 MOORE ST", "postcode": "17061"}}},
{"geometry": {"type": "Point", "coordinates": [-76.9642113196, 40.5406487098]}, "type": "Feature", "properties": {"collection_times": [{"days": "Mon-Sat", "time": "9:00am"}, {"days": "Sun", "time": "Closed"}], "id": "1706100010", "name": "USPS COLLECTION BOX - BLUE BOX", "address": {"city": "MILLERSBURG", "state": "PA", "street": "12 NORTH ST", "postcode": "17061"}}},
{"geometry": {"type": "Point", "coordinates": [-76.9199181254, 40.5405833285]}, "type": "Feature", "properties": {"collection_times": [{"days": "Mon-Sat", "time": "8:30am"}, {"days": "Sun", "time": "Closed"}], "id": "1706100011", "name": "USPS COLLECTION BOX - BLUE BOX", "address": {"city": "MILLERSBURG", "state": "PA", "street": "1571 STATE ROUTE 209", "postcode": "17061"}}},
{"geometry": {"type": "Point", "coordinates": [-76.961575687, 40.5402358571]}, "type": "Feature", "properties": {"collection_times": [{"days": "Mon-Sat", "time": "9:00am"}, {"days": "Sun", "time": "Closed"}], "id": "1706100012", "name": "USPS COLLECTION BOX - BLUE BOX", "address": {"city": "MILLERSBURG", "state": "PA", "street": "301 S MARKET ST", "postcode": "17061"}}},
{"geometry": {"type": "Point", "coordinates": [-76.9602424923, 40.5392445375]}, "type": "Feature", "properties": {"collection_times": [{"days": "Mon-Fri", "time": "4:00pm"}, {"days": "Sat", "time": "12:00pm"}, {"days": "Sun", "time": "Closed"}], "id": "1706100013", "name": "USPS COLLECTION BOX - BLUE BOX", "address": {"city": "MILLERSBURG", "state": "PA", "street": "225 UNION ST", "postcode": "17061"}}},
{"geometry": {"type": "Point", "coordinates": [-76.9602424923, 40.5392445375]}, "type": "Feature", "properties": {"collection_times": [{"days": "Mon-Fri", "time": "4:00pm"}, {"days": "Sat", "time": "12:00pm"}, {"days": "Sun", "time": "Closed"}], "id": "1706100014", "name": "USPS COLLECTION BOX - BLUE BOX", "address": {"city": "MILLERSBURG", "state": "PA", "street": "225 UNION ST", "postcode": "17061"}}},
{"geometry": {"type": "Point", "coordinates": [-76.9602424923, 40.5392445375]}, "type": "Feature", "properties": {"collection_times": [{"days": "Mon-Fri", "time": "4:30pm"}, {"days": "Sat", "time": "12:00pm"}, {"days": "Sun", "time": "Closed"}], "id": "1706100015", "name": "USPS COLLECTION BOX - PO LOBBY", "address": {"city": "MILLERSBURG", "state": "PA", "street": "225 UNION ST", "postcode": "17061"}}},
{"geometry": {"type": "Point", "coordinates": [-77.1546014672, 40.5490394377]}, "type": "Feature", "properties": {"collection_times": [{"days": "Mon-Fri", "time": "4:30pm"}, {"days": "Sat", "time": "11:45am"}, {"days": "Sun", "time": "Closed"}], "id": "1706200001", "name": "USPS COLLECTION BOX - BLUE BOX", "address": {"city": "MILLERSTOWN", "state": "PA", "street": "12 N MARKET ST", "postcode": "17062"}}},
{"geometry": {"type": "Point", "coordinates": [-77.1546014672, 40.5490394377]}, "type": "Feature", "properties": {"collection_times": [{"days": "Mon-Fri", "time": "4:30pm"}, {"days": "Sat", "time": "12:00pm"}, {"days": "Sun", "time": "Closed"}], "id": "1706200004", "name": "USPS COLLECTION BOX - PO LOBBY", "address": {"city": "MILLERSTOWN", "state": "PA", "street": "12 N MARKET ST", "postcode": "17062"}}},
{"geometry": {"type": "Point", "coordinates": [-77.5860634392, 40.7130523636]}, "type": "Feature", "properties": {"collection_times": [{"days": "Mon-Fri", "time": "4:00pm"}, {"days": "Sat", "time": "12:00pm"}, {"days": "Sun", "time": "Closed"}], "id": "1706300001", "name": "USPS COLLECTION BOX - BLUE BOX", "address": {"city": "MILROY", "state": "PA", "street": "90 S MAIN ST", "postcode": "17063"}}},
{"geometry": {"type": "Point", "coordinates": [-77.5860634392, 40.7130523636]}, "type": "Feature", "properties": {"collection_times": [{"days": "Mon-Fri", "time": "4:00pm"}, {"days": "Sat", "time": "12:00pm"}, {"days": "Sun", "time": "Closed"}], "id": "1706300002", "name": "USPS COLLECTION BOX - PO LOBBY", "address": {"city": "MILROY", "state": "PA", "street": "90 S MAIN ST", "postcode": "17063"}}},
{"geometry": {"type": "Point", "coordinates": [-77.4951847376, 40.7571268661]}, "type": "Feature", "properties": {"collection_times": [{"days": "Mon-Sat", "time": "10:30am"}, {"days": "Sun", "time": "Closed"}], "id": "1706300004", "name": "USPS COLLECTION BOX - BLUE BOX", "address": {"city": "MILROY", "state": "PA", "street": "70 COMMERCE DR", "postcode": "17063"}}},
{"geometry": {"type": "Point", "coordinates": [-76.4683482679, 40.2482632766]}, "type": "Feature", "properties": {"collection_times": [{"days": "Mon-Fri", "time": "4:00pm"}, {"days": "Sat", "time": "11:30am"}, {"days": "Sun", "time": "Closed"}], "id": "1706400001", "name": "USPS COLLECTION BOX - BLUE BOX", "address": {"city": "MT GRETNA", "state": "PA", "street": "101 PRINCETON AVE", "postcode": "17064"}}},
{"geometry": {"type": "Point", "coordinates": [-76.4683482679, 40.2482632766]}, "type": "Feature", "properties": {"collection_times": [{"days": "Mon-Fri", "time": "4:30pm"}, {"days": "Sat", "time": "12:00pm"}, {"days": "Sun", "time": "Closed"}], "id": "1706400002", "name": "USPS COLLECTION BOX - PO LOBBY", "address": {"city": "MT GRETNA", "state": "PA", "street": "101 PRINCETON AVE", "postcode": "17064"}}},
{"geometry": {"type": "Point", "coordinates": [-77.1898685077, 40.1142085904]}, "type": "Feature", "properties": {"collection_times": [{"days": "Mon-Fri", "time": "4:30pm"}, {"days": "Sat", "time": "12:00pm"}, {"days": "Sun", "time": "Closed"}], "id": "1706500003", "name": "USPS COLLECTION BOX - BLUE BOX", "address": {"city": "MT HOLLY SPGS", "state": "PA", "street": "16 W PINE ST", "postcode": "17065"}}},
{"geometry": {"type": "Point", "coordinates": [-77.1898685077, 40.1142085904]}, "type": "Feature", "properties": {"collection_times": [{"days": "Mon-Fri", "time": "4:15pm"}, {"days": "Sat", "time": "12:00pm"}, {"days": "Sun", "time": "Closed"}], "id": "1706500006", "name": "USPS COLLECTION BOX - PO LOBBY", "address": {"city": "MT HOLLY SPGS", "state": "PA", "street": "16 W PINE ST", "postcode": "17065"}}},
{"geometry": {"type": "Point", "coordinates": [-77.8845098211, 40.3851887969]}, "type": "Feature", "properties": {"collection_times": [{"days": "Mon-Sat", "time": "9:00am"}, {"days": "Sun", "time": "Closed"}], "id": "1706600009", "name": "USPS COLLECTION BOX - BLUE BOX", "address": {"city": "MOUNT UNION", "state": "PA", "street": "101 W SHIRLEY ST", "postcode": "17066"}}},
{"geometry": {"type": "Point", "coordinates": [-77.8843006823, 40.3838110709]}, "type": "Feature", "properties": {"collection_times": [{"days": "Mon-Fri", "time": "4:00pm"}, {"days": "Sat", "time": "12:00pm"}, {"days": "Sun", "time": "Closed"}], "id": "1706600013", "name": "USPS COLLECTION BOX - BLUE BOX", "address": {"city": "MOUNT UNION", "state": "PA", "street": "35 W MARKET ST", "postcode": "17066"}}},
{"geometry": {"type": "Point", "coordinates": [-77.8843006823, 40.3838110709]}, "type": "Feature", "properties": {"collection_times": [{"days": "Mon-Fri", "time": "4:00pm"}, {"days": "Sat", "time": "12:00pm"}, {"days": "Sun", "time": "Closed"}], "id": "1706600014", "name": "USPS COLLECTION BOX - BLUE BOX", "address": {"city": "MOUNT UNION", "state": "PA", "street": "35 W MARKET ST", "postcode": "17066"}}},
{"geometry": {"type": "Point", "coordinates": [-77.8843006823, 40.3838110709]}, "type": "Feature", "properties": {"collection_times": [{"days": "Mon-Fri", "time": "4:30pm"}, {"days": "Sat", "time": "12:00pm"}, {"days": "Sun", "time": "Closed"}], "id": "1706600020", "name": "USPS COLLECTION BOX - PO LOBBY", "address": {"city": "MOUNT UNION", "state": "PA", "street": "35 W MARKET ST", "postcode": "17066"}}},
{"geometry": {"type": "Point", "coordinates": [-76.3072589945, 40.3752191448]}, "type": "Feature", "properties": {"collection_times": [{"days": "Mon-Sat", "time": "9:30am"}, {"days": "Sun", "time": "Closed"}], "id": "1706700003", "name": "USPS COLLECTION BOX - BLUE BOX", "address": {"city": "MYERSTOWN", "state": "PA", "street": "101 W MAIN AVE", "postcode": "17067"}}},
{"geometry": {"type": "Point", "coordinates": [-76.3103170114, 40.37168612]}, "type": "Feature", "properties": {"collection_times": [{"days": "Mon-Sat", "time": "9:30am"}, {"days": "Sun", "time": "Closed"}], "id": "1706700006", "name": "USPS COLLECTION BOX - BLUE BOX", "address": {"city": "MYERSTOWN", "state": "PA", "street": "2 S LOCUST ST", "postcode": "17067"}}},
{"geometry": {"type": "Point", "coordinates": [-76.3034012809, 40.3752449035]}, "type": "Feature", "properties": {"collection_times": [{"days": "Mon-Fri", "time": "9:45am"}, {"days": "Sat", "time": "9:15am"}, {"days": "Sun", "time": "Closed"}], "id": "1706700010", "name": "USPS COLLECTION BOX - BLUE BOX", "address": {"city": "MYERSTOWN", "state": "PA", "street": "15 S RAILROAD ST", "postcode": "17067"}}},
{"geometry": {"type": "Point", "coordinates": [-76.3072574589, 40.3778315824]}, "type": "Feature", "properties": {"collection_times": [{"days": "Mon-Fri", "time": "4:45pm"}, {"days": "Sat", "time": "3:00pm"}, {"days": "Sun", "time": "Closed"}], "id": "1706700011", "name": "USPS COLLECTION BOX - BLUE BOX", "address": {"city": "MYERSTOWN", "state": "PA", "street": "120 W JEFFERSON AVE", "postcode": "17067"}}},
{"geometry": {"type": "Point", "coordinates": [-76.3072574589, 40.3778315824]}, "type": "Feature", "properties": {"collection_times": [{"days": "Mon-Fri", "time": "4:45pm"}, {"days": "Sat", "time": "3:00pm"}, {"days": "Sun", "time": "Closed"}], "id": "1706700012", "name": "USPS COLLECTION BOX - BLUE BOX", "address": {"city": "MYERSTOWN", "state": "PA", "street": "120 W JEFFERSON AVE", "postcode": "17067"}}},
{"geometry": {"type": "Point", "coordinates": [-76.3072574589, 40.3778315824]}, "type": "Feature", "properties": {"collection_times": [{"days": "Mon-Fri", "time": "4:45pm"}, {"days": "Sat", "time": "3:00pm"}, {"days": "Sun", "time": "Closed"}], "id": "1706700014", "name": "USPS COLLECTION BOX - PO LOBBY", "address": {"city": "MYERSTOWN", "state": "PA", "street": "120 W JEFFERSON AVE", "postcode": "17067"}}},
{"geometry": {"type": "Point", "coordinates": [-77.1724694438, 40.4084114431]}, "type": "Feature", "properties": {"collection_times": [{"days": "Mon-Fri", "time": "4:30pm"}, {"days": "Sat", "time": "12:00pm"}, {"days": "Sun", "time": "Closed"}], "id": "1706800001", "name": "USPS COLLECTION BOX - BLUE BOX", "address": {"city": "NEW BLOOMFIELD", "state": "PA", "street": "21 E MCCLURE ST", "postcode": "17068"}}},
{"geometry": {"type": "Point", "coordinates": [-77.1724694438, 40.4084114431]}, "type": "Feature", "properties": {"collection_times": [{"days": "Mon-Fri", "time": "4:30pm"}, {"days": "Sat", "time": "12:00pm"}, {"days": "Sun", "time": "Closed"}], "id": "1706800006", "name": "USPS COLLECTION BOX - PO LOBBY", "address": {"city": "NEW BLOOMFIELD", "state": "PA", "street": "21 E MCCLURE ST", "postcode": "17068"}}},
{"geometry": {"type": "Point", "coordinates": [-76.9702643485, 40.4542709121]}, "type": "Feature", "properties": {"collection_times": [{"days": "Mon-Fri", "time": "4:00pm"}, {"days": "Sat", "time": "11:45am"}, {"days": "Sun", "time": "Closed"}], "id": "1706900000", "name": "USPS COLLECTION BOX - BLUE BOX", "address": {"city": "NEW BUFFALO", "state": "PA", "street": "13 BUFFALO CREEK RD", "postcode": "17069"}}},
{"geometry": {"type": "Point", "coordinates": [-76.9702643485, 40.4542709121]}, "type": "Feature", "properties": {"collection_times": [{"days": "Mon-Fri", "time": "4:00pm"}, {"days": "Sat", "time": "11:45am"}, {"days": "Sun", "time": "Closed"}], "id": "1706900001", "name": "USPS COLLECTION BOX - PO LOBBY", "address": {"city": "NEW BUFFALO", "state": "PA", "street": "13 BUFFALO CREEK RD", "postcode": "17069"}}},
{"geometry": {"type": "Point", "coordinates": [-76.8654117698, 40.2271799625]}, "type": "Feature", "properties": {"collection_times": [{"days": "Mon-Sat", "time": "12:00pm"}, {"days": "Sun", "time": "Closed"}], "id": "1707000002", "name": "USPS COLLECTION BOX - BLUE BOX", "address": {"city": "NEW CUMBERLAND", "state": "PA", "street": "331 BRIDGE ST", "postcode": "17070"}}},
{"geometry": {"type": "Point", "coordinates": [-76.8840729475, 40.2392946453]}, "type": "Feature", "properties": {"collection_times": [{"days": "Mon-Sat", "time": "9:30am"}, {"days": "Sun", "time": "Closed"}], "id": "1707000004", "name": "USPS COLLECTION BOX - BLUE BOX", "address": {"city": "NEW CUMBERLAND", "state": "PA", "street": "1814 BRIDGE ST", "postcode": "17070"}}},
{"geometry": {"type": "Point", "coordinates": [-76.8840102506, 40.2271681329]}, "type": "Feature", "properties": {"collection_times": [{"days": "Mon-Sat", "time": "9:45am"}, {"days": "Sun", "time": "Closed"}], "id": "1707000005", "name": "USPS COLLECTION BOX - BLUE BOX", "address": {"city": "NEW CUMBERLAND", "state": "PA", "street": "623 BROOKHAVEN RD", "postcode": "17070"}}},
{"geometry": {"type": "Point", "coordinates": [-76.8648561548, 40.214903217]}, "type": "Feature", "properties": {"collection_times": [{"days": "Mon-Sat", "time": "10:00am"}, {"days": "Sun", "time": "Closed"}], "id": "1707000007", "name": "USPS COLLECTION BOX - BLUE BOX", "address": {"city": "NEW CUMBERLAND", "state": "PA", "street": "89 FAIRVIEW RD", "postcode": "17070"}}},
{"geometry": {"type": "Point", "coordinates": [-76.8353507736, 40.211330645]}, "type": "Feature", "properties": {"collection_times": [{"days": "Mon-Sat", "time": "11:00am"}, {"days": "Sun", "time": "Closed"}], "id": "1707000008", "name": "USPS COLLECTION BOX - BLUE BOX", "address": {"city": "NEW CUMBERLAND", "state": "PA", "street": "400 J AVE", "postcode": "17070"}}},
{"geometry": {"type": "Point", "coordinates": [-76.8701601067, 40.2215598465]}, "type": "Feature", "properties": {"collection_times": [{"days": "Mon-Sat", "time": "10:30am"}, {"days": "Sun", "time": "Closed"}], "id": "1707000013", "name": "USPS COLLECTION BOX - BLUE BOX", "address": {"city": "NEW CUMBERLAND", "state": "PA", "street": "320 POPLAR AVE", "postcode": "17070"}}},
{"geometry": {"type": "Point", "coordinates": [-76.8684744505, 40.2272982584]}, "type": "Feature", "properties": {"collection_times": [{"days": "Mon-Sat", "time": "2:00pm"}, {"days": "Sun", "time": "Closed"}], "id": "1707000014", "name": "USPS COLLECTION BOX - BLUE BOX", "address": {"city": "NEW CUMBERLAND", "state": "PA", "street": "336 5TH ST", "postcode": "17070"}}},
{"geometry": {"type": "Point", "coordinates": [-76.8754882143, 40.2331562712]}, "type": "Feature", "properties": {"collection_times": [{"days": "Mon-Sat", "time": "1:00pm"}, {"days": "Sun", "time": "Closed"}], "id": "1707000015", "name": "USPS COLLECTION BOX - BLUE BOX", "address": {"city": "NEW CUMBERLAND", "state": "PA", "street": "300 PARK AVE", "postcode": "17070"}}},
{"geometry": {"type": "Point", "coordinates": [-76.8851257809, 40.2323080896]}, "type": "Feature", "properties": {"collection_times": [{"days": "Mon-Sat", "time": "11:00am"}, {"days": "Sun", "time": "Closed"}], "id": "1707000017", "name": "USPS COLLECTION BOX - BLUE BOX", "address": {"city": "NEW CUMBERLAND", "state": "PA", "street": "701 16TH ST", "postcode": "17070"}}},
{"geometry": {"type": "Point", "coordinates": [-76.8700903725, 40.2301610191]}, "type": "Feature", "properties": {"collection_times": [{"days": "Mon-Sat", "time": "1:00pm"}, {"days": "Sun", "time": "Closed"}], "id": "1707000021", "name": "USPS COLLECTION BOX - BLUE BOX", "address": {"city": "NEW CUMBERLAND", "state": "PA", "street": "622 BRIDGE ST", "postcode": "17070"}}},
{"geometry": {"type": "Point", "coordinates": [-76.8651231278, 40.2270060676]}, "type": "Feature", "properties": {"collection_times": [{"days": "Mon-Fri", "time": "5:15pm"}, {"days": "Sat", "time": "3:15pm"}, {"days": "Sun", "time": "Closed"}], "id": "1707000022", "name": "USPS COLLECTION BOX - BLUE BOX", "address": {"city": "NEW CUMBERLAND", "state": "PA", "street": "318 BRIDGE ST", "postcode": "17070"}}},
{"geometry": {"type": "Point", "coordinates": [-76.8781827562, 40.2200858559]}, "type": "Feature", "properties": {"collection_times": [{"days": "Mon-Sat", "time": "1:00pm"}, {"days": "Sun", "time": "Closed"}], "id": "1707000026", "name": "USPS COLLECTION BOX - BLUE BOX", "address": {"city": "NEW CUMBERLAND", "state": "PA", "street": "BEACON HILL BLVD", "postcode": "17070"}}},
{"geometry": {"type": "Point", "coordinates": [-76.8688187344, 40.2190734834]}, "type": "Feature", "properties": {"collection_times": [{"days": "Mon-Fri", "time": "5:15pm"}, {"days": "Sat", "time": "3:15pm"}, {"days": "Sun", "time": "Closed"}], "id": "1707000028", "name": "USPS COLLECTION BOX - EXPRESS", "address": {"city": "NEW CUMBERLAND", "state": "PA", "street": "318 BRIDGE ST", "postcode": "17070"}}},
{"geometry": {"type": "Point", "coordinates": [-76.8651231278, 40.2270060676]}, "type": "Feature", "properties": {"collection_times": [{"days": "Mon-Fri", "time": "5:15pm"}, {"days": "Sat", "time": "3:15pm"}, {"days": "Sun", "time": "Closed"}], "id": "1707000029", "name": "USPS COLLECTION BOX - BLUE BOX", "address": {"city": "NEW CUMBERLAND", "state": "PA", "street": "318 BRIDGE ST", "postcode": "17070"}}},
{"geometry": {"type": "Point", "coordinates": [-76.8651231278, 40.2270060676]}, "type": "Feature", "properties": {"collection_times": [{"days": "Mon-Fri", "time": "5:15pm"}, {"days": "Sat", "time": "3:15pm"}, {"days": "Sun", "time": "Closed"}], "id": "1707000032", "name": "USPS COLLECTION BOX - PO LOBBY", "address": {"city": "NEW CUMBERLAND", "state": "PA", "street": "318 BRIDGE ST", "postcode": "17070"}}},
{"geometry": {"type": "Point", "coordinates": [-77.076796824, 40.234098016]}, "type": "Feature", "properties": {"collection_times": [{"days": "Mon-Fri", "time": "4:00pm"}, {"days": "Sat", "time": "12:00pm"}, {"days": "Sun", "time": "Closed"}], "id": "1707200001", "name": "USPS COLLECTION BOX - BLUE BOX", "address": {"city": "NEW KINGSTOWN", "state": "PA", "street": "31 E MAIN ST", "postcode": "17072"}}},
{"geometry": {"type": "Point", "coordinates": [-77.0799958373, 40.2334070403]}, "type": "Feature", "properties": {"collection_times": [{"days": "Mon-Fri", "time": "4:00pm"}, {"days": "Sat", "time": "12:00pm"}, {"days": "Sun", "time": "Closed"}], "id": "1707200003", "name": "USPS COLLECTION BOX - PO LOBBY", "address": {"city": "NEW KINGSTOWN", "state": "PA", "street": "31 E MAIN ST", "postcode": "17072"}}},
{"geometry": {"type": "Point", "coordinates": [-76.2135907442, 40.3510200819]}, "type": "Feature", "properties": {"collection_times": [{"days": "Mon-Fri", "time": "4:00pm"}, {"days": "Sat", "time": "11:30am"}, {"days": "Sun", "time": "Closed"}], "id": "1707300000", "name": "USPS COLLECTION BOX - BLUE BOX", "address": {"city": "NEWMANSTOWN", "state": "PA", "street": "4 E MAIN ST", "postcode": "17073"}}},
{"geometry": {"type": "Point", "coordinates": [-76.2135907442, 40.3510200819]}, "type": "Feature", "properties": {"collection_times": [{"days": "Mon-Fri", "time": "4:00pm"}, {"days": "Sat", "time": "11:30am"}, {"days": "Sun", "time": "Closed"}], "id": "1707300002", "name": "USPS COLLECTION BOX - PO LOBBY", "address": {"city": "NEWMANSTOWN", "state": "PA", "street": "4 E MAIN ST", "postcode": "17073"}}},
{"geometry": {"type": "Point", "coordinates": [-77.1323179448, 40.4787111465]}, "type": "Feature", "properties": {"collection_times": [{"days": "Mon-Fri", "time": "4:45pm"}, {"days": "Sat", "time": "12:00pm"}, {"days": "Sun", "time": "Closed"}], "id": "1707400007", "name": "USPS COLLECTION BOX - BLUE BOX", "address": {"city": "NEWPORT", "state": "PA", "street": "226 WALNUT ST", "postcode": "17074"}}},
{"geometry": {"type": "Point", "coordinates": [-77.1323179448, 40.4787111465]}, "type": "Feature", "properties": {"collection_times": [{"days": "Mon-Fri", "time": "4:45pm"}, {"days": "Sat", "time": "12:00pm"}, {"days": "Sun", "time": "Closed"}], "id": "1707400008", "name": "USPS COLLECTION BOX - PO LOBBY", "address": {"city": "NEWPORT", "state": "PA", "street": "226 WALNUT ST", "postcode": "17074"}}},
{"geometry": {"type": "Point", "coordinates": [-77.2441121349, 40.4865511476]}, "type": "Feature", "properties": {"collection_times": [{"days": "Mon-Fri", "time": "10:00am"}, {"days": "Sat-Sun", "time": "Closed"}], "id": "1707400010", "name": "USPS COLLECTION BOX - BLUE BOX", "address": {"city": "NEWPORT", "state": "PA", "street": "12 NEWPORT PL", "postcode": "17074"}}},
{"geometry": {"type": "Point", "coordinates": [-77.8373955492, 40.3918400341]}, "type": "Feature", "properties": {"collection_times": [{"days": "Mon-Fri", "time": "3:45pm"}, {"days": "Sat", "time": "11:45am"}, {"days": "Sun", "time": "Closed"}], "id": "1707500001", "name": "USPS COLLECTION BOX - BLUE BOX", "address": {"city": "NEWTON HAMILTON", "state": "PA", "street": "15 WAYNE ST", "postcode": "17075"}}},
{"geometry": {"type": "Point", "coordinates": [-77.8373955492, 40.3918400341]}, "type": "Feature", "properties": {"collection_times": [{"days": "Mon-Fri", "time": "3:45pm"}, {"days": "Sat", "time": "11:45am"}, {"days": "Sun", "time": "Closed"}], "id": "1707500002", "name": "USPS COLLECTION BOX - PO LOBBY", "address": {"city": "NEWTON HAMILTON", "state": "PA", "street": "15 WAYNE ST", "postcode": "17075"}}},
{"geometry": {"type": "Point", "coordinates": [-76.5173109826, 40.3294222707]}, "type": "Feature", "properties": {"collection_times": [{"days": "Mon-Fri", "time": "4:00pm"}, {"days": "Sat", "time": "11:00am"}, {"days": "Sun", "time": "Closed"}], "id": "1707700001", "name": "USPS COLLECTION BOX - BLUE BOX", "address": {"city": "ONO", "state": "PA", "street": "10 MAIN ST", "postcode": "17077"}}},
{"geometry": {"type": "Point", "coordinates": [-76.5173109826, 40.3294222707]}, "type": "Feature", "properties": {"collection_times": [{"days": "Mon-Fri", "time": "4:00pm"}, {"days": "Sat", "time": "11:00am"}, {"days": "Sun", "time": "Closed"}], "id": "1707700003", "name": "USPS COLLECTION BOX - PO LOBBY", "address": {"city": "ONO", "state": "PA", "street": "10 MAIN ST", "postcode": "17077"}}},
{"geometry": {"type": "Point", "coordinates": [-76.5753293946, 40.302734736]}, "type": "Feature", "properties": {"collection_times": [{"days": "Mon-Sat", "time": "12:30pm"}, {"days": "Sun", "time": "Closed"}], "id": "1707800007", "name": "USPS COLLECTION BOX - BLUE BOX", "address": {"city": "PALMYRA", "state": "PA", "street": "1200 GRUBB RD", "postcode": "17078"}}},
{"geometry": {"type": "Point", "coordinates": [-76.6032538386, 40.2939073715]}, "type": "Feature", "properties": {"collection_times": [{"days": "Mon-Sat", "time": "10:00am"}, {"days": "Sun", "time": "Closed"}], "id": "1707800013", "name": "USPS COLLECTION BOX - BLUE BOX", "address": {"city": "PALMYRA", "state": "PA", "street": "201 COVENTRY CT", "postcode": "17078"}}},
{"geometry": {"type": "Point", "coordinates": [-76.5949365829, 40.3071406178]}, "type": "Feature", "properties": {"collection_times": [{"days": "Mon-Fri", "time": "5:00pm"}, {"days": "Sat", "time": "1:00pm"}, {"days": "Sun", "time": "Closed"}], "id": "1707800015", "name": "USPS COLLECTION BOX - BLUE BOX", "address": {"city": "PALMYRA", "state": "PA", "street": "60 S RAILROAD ST", "postcode": "17078"}}},
{"geometry": {"type": "Point", "coordinates": [-76.5949365829, 40.3071406178]}, "type": "Feature", "properties": {"collection_times": [{"days": "Mon-Fri", "time": "5:00pm"}, {"days": "Sat", "time": "1:00pm"}, {"days": "Sun", "time": "Closed"}], "id": "1707800024", "name": "USPS COLLECTION BOX - BLUE BOX", "address": {"city": "PALMYRA", "state": "PA", "street": "60 S RAILROAD ST", "postcode": "17078"}}},
{"geometry": {"type": "Point", "coordinates": [-76.6051709344, 40.3163716916]}, "type": "Feature", "properties": {"collection_times": [{"days": "Mon-Sat", "time": "2:00pm"}, {"days": "Sun", "time": "Closed"}], "id": "1707800026", "name": "USPS COLLECTION BOX - BLUE BOX", "address": {"city": "PALMYRA", "state": "PA", "street": "12 W CEDAR ST", "postcode": "17078"}}},
{"geometry": {"type": "Point", "coordinates": [-76.5949365829, 40.3071406178]}, "type": "Feature", "properties": {"collection_times": [{"days": "Mon-Fri", "time": "5:00pm"}, {"days": "Sat", "time": "1:00pm"}, {"days": "Sun", "time": "Closed"}], "id": "1707800031", "name": "USPS COLLECTION BOX - PO LOBBY", "address": {"city": "PALMYRA", "state": "PA", "street": "60 S RAILROAD ST", "postcode": "17078"}}},
{"geometry": {"type": "Point", "coordinates": [-76.8022570951, 40.6409856488]}, "type": "Feature", "properties": {"collection_times": [{"days": "Mon-Fri", "time": "4:15pm"}, {"days": "Sat", "time": "11:15am"}, {"days": "Sun", "time": "Closed"}], "id": "1708000001", "name": "USPS COLLECTION BOX - BLUE BOX", "address": {"city": "PILLOW", "state": "PA", "street": "182 MARKET ST", "postcode": "17080"}}},
{"geometry": {"type": "Point", "coordinates": [-76.8022570951, 40.6409856488]}, "type": "Feature", "properties": {"collection_times": [{"days": "Mon-Fri", "time": "4:15pm"}, {"days": "Sat", "time": "11:15am"}, {"days": "Sun", "time": "Closed"}], "id": "1708000003", "name": "USPS COLLECTION BOX - PO LOBBY", "address": {"city": "PILLOW", "state": "PA", "street": "182 MARKET ST", "postcode": "17080"}}},
{"geometry": {"type": "Point", "coordinates": [-77.2864018008, 40.2020503151]}, "type": "Feature", "properties": {"collection_times": [{"days": "Mon-Fri", "time": "4:30pm"}, {"days": "Sat", "time": "11:30am"}, {"days": "Sun", "time": "Closed"}], "id": "1708100001", "name": "USPS COLLECTION BOX - BLUE BOX", "address": {"city": "PLAINFIELD", "state": "PA", "street": "55 W MAIN ST", "postcode": "17081"}}},
{"geometry": {"type": "Point", "coordinates": [-77.2864018008, 40.2020503151]}, "type": "Feature", "properties": {"collection_times": [{"days": "Mon-Fri", "time": "4:30pm"}, {"days": "Sat", "time": "12:00pm"}, {"days": "Sun", "time": "Closed"}], "id": "1708100002", "name": "USPS COLLECTION BOX - PO LOBBY", "address": {"city": "PLAINFIELD", "state": "PA", "street": "55 W MAIN ST", "postcode": "17081"}}},
{"geometry": {"type": "Point", "coordinates": [-77.4299370899, 40.5050400661]}, "type": "Feature", "properties": {"collection_times": [{"days": "Mon-Fri", "time": "4:30pm"}, {"days": "Sat", "time": "11:30am"}, {"days": "Sun", "time": "Closed"}], "id": "1708200001", "name": "USPS COLLECTION BOX - BLUE BOX", "address": {"city": "PORT ROYAL", "state": "PA", "street": "220 N 3RD ST", "postcode": "17082"}}},
{"geometry": {"type": "Point", "coordinates": [-77.3859973933, 40.534303582]}, "type": "Feature", "properties": {"collection_times": [{"days": "Mon-Fri", "time": "4:30pm"}, {"days": "Sat", "time": "11:30am"}, {"days": "Sun", "time": "Closed"}], "id": "1708200002", "name": "USPS COLLECTION BOX - PO LOBBY", "address": {"city": "PORT ROYAL", "state": "PA", "street": "220 W THIRD ST", "postcode": "17082"}}},
{"geometry": {"type": "Point", "coordinates": [-76.4385980148, 40.2794038848]}, "type": "Feature", "properties": {"collection_times": [{"days": "Mon-Fri", "time": "4:00pm"}, {"days": "Sat", "time": "11:00am"}, {"days": "Sun", "time": "Closed"}], "id": "1708300000", "name": "USPS COLLECTION BOX - BLUE BOX", "address": {"city": "CORNWALL", "state": "PA", "street": "2625 QUENTIN RD", "postcode": "17083"}}},
{"geometry": {"type": "Point", "coordinates": [-77.5954720367, 40.6632717123]}, "type": "Feature", "properties": {"collection_times": [{"days": "Mon-Fri", "time": "4:30pm"}, {"days": "Sat", "time": "12:00pm"}, {"days": "Sun", "time": "Closed"}], "id": "1708400001", "name": "USPS COLLECTION BOX - BLUE BOX", "address": {"city": "REEDSVILLE", "state": "PA", "street": "50 S MAIN ST", "postcode": "17084"}}},
{"geometry": {"type": "Point", "coordinates": [-77.5954720367, 40.6632717123]}, "type": "Feature", "properties": {"collection_times": [{"days": "Mon-Fri", "time": "4:30pm"}, {"days": "Sat", "time": "12:00pm"}, {"days": "Sun", "time": "Closed"}], "id": "1708400002", "name": "USPS COLLECTION BOX - PO LOBBY", "address": {"city": "REEDSVILLE", "state": "PA", "street": "50 S MAIN ST", "postcode": "17084"}}},
{"geometry": {"type": "Point", "coordinates": [-77.5954720367, 40.6632717123]}, "type": "Feature", "properties": {"collection_times": [{"days": "Mon-Fri", "time": "4:30pm"}, {"days": "Sat", "time": "12:00pm"}, {"days": "Sun", "time": "Closed"}], "id": "1708400005", "name": "USPS COLLECTION BOX - BLUE BOX", "address": {"city": "REEDSVILLE", "state": "PA", "street": "50 S MAIN ST", "postcode": "17084"}}},
{"geometry": {"type": "Point", "coordinates": [-76.4739642526, 40.3379583471]}, "type": "Feature", "properties": {"collection_times": [{"days": "Mon-Fri", "time": "3:30pm"}, {"days": "Sat", "time": "11:30am"}, {"days": "Sun", "time": "Closed"}], "id": "1708500001", "name": "USPS COLLECTION BOX - BLUE BOX", "address": {"city": "REXMONT", "state": "PA", "street": "106 DOHNER RD", "postcode": "17085"}}},
{"geometry": {"type": "Point", "coordinates": [-76.4739642526, 40.3379583471]}, "type": "Feature", "properties": {"collection_times": [{"days": "Mon-Fri", "time": "3:30pm"}, {"days": "Sat", "time": "11:30am"}, {"days": "Sun", "time": "Closed"}], "id": "1708500002", "name": "USPS COLLECTION BOX - PO LOBBY", "address": {"city": "REXMONT", "state": "PA", "street": "106 DOHNER RD", "postcode": "17085"}}},
{"geometry": {"type": "Point", "coordinates": [-77.1136597944, 40.6806607977]}, "type": "Feature", "properties": {"collection_times": [{"days": "Mon-Fri", "time": "2:45pm"}, {"days": "Sat", "time": "11:00am"}, {"days": "Sun", "time": "Closed"}], "id": "1708600001", "name": "USPS COLLECTION BOX - BLUE BOX", "address": {"city": "RICHFIELD", "state": "PA", "street": "683 MAIN ST", "postcode": "17086"}}},
{"geometry": {"type": "Point", "coordinates": [-77.1136597944, 40.6806607977]}, "type": "Feature", "properties": {"collection_times": [{"days": "Mon-Fri", "time": "2:45pm"}, {"days": "Sat", "time": "11:00am"}, {"days": "Sun", "time": "Closed"}], "id": "1708600002", "name": "USPS COLLECTION BOX - BLUE BOX", "address": {"city": "RICHFIELD", "state": "PA", "street": "683 MAIN ST", "postcode": "17086"}}},
{"geometry": {"type": "Point", "coordinates": [-77.1136597944, 40.6806607977]}, "type": "Feature", "properties": {"collection_times": [{"days": "Mon-Fri", "time": "2:45pm"}, {"days": "Sat", "time": "11:00am"}, {"days": "Sun", "time": "Closed"}], "id": "1708600003", "name": "USPS COLLECTION BOX - PO LOBBY", "address": {"city": "RICHFIELD", "state": "PA", "street": "683 MAIN ST", "postcode": "17086"}}},
{"geometry": {"type": "Point", "coordinates": [-76.2610055096, 40.3610465275]}, "type": "Feature", "properties": {"collection_times": [{"days": "Mon-Fri", "time": "4:30pm"}, {"days": "Sat", "time": "11:45am"}, {"days": "Sun", "time": "Closed"}], "id": "1708700001", "name": "USPS COLLECTION BOX - BLUE BOX", "address": {"city": "RICHLAND", "state": "PA", "street": "2 W MAIN ST", "postcode": "17087"}}},
{"geometry": {"type": "Point", "coordinates": [-76.2610055096, 40.3610465275]}, "type": "Feature", "properties": {"collection_times": [{"days": "Mon-Fri", "time": "4:30pm"}, {"days": "Sat", "time": "11:45am"}, {"days": "Sun", "time": "Closed"}], "id": "1708700003", "name": "USPS COLLECTION BOX - PO LOBBY", "address": {"city": "RICHLAND", "state": "PA", "street": "2 W MAIN ST", "postcode": "17087"}}},
{"geometry": {"type": "Point", "coordinates": [-76.3048740292, 40.2984280941]}, "type": "Feature", "properties": {"collection_times": [{"days": "Mon-Fri", "time": "4:00pm"}, {"days": "Sat", "time": "11:30am"}, {"days": "Sun", "time": "Closed"}], "id": "1708800002", "name": "USPS COLLECTION BOX - BLUE BOX", "address": {"city": "SCHAEFFERSTOWN", "state": "PA", "street": "608 W MAIN ST", "postcode": "17088"}}},
{"geometry": {"type": "Point", "coordinates": [-76.3048740292, 40.2984280941]}, "type": "Feature", "properties": {"collection_times": [{"days": "Mon-Fri", "time": "4:15pm"}, {"days": "Sat", "time": "11:30am"}, {"days": "Sun", "time": "Closed"}], "id": "1708800003", "name": "USPS COLLECTION BOX - PO LOBBY", "address": {"city": "SCHAEFFERSTOWN", "state": "PA", "street": "608 W MAIN ST", "postcode": "17088"}}},
{"geometry": {"type": "Point", "coordinates": [-77.1652646951, 40.319699132]}, "type": "Feature", "properties": {"collection_times": [{"days": "Mon-Sat", "time": "12:00pm"}, {"days": "Sun", "time": "Closed"}], "id": "1709000001", "name": "USPS COLLECTION BOX - BLUE BOX", "address": {"city": "SHERMANS DALE", "state": "PA", "street": "5201 SPRING RD", "postcode": "17090"}}},
{"geometry": {"type": "Point", "coordinates": [-77.1652646951, 40.319699132]}, "type": "Feature", "properties": {"collection_times": [{"days": "Mon-Fri", "time": "4:15pm"}, {"days": "Sat", "time": "12:00pm"}, {"days": "Sun", "time": "Closed"}], "id": "1709000002", "name": "USPS COLLECTION BOX - BLUE BOX", "address": {"city": "SHERMANS DALE", "state": "PA", "street": "5201 SPRING RD STE 4", "postcode": "17090"}}},
{"geometry": {"type": "Point", "coordinates": [-77.1652646951, 40.319699132]}, "type": "Feature", "properties": {"collection_times": [{"days": "Mon-Fri", "time": "4:15pm"}, {"days": "Sat", "time": "11:30am"}, {"days": "Sun", "time": "Closed"}], "id": "1709000003", "name": "USPS COLLECTION BOX - PO LOBBY", "address": {"city": "SHERMANS DALE", "state": "PA", "street": "5201 SPRING RD STE 4", "postcode": "17090"}}},
{"geometry": {"type": "Point", "coordinates": [-76.9300618157, 40.310665067]}, "type": "Feature", "properties": {"collection_times": [{"days": "Mon-Fri", "time": "4:00pm"}, {"days": "Sat", "time": "11:45am"}, {"days": "Sun", "time": "Closed"}], "id": "1709300001", "name": "USPS COLLECTION BOX - BLUE BOX", "address": {"city": "SUMMERDALE", "state": "PA", "street": "202 3RD ST", "postcode": "17093"}}},
{"geometry": {"type": "Point", "coordinates": [-76.9300618157, 40.310665067]}, "type": "Feature", "properties": {"collection_times": [{"days": "Mon-Fri", "time": "4:30pm"}, {"days": "Sat", "time": "12:00pm"}, {"days": "Sun", "time": "Closed"}], "id": "1709300002", "name": "USPS COLLECTION BOX - PO LOBBY", "address": {"city": "SUMMERDALE", "state": "PA", "street": "202 3RD ST", "postcode": "17093"}}},
{"geometry": {"type": "Point", "coordinates": [-77.2370302347, 40.5652927463]}, "type": "Feature", "properties": {"collection_times": [{"days": "Mon-Fri", "time": "4:00pm"}, {"days": "Sat", "time": "11:15am"}, {"days": "Sun", "time": "Closed"}], "id": "1709400001", "name": "USPS COLLECTION BOX - BLUE BOX", "address": {"city": "THOMPSONTOWN", "state": "PA", "street": "40 N MILL ST", "postcode": "17094"}}},
{"geometry": {"type": "Point", "coordinates": [-77.2370302347, 40.5652927463]}, "type": "Feature", "properties": {"collection_times": [{"days": "Mon-Fri", "time": "4:00pm"}, {"days": "Sat", "time": "11:15am"}, {"days": "Sun", "time": "Closed"}], "id": "1709400003", "name": "USPS COLLECTION BOX - PO LOBBY", "address": {"city": "THOMPSONTOWN", "state": "PA", "street": "40 N MILL ST", "postcode": "17094"}}},
{"geometry": {"type": "Point", "coordinates": [-76.6886185525, 40.5736721923]}, "type": "Feature", "properties": {"collection_times": [{"days": "Mon-Fri", "time": "4:30pm"}, {"days": "Sat", "time": "11:30am"}, {"days": "Sun", "time": "Closed"}], "id": "1709700001", "name": "USPS COLLECTION BOX - BLUE BOX", "address": {"city": "WICONISCO", "state": "PA", "street": "500 POTTSVILLE ST", "postcode": "17097"}}},
{"geometry": {"type": "Point", "coordinates": [-76.6886185525, 40.5736721923]}, "type": "Feature", "properties": {"collection_times": [{"days": "Mon-Fri", "time": "4:30pm"}, {"days": "Sat", "time": "11:30am"}, {"days": "Sun", "time": "Closed"}], "id": "1709700002", "name": "USPS COLLECTION BOX - PO LOBBY", "address": {"city": "WICONISCO", "state": "PA", "street": "500 POTTSVILLE ST", "postcode": "17097"}}},
{"geometry": {"type": "Point", "coordinates": [-76.6191367392, 40.5805461464]}, "type": "Feature", "properties": {"collection_times": [{"days": "Mon-Fri", "time": "3:30pm"}, {"days": "Sat", "time": "11:45am"}, {"days": "Sun", "time": "Closed"}], "id": "1709800002", "name": "USPS COLLECTION BOX - BLUE BOX", "address": {"city": "WILLIAMSTOWN", "state": "PA", "street": "120 WEST ST", "postcode": "17098"}}},
{"geometry": {"type": "Point", "coordinates": [-76.6191367392, 40.5805461464]}, "type": "Feature", "properties": {"collection_times": [{"days": "Mon-Fri", "time": "3:30pm"}, {"days": "Sat", "time": "11:45am"}, {"days": "Sun", "time": "Closed"}], "id": "1709800010", "name": "USPS COLLECTION BOX - PO LOBBY", "address": {"city": "WILLIAMSTOWN", "state": "PA", "street": "120 WEST ST", "postcode": "17098"}}},
{"geometry": {"type": "Point", "coordinates": [-77.5767922662, 40.6391187629]}, "type": "Feature", "properties": {"collection_times": [{"days": "Mon-Fri", "time": "4:15pm"}, {"days": "Sat", "time": "11:45am"}, {"days": "Sun", "time": "Closed"}], "id": "1709900001", "name": "USPS COLLECTION BOX - BLUE BOX", "address": {"city": "YEAGERTOWN", "state": "PA", "street": "101 S MAIN ST", "postcode": "17099"}}},
{"geometry": {"type": "Point", "coordinates": [-77.5767922662, 40.6391187629]}, "type": "Feature", "properties": {"collection_times": [{"days": "Mon-Fri", "time": "4:15pm"}, {"days": "Sat", "time": "11:45am"}, {"days": "Sun", "time": "Closed"}], "id": "1709900002", "name": "USPS COLLECTION BOX - PO LOBBY", "address": {"city": "YEAGERTOWN", "state": "PA", "street": "101 S MAIN ST", "postcode": "17099"}}}
]}
