{"type": "FeatureCollection", "features": [
{"geometry": {"type": "Point", "coordinates": [-76.882709717, 40.2619543427]}, "type": "Feature", "properties": {"collection_times": [{"days": "Mon-Fri", "time": "5:30pm"}, {"days": "Sat", "time": "2:45pm"}, {"days": "Sun", "time": "Closed"}], "id": "1710100001", "name": "USPS COLLECTION BOX - BLUE BOX", "address": {"city": "HARRISBURG", "state": "PA", "street": "815 MARKET ST", "postcode": "17101"}}},
{"geometry": {"type": "Point", "coordinates": [-76.8810717806, 40.2579747503]}, "type": "Feature", "properties": {"collection_times": [{"days": "Mon-Fri", "time": "9:00am"}, {"days": "Sat", "time": "8:00am"}, {"days": "Sun", "time": "Closed"}], "id": "1710100002", "name": "USPS COLLECTION BOX - BLUE BOX", "address": {"city": "HARRISBURG", "state": "PA", "street": "100 CHESTNUT ST", "postcode": "17101"}}},
{"geometry": {"type": "Point", "coordinates": [-76.884911942, 40.260146499]}, "type": "Feature", "properties": {"collection_times": [{"days": "Mon-Fri", "time": "11:00am"}, {"days": "Sat", "time": "9:00am"}, {"days": "Sun", "time": "Closed"}], "id": "1710100004", "name": "USPS COLLECTION BOX - BLUE BOX", "address": {"city": "HARRISBURG", "state": "PA", "street": "103 LOCUST ST", "postcode": "17101"}}},
{"geometry": {"type": "Point", "coordinates": [-76.8784444287, 40.2607759971]}, "type": "Feature", "properties": {"collection_times": [{"days": "Mon-Sat", "time": "9:00am"}, {"days": "Sun", "time": "Closed"}], "id": "1710100006", "name": "USPS COLLECTION BOX - BLUE BOX", "address": {"city": "HARRISBURG", "state": "PA", "street": "351 CHESTNUT ST", "postcode": "17101"}}},
{"geometry": {"type": "Point", "coordinates": [-76.8783947444, 40.2595610983]}, "type": "Feature", "properties": {"collection_times": [{"days": "Mon-Fri", "time": "9:00am"}, {"days": "Sat", "time": "8:00am"}, {"days": "Sun", "time": "Closed"}], "id": "1710100007", "name": "USPS COLLECTION BOX - BLUE BOX", "address": {"city": "HARRISBURG", "state": "PA", "street": "130 S 3RD ST", "postcode": "17101"}}},
{"geometry": {"type": "Point", "coordinates": [-76.8823198023, 40.2598663017]}, "type": "Feature", "properties": {"collection_times": [{"days": "Mon-Fri", "time": "4:30pm"}, {"days": "Sat", "time": "9:00am"}, {"days": "Sun", "time": "Closed"}], "id": "1710100008", "name": "USPS COLLECTION BOX - BLUE BOX", "address": {"city": "HARRISBURG", "state": "PA", "street": "10 N 2ND ST", "postcode": "17101"}}},
{"geometry": {"type": "Point", "coordinates": [-76.8808138955, 40.2573607946]}, "type": "Feature", "properties": {"collection_times": [{"days": "Mon-Fri", "time": "9:00am"}, {"days": "Sat", "time": "8:00am"}, {"days": "Sun", "time": "Closed"}], "id": "1710100010", "name": "USPS COLLECTION BOX - BLUE BOX", "address": {"city": "HARRISBURG", "state": "PA", "street": "111 S FRONT ST", "postcode": "17101"}}},
{"geometry": {"type": "Point", "coordinates": [-76.8840019699, 40.2609924786]}, "type": "Feature", "properties": {"collection_times": [{"days": "Mon-Fri", "time": "4:15pm"}, {"days": "Sat", "time": "9:00am"}, {"days": "Sun", "time": "Closed"}], "id": "1710100011", "name": "USPS COLLECTION BOX - BLUE BOX", "address": {"city": "HARRISBURG", "state": "PA", "street": "200 N 2ND ST", "postcode": "17101"}}},
{"geometry": {"type": "Point", "coordinates": [-76.8833241344, 40.2605275758]}, "type": "Feature", "properties": {"collection_times": [{"days": "Mon-Fri", "time": "9:00am"}, {"days": "Sat", "time": "8:00am"}, {"days": "Sun", "time": "Closed"}], "id": "1710100012", "name": "USPS COLLECTION BOX - BLUE BOX", "address": {"city": "HARRISBURG", "state": "PA", "street": "100 N 2ND ST", "postcode": "17101"}}},
{"geometry": {"type": "Point", "coordinates": [-76.8860295616, 40.2624285908]}, "type": "Feature", "properties": {"collection_times": [{"days": "Mon-Fri", "time": "11:00am"}, {"days": "Sat", "time": "9:00am"}, {"days": "Sun", "time": "Closed"}], "id": "1710100014", "name": "USPS COLLECTION BOX - BLUE BOX", "address": {"city": "HARRISBURG", "state": "PA", "street": "322 N 2ND ST", "postcode": "17101"}}},
{"geometry": {"type": "Point", "coordinates": [-76.8769266924, 40.2638410438]}, "type": "Feature", "properties": {"collection_times": [{"days": "Mon-Fri", "time": "11:00am"}, {"days": "Sat", "time": "8:00am"}, {"days": "Sun", "time": "Closed"}], "id": "1710100015", "name": "USPS COLLECTION BOX - BLUE BOX", "address": {"city": "HARRISBURG", "state": "PA", "street": "812 MARKET ST", "postcode": "17101"}}},
{"geometry": {"type": "Point", "coordinates": [-76.886844846, 40.2630139616]}, "type": "Feature", "properties": {"collection_times": [{"days": "Mon-Fri", "time": "3:30pm"}, {"days": "Sat", "time": "9:00am"}, {"days": "Sun", "time": "Closed"}], "id": "1710100018", "name": "USPS COLLECTION BOX - BLUE BOX", "address": {"city": "HARRISBURG", "state": "PA", "street": "201 STATE ST", "postcode": "17101"}}},
{"geometry": {"type": "Point", "coordinates": [-76.8481512155, 40.2386937021]}, "type": "Feature", "properties": {"collection_times": [{"days": "Mon-Fri", "time": "4:15pm"}, {"days": "Sat", "time": "9:00am"}, {"days": "Sun", "time": "Closed"}], "id": "1710100019", "name": "USPS COLLECTION BOX - BLUE BOX", "address": {"city": "HARRISBURG", "state": "PA", "street": "601 N 2ND ST", "postcode": "17101"}}},
{"geometry": {"type": "Point", "coordinates": [-76.8858485689, 40.2652629605]}, "type": "Feature", "properties": {"collection_times": [{"days": "Mon-Fri", "time": "11:00am"}, {"days": "Sat", "time": "9:00am"}, {"days": "Sun", "time": "Closed"}], "id": "1710100021", "name": "USPS COLLECTION BOX - BLUE BOX", "address": {"city": "HARRISBURG", "state": "PA", "street": "700 N 3RD ST", "postcode": "17101"}}},
{"geometry": {"type": "Point", "coordinates": [-76.8850500716, 40.2640859163]}, "type": "Feature", "properties": {"collection_times": [{"days": "Mon-Fri", "time": "4:00pm"}, {"days": "Sat", "time": "9:00am"}, {"days": "Sun", "time": "Closed"}], "id": "1710100022", "name": "USPS COLLECTION BOX - BLUE BOX", "address": {"city": "HARRISBURG", "state": "PA", "street": "500 N 3RD ST", "postcode": "17101"}}},
{"geometry": {"type": "Point", "coordinates": [-76.8848846921, 40.2637192865]}, "type": "Feature", "properties": {"collection_times": [{"days": "Mon-Fri", "time": "4:00pm"}, {"days": "Sat", "time": "9:00am"}, {"days": "Sun", "time": "Closed"}], "id": "1710100023", "name": "USPS COLLECTION BOX - BLUE BOX", "address": {"city": "HARRISBURG", "state": "PA", "street": "450 N 3RD ST", "postcode": "17101"}}},
{"geometry": {"type": "Point", "coordinates": [-76.8835553259, 40.2625107389]}, "type": "Feature", "properties": {"collection_times": [{"days": "Mon-Fri", "time": "3:30pm"}, {"days": "Sat", "time": "9:00am"}, {"days": "Sun", "time": "Closed"}], "id": "1710100024", "name": "USPS COLLECTION BOX - BLUE BOX", "address": {"city": "HARRISBURG", "state": "PA", "street": "240 N 3RD ST", "postcode": "17101"}}},
{"geometry": {"type": "Point", "coordinates": [-76.8832117533, 40.2623339541]}, "type": "Feature", "properties": {"collection_times": [{"days": "Mon-Fri", "time": "3:30pm"}, {"days": "Sat", "time": "9:00am"}, {"days": "Sun", "time": "Closed"}], "id": "1710100025", "name": "USPS COLLECTION BOX - BLUE BOX", "address": {"city": "HARRISBURG", "state": "PA", "street": "212 N 3RD ST", "postcode": "17101"}}},
{"geometry": {"type": "Point", "coordinates": [-76.8834861998, 40.2613106946]}, "type": "Feature", "properties": {"collection_times": [{"days": "Mon-Fri", "time": "11:00am"}, {"days": "Sat", "time": "9:00am"}, {"days": "Sun", "time": "Closed"}], "id": "1710100027", "name": "USPS COLLECTION BOX - BLUE BOX", "address": {"city": "HARRISBURG", "state": "PA", "street": "212 LOCUST ST", "postcode": "17101"}}},
{"geometry": {"type": "Point", "coordinates": [-76.8380392823, 40.2347792909]}, "type": "Feature", "properties": {"collection_times": [{"days": "Mon-Fri", "time": "2:30pm"}, {"days": "Sat", "time": "8:00am"}, {"days": "Sun", "time": "Closed"}], "id": "1710100029", "name": "USPS COLLECTION BOX - BLUE BOX", "address": {"city": "HARRISBURG", "state": "PA", "street": "102 WALNUT ST", "postcode": "17101"}}},
{"geometry": {"type": "Point", "coordinates": [-76.8794002595, 40.2622405003]}, "type": "Feature", "properties": {"collection_times": [{"days": "Mon-Fri", "time": "11:00am"}, {"days": "Sat", "time": "9:00am"}, {"days": "Sun", "time": "Closed"}], "id": "1710100030", "name": "USPS COLLECTION BOX - BLUE BOX", "address": {"city": "HARRISBURG", "state": "PA", "street": "400 MARKET ST", "postcode": "17101"}}},
{"geometry": {"type": "Point", "coordinates": [-76.880013095, 40.261573308]}, "type": "Feature", "properties": {"collection_times": [{"days": "Mon-Fri", "time": "5:00pm"}, {"days": "Sat", "time": "9:00am"}, {"days": "Sun", "time": "Closed"}], "id": "1710100032", "name": "USPS COLLECTION BOX - BLUE BOX", "address": {"city": "HARRISBURG", "state": "PA", "street": "333 MARKET ST", "postcode": "17101"}}},
{"geometry": {"type": "Point", "coordinates": [-76.8811493225, 40.2628051762]}, "type": "Feature", "properties": {"collection_times": [{"days": "Mon-Fri", "time": "11:00am"}, {"days": "Sat", "time": "9:00am"}, {"days": "Sun", "time": "Closed"}], "id": "1710100033", "name": "USPS COLLECTION BOX - BLUE BOX", "address": {"city": "HARRISBURG", "state": "PA", "street": "401 WALNUT ST", "postcode": "17101"}}},
{"geometry": {"type": "Point", "coordinates": [-76.888459527, 40.2623719458]}, "type": "Feature", "properties": {"collection_times": [{"days": "Mon-Fri", "time": "3:00pm"}, {"days": "Sat", "time": "9:00am"}, {"days": "Sun", "time": "Closed"}], "id": "1710100034", "name": "USPS COLLECTION BOX - BLUE BOX", "address": {"city": "HARRISBURG", "state": "PA", "street": "101 STATE ST", "postcode": "17101"}}},
{"geometry": {"type": "Point", "coordinates": [-76.884655235, 40.2615268178]}, "type": "Feature", "properties": {"collection_times": [{"days": "Mon-Fri", "time": "3:30pm"}, {"days": "Sat", "time": "9:00am"}, {"days": "Sun", "time": "Closed"}], "id": "1710100038", "name": "USPS COLLECTION BOX - BLUE BOX", "address": {"city": "HARRISBURG", "state": "PA", "street": "235 N 2ND ST", "postcode": "17101"}}},
{"geometry": {"type": "Point", "coordinates": [-76.8789329908, 40.2602519463]}, "type": "Feature", "properties": {"collection_times": [{"days": "Mon-Fri", "time": "9:00am"}, {"days": "Sat", "time": "8:00am"}, {"days": "Sun", "time": "Closed"}], "id": "1710100042", "name": "USPS COLLECTION BOX - BLUE BOX", "address": {"city": "HARRISBURG", "state": "PA", "street": "301 CHESTNUT ST", "postcode": "17101"}}},
{"geometry": {"type": "Point", "coordinates": [-76.8823198023, 40.2598663017]}, "type": "Feature", "properties": {"collection_times": [{"days": "Mon-Fri", "time": "4:30pm"}, {"days": "Sat", "time": "9:00am"}, {"days": "Sun", "time": "Closed"}], "id": "1710100043", "name": "USPS COLLECTION BOX - BLUE BOX", "address": {"city": "HARRISBURG", "state": "PA", "street": "10 N 2ND ST", "postcode": "17101"}}},
{"geometry": {"type": "Point", "coordinates": [-76.8789176123, 40.2627834785]}, "type": "Feature", "properties": {"collection_times": [{"days": "Mon-Fri", "time": "11:00am"}, {"days": "Sat", "time": "9:00am"}, {"days": "Sun", "time": "Closed"}], "id": "1710100044", "name": "USPS COLLECTION BOX - BLUE BOX", "address": {"city": "HARRISBURG", "state": "PA", "street": "415 MARKET ST", "postcode": "17101"}}},
{"geometry": {"type": "Point", "coordinates": [-76.882709717, 40.2619543427]}, "type": "Feature", "properties": {"collection_times": [{"days": "Mon-Fri", "time": "4:00pm"}, {"days": "Sat", "time": "9:00am"}, {"days": "Sun", "time": "Closed"}], "id": "1710100046", "name": "USPS COLLECTION BOX - EXPRESS", "address": {"city": "HARRISBURG", "state": "PA", "street": "500 N 3RD ST", "postcode": "17101"}}},
{"geometry": {"type": "Point", "coordinates": [-76.882709717, 40.2619543427]}, "type": "Feature", "properties": {"collection_times": [{"days": "Mon-Fri", "time": "11:00am"}, {"days": "Sat", "time": "9:00am"}, {"days": "Sun", "time": "Closed"}], "id": "1710100047", "name": "USPS COLLECTION BOX - EXPRESS", "address": {"city": "HARRISBURG", "state": "PA", "street": "700 N 3RD ST", "postcode": "17101"}}},
{"geometry": {"type": "Point", "coordinates": [-76.8824333663, 40.2613710255]}, "type": "Feature", "properties": {"collection_times": [{"days": "Mon-Fri", "time": "4:30pm"}, {"days": "Sat", "time": "8:00am"}, {"days": "Sun", "time": "Closed"}], "id": "1710100048", "name": "USPS COLLECTION BOX - BLUE BOX", "address": {"city": "HARRISBURG", "state": "PA", "street": "228 WALNUT ST", "postcode": "17101"}}},
{"geometry": {"type": "Point", "coordinates": [-76.8389880154, 40.2356109111]}, "type": "Feature", "properties": {"collection_times": [{"days": "Mon-Fri", "time": "5:00pm"}, {"days": "Sat", "time": "9:00am"}, {"days": "Sun", "time": "Closed"}], "id": "1710100052", "name": "USPS COLLECTION BOX - BLUE BOX", "address": {"city": "HARRISBURG", "state": "PA", "street": "1 S 3RD ST", "postcode": "17101"}}},
{"geometry": {"type": "Point", "coordinates": [-76.888459527, 40.2623719458]}, "type": "Feature", "properties": {"collection_times": [{"days": "Mon-Fri", "time": "3:00pm"}, {"days": "Sat", "time": "9:00am"}, {"days": "Sun", "time": "Closed"}], "id": "1710100055", "name": "USPS COLLECTION BOX - BLUE BOX", "address": {"city": "HARRISBURG", "state": "PA", "street": "101 STATE ST", "postcode": "17101"}}},
{"geometry": {"type": "Point", "coordinates": [-76.882709717, 40.2619543427]}, "type": "Feature", "properties": {"collection_times": [{"days": "Mon-Fri", "time": "3:00pm"}, {"days": "Sat", "time": "9:00am"}, {"days": "Sun", "time": "Closed"}], "id": "1710100056", "name": "USPS COLLECTION BOX - EXPRESS", "address": {"city": "HARRISBURG", "state": "PA", "street": "101 STATE ST", "postcode": "17101"}}},
{"geometry": {"type": "Point", "coordinates": [-76.8894131506, 40.2634772007]}, "type": "Feature", "properties": {"collection_times": [{"days": "Mon-Fri", "time": "11:00am"}, {"days": "Sat", "time": "9:00am"}, {"days": "Sun", "time": "Closed"}], "id": "1710100057", "name": "USPS COLLECTION BOX - BLUE BOX", "address": {"city": "HARRISBURG", "state": "PA", "street": "100 NORTH ST", "postcode": "17101"}}},
{"geometry": {"type": "Point", "coordinates": [-76.8861206494, 40.2610528095]}, "type": "Feature", "properties": {"collection_times": [{"days": "Mon-Fri", "time": "4:15pm"}, {"days": "Sat", "time": "9:00am"}, {"days": "Sun", "time": "Closed"}], "id": "1710100058", "name": "USPS COLLECTION BOX - BLUE BOX", "address": {"city": "HARRISBURG", "state": "PA", "street": "100 PINE ST", "postcode": "17101"}}},
{"geometry": {"type": "Point", "coordinates": [-76.8861206494, 40.2610528095]}, "type": "Feature", "properties": {"collection_times": [{"days": "Mon-Fri", "time": "4:15pm"}, {"days": "Sat", "time": "9:00am"}, {"days": "Sun", "time": "Closed"}], "id": "1710100065", "name": "USPS COLLECTION BOX - BLUE BOX", "address": {"city": "HARRISBURG", "state": "PA", "street": "100 PINE ST", "postcode": "17101"}}},
{"geometry": {"type": "Point", "coordinates": [-76.882709717, 40.2619543427]}, "type": "Feature", "properties": {"collection_times": [{"days": "Mon-Fri", "time": "3:30pm"}, {"days": "Sat", "time": "9:00am"}, {"days": "Sun", "time": "Closed"}], "id": "1710100066", "name": "USPS COLLECTION BOX - EXPRESS", "address": {"city": "HARRISBURG", "state": "PA", "street": "235 N 2ND ST", "postcode": "17101"}}},
{"geometry": {"type": "Point", "coordinates": [-76.882709717, 40.2619543427]}, "type": "Feature", "properties": {"collection_times": [{"days": "Mon-Fri", "time": "5:00pm"}, {"days": "Sat", "time": "9:00am"}, {"days": "Sun", "time": "Closed"}], "id": "1710100068", "name": "USPS COLLECTION BOX - EXPRESS", "address": {"city": "HARRISBURG", "state": "PA", "street": "1 S 3RD ST", "postcode": "17101"}}},
{"geometry": {"type": "Point", "coordinates": [-76.882709717, 40.2619543427]}, "type": "Feature", "properties": {"collection_times": [{"days": "Mon-Fri", "time": "4:45pm"}, {"days": "Sat-Sun", "time": "Closed"}], "id": "1710100069", "name": "USPS COLLECTION BOX - EXPRESS", "address": {"city": "HARRISBURG", "state": "PA", "street": "10 S MARKET SQ", "postcode": "17101"}}},
{"geometry": {"type": "Point", "coordinates": [-76.8801265964, 40.2604838063]}, "type": "Feature", "properties": {"collection_times": [{"days": "Mon-Fri", "time": "2:30pm"}, {"days": "Sat", "time": "8:00am"}, {"days": "Sun", "time": "Closed"}], "id": "1710100071", "name": "USPS COLLECTION BOX - BLUE BOX", "address": {"city": "HARRISBURG", "state": "PA", "street": "11 N 3RD ST", "postcode": "17101"}}},
{"geometry": {"type": "Point", "coordinates": [-76.882709717, 40.2619543427]}, "type": "Feature", "properties": {"collection_times": [{"days": "Mon-Fri", "time": "2:30pm"}, {"days": "Sat", "time": "8:00am"}, {"days": "Sun", "time": "Closed"}], "id": "1710100072", "name": "USPS COLLECTION BOX - EXPRESS", "address": {"city": "HARRISBURG", "state": "PA", "street": "11 N 3RD ST", "postcode": "17101"}}},
{"geometry": {"type": "Point", "coordinates": [-76.8812629353, 40.2593315977]}, "type": "Feature", "properties": {"collection_times": [{"days": "Mon-Fri", "time": "4:45pm"}, {"days": "Sat-Sun", "time": "Closed"}], "id": "1710100076", "name": "USPS COLLECTION BOX - BLUE BOX", "address": {"city": "HARRISBURG", "state": "PA", "street": "10 S MARKET SQ", "postcode": "17101"}}},
{"geometry": {"type": "Point", "coordinates": [-76.8389880154, 40.2356109111]}, "type": "Feature", "properties": {"collection_times": [{"days": "Mon-Fri", "time": "5:00pm"}, {"days": "Sat", "time": "9:00am"}, {"days": "Sun", "time": "Closed"}], "id": "1710100079", "name": "USPS COLLECTION BOX - BLUE BOX", "address": {"city": "HARRISBURG", "state": "PA", "street": "1 S 3RD ST", "postcode": "17101"}}},
{"geometry": {"type": "Point", "coordinates": [-76.881519624, 40.259978266]}, "type": "Feature", "properties": {"collection_times": [{"days": "Mon-Fri", "time": "4:45pm"}, {"days": "Sat-Sun", "time": "Closed"}], "id": "1710100082", "name": "USPS COLLECTION BOX - BLUE BOX", "address": {"city": "HARRISBURG", "state": "PA", "street": "213 MARKET ST", "postcode": "17101"}}},
{"geometry": {"type": "Point", "coordinates": [-76.8824333663, 40.2613710255]}, "type": "Feature", "properties": {"collection_times": [{"days": "Mon-Fri", "time": "4:30pm"}, {"days": "Sat", "time": "8:00am"}, {"days": "Sun", "time": "Closed"}], "id": "1710100085", "name": "USPS COLLECTION BOX - BLUE BOX", "address": {"city": "HARRISBURG", "state": "PA", "street": "228 WALNUT ST", "postcode": "17101"}}},
{"geometry": {"type": "Point", "coordinates": [-76.8861206494, 40.2610528095]}, "type": "Feature", "properties": {"collection_times": [{"days": "Mon-Fri", "time": "4:15pm"}, {"days": "Sat", "time": "9:00am"}, {"days": "Sun", "time": "Closed"}], "id": "1710100093", "name": "USPS COLLECTION BOX - BLUE BOX", "address": {"city": "HARRISBURG", "state": "PA", "street": "100 PINE ST", "postcode": "17101"}}},
{"geometry": {"type": "Point", "coordinates": [-76.8799160297, 40.2616762289]}, "type": "Feature", "properties": {"collection_times": [{"days": "Mon-Fri", "time": "5:00pm"}, {"days": "Sat", "time": "9:00am"}, {"days": "Sun", "time": "Closed"}], "id": "1710100096", "name": "USPS COLLECTION BOX - BLUE BOX", "address": {"city": "HARRISBURG", "state": "PA", "street": "333 MARKET ST", "postcode": "17101"}}},
{"geometry": {"type": "Point", "coordinates": [-76.882709717, 40.2619543427]}, "type": "Feature", "properties": {"collection_times": [{"days": "Mon-Fri", "time": "5:30pm"}, {"days": "Sat", "time": "2:45pm"}, {"days": "Sun", "time": "Closed"}], "id": "1710100097", "name": "USPS COLLECTION BOX - EXPRESS", "address": {"city": "HARRISBURG", "state": "PA", "street": "815 MARKET ST", "postcode": "17101"}}},
{"geometry": {"type": "Point", "coordinates": [-76.885873411, 40.2701249218]}, "type": "Feature", "properties": {"collection_times": [{"days": "Mon-Sat", "time": "9:00am"}, {"days": "Sun", "time": "Closed"}], "id": "1710200005", "name": "USPS COLLECTION BOX - BLUE BOX", "address": {"city": "HARRISBURG", "state": "PA", "street": "1201 N 6TH ST", "postcode": "17102"}}},
{"geometry": {"type": "Point", "coordinates": [-76.886191627, 40.2678642873]}, "type": "Feature", "properties": {"collection_times": [{"days": "Mon-Fri", "time": "11:00am"}, {"days": "Sat", "time": "9:00am"}, {"days": "Sun", "time": "Closed"}], "id": "1710200012", "name": "USPS COLLECTION BOX - BLUE BOX", "address": {"city": "HARRISBURG", "state": "PA", "street": "400 BOAS ST", "postcode": "17102"}}},
{"geometry": {"type": "Point", "coordinates": [-76.8889408236, 40.2673757252]}, "type": "Feature", "properties": {"collection_times": [{"days": "Mon-Sat", "time": "9:00am"}, {"days": "Sun", "time": "Closed"}], "id": "1710200015", "name": "USPS COLLECTION BOX - BLUE BOX", "address": {"city": "HARRISBURG", "state": "PA", "street": "1022 GREEN ST", "postcode": "17102"}}},
{"geometry": {"type": "Point", "coordinates": [-76.8870336661, 40.2663144972]}, "type": "Feature", "properties": {"collection_times": [{"days": "Mon-Sat", "time": "9:00am"}, {"days": "Sun", "time": "Closed"}], "id": "1710200018", "name": "USPS COLLECTION BOX - BLUE BOX", "address": {"city": "HARRISBURG", "state": "PA", "street": "276 FORSTER ST", "postcode": "17102"}}},
{"geometry": {"type": "Point", "coordinates": [-76.8886758408, 40.2771185752]}, "type": "Feature", "properties": {"collection_times": [{"days": "Mon-Fri", "time": "9:00am"}, {"days": "Sat", "time": "11:00am"}, {"days": "Sun", "time": "Closed"}], "id": "1710200022", "name": "USPS COLLECTION BOX - BLUE BOX", "address": {"city": "HARRISBURG", "state": "PA", "street": "1800 N 6TH ST", "postcode": "17102"}}},
{"geometry": {"type": "Point", "coordinates": [-76.8907566656, 40.2721489646]}, "type": "Feature", "properties": {"collection_times": [{"days": "Mon-Fri", "time": "9:00am"}, {"days": "Sat", "time": "11:00am"}, {"days": "Sun", "time": "Closed"}], "id": "1710200025", "name": "USPS COLLECTION BOX - BLUE BOX", "address": {"city": "HARRISBURG", "state": "PA", "street": "1519 N 3RD ST", "postcode": "17102"}}},
{"geometry": {"type": "Point", "coordinates": [-76.8892696862, 40.2654687954]}, "type": "Feature", "properties": {"collection_times": [{"days": "Mon-Fri", "time": "11:00am"}, {"days": "Sat", "time": "9:00am"}, {"days": "Sun", "time": "Closed"}], "id": "1710200027", "name": "USPS COLLECTION BOX - BLUE BOX", "address": {"city": "HARRISBURG", "state": "PA", "street": "901 N 2ND ST", "postcode": "17102"}}},
{"geometry": {"type": "Point", "coordinates": [-76.8937211608, 40.2716343775]}, "type": "Feature", "properties": {"collection_times": [{"days": "Mon-Fri", "time": "9:00am"}, {"days": "Sat", "time": "11:00am"}, {"days": "Sun", "time": "Closed"}], "id": "1710200029", "name": "USPS COLLECTION BOX - BLUE BOX", "address": {"city": "HARRISBURG", "state": "PA", "street": "1531 N 2ND ST", "postcode": "17102"}}},
{"geometry": {"type": "Point", "coordinates": [-76.8907495679, 40.2674727278]}, "type": "Feature", "properties": {"collection_times": [{"days": "Mon-Sat", "time": "9:00am"}, {"days": "Sun", "time": "Closed"}], "id": "1710200030", "name": "USPS COLLECTION BOX - BLUE BOX", "address": {"city": "HARRISBURG", "state": "PA", "street": "1117 N 2ND ST", "postcode": "17102"}}},
{"geometry": {"type": "Point", "coordinates": [-76.8954305365, 40.273952977]}, "type": "Feature", "properties": {"collection_times": [{"days": "Mon-Sat", "time": "11:00am"}, {"days": "Sun", "time": "Closed"}], "id": "1710200031", "name": "USPS COLLECTION BOX - BLUE BOX", "address": {"city": "HARRISBURG", "state": "PA", "street": "1727 N 2ND ST", "postcode": "17102"}}},
{"geometry": {"type": "Point", "coordinates": [-76.8863761686, 40.2660389816]}, "type": "Feature", "properties": {"collection_times": [{"days": "Mon-Sat", "time": "9:00am"}, {"days": "Sun", "time": "Closed"}], "id": "1710200032", "name": "USPS COLLECTION BOX - BLUE BOX", "address": {"city": "HARRISBURG", "state": "PA", "street": "800 N 3RD ST", "postcode": "17102"}}},
{"geometry": {"type": "Point", "coordinates": [-76.8895740946, 40.2692552111]}, "type": "Feature", "properties": {"collection_times": [{"days": "Mon-Sat", "time": "9:00am"}, {"days": "Sun", "time": "Closed"}], "id": "1710200033", "name": "USPS COLLECTION BOX - BLUE BOX", "address": {"city": "HARRISBURG", "state": "PA", "street": "265 VERBEKE ST", "postcode": "17102"}}},
{"geometry": {"type": "Point", "coordinates": [-76.8828272917, 40.2704324912]}, "type": "Feature", "properties": {"collection_times": [{"days": "Mon-Sat", "time": "9:00am"}, {"days": "Sun", "time": "Closed"}], "id": "1710200035", "name": "USPS COLLECTION BOX - BLUE BOX", "address": {"city": "HARRISBURG", "state": "PA", "street": "1010 N 7TH ST", "postcode": "17102"}}},
{"geometry": {"type": "Point", "coordinates": [-76.8957771435, 40.272253065]}, "type": "Feature", "properties": {"collection_times": [{"days": "Mon-Sat", "time": "9:00am"}, {"days": "Sun", "time": "Closed"}], "id": "1710200037", "name": "USPS COLLECTION BOX - BLUE BOX", "address": {"city": "HARRISBURG", "state": "PA", "street": "1631 N FRONT ST", "postcode": "17102"}}},
{"geometry": {"type": "Point", "coordinates": [-76.897058288, 40.2739458793]}, "type": "Feature", "properties": {"collection_times": [{"days": "Mon-Sat", "time": "9:00am"}, {"days": "Sun", "time": "Closed"}], "id": "1710200039", "name": "USPS COLLECTION BOX - BLUE BOX", "address": {"city": "HARRISBURG", "state": "PA", "street": "1801 N FRONT ST", "postcode": "17102"}}},
{"geometry": {"type": "Point", "coordinates": [-76.8943575927, 40.2702195586]}, "type": "Feature", "properties": {"collection_times": [{"days": "Mon-Sat", "time": "9:00am"}, {"days": "Sun", "time": "Closed"}], "id": "1710200040", "name": "USPS COLLECTION BOX - BLUE BOX", "address": {"city": "HARRISBURG", "state": "PA", "street": "1501 N FRONT ST", "postcode": "17102"}}},
{"geometry": {"type": "Point", "coordinates": [-76.8906958371, 40.2715220448]}, "type": "Feature", "properties": {"collection_times": [{"days": "Mon-Sat", "time": "9:00am"}, {"days": "Sun", "time": "Closed"}], "id": "1710200043", "name": "USPS COLLECTION BOX - EXPRESS", "address": {"city": "HARRISBURG", "state": "PA", "street": "1010 N 7TH ST", "postcode": "17102"}}},
{"geometry": {"type": "Point", "coordinates": [-76.8984533051, 40.2760412304]}, "type": "Feature", "properties": {"collection_times": [{"days": "Mon-Fri", "time": "11:00am"}, {"days": "Sat-Sun", "time": "Closed"}], "id": "1710200048", "name": "USPS COLLECTION BOX - BLUE BOX", "address": {"city": "HARRISBURG", "state": "PA", "street": "2001 N FRONT ST", "postcode": "17102"}}},
{"geometry": {"type": "Point", "coordinates": [-76.8698833547, 40.2658958435]}, "type": "Feature", "properties": {"collection_times": [{"days": "Mon-Fri", "time": "9:00am"}, {"days": "Sat", "time": "8:00am"}, {"days": "Sun", "time": "Closed"}], "id": "1710300002", "name": "USPS COLLECTION BOX - BLUE BOX", "address": {"city": "HARRISBURG", "state": "PA", "street": "1300 MARKET ST", "postcode": "17103"}}},
{"geometry": {"type": "Point", "coordinates": [-76.8668444244, 40.2717985054]}, "type": "Feature", "properties": {"collection_times": [{"days": "Mon-Fri", "time": "9:00am"}, {"days": "Sat", "time": "8:00am"}, {"days": "Sun", "time": "Closed"}], "id": "1710300005", "name": "USPS COLLECTION BOX - BLUE BOX", "address": {"city": "HARRISBURG", "state": "PA", "street": "499 N 17TH ST", "postcode": "17103"}}},
{"geometry": {"type": "Point", "coordinates": [-76.8648202903, 40.2672822714]}, "type": "Feature", "properties": {"collection_times": [{"days": "Mon-Fri", "time": "9:00am"}, {"days": "Sat-Sun", "time": "Closed"}], "id": "1710300009", "name": "USPS COLLECTION BOX - BLUE BOX", "address": {"city": "HARRISBURG", "state": "PA", "street": "1654 MARKET ST", "postcode": "17103"}}},
{"geometry": {"type": "Point", "coordinates": [-76.849955228, 40.2782908876]}, "type": "Feature", "properties": {"collection_times": [{"days": "Mon-Fri", "time": "9:00am"}, {"days": "Sat-Sun", "time": "Closed"}], "id": "1710300016", "name": "USPS COLLECTION BOX - BLUE BOX", "address": {"city": "HARRISBURG", "state": "PA", "street": "2551 WALNUT ST", "postcode": "17103"}}},
{"geometry": {"type": "Point", "coordinates": [-76.8460149832, 40.2769604335]}, "type": "Feature", "properties": {"collection_times": [{"days": "Mon-Fri", "time": "9:00am"}, {"days": "Sat-Sun", "time": "Closed"}], "id": "1710300017", "name": "USPS COLLECTION BOX - BLUE BOX", "address": {"city": "HARRISBURG", "state": "PA", "street": "314 S 28TH ST", "postcode": "17103"}}},
{"geometry": {"type": "Point", "coordinates": [-76.8460857692, 40.2784754292]}, "type": "Feature", "properties": {"collection_times": [{"days": "Mon-Fri", "time": "11:00am"}, {"days": "Sat", "time": "8:00am"}, {"days": "Sun", "time": "Closed"}], "id": "1710300019", "name": "USPS COLLECTION BOX - BLUE BOX", "address": {"city": "HARRISBURG", "state": "PA", "street": "142 S 28TH ST", "postcode": "17103"}}},
{"geometry": {"type": "Point", "coordinates": [-76.8469114745, 40.2805988405]}, "type": "Feature", "properties": {"collection_times": [{"days": "Mon-Fri", "time": "9:00am"}, {"days": "Sat", "time": "8:00am"}, {"days": "Sun", "time": "Closed"}], "id": "1710300020", "name": "USPS COLLECTION BOX - BLUE BOX", "address": {"city": "HARRISBURG", "state": "PA", "street": "2801 PENBROOK AVE", "postcode": "17103"}}},
{"geometry": {"type": "Point", "coordinates": [-76.8533292626, 40.2773429413]}, "type": "Feature", "properties": {"collection_times": [{"days": "Mon-Fri", "time": "9:00am"}, {"days": "Sat-Sun", "time": "Closed"}], "id": "1710300024", "name": "USPS COLLECTION BOX - BLUE BOX", "address": {"city": "HARRISBURG", "state": "PA", "street": "2420 STATE ST", "postcode": "17103"}}},
{"geometry": {"type": "Point", "coordinates": [-76.8584086527, 40.2777183354]}, "type": "Feature", "properties": {"collection_times": [{"days": "Mon-Fri", "time": "9:00am"}, {"days": "Sat-Sun", "time": "Closed"}], "id": "1710300027", "name": "USPS COLLECTION BOX - BLUE BOX", "address": {"city": "HARRISBURG", "state": "PA", "street": "2200 BOAS ST", "postcode": "17103"}}},
{"geometry": {"type": "Point", "coordinates": [-76.8705517265, 40.2645236111]}, "type": "Feature", "properties": {"collection_times": [{"days": "Mon-Fri", "time": "9:00am"}, {"days": "Sat-Sun", "time": "Closed"}], "id": "1710400001", "name": "USPS COLLECTION BOX - BLUE BOX", "address": {"city": "HARRISBURG", "state": "PA", "street": "34 EVERGREEN ST", "postcode": "17104"}}},
{"geometry": {"type": "Point", "coordinates": [-76.8605734676, 40.2668197345]}, "type": "Feature", "properties": {"collection_times": [{"days": "Mon-Sat", "time": "9:00am"}, {"days": "Sun", "time": "Closed"}], "id": "1710400002", "name": "USPS COLLECTION BOX - BLUE BOX", "address": {"city": "HARRISBURG", "state": "PA", "street": "100 S 19TH ST", "postcode": "17104"}}},
{"geometry": {"type": "Point", "coordinates": [-76.8630659784, 40.263538654]}, "type": "Feature", "properties": {"collection_times": [{"days": "Mon-Fri", "time": "11:00am"}, {"days": "Sat", "time": "8:00am"}, {"days": "Sun", "time": "Closed"}], "id": "1710400005", "name": "USPS COLLECTION BOX - BLUE BOX", "address": {"city": "HARRISBURG", "state": "PA", "street": "300 S 17TH ST", "postcode": "17104"}}},
{"geometry": {"type": "Point", "coordinates": [-76.8690020502, 40.2630780353]}, "type": "Feature", "properties": {"collection_times": [{"days": "Mon-Sat", "time": "9:00am"}, {"days": "Sun", "time": "Closed"}], "id": "1710400007", "name": "USPS COLLECTION BOX - BLUE BOX", "address": {"city": "HARRISBURG", "state": "PA", "street": "1266 DERRY ST", "postcode": "17104"}}},
{"geometry": {"type": "Point", "coordinates": [-76.8669673608, 40.2591044761]}, "type": "Feature", "properties": {"collection_times": [{"days": "Mon-Sat", "time": "9:00am"}, {"days": "Sun", "time": "Closed"}], "id": "1710400010", "name": "USPS COLLECTION BOX - BLUE BOX", "address": {"city": "HARRISBURG", "state": "PA", "street": "446 S 13TH ST", "postcode": "17104"}}},
{"geometry": {"type": "Point", "coordinates": [-76.8583696151, 40.2459783634]}, "type": "Feature", "properties": {"collection_times": [{"days": "Mon-Fri", "time": "9:00am"}, {"days": "Sat-Sun", "time": "Closed"}], "id": "1710400014", "name": "USPS COLLECTION BOX - BLUE BOX", "address": {"city": "HARRISBURG", "state": "PA", "street": "1465 S 13TH ST", "postcode": "17104"}}},
{"geometry": {"type": "Point", "coordinates": [-76.8620296901, 40.2517322758]}, "type": "Feature", "properties": {"collection_times": [{"days": "Mon-Sat", "time": "9:00am"}, {"days": "Sun", "time": "Closed"}], "id": "1710400015", "name": "USPS COLLECTION BOX - BLUE BOX", "address": {"city": "HARRISBURG", "state": "PA", "street": "1301 SYCAMORE ST", "postcode": "17104"}}},
{"geometry": {"type": "Point", "coordinates": [-76.8538199549, 40.252707034]}, "type": "Feature", "properties": {"collection_times": [{"days": "Mon-Fri", "time": "9:00am"}, {"days": "Sat-Sun", "time": "Closed"}], "id": "1710400017", "name": "USPS COLLECTION BOX - BLUE BOX", "address": {"city": "HARRISBURG", "state": "PA", "street": "1130 S 19TH ST", "postcode": "17104"}}},
{"geometry": {"type": "Point", "coordinates": [-76.8546619381, 40.2547744681]}, "type": "Feature", "properties": {"collection_times": [{"days": "Mon-Fri", "time": "11:00am"}, {"days": "Sat", "time": "8:00am"}, {"days": "Sun", "time": "Closed"}], "id": "1710400018", "name": "USPS COLLECTION BOX - BLUE BOX", "address": {"city": "HARRISBURG", "state": "PA", "street": "1901 PAXTON ST", "postcode": "17104"}}},
{"geometry": {"type": "Point", "coordinates": [-76.8616085567, 40.2606174806]}, "type": "Feature", "properties": {"collection_times": [{"days": "Mon-Fri", "time": "9:00am"}, {"days": "Sat-Sun", "time": "Closed"}], "id": "1710400020", "name": "USPS COLLECTION BOX - BLUE BOX", "address": {"city": "HARRISBURG", "state": "PA", "street": "447 S 17TH ST", "postcode": "17104"}}},
{"geometry": {"type": "Point", "coordinates": [-76.8635545242, 40.2731402842]}, "type": "Feature", "properties": {"collection_times": [{"days": "Mon-Sat", "time": "9:00am"}, {"days": "Sun", "time": "Closed"}], "id": "1710400026", "name": "USPS COLLECTION BOX - BLUE BOX", "address": {"city": "HARRISBURG", "state": "PA", "street": "600 S 19TH ST", "postcode": "17104"}}},
{"geometry": {"type": "Point", "coordinates": [-76.8575474586, 40.2614656622]}, "type": "Feature", "properties": {"collection_times": [{"days": "Mon-Sat", "time": "9:00am"}, {"days": "Sun", "time": "Closed"}], "id": "1710400027", "name": "USPS COLLECTION BOX - BLUE BOX", "address": {"city": "HARRISBURG", "state": "PA", "street": "1901 DERRY ST", "postcode": "17104"}}},
{"geometry": {"type": "Point", "coordinates": [-76.8503456044, 40.2595823915]}, "type": "Feature", "properties": {"collection_times": [{"days": "Mon-Sat", "time": "9:00am"}, {"days": "Sun", "time": "Closed"}], "id": "1710400029", "name": "USPS COLLECTION BOX - BLUE BOX", "address": {"city": "HARRISBURG", "state": "PA", "street": "2151 GREENWOOD ST", "postcode": "17104"}}},
{"geometry": {"type": "Point", "coordinates": [-76.8544185321, 40.2588962753]}, "type": "Feature", "properties": {"collection_times": [{"days": "Mon-Fri", "time": "9:00am"}, {"days": "Sat-Sun", "time": "Closed"}], "id": "1710400030", "name": "USPS COLLECTION BOX - BLUE BOX", "address": {"city": "HARRISBURG", "state": "PA", "street": "642 S 20TH ST", "postcode": "17104"}}},
{"geometry": {"type": "Point", "coordinates": [-76.8453535176, 40.2622523299]}, "type": "Feature", "properties": {"collection_times": [{"days": "Mon-Fri", "time": "9:00am"}, {"days": "Sat-Sun", "time": "Closed"}], "id": "1710400034", "name": "USPS COLLECTION BOX - BLUE BOX", "address": {"city": "HARRISBURG", "state": "PA", "street": "2432 DUKE ST", "postcode": "17104"}}},
{"geometry": {"type": "Point", "coordinates": [-76.846118892, 40.2599940613]}, "type": "Feature", "properties": {"collection_times": [{"days": "Mon-Sat", "time": "9:00am"}, {"days": "Sun", "time": "Closed"}], "id": "1710400035", "name": "USPS COLLECTION BOX - BLUE BOX", "address": {"city": "HARRISBURG", "state": "PA", "street": "2354 DERRY ST", "postcode": "17104"}}},
{"geometry": {"type": "Point", "coordinates": [-76.8518006439, 40.2630508272]}, "type": "Feature", "properties": {"collection_times": [{"days": "Mon-Sat", "time": "9:00am"}, {"days": "Sun", "time": "Closed"}], "id": "1710400039", "name": "USPS COLLECTION BOX - BLUE BOX", "address": {"city": "HARRISBURG", "state": "PA", "street": "2163 BERRYHILL ST", "postcode": "17104"}}},
{"geometry": {"type": "Point", "coordinates": [-76.8461082454, 40.2660413475]}, "type": "Feature", "properties": {"collection_times": [{"days": "Mon-Fri", "time": "11:00am"}, {"days": "Sat", "time": "8:00am"}, {"days": "Sun", "time": "Closed"}], "id": "1710400040", "name": "USPS COLLECTION BOX - BLUE BOX", "address": {"city": "HARRISBURG", "state": "PA", "street": "400 HALE AVE", "postcode": "17104"}}},
{"geometry": {"type": "Point", "coordinates": [-76.8469138405, 40.2872458869]}, "type": "Feature", "properties": {"collection_times": [{"days": "Mon-Fri", "time": "11:00am"}, {"days": "Sat", "time": "8:00am"}, {"days": "Sun", "time": "Closed"}], "id": "1710400041", "name": "USPS COLLECTION BOX - BLUE BOX", "address": {"city": "HARRISBURG", "state": "PA", "street": "508 S 29TH ST", "postcode": "17104"}}},
{"geometry": {"type": "Point", "coordinates": [-76.8422604062, 40.2721359371]}, "type": "Feature", "properties": {"collection_times": [{"days": "Mon-Fri", "time": "11:00am"}, {"days": "Sat", "time": "8:00am"}, {"days": "Sun", "time": "Closed"}], "id": "1710400046", "name": "USPS COLLECTION BOX - BLUE BOX", "address": {"city": "HARRISBURG", "state": "PA", "street": "132 KLINE VLG", "postcode": "17104"}}},
{"geometry": {"type": "Point", "coordinates": [-76.8776601269, 40.2574743587]}, "type": "Feature", "properties": {"collection_times": [{"days": "Mon-Fri", "time": "11:00am"}, {"days": "Sat-Sun", "time": "Closed"}], "id": "1710400049", "name": "USPS COLLECTION BOX - BLUE BOX", "address": {"city": "HARRISBURG", "state": "PA", "street": "236 S 2ND ST", "postcode": "17104"}}},
{"geometry": {"type": "Point", "coordinates": [-76.8745016265, 40.2538722486]}, "type": "Feature", "properties": {"collection_times": [{"days": "Mon-Fri", "time": "11:00am"}, {"days": "Sat", "time": "8:00am"}, {"days": "Sun", "time": "Closed"}], "id": "1710400050", "name": "USPS COLLECTION BOX - BLUE BOX", "address": {"city": "HARRISBURG", "state": "PA", "street": "121 TUSCARORA ST", "postcode": "17104"}}},
{"geometry": {"type": "Point", "coordinates": [-76.8780389804, 40.2586318861]}, "type": "Feature", "properties": {"collection_times": [{"days": "Mon-Fri", "time": "11:00am"}, {"days": "Sat-Sun", "time": "Closed"}], "id": "1710400052", "name": "USPS COLLECTION BOX - BLUE BOX", "address": {"city": "HARRISBURG", "state": "PA", "street": "200 S COURT ST", "postcode": "17104"}}},
{"geometry": {"type": "Point", "coordinates": [-76.875323783, 40.2562559109]}, "type": "Feature", "properties": {"collection_times": [{"days": "Mon-Fri", "time": "11:00am"}, {"days": "Sat-Sun", "time": "Closed"}], "id": "1710400055", "name": "USPS COLLECTION BOX - BLUE BOX", "address": {"city": "HARRISBURG", "state": "PA", "street": "409 S 2ND ST", "postcode": "17104"}}},
{"geometry": {"type": "Point", "coordinates": [-76.8563983254, 40.2498613612]}, "type": "Feature", "properties": {"collection_times": [{"days": "Mon-Fri", "time": "9:00am"}, {"days": "Sat-Sun", "time": "Closed"}], "id": "1710400056", "name": "USPS COLLECTION BOX - BLUE BOX", "address": {"city": "HARRISBURG", "state": "PA", "street": "100 HALL MNR", "postcode": "17104"}}},
{"geometry": {"type": "Point", "coordinates": [-76.8588284328, 40.2477038308]}, "type": "Feature", "properties": {"collection_times": [{"days": "Mon-Fri", "time": "9:00am"}, {"days": "Sat-Sun", "time": "Closed"}], "id": "1710400057", "name": "USPS COLLECTION BOX - BLUE BOX", "address": {"city": "HARRISBURG", "state": "PA", "street": "1404 S 15TH ST", "postcode": "17104"}}},
{"geometry": {"type": "Point", "coordinates": [-76.8701447886, 40.2479728323]}, "type": "Feature", "properties": {"collection_times": [{"days": "Mon-Fri", "time": "2:30pm"}, {"days": "Sat", "time": "8:00am"}, {"days": "Sun", "time": "Closed"}], "id": "1710400058", "name": "USPS COLLECTION BOX - BLUE BOX", "address": {"city": "HARRISBURG", "state": "PA", "street": "1101 S FRONT ST", "postcode": "17104"}}},
{"geometry": {"type": "Point", "coordinates": [-76.8701447886, 40.2479728323]}, "type": "Feature", "properties": {"collection_times": [{"days": "Mon-Fri", "time": "2:30pm"}, {"days": "Sat", "time": "8:00am"}, {"days": "Sun", "time": "Closed"}], "id": "1710400059", "name": "USPS COLLECTION BOX - BLUE BOX", "address": {"city": "HARRISBURG", "state": "PA", "street": "1101 S FRONT ST", "postcode": "17104"}}},
{"geometry": {"type": "Point", "coordinates": [-76.8645150869, 40.2487500363]}, "type": "Feature", "properties": {"collection_times": [{"days": "Mon-Fri", "time": "2:30pm"}, {"days": "Sat", "time": "8:00am"}, {"days": "Sun", "time": "Closed"}], "id": "1710400060", "name": "USPS COLLECTION BOX - BLUE BOX", "address": {"city": "HARRISBURG", "state": "PA", "street": "1171 S CAMERON ST", "postcode": "17104"}}},
{"geometry": {"type": "Point", "coordinates": [-76.8776908838, 40.2976866828]}, "type": "Feature", "properties": {"collection_times": [{"days": "Mon-Sat", "time": "8:00pm"}, {"days": "Sun", "time": "Closed"}], "id": "1710600000", "name": "USPS COLLECTION BOX - BLUE BOX", "address": {"city": "HARRISBURG", "state": "PA", "street": "1425 CROOKED HILL RD", "postcode": "17106"}}},
{"geometry": {"type": "Point", "coordinates": [-76.8778997959, 40.2955803402]}, "type": "Feature", "properties": {"collection_times": [{"days": "Mon-Fri", "time": "7:00pm"}, {"days": "Sat", "time": "6:00pm"}, {"days": "Sun", "time": "Closed"}], "id": "1710600001", "name": "USPS COLLECTION BOX - EXPRESS", "address": {"city": "HARRISBURG", "state": "PA", "street": "1425 CROOKED HILL RD", "postcode": "17106"}}},
{"geometry": {"type": "Point", "coordinates": [-76.8778997959, 40.2955803402]}, "type": "Feature", "properties": {"collection_times": [{"days": "Mon-Fri", "time": "7:00pm"}, {"days": "Sat", "time": "6:00pm"}, {"days": "Sun", "time": "Closed"}], "id": "1710600002", "name": "USPS COLLECTION BOX - EXPRESS", "address": {"city": "HARRISBURG", "state": "PA", "street": "1425 CROOKED HILL RD", "postcode": "17106"}}},
{"geometry": {"type": "Point", "coordinates": [-76.8776908838, 40.2976866828]}, "type": "Feature", "properties": {"collection_times": [{"days": "Mon-Sat", "time": "8:00pm"}, {"days": "Sun", "time": "Closed"}], "id": "1710600003", "name": "USPS COLLECTION BOX - BLUE BOX", "address": {"city": "HARRISBURG", "state": "PA", "street": "1425 CROOKED HILL RD", "postcode": "17106"}}},
{"geometry": {"type": "Point", "coordinates": [-76.8776908838, 40.2976866828]}, "type": "Feature", "properties": {"collection_times": [{"days": "Mon-Sat", "time": "8:00pm"}, {"days": "Sun", "time": "Closed"}], "id": "1710600004", "name": "USPS COLLECTION BOX - BLUE BOX", "address": {"city": "HARRISBURG", "state": "PA", "street": "1425 CROOKED HILL RD", "postcode": "17106"}}},
{"geometry": {"type": "Point", "coordinates": [-76.8776908838, 40.2976866828]}, "type": "Feature", "properties": {"collection_times": [{"days": "Mon-Sat", "time": "8:00pm"}, {"days": "Sun", "time": "Closed"}], "id": "1710600005", "name": "USPS COLLECTION BOX - BLUE BOX", "address": {"city": "HARRISBURG", "state": "PA", "street": "1425 CROOKED HILL RD", "postcode": "17106"}}},
{"geometry": {"type": "Point", "coordinates": [-76.8776908838, 40.2976866828]}, "type": "Feature", "properties": {"collection_times": [{"days": "Mon-Sat", "time": "8:00pm"}, {"days": "Sun", "time": "Closed"}], "id": "1710600012", "name": "USPS COLLECTION BOX - PO LOBBY", "address": {"city": "HARRISBURG", "state": "PA", "street": "1425 CROOKED HILL RD", "postcode": "17106"}}},
{"geometry": {"type": "Point", "coordinates": [-76.8776908838, 40.2976866828]}, "type": "Feature", "properties": {"collection_times": [{"days": "Mon-Sat", "time": "8:00pm"}, {"days": "Sun", "time": "Closed"}], "id": "1710600013", "name": "USPS COLLECTION BOX - PO LOBBY", "address": {"city": "HARRISBURG", "state": "PA", "street": "1425 CROOKED HILL RD", "postcode": "17106"}}},
{"geometry": {"type": "Point", "coordinates": [-76.8776908838, 40.2976866828]}, "type": "Feature", "properties": {"collection_times": [{"days": "Mon-Sat", "time": "8:00pm"}, {"days": "Sun", "time": "Closed"}], "id": "1710600014", "name": "USPS COLLECTION BOX - APC", "address": {"city": "HARRISBURG", "state": "PA", "street": "1425 CROOKED HILL RD", "postcode": "17106"}}},
{"geometry": {"type": "Point", "coordinates": [-76.8824333663, 40.2613710255]}, "type": "Feature", "properties": {"collection_times": [{"days": "Mon-Fri", "time": "4:30pm"}, {"days": "Sat-Sun", "time": "Closed"}], "id": "1710800000", "name": "USPS COLLECTION BOX - PO LOBBY", "address": {"city": "HARRISBURG", "state": "PA", "street": "228 WALNUT ST", "postcode": "17108"}}},
{"geometry": {"type": "Point", "coordinates": [-76.8122244291, 40.2865104556]}, "type": "Feature", "properties": {"collection_times": [{"days": "Mon-Fri", "time": "9:00am"}, {"days": "Sat-Sun", "time": "Closed"}], "id": "1710900004", "name": "USPS COLLECTION BOX - BLUE BOX", "address": {"city": "HARRISBURG", "state": "PA", "street": "4501 SEQUOIA DR", "postcode": "17109"}}},
{"geometry": {"type": "Point", "coordinates": [-76.8233435085, 40.3018919768]}, "type": "Feature", "properties": {"collection_times": [{"days": "Mon-Fri", "time": "11:00am"}, {"days": "Sat-Sun", "time": "Closed"}], "id": "1710900006", "name": "USPS COLLECTION BOX - BLUE BOX", "address": {"city": "HARRISBURG", "state": "PA", "street": "4233 KING GEORGE DR", "postcode": "17109"}}},
{"geometry": {"type": "Point", "coordinates": [-76.8239797225, 40.2851522748]}, "type": "Feature", "properties": {"collection_times": [{"days": "Mon-Fri", "time": "9:00am"}, {"days": "Sat-Sun", "time": "Closed"}], "id": "1710900009", "name": "USPS COLLECTION BOX - BLUE BOX", "address": {"city": "HARRISBURG", "state": "PA", "street": "4101 SPRING VALLEY RD", "postcode": "17109"}}},
{"geometry": {"type": "Point", "coordinates": [-76.8219388495, 40.3007563694]}, "type": "Feature", "properties": {"collection_times": [{"days": "Mon-Fri", "time": "11:00am"}, {"days": "Sat-Sun", "time": "Closed"}], "id": "1710900011", "name": "USPS COLLECTION BOX - BLUE BOX", "address": {"city": "HARRISBURG", "state": "PA", "street": "4280 WILLIAMSBURG DR", "postcode": "17109"}}},
{"geometry": {"type": "Point", "coordinates": [-76.8190480591, 40.2899891688]}, "type": "Feature", "properties": {"collection_times": [{"days": "Mon-Fri", "time": "9:00am"}, {"days": "Sat-Sun", "time": "Closed"}], "id": "1710900012", "name": "USPS COLLECTION BOX - BLUE BOX", "address": {"city": "HARRISBURG", "state": "PA", "street": "4240 CATALINA LN", "postcode": "17109"}}},
{"geometry": {"type": "Point", "coordinates": [-76.8100090696, 40.295142138]}, "type": "Feature", "properties": {"collection_times": [{"days": "Mon-Fri", "time": "9:00am"}, {"days": "Sat-Sun", "time": "Closed"}], "id": "1710900014", "name": "USPS COLLECTION BOX - BLUE BOX", "address": {"city": "HARRISBURG", "state": "PA", "street": "4900 VIRGINIA AVE", "postcode": "17109"}}},
{"geometry": {"type": "Point", "coordinates": [-76.8382640445, 40.2785842614]}, "type": "Feature", "properties": {"collection_times": [{"days": "Mon-Fri", "time": "9:00am"}, {"days": "Sat-Sun", "time": "Closed"}], "id": "1710900016", "name": "USPS COLLECTION BOX - BLUE BOX", "address": {"city": "HARRISBURG", "state": "PA", "street": "3300 UNION DEPOSIT RD", "postcode": "17109"}}},
{"geometry": {"type": "Point", "coordinates": [-76.8038767592, 40.2893452635]}, "type": "Feature", "properties": {"collection_times": [{"days": "Mon-Fri", "time": "9:00am"}, {"days": "Sat-Sun", "time": "Closed"}], "id": "1710900018", "name": "USPS COLLECTION BOX - BLUE BOX", "address": {"city": "HARRISBURG", "state": "PA", "street": "401 RADCLIFFE DR", "postcode": "17109"}}},
{"geometry": {"type": "Point", "coordinates": [-76.8353876192, 40.2879305085]}, "type": "Feature", "properties": {"collection_times": [{"days": "Mon-Fri", "time": "9:00am"}, {"days": "Sat-Sun", "time": "Closed"}], "id": "1710900019", "name": "USPS COLLECTION BOX - BLUE BOX", "address": {"city": "HARRISBURG", "state": "PA", "street": "3700 MAPLE ST", "postcode": "17109"}}},
{"geometry": {"type": "Point", "coordinates": [-76.8062737827, 40.3011056079]}, "type": "Feature", "properties": {"collection_times": [{"days": "Mon-Fri", "time": "11:00am"}, {"days": "Sat-Sun", "time": "Closed"}], "id": "1710900024", "name": "USPS COLLECTION BOX - BLUE BOX", "address": {"city": "HARRISBURG", "state": "PA", "street": "4900 LANCER ST", "postcode": "17109"}}},
{"geometry": {"type": "Point", "coordinates": [-76.818269004, 40.2813163114]}, "type": "Feature", "properties": {"collection_times": [{"days": "Mon-Fri", "time": "9:00am"}, {"days": "Sat-Sun", "time": "Closed"}], "id": "1710900025", "name": "USPS COLLECTION BOX - BLUE BOX", "address": {"city": "HARRISBURG", "state": "PA", "street": "1000 ROLLING GLEN DR", "postcode": "17109"}}},
{"geometry": {"type": "Point", "coordinates": [-76.83585554, 40.283495907]}, "type": "Feature", "properties": {"collection_times": [{"days": "Mon-Fri", "time": "9:00am"}, {"days": "Sat-Sun", "time": "Closed"}], "id": "1710900032", "name": "USPS COLLECTION BOX - BLUE BOX", "address": {"city": "HARRISBURG", "state": "PA", "street": "213 SHELL ST", "postcode": "17109"}}},
{"geometry": {"type": "Point", "coordinates": [-76.808757499, 40.3040580997]}, "type": "Feature", "properties": {"collection_times": [{"days": "Mon-Sat", "time": "11:00am"}, {"days": "Sun", "time": "Closed"}], "id": "1710900035", "name": "USPS COLLECTION BOX - BLUE BOX", "address": {"city": "HARRISBURG", "state": "PA", "street": "4807 JONESTOWN RD", "postcode": "17109"}}},
{"geometry": {"type": "Point", "coordinates": [-76.8212743878, 40.282372096]}, "type": "Feature", "properties": {"collection_times": [{"days": "Mon-Fri", "time": "3:00pm"}, {"days": "Sat", "time": "11:00am"}, {"days": "Sun", "time": "Closed"}], "id": "1710900036", "name": "USPS COLLECTION BOX - BLUE BOX", "address": {"city": "HARRISBURG", "state": "PA", "street": "845 SIR THOMAS CT", "postcode": "17109"}}},
{"geometry": {"type": "Point", "coordinates": [-76.8154133941, 40.2827020645]}, "type": "Feature", "properties": {"collection_times": [{"days": "Mon-Fri", "time": "9:00am"}, {"days": "Sat", "time": "11:00am"}, {"days": "Sun", "time": "Closed"}], "id": "1710900037", "name": "USPS COLLECTION BOX - BLUE BOX", "address": {"city": "HARRISBURG", "state": "PA", "street": "4319 LONDONDERRY RD", "postcode": "17109"}}},
{"geometry": {"type": "Point", "coordinates": [-76.8234412317, 40.2783036804]}, "type": "Feature", "properties": {"collection_times": [{"days": "Mon-Fri", "time": "4:00pm"}, {"days": "Sat", "time": "11:00am"}, {"days": "Sun", "time": "Closed"}], "id": "1710900038", "name": "USPS COLLECTION BOX - BLUE BOX", "address": {"city": "HARRISBURG", "state": "PA", "street": "3915 UNION DEPOSIT RD", "postcode": "17109"}}},
{"geometry": {"type": "Point", "coordinates": [-76.8161935791, 40.3008286218]}, "type": "Feature", "properties": {"collection_times": [{"days": "Mon-Fri", "time": "4:30pm"}, {"days": "Sat", "time": "11:00am"}, {"days": "Sun", "time": "Closed"}], "id": "1710900040", "name": "USPS COLLECTION BOX - BLUE BOX", "address": {"city": "HARRISBURG", "state": "PA", "street": "4600 JONESTOWN RD", "postcode": "17109"}}},
{"geometry": {"type": "Point", "coordinates": [-76.8161935791, 40.3008286218]}, "type": "Feature", "properties": {"collection_times": [{"days": "Mon-Fri", "time": "4:30pm"}, {"days": "Sat", "time": "11:00am"}, {"days": "Sun", "time": "Closed"}], "id": "1710900043", "name": "USPS COLLECTION BOX - BLUE BOX", "address": {"city": "HARRISBURG", "state": "PA", "street": "4600 JONESTOWN RD", "postcode": "17109"}}},
{"geometry": {"type": "Point", "coordinates": [-76.8426849317, 40.2862249819]}, "type": "Feature", "properties": {"collection_times": [{"days": "Mon-Fri", "time": "4:30pm"}, {"days": "Sat", "time": "11:00am"}, {"days": "Sun", "time": "Closed"}], "id": "1710900045", "name": "USPS COLLECTION BOX - BLUE BOX", "address": {"city": "HARRISBURG", "state": "PA", "street": "9 N PROGRESS AVE", "postcode": "17109"}}},
{"geometry": {"type": "Point", "coordinates": [-76.8180046893, 40.3040001348]}, "type": "Feature", "properties": {"collection_times": [{"days": "Mon-Sat", "time": "11:00am"}, {"days": "Sun", "time": "Closed"}], "id": "1710900048", "name": "USPS COLLECTION BOX - BLUE BOX", "address": {"city": "HARRISBURG", "state": "PA", "street": "4501 ETHEL ST", "postcode": "17109"}}},
{"geometry": {"type": "Point", "coordinates": [-76.8158268618, 40.2826749335]}, "type": "Feature", "properties": {"collection_times": [{"days": "Mon-Fri", "time": "9:00am"}, {"days": "Sat", "time": "11:00am"}, {"days": "Sun", "time": "Closed"}], "id": "1710900049", "name": "USPS COLLECTION BOX - BLUE BOX", "address": {"city": "HARRISBURG", "state": "PA", "street": "4300 LONDONDERRY RD", "postcode": "17109"}}},
{"geometry": {"type": "Point", "coordinates": [-76.8212743878, 40.282372096]}, "type": "Feature", "properties": {"collection_times": [{"days": "Mon-Fri", "time": "3:00pm"}, {"days": "Sat-Sun", "time": "Closed"}], "id": "1710900051", "name": "USPS COLLECTION BOX - BLUE BOX", "address": {"city": "HARRISBURG", "state": "PA", "street": "845 SIR THOMAS CT", "postcode": "17109"}}},
{"geometry": {"type": "Point", "coordinates": [-76.828977901, 40.295215491]}, "type": "Feature", "properties": {"collection_times": [{"days": "Mon-Fri", "time": "9:00am"}, {"days": "Sat-Sun", "time": "Closed"}], "id": "1710900053", "name": "USPS COLLECTION BOX - BLUE BOX", "address": {"city": "HARRISBURG", "state": "PA", "street": "3980 WALNUT ST", "postcode": "17109"}}},
{"geometry": {"type": "Point", "coordinates": [-76.8161935791, 40.3008286218]}, "type": "Feature", "properties": {"collection_times": [{"days": "Mon-Fri", "time": "4:30pm"}, {"days": "Sat", "time": "11:00am"}, {"days": "Sun", "time": "Closed"}], "id": "1710900055", "name": "USPS COLLECTION BOX - BLUE BOX", "address": {"city": "HARRISBURG", "state": "PA", "street": "4600 JONESTOWN RD", "postcode": "17109"}}},
{"geometry": {"type": "Point", "coordinates": [-76.8402123779, 40.2834722478]}, "type": "Feature", "properties": {"collection_times": [{"days": "Mon-Fri", "time": "9:00am"}, {"days": "Sat", "time": "11:00am"}, {"days": "Sun", "time": "Closed"}], "id": "1710900056", "name": "USPS COLLECTION BOX - BLUE BOX", "address": {"city": "HARRISBURG", "state": "PA", "street": "160 S PROGRESS AVE", "postcode": "17109"}}},
{"geometry": {"type": "Point", "coordinates": [-76.8197732129, 40.2731225399]}, "type": "Feature", "properties": {"collection_times": [{"days": "Mon-Fri", "time": "9:00am"}, {"days": "Sat", "time": "11:00am"}, {"days": "Sun", "time": "Closed"}], "id": "1710900057", "name": "USPS COLLECTION BOX - BLUE BOX", "address": {"city": "HARRISBURG", "state": "PA", "street": "980 BRIARSDALE RD", "postcode": "17109"}}},
{"geometry": {"type": "Point", "coordinates": [-76.8064318017, 40.2976890487]}, "type": "Feature", "properties": {"collection_times": [{"days": "Mon-Fri", "time": "4:15pm"}, {"days": "Sat", "time": "11:00am"}, {"days": "Sun", "time": "Closed"}], "id": "1710900058", "name": "USPS COLLECTION BOX - BLUE BOX", "address": {"city": "HARRISBURG", "state": "PA", "street": "425 PRINCE ST", "postcode": "17109"}}},
{"geometry": {"type": "Point", "coordinates": [-76.8441398017, 40.2899122764]}, "type": "Feature", "properties": {"collection_times": [{"days": "Mon-Fri", "time": "9:00am"}, {"days": "Sat-Sun", "time": "Closed"}], "id": "1710900059", "name": "USPS COLLECTION BOX - BLUE BOX", "address": {"city": "HARRISBURG", "state": "PA", "street": "3239 BROOKFIELD RD", "postcode": "17109"}}},
{"geometry": {"type": "Point", "coordinates": [-76.8228266461, 40.2895877213]}, "type": "Feature", "properties": {"collection_times": [{"days": "Mon-Fri", "time": "9:00am"}, {"days": "Sat-Sun", "time": "Closed"}], "id": "1710900060", "name": "USPS COLLECTION BOX - BLUE BOX", "address": {"city": "HARRISBURG", "state": "PA", "street": "3601 BROOKSIDE DR", "postcode": "17109"}}},
{"geometry": {"type": "Point", "coordinates": [-76.9015878379, 40.2818042757]}, "type": "Feature", "properties": {"collection_times": [{"days": "Mon-Sat", "time": "11:00am"}, {"days": "Sun", "time": "Closed"}], "id": "1711000001", "name": "USPS COLLECTION BOX - BLUE BOX", "address": {"city": "HARRISBURG", "state": "PA", "street": "2311 N FRONT ST", "postcode": "17110"}}},
{"geometry": {"type": "Point", "coordinates": [-76.9048090352, 40.292461553]}, "type": "Feature", "properties": {"collection_times": [{"days": "Mon-Fri", "time": "9:00am"}, {"days": "Sat", "time": "11:00am"}, {"days": "Sun", "time": "Closed"}], "id": "1711000008", "name": "USPS COLLECTION BOX - BLUE BOX", "address": {"city": "HARRISBURG", "state": "PA", "street": "124 MANOR ST", "postcode": "17110"}}},
{"geometry": {"type": "Point", "coordinates": [-76.8992822509, 40.2798547593]}, "type": "Feature", "properties": {"collection_times": [{"days": "Mon-Sat", "time": "11:00am"}, {"days": "Sun", "time": "Closed"}], "id": "1711000010", "name": "USPS COLLECTION BOX - BLUE BOX", "address": {"city": "HARRISBURG", "state": "PA", "street": "2149 N 2ND ST", "postcode": "17110"}}},
{"geometry": {"type": "Point", "coordinates": [-76.8963272194, 40.2802936371]}, "type": "Feature", "properties": {"collection_times": [{"days": "Mon-Sat", "time": "11:00am"}, {"days": "Sun", "time": "Closed"}], "id": "1711000020", "name": "USPS COLLECTION BOX - BLUE BOX", "address": {"city": "HARRISBURG", "state": "PA", "street": "2121 N 3RD ST", "postcode": "17110"}}},
{"geometry": {"type": "Point", "coordinates": [-76.8548224157, 40.3142488465]}, "type": "Feature", "properties": {"collection_times": [{"days": "Mon-Sat", "time": "11:00am"}, {"days": "Sun", "time": "Closed"}], "id": "1711000025", "name": "USPS COLLECTION BOX - BLUE BOX", "address": {"city": "HARRISBURG", "state": "PA", "street": "2170 CAMELOT DR", "postcode": "17110"}}},
{"geometry": {"type": "Point", "coordinates": [-76.8573167487, 40.3304035534]}, "type": "Feature", "properties": {"collection_times": [{"days": "Mon-Fri", "time": "11:00am"}, {"days": "Sat", "time": "3:00pm"}, {"days": "Sun", "time": "Closed"}], "id": "1711000032", "name": "USPS COLLECTION BOX - BLUE BOX", "address": {"city": "HARRISBURG", "state": "PA", "street": "4400 PHEASANT HILL RD", "postcode": "17110"}}},
{"geometry": {"type": "Point", "coordinates": [-76.8484079176, 40.3054102218]}, "type": "Feature", "properties": {"collection_times": [{"days": "Mon-Fri", "time": "5:00pm"}, {"days": "Sat", "time": "11:00am"}, {"days": "Sun", "time": "Closed"}], "id": "1711000033", "name": "USPS COLLECTION BOX - BLUE BOX", "address": {"city": "HARRISBURG", "state": "PA", "street": "400 NATIONWIDE DR", "postcode": "17110"}}},
{"geometry": {"type": "Point", "coordinates": [-76.8847961322, 40.2911983271]}, "type": "Feature", "properties": {"collection_times": [{"days": "Mon-Sat", "time": "11:00am"}, {"days": "Sun", "time": "Closed"}], "id": "1711000038", "name": "USPS COLLECTION BOX - BLUE BOX", "address": {"city": "HARRISBURG", "state": "PA", "street": "1 HACC DR", "postcode": "17110"}}},
{"geometry": {"type": "Point", "coordinates": [-76.8947929216, 40.313188177]}, "type": "Feature", "properties": {"collection_times": [{"days": "Mon-Sat", "time": "11:00am"}, {"days": "Sun", "time": "Closed"}], "id": "1711000039", "name": "USPS COLLECTION BOX - BLUE BOX", "address": {"city": "HARRISBURG", "state": "PA", "street": "3898 N 6TH ST", "postcode": "17110"}}},
{"geometry": {"type": "Point", "coordinates": [-76.9021935129, 40.3047513137]}, "type": "Feature", "properties": {"collection_times": [{"days": "Mon-Sat", "time": "11:00am"}, {"days": "Sun", "time": "Closed"}], "id": "1711000041", "name": "USPS COLLECTION BOX - BLUE BOX", "address": {"city": "HARRISBURG", "state": "PA", "street": "3501 N FRONT ST", "postcode": "17110"}}},
{"geometry": {"type": "Point", "coordinates": [-76.8990428213, 40.2904218367]}, "type": "Feature", "properties": {"collection_times": [{"days": "Mon-Sat", "time": "11:00am"}, {"days": "Sun", "time": "Closed"}], "id": "1711000042", "name": "USPS COLLECTION BOX - BLUE BOX", "address": {"city": "HARRISBURG", "state": "PA", "street": "2757 N 4TH ST", "postcode": "17110"}}},
{"geometry": {"type": "Point", "coordinates": [-76.8936136445, 40.2928626496]}, "type": "Feature", "properties": {"collection_times": [{"days": "Mon-Sat", "time": "11:00am"}, {"days": "Sun", "time": "Closed"}], "id": "1711000043", "name": "USPS COLLECTION BOX - BLUE BOX", "address": {"city": "HARRISBURG", "state": "PA", "street": "2903 N 7TH ST", "postcode": "17110"}}},
{"geometry": {"type": "Point", "coordinates": [-76.9002544751, 40.2887904472]}, "type": "Feature", "properties": {"collection_times": [{"days": "Mon-Sat", "time": "11:00am"}, {"days": "Sun", "time": "Closed"}], "id": "1711000045", "name": "USPS COLLECTION BOX - BLUE BOX", "address": {"city": "HARRISBURG", "state": "PA", "street": "300 WICONISCO ST", "postcode": "17110"}}},
{"geometry": {"type": "Point", "coordinates": [-76.9039975253, 40.2996172718]}, "type": "Feature", "properties": {"collection_times": [{"days": "Mon-Fri", "time": "3:30pm"}, {"days": "Sat", "time": "9:00am"}, {"days": "Sun", "time": "Closed"}], "id": "1711000049", "name": "USPS COLLECTION BOX - BLUE BOX", "address": {"city": "HARRISBURG", "state": "PA", "street": "3211 N FRONT ST", "postcode": "17110"}}},
{"geometry": {"type": "Point", "coordinates": [-76.9036130636, 40.2857896645]}, "type": "Feature", "properties": {"collection_times": [{"days": "Mon-Fri", "time": "3:30pm"}, {"days": "Sat", "time": "9:00am"}, {"days": "Sun", "time": "Closed"}], "id": "1711000050", "name": "USPS COLLECTION BOX - BLUE BOX", "address": {"city": "HARRISBURG", "state": "PA", "street": "2521 N FRONT ST", "postcode": "17110"}}},
{"geometry": {"type": "Point", "coordinates": [-76.8687055091, 40.3283753744]}, "type": "Feature", "properties": {"collection_times": [{"days": "Mon-Fri", "time": "4:00pm"}, {"days": "Sat", "time": "3:00pm"}, {"days": "Sun", "time": "Closed"}], "id": "1711000051", "name": "USPS COLLECTION BOX - BLUE BOX", "address": {"city": "HARRISBURG", "state": "PA", "street": "2000 LINGLESTOWN RD", "postcode": "17110"}}},
{"geometry": {"type": "Point", "coordinates": [-76.899913951, 40.288021908]}, "type": "Feature", "properties": {"collection_times": [{"days": "Mon-Sat", "time": "11:00am"}, {"days": "Sun", "time": "Closed"}], "id": "1711000052", "name": "USPS COLLECTION BOX - BLUE BOX", "address": {"city": "HARRISBURG", "state": "PA", "street": "2626 N 3RD ST", "postcode": "17110"}}},
{"geometry": {"type": "Point", "coordinates": [-76.9027613332, 40.2840341533]}, "type": "Feature", "properties": {"collection_times": [{"days": "Mon-Sat", "time": "9:00am"}, {"days": "Sun", "time": "Closed"}], "id": "1711000056", "name": "USPS COLLECTION BOX - BLUE BOX", "address": {"city": "HARRISBURG", "state": "PA", "street": "2421 N FRONT ST", "postcode": "17110"}}},
{"geometry": {"type": "Point", "coordinates": [-76.8642090395, 40.3286570354]}, "type": "Feature", "properties": {"collection_times": [{"days": "Mon-Fri", "time": "4:00pm"}, {"days": "Sat", "time": "3:00pm"}, {"days": "Sun", "time": "Closed"}], "id": "1711000057", "name": "USPS COLLECTION BOX - BLUE BOX", "address": {"city": "HARRISBURG", "state": "PA", "street": "2151 LINGLESTOWN RD", "postcode": "17110"}}},
{"geometry": {"type": "Point", "coordinates": [-76.8900776472, 40.2863231789]}, "type": "Feature", "properties": {"collection_times": [{"days": "Mon-Fri", "time": "5:30pm"}, {"days": "Sat", "time": "3:30pm"}, {"days": "Sun", "time": "Closed"}], "id": "1711000058", "name": "USPS COLLECTION BOX - BLUE BOX", "address": {"city": "HARRISBURG", "state": "PA", "street": "2347 N 7TH ST", "postcode": "17110"}}},
{"geometry": {"type": "Point", "coordinates": [-76.8681895312, 40.3283045995]}, "type": "Feature", "properties": {"collection_times": [{"days": "Mon-Fri", "time": "4:00pm"}, {"days": "Sat", "time": "3:00pm"}, {"days": "Sun", "time": "Closed"}], "id": "1711000059", "name": "USPS COLLECTION BOX - BLUE BOX", "address": {"city": "HARRISBURG", "state": "PA", "street": "2017 LINGLESTOWN RD", "postcode": "17110"}}},
{"geometry": {"type": "Point", "coordinates": [-76.8998216802, 40.2780933334]}, "type": "Feature", "properties": {"collection_times": [{"days": "Mon-Sat", "time": "9:00am"}, {"days": "Sun", "time": "Closed"}], "id": "1711000060", "name": "USPS COLLECTION BOX - BLUE BOX", "address": {"city": "HARRISBURG", "state": "PA", "street": "2101 N FRONT ST", "postcode": "17110"}}},
{"geometry": {"type": "Point", "coordinates": [-76.8572249886, 40.3148201496]}, "type": "Feature", "properties": {"collection_times": [{"days": "Mon-Fri", "time": "11:00am"}, {"days": "Sat-Sun", "time": "Closed"}], "id": "1711000061", "name": "USPS COLLECTION BOX - BLUE BOX", "address": {"city": "HARRISBURG", "state": "PA", "street": "2233 PAXTON CHURCH RD", "postcode": "17110"}}},
{"geometry": {"type": "Point", "coordinates": [-76.8789860473, 40.309584293]}, "type": "Feature", "properties": {"collection_times": [{"days": "Mon-Fri", "time": "3:45pm"}, {"days": "Sat", "time": "11:00am"}, {"days": "Sun", "time": "Closed"}], "id": "1711000062", "name": "USPS COLLECTION BOX - EXPRESS", "address": {"city": "HARRISBURG", "state": "PA", "street": "2330 VARTAN WAY", "postcode": "17110"}}},
{"geometry": {"type": "Point", "coordinates": [-76.8789860473, 40.309584293]}, "type": "Feature", "properties": {"collection_times": [{"days": "Mon-Fri", "time": "5:00pm"}, {"days": "Sat", "time": "11:00am"}, {"days": "Sun", "time": "Closed"}], "id": "1711000063", "name": "USPS COLLECTION BOX - EXPRESS", "address": {"city": "HARRISBURG", "state": "PA", "street": "400 NATIONWIDE DR", "postcode": "17110"}}},
{"geometry": {"type": "Point", "coordinates": [-76.8900776472, 40.2863231789]}, "type": "Feature", "properties": {"collection_times": [{"days": "Mon-Fri", "time": "5:30pm"}, {"days": "Sat", "time": "3:30pm"}, {"days": "Sun", "time": "Closed"}], "id": "1711000064", "name": "USPS COLLECTION BOX - BLUE BOX", "address": {"city": "HARRISBURG", "state": "PA", "street": "2347 N 7TH ST", "postcode": "17110"}}},
{"geometry": {"type": "Point", "coordinates": [-76.8789860473, 40.309584293]}, "type": "Feature", "properties": {"collection_times": [{"days": "Mon-Fri", "time": "4:00pm"}, {"days": "Sat", "time": "3:00pm"}, {"days": "Sun", "time": "Closed"}], "id": "1711000065", "name": "USPS COLLECTION BOX - EXPRESS", "address": {"city": "HARRISBURG", "state": "PA", "street": "2017 LINGLESTOWN RD", "postcode": "17110"}}},
{"geometry": {"type": "Point", "coordinates": [-76.8493841731, 40.3339992877]}, "type": "Feature", "properties": {"collection_times": [{"days": "Mon-Fri", "time": "4:00pm"}, {"days": "Sat", "time": "3:00pm"}, {"days": "Sun", "time": "Closed"}], "id": "1711000067", "name": "USPS COLLECTION BOX - BLUE BOX", "address": {"city": "HARRISBURG", "state": "PA", "street": "4450 OAKHURST BLVD", "postcode": "17110"}}},
{"geometry": {"type": "Point", "coordinates": [-76.8789860473, 40.309584293]}, "type": "Feature", "properties": {"collection_times": [{"days": "Mon-Sat", "time": "9:00am"}, {"days": "Sun", "time": "Closed"}], "id": "1711000069", "name": "USPS COLLECTION BOX - EXPRESS", "address": {"city": "HARRISBURG", "state": "PA", "street": "3401 N FRONT ST", "postcode": "17110"}}},
{"geometry": {"type": "Point", "coordinates": [-76.9027293933, 40.3032004545]}, "type": "Feature", "properties": {"collection_times": [{"days": "Mon-Sat", "time": "9:00am"}, {"days": "Sun", "time": "Closed"}], "id": "1711000070", "name": "USPS COLLECTION BOX - BLUE BOX", "address": {"city": "HARRISBURG", "state": "PA", "street": "3401 N FRONT ST", "postcode": "17110"}}},
{"geometry": {"type": "Point", "coordinates": [-76.8681895312, 40.3283045995]}, "type": "Feature", "properties": {"collection_times": [{"days": "Mon-Fri", "time": "4:00pm"}, {"days": "Sat", "time": "3:00pm"}, {"days": "Sun", "time": "Closed"}], "id": "1711000071", "name": "USPS COLLECTION BOX - BLUE BOX", "address": {"city": "HARRISBURG", "state": "PA", "street": "2017 LINGLESTOWN RD", "postcode": "17110"}}},
{"geometry": {"type": "Point", "coordinates": [-76.8998216802, 40.2780933334]}, "type": "Feature", "properties": {"collection_times": [{"days": "Mon-Sat", "time": "9:00am"}, {"days": "Sun", "time": "Closed"}], "id": "1711000072", "name": "USPS COLLECTION BOX - BLUE BOX", "address": {"city": "HARRISBURG", "state": "PA", "street": "2101 N FRONT ST", "postcode": "17110"}}},
{"geometry": {"type": "Point", "coordinates": [-76.8718275944, 40.2862709844]}, "type": "Feature", "properties": {"collection_times": [{"days": "Mon-Sat", "time": "11:00am"}, {"days": "Sun", "time": "Closed"}], "id": "1711000075", "name": "USPS COLLECTION BOX - BLUE BOX", "address": {"city": "HARRISBURG", "state": "PA", "street": "41 N CIRCLE DR", "postcode": "17110"}}},
{"geometry": {"type": "Point", "coordinates": [-76.8789860473, 40.309584293]}, "type": "Feature", "properties": {"collection_times": [{"days": "Mon-Sat", "time": "11:00am"}, {"days": "Sun", "time": "Closed"}], "id": "1711000079", "name": "USPS COLLECTION BOX - EXPRESS", "address": {"city": "HARRISBURG", "state": "PA", "street": "1800 LINGLESTOWN RD", "postcode": "17110"}}},
{"geometry": {"type": "Point", "coordinates": [-76.8745229197, 40.3278757955]}, "type": "Feature", "properties": {"collection_times": [{"days": "Mon-Fri", "time": "4:30pm"}, {"days": "Sat", "time": "11:00am"}, {"days": "Sun", "time": "Closed"}], "id": "1711000081", "name": "USPS COLLECTION BOX - BLUE BOX", "address": {"city": "HARRISBURG", "state": "PA", "street": "4400 DEER PATH RD", "postcode": "17110"}}},
{"geometry": {"type": "Point", "coordinates": [-76.8959557703, 40.3220651011]}, "type": "Feature", "properties": {"collection_times": [{"days": "Mon-Sat", "time": "11:00am"}, {"days": "Sun", "time": "Closed"}], "id": "1711000083", "name": "USPS COLLECTION BOX - BLUE BOX", "address": {"city": "HARRISBURG", "state": "PA", "street": "160 LUCKNOW RD", "postcode": "17110"}}},
{"geometry": {"type": "Point", "coordinates": [-76.8959557703, 40.3220651011]}, "type": "Feature", "properties": {"collection_times": [{"days": "Mon-Sat", "time": "11:00am"}, {"days": "Sun", "time": "Closed"}], "id": "1711000084", "name": "USPS COLLECTION BOX - BLUE BOX", "address": {"city": "HARRISBURG", "state": "PA", "street": "160 LUCKNOW RD", "postcode": "17110"}}},
{"geometry": {"type": "Point", "coordinates": [-76.8789860473, 40.309584293]}, "type": "Feature", "properties": {"collection_times": [{"days": "Mon-Fri", "time": "4:30pm"}, {"days": "Sat", "time": "11:00am"}, {"days": "Sun", "time": "Closed"}], "id": "1711000087", "name": "USPS COLLECTION BOX - EXPRESS", "address": {"city": "HARRISBURG", "state": "PA", "street": "2401 MARKET PLACE DR", "postcode": "17110"}}},
{"geometry": {"type": "Point", "coordinates": [-76.8535904608, 40.3183068405]}, "type": "Feature", "properties": {"collection_times": [{"days": "Mon-Fri", "time": "3:45pm"}, {"days": "Sat", "time": "11:00am"}, {"days": "Sun", "time": "Closed"}], "id": "1711000088", "name": "USPS COLLECTION BOX - BLUE BOX", "address": {"city": "HARRISBURG", "state": "PA", "street": "3605 VARTAN WAY", "postcode": "17110"}}},
{"geometry": {"type": "Point", "coordinates": [-76.8979373389, 40.2839482416]}, "type": "Feature", "properties": {"collection_times": [{"days": "Mon-Sat", "time": "11:00am"}, {"days": "Sun", "time": "Closed"}], "id": "1711000090", "name": "USPS COLLECTION BOX - BLUE BOX", "address": {"city": "HARRISBURG", "state": "PA", "street": "2401 N 3RD ST", "postcode": "17110"}}},
{"geometry": {"type": "Point", "coordinates": [-76.8960610536, 40.2991239779]}, "type": "Feature", "properties": {"collection_times": [{"days": "Mon-Sat", "time": "11:00am"}, {"days": "Sun", "time": "Closed"}], "id": "1711000092", "name": "USPS COLLECTION BOX - BLUE BOX", "address": {"city": "HARRISBURG", "state": "PA", "street": "3232 HOFFMAN ST", "postcode": "17110"}}},
{"geometry": {"type": "Point", "coordinates": [-76.8532328702, 40.3211828256]}, "type": "Feature", "properties": {"collection_times": [{"days": "Mon-Fri", "time": "3:45pm"}, {"days": "Sat", "time": "11:00am"}, {"days": "Sun", "time": "Closed"}], "id": "1711000095", "name": "USPS COLLECTION BOX - BLUE BOX", "address": {"city": "HARRISBURG", "state": "PA", "street": "2480 THEA DR", "postcode": "17110"}}},
{"geometry": {"type": "Point", "coordinates": [-76.882616121, 40.3148990063]}, "type": "Feature", "properties": {"collection_times": [{"days": "Mon-Fri", "time": "4:30pm"}, {"days": "Sat", "time": "11:00am"}, {"days": "Sun", "time": "Closed"}], "id": "1711000096", "name": "USPS COLLECTION BOX - BLUE BOX", "address": {"city": "HARRISBURG", "state": "PA", "street": "2401 MARKET PLACE DR", "postcode": "17110"}}},
{"geometry": {"type": "Point", "coordinates": [-76.8547485777, 40.3167453346]}, "type": "Feature", "properties": {"collection_times": [{"days": "Mon-Fri", "time": "3:45pm"}, {"days": "Sat", "time": "11:00am"}, {"days": "Sun", "time": "Closed"}], "id": "1711000098", "name": "USPS COLLECTION BOX - BLUE BOX", "address": {"city": "HARRISBURG", "state": "PA", "street": "2330 VARTAN WAY", "postcode": "17110"}}},
{"geometry": {"type": "Point", "coordinates": [-76.8532328702, 40.3211828256]}, "type": "Feature", "properties": {"collection_times": [{"days": "Mon-Fri", "time": "3:45pm"}, {"days": "Sat", "time": "11:00am"}, {"days": "Sun", "time": "Closed"}], "id": "1711000100", "name": "USPS COLLECTION BOX - BLUE BOX", "address": {"city": "HARRISBURG", "state": "PA", "street": "2480 THEA DR", "postcode": "17110"}}},
{"geometry": {"type": "Point", "coordinates": [-76.882616121, 40.3148990063]}, "type": "Feature", "properties": {"collection_times": [{"days": "Mon-Fri", "time": "4:30pm"}, {"days": "Sat", "time": "11:00am"}, {"days": "Sun", "time": "Closed"}], "id": "1711000101", "name": "USPS COLLECTION BOX - BLUE BOX", "address": {"city": "HARRISBURG", "state": "PA", "street": "2401 MARKET PLACE DR", "postcode": "17110"}}},
{"geometry": {"type": "Point", "coordinates": [-76.9039975253, 40.2996172718]}, "type": "Feature", "properties": {"collection_times": [{"days": "Mon-Fri", "time": "3:00pm"}, {"days": "Sat", "time": "9:00am"}, {"days": "Sun", "time": "Closed"}], "id": "1711000102", "name": "USPS COLLECTION BOX - BLUE BOX", "address": {"city": "HARRISBURG", "state": "PA", "street": "3211 N FRONT ST", "postcode": "17110"}}},
{"geometry": {"type": "Point", "coordinates": [-76.9027293933, 40.3032004545]}, "type": "Feature", "properties": {"collection_times": [{"days": "Mon-Sat", "time": "9:00am"}, {"days": "Sun", "time": "Closed"}], "id": "1711000104", "name": "USPS COLLECTION BOX - BLUE BOX", "address": {"city": "HARRISBURG", "state": "PA", "street": "3401 N FRONT ST REAR", "postcode": "17110"}}},
{"geometry": {"type": "Point", "coordinates": [-76.8734511589, 40.3271601054]}, "type": "Feature", "properties": {"collection_times": [{"days": "Mon-Fri", "time": "4:30pm"}, {"days": "Sat", "time": "11:00am"}, {"days": "Sun", "time": "Closed"}], "id": "1711000105", "name": "USPS COLLECTION BOX - BLUE BOX", "address": {"city": "HARRISBURG", "state": "PA", "street": "1800 LINGLESTOWN RD", "postcode": "17110"}}},
{"geometry": {"type": "Point", "coordinates": [-76.8900776472, 40.2863231789]}, "type": "Feature", "properties": {"collection_times": [{"days": "Mon-Fri", "time": "5:30pm"}, {"days": "Sat", "time": "3:30pm"}, {"days": "Sun", "time": "Closed"}], "id": "1711000107", "name": "USPS COLLECTION BOX - BLUE BOX", "address": {"city": "HARRISBURG", "state": "PA", "street": "2347 N 7TH ST", "postcode": "17110"}}},
{"geometry": {"type": "Point", "coordinates": [-76.8779913554, 40.291684349]}, "type": "Feature", "properties": {"collection_times": [{"days": "Mon-Fri", "time": "5:00pm"}, {"days": "Sat-Sun", "time": "Closed"}], "id": "1711000109", "name": "USPS COLLECTION BOX - BLUE BOX", "address": {"city": "HARRISBURG", "state": "PA", "street": "909 ELMERTON AVE", "postcode": "17110"}}},
{"geometry": {"type": "Point", "coordinates": [-76.8994431333, 40.3001188464]}, "type": "Feature", "properties": {"collection_times": [{"days": "Mon-Sat", "time": "11:00am"}, {"days": "Sun", "time": "Closed"}], "id": "1711000110", "name": "USPS COLLECTION BOX - BLUE BOX", "address": {"city": "HARRISBURG", "state": "PA", "street": "3300 N 3RD ST", "postcode": "17110"}}},
{"geometry": {"type": "Point", "coordinates": [-76.8521488776, 40.3308805532]}, "type": "Feature", "properties": {"collection_times": [{"days": "Mon-Fri", "time": "3:45pm"}, {"days": "Sat", "time": "3:00pm"}, {"days": "Sun", "time": "Closed"}], "id": "1711000111", "name": "USPS COLLECTION BOX - BLUE BOX", "address": {"city": "HARRISBURG", "state": "PA", "street": "4392 STURBRIDGE DR", "postcode": "17110"}}},
{"geometry": {"type": "Point", "coordinates": [-76.881951902, 40.3264325856]}, "type": "Feature", "properties": {"collection_times": [{"days": "Mon-Fri", "time": "4:30pm"}, {"days": "Sat", "time": "11:00am"}, {"days": "Sun", "time": "Closed"}], "id": "1711000112", "name": "USPS COLLECTION BOX - BLUE BOX", "address": {"city": "HARRISBURG", "state": "PA", "street": "1300 LINGLESTOWN RD", "postcode": "17110"}}},
{"geometry": {"type": "Point", "coordinates": [-76.881951902, 40.3264325856]}, "type": "Feature", "properties": {"collection_times": [{"days": "Mon-Fri", "time": "4:30pm"}, {"days": "Sat", "time": "11:00am"}, {"days": "Sun", "time": "Closed"}], "id": "1711000113", "name": "USPS COLLECTION BOX - BLUE BOX", "address": {"city": "HARRISBURG", "state": "PA", "street": "1300 LINGLESTOWN RD", "postcode": "17110"}}},
{"geometry": {"type": "Point", "coordinates": [-76.8900776472, 40.2863231789]}, "type": "Feature", "properties": {"collection_times": [{"days": "Mon-Fri", "time": "4:45pm"}, {"days": "Sat", "time": "12:00pm"}, {"days": "Sun", "time": "Closed"}], "id": "1711000114", "name": "USPS COLLECTION BOX - PO LOBBY", "address": {"city": "HARRISBURG", "state": "PA", "street": "2347 N 7TH ST", "postcode": "17110"}}},
{"geometry": {"type": "Point", "coordinates": [-76.8997211286, 40.3274132586]}, "type": "Feature", "properties": {"collection_times": [{"days": "Mon-Fri", "time": "11:00am"}, {"days": "Sat-Sun", "time": "Closed"}], "id": "1711000116", "name": "USPS COLLECTION BOX - BLUE BOX", "address": {"city": "HARRISBURG", "state": "PA", "street": "4431 N FRONT ST", "postcode": "17110"}}},
{"geometry": {"type": "Point", "coordinates": [-76.8812041711, 40.28664809]}, "type": "Feature", "properties": {"collection_times": [{"days": "Mon-Sat", "time": "11:00am"}, {"days": "Sun", "time": "Closed"}], "id": "1711000118", "name": "USPS COLLECTION BOX - BLUE BOX", "address": {"city": "HARRISBURG", "state": "PA", "street": "11 AZALEA", "postcode": "17110"}}},
{"geometry": {"type": "Point", "coordinates": [-76.8416484901, 40.2544613622]}, "type": "Feature", "properties": {"collection_times": [{"days": "Mon-Sat", "time": "9:00am"}, {"days": "Sun", "time": "Closed"}], "id": "1711100001", "name": "USPS COLLECTION BOX - BLUE BOX", "address": {"city": "HARRISBURG", "state": "PA", "street": "1205 S 28TH ST", "postcode": "17111"}}},
{"geometry": {"type": "Point", "coordinates": [-76.7924906303, 40.2613497322]}, "type": "Feature", "properties": {"collection_times": [{"days": "Mon-Sat", "time": "11:00am"}, {"days": "Sun", "time": "Closed"}], "id": "1711100007", "name": "USPS COLLECTION BOX - BLUE BOX", "address": {"city": "HARRISBURG", "state": "PA", "street": "5590 DERRY ST", "postcode": "17111"}}},
{"geometry": {"type": "Point", "coordinates": [-76.8186777929, 40.2584514828]}, "type": "Feature", "properties": {"collection_times": [{"days": "Mon-Fri", "time": "11:00am"}, {"days": "Sat-Sun", "time": "Closed"}], "id": "1711100008", "name": "USPS COLLECTION BOX - BLUE BOX", "address": {"city": "HARRISBURG", "state": "PA", "street": "8 OAKLEIGH AVE", "postcode": "17111"}}},
{"geometry": {"type": "Point", "coordinates": [-76.7783909424, 40.2678761168]}, "type": "Feature", "properties": {"collection_times": [{"days": "Mon-Fri", "time": "11:00am"}, {"days": "Sat-Sun", "time": "Closed"}], "id": "1711100010", "name": "USPS COLLECTION BOX - BLUE BOX", "address": {"city": "HARRISBURG", "state": "PA", "street": "6301 SOMERSET ST", "postcode": "17111"}}},
{"geometry": {"type": "Point", "coordinates": [-76.839114592, 40.2521368478]}, "type": "Feature", "properties": {"collection_times": [{"days": "Mon-Sat", "time": "9:00am"}, {"days": "Sun", "time": "Closed"}], "id": "1711100011", "name": "USPS COLLECTION BOX - BLUE BOX", "address": {"city": "HARRISBURG", "state": "PA", "street": "1291 S 28TH ST", "postcode": "17111"}}},
{"geometry": {"type": "Point", "coordinates": [-76.7726796165, 40.2725630003]}, "type": "Feature", "properties": {"collection_times": [{"days": "Mon-Fri", "time": "11:00am"}, {"days": "Sat-Sun", "time": "Closed"}], "id": "1711100013", "name": "USPS COLLECTION BOX - BLUE BOX", "address": {"city": "HARRISBURG", "state": "PA", "street": "611 N 67TH ST", "postcode": "17111"}}},
{"geometry": {"type": "Point", "coordinates": [-76.815935694, 40.2471908964]}, "type": "Feature", "properties": {"collection_times": [{"days": "Mon-Fri", "time": "3:00pm"}, {"days": "Sat-Sun", "time": "Closed"}], "id": "1711100015", "name": "USPS COLLECTION BOX - BLUE BOX", "address": {"city": "HARRISBURG", "state": "PA", "street": "4031 EXECUTIVE PARK DR", "postcode": "17111"}}},
{"geometry": {"type": "Point", "coordinates": [-76.7937208799, 40.2455976597]}, "type": "Feature", "properties": {"collection_times": [{"days": "Mon-Fri", "time": "9:00am"}, {"days": "Sat-Sun", "time": "Closed"}], "id": "1711100016", "name": "USPS COLLECTION BOX - BLUE BOX", "address": {"city": "HARRISBURG", "state": "PA", "street": "5069 STACEY DR E", "postcode": "17111"}}},
{"geometry": {"type": "Point", "coordinates": [-76.7744410424, 40.2934635193]}, "type": "Feature", "properties": {"collection_times": [{"days": "Mon-Fri", "time": "11:00am"}, {"days": "Sat-Sun", "time": "Closed"}], "id": "1711100017", "name": "USPS COLLECTION BOX - BLUE BOX", "address": {"city": "HARRISBURG", "state": "PA", "street": "6100 SPRINGKNOLL DR", "postcode": "17111"}}},
{"geometry": {"type": "Point", "coordinates": [-76.8257353261, 40.266228255]}, "type": "Feature", "properties": {"collection_times": [{"days": "Mon-Fri", "time": "11:00am"}, {"days": "Sat-Sun", "time": "Closed"}], "id": "1711100019", "name": "USPS COLLECTION BOX - BLUE BOX", "address": {"city": "HARRISBURG", "state": "PA", "street": "650 LUTHER RD", "postcode": "17111"}}},
{"geometry": {"type": "Point", "coordinates": [-76.7703461991, 40.2952730571]}, "type": "Feature", "properties": {"collection_times": [{"days": "Mon-Fri", "time": "11:00am"}, {"days": "Sat-Sun", "time": "Closed"}], "id": "1711100022", "name": "USPS COLLECTION BOX - BLUE BOX", "address": {"city": "HARRISBURG", "state": "PA", "street": "6100 SPRINGFORD DR", "postcode": "17111"}}},
{"geometry": {"type": "Point", "coordinates": [-76.7663105655, 40.2699995282]}, "type": "Feature", "properties": {"collection_times": [{"days": "Mon-Fri", "time": "9:00am"}, {"days": "Sat", "time": "11:00am"}, {"days": "Sun", "time": "Closed"}], "id": "1711100024", "name": "USPS COLLECTION BOX - BLUE BOX", "address": {"city": "HARRISBURG", "state": "PA", "street": "7100 JEFFERSON ST", "postcode": "17111"}}},
{"geometry": {"type": "Point", "coordinates": [-76.8336966399, 40.2591044761]}, "type": "Feature", "properties": {"collection_times": [{"days": "Mon-Sat", "time": "9:00am"}, {"days": "Sun", "time": "Closed"}], "id": "1711100025", "name": "USPS COLLECTION BOX - BLUE BOX", "address": {"city": "HARRISBURG", "state": "PA", "street": "3401 DERRY ST", "postcode": "17111"}}},
{"geometry": {"type": "Point", "coordinates": [-76.8443692957, 40.2598331788]}, "type": "Feature", "properties": {"collection_times": [{"days": "Mon-Sat", "time": "9:00am"}, {"days": "Sun", "time": "Closed"}], "id": "1711100027", "name": "USPS COLLECTION BOX - BLUE BOX", "address": {"city": "HARRISBURG", "state": "PA", "street": "2444 DERRY ST", "postcode": "17111"}}},
{"geometry": {"type": "Point", "coordinates": [-76.8093909376, 40.2779679308]}, "type": "Feature", "properties": {"collection_times": [{"days": "Mon-Fri", "time": "11:00am"}, {"days": "Sat-Sun", "time": "Closed"}], "id": "1711100028", "name": "USPS COLLECTION BOX - BLUE BOX", "address": {"city": "HARRISBURG", "state": "PA", "street": "4406 ONTARIO DR", "postcode": "17111"}}},
{"geometry": {"type": "Point", "coordinates": [-76.7769441836, 40.2617578531]}, "type": "Feature", "properties": {"collection_times": [{"days": "Mon-Fri", "time": "9:00am"}, {"days": "Sat", "time": "11:00am"}, {"days": "Sun", "time": "Closed"}], "id": "1711100033", "name": "USPS COLLECTION BOX - BLUE BOX", "address": {"city": "HARRISBURG", "state": "PA", "street": "6301 GRAYSON RD", "postcode": "17111"}}},
{"geometry": {"type": "Point", "coordinates": [-76.8419716759, 40.2557178021]}, "type": "Feature", "properties": {"collection_times": [{"days": "Mon-Sat", "time": "9:00am"}, {"days": "Sun", "time": "Closed"}], "id": "1711100035", "name": "USPS COLLECTION BOX - BLUE BOX", "address": {"city": "HARRISBURG", "state": "PA", "street": "2771 PAXTON ST", "postcode": "17111"}}},
{"geometry": {"type": "Point", "coordinates": [-76.8293324582, 40.2538688404]}, "type": "Feature", "properties": {"collection_times": [{"days": "Mon-Fri", "time": "3:00pm"}, {"days": "Sat", "time": "9:00am"}, {"days": "Sun", "time": "Closed"}], "id": "1711100036", "name": "USPS COLLECTION BOX - BLUE BOX", "address": {"city": "HARRISBURG", "state": "PA", "street": "3600 PAXTON ST", "postcode": "17111"}}},
{"geometry": {"type": "Point", "coordinates": [-76.8109305947, 40.2466727604]}, "type": "Feature", "properties": {"collection_times": [{"days": "Mon-Fri", "time": "3:00pm"}, {"days": "Sat", "time": "9:00am"}, {"days": "Sun", "time": "Closed"}], "id": "1711100037", "name": "USPS COLLECTION BOX - BLUE BOX", "address": {"city": "HARRISBURG", "state": "PA", "street": "599 EISENHOWER BLVD", "postcode": "17111"}}},
{"geometry": {"type": "Point", "coordinates": [-76.8019862419, 40.2490978262]}, "type": "Feature", "properties": {"collection_times": [{"days": "Mon-Fri", "time": "9:00am"}, {"days": "Sat", "time": "11:00am"}, {"days": "Sun", "time": "Closed"}], "id": "1711100039", "name": "USPS COLLECTION BOX - BLUE BOX", "address": {"city": "HARRISBURG", "state": "PA", "street": "4501 CHAMBERS HILL RD", "postcode": "17111"}}},
{"geometry": {"type": "Point", "coordinates": [-76.7786097898, 40.2545145953]}, "type": "Feature", "properties": {"collection_times": [{"days": "Mon-Fri", "time": "9:00am"}, {"days": "Sat", "time": "11:00am"}, {"days": "Sun", "time": "Closed"}], "id": "1711100040", "name": "USPS COLLECTION BOX - BLUE BOX", "address": {"city": "HARRISBURG", "state": "PA", "street": "6400 CHAMBERS HILL RD", "postcode": "17111"}}},
{"geometry": {"type": "Point", "coordinates": [-76.7589190126, 40.2659335844]}, "type": "Feature", "properties": {"collection_times": [{"days": "Mon-Fri", "time": "9:00am"}, {"days": "Sat", "time": "11:00am"}, {"days": "Sun", "time": "Closed"}], "id": "1711100041", "name": "USPS COLLECTION BOX - BLUE BOX", "address": {"city": "HARRISBURG", "state": "PA", "street": "7428 DERRY ST", "postcode": "17111"}}},
{"geometry": {"type": "Point", "coordinates": [-76.770243904, 40.2647708496]}, "type": "Feature", "properties": {"collection_times": [{"days": "Mon-Fri,Sun", "time": "Closed"}, {"days": "Sat", "time": "11:00am"}], "id": "1711100042", "name": "USPS COLLECTION BOX - BLUE BOX", "address": {"city": "HARRISBURG", "state": "PA", "street": "6700 DERRY ST", "postcode": "17111"}}},
{"geometry": {"type": "Point", "coordinates": [-76.8043320495, 40.2584408361]}, "type": "Feature", "properties": {"collection_times": [{"days": "Mon-Sat", "time": "11:00am"}, {"days": "Sun", "time": "Closed"}], "id": "1711100043", "name": "USPS COLLECTION BOX - BLUE BOX", "address": {"city": "HARRISBURG", "state": "PA", "street": "4790 DERRY ST", "postcode": "17111"}}},
{"geometry": {"type": "Point", "coordinates": [-76.8095926681, 40.2579818481]}, "type": "Feature", "properties": {"collection_times": [{"days": "Mon-Sat", "time": "11:00am"}, {"days": "Sun", "time": "Closed"}], "id": "1711100044", "name": "USPS COLLECTION BOX - BLUE BOX", "address": {"city": "HARRISBURG", "state": "PA", "street": "4200 DERRY ST", "postcode": "17111"}}},
{"geometry": {"type": "Point", "coordinates": [-76.8155432948, 40.2788758147]}, "type": "Feature", "properties": {"collection_times": [{"days": "Mon-Fri", "time": "4:00pm"}, {"days": "Sat", "time": "11:00am"}, {"days": "Sun", "time": "Closed"}], "id": "1711100045", "name": "USPS COLLECTION BOX - BLUE BOX", "address": {"city": "HARRISBURG", "state": "PA", "street": "4211 UNION DEPOSIT RD", "postcode": "17111"}}},
{"geometry": {"type": "Point", "coordinates": [-76.8148584698, 40.2789270416]}, "type": "Feature", "properties": {"collection_times": [{"days": "Mon-Fri", "time": "4:00pm"}, {"days": "Sat", "time": "11:00am"}, {"days": "Sun", "time": "Closed"}], "id": "1711100046", "name": "USPS COLLECTION BOX - BLUE BOX", "address": {"city": "HARRISBURG", "state": "PA", "street": "4247 UNION DEPOSIT RD", "postcode": "17111"}}},
{"geometry": {"type": "Point", "coordinates": [-76.8194999494, 40.2577984894]}, "type": "Feature", "properties": {"collection_times": [{"days": "Mon-Sat", "time": "11:00am"}, {"days": "Sun", "time": "Closed"}], "id": "1711100048", "name": "USPS COLLECTION BOX - BLUE BOX", "address": {"city": "HARRISBURG", "state": "PA", "street": "3869 DERRY ST", "postcode": "17111"}}},
{"geometry": {"type": "Point", "coordinates": [-76.7732868639, 40.2621772596]}, "type": "Feature", "properties": {"collection_times": [{"days": "Mon-Fri", "time": "9:00am"}, {"days": "Sat", "time": "11:00am"}, {"days": "Sun", "time": "Closed"}], "id": "1711100049", "name": "USPS COLLECTION BOX - BLUE BOX", "address": {"city": "HARRISBURG", "state": "PA", "street": "6531 GRAYSON RD", "postcode": "17111"}}},
{"geometry": {"type": "Point", "coordinates": [-76.7859186358, 40.2858874984]}, "type": "Feature", "properties": {"collection_times": [{"days": "Mon-Fri", "time": "11:00am"}, {"days": "Sat-Sun", "time": "Closed"}], "id": "1711100050", "name": "USPS COLLECTION BOX - BLUE BOX", "address": {"city": "HARRISBURG", "state": "PA", "street": "1001 COUNTRY LAKE DR", "postcode": "17111"}}},
{"geometry": {"type": "Point", "coordinates": [-76.7919201548, 40.2841269159]}, "type": "Feature", "properties": {"collection_times": [{"days": "Mon-Fri", "time": "11:00am"}, {"days": "Sat-Sun", "time": "Closed"}], "id": "1711100051", "name": "USPS COLLECTION BOX - BLUE BOX", "address": {"city": "HARRISBURG", "state": "PA", "street": "1136 SUMMERWOOD DR", "postcode": "17111"}}},
{"geometry": {"type": "Point", "coordinates": [-76.8127227775, 40.269947478]}, "type": "Feature", "properties": {"collection_times": [{"days": "Mon-Sat", "time": "11:00am"}, {"days": "Sun", "time": "Closed"}], "id": "1711100053", "name": "USPS COLLECTION BOX - BLUE BOX", "address": {"city": "HARRISBURG", "state": "PA", "street": "651 E PARK DR", "postcode": "17111"}}},
{"geometry": {"type": "Point", "coordinates": [-76.8052642212, 40.2799837019]}, "type": "Feature", "properties": {"collection_times": [{"days": "Mon-Fri", "time": "11:00am"}, {"days": "Sat-Sun", "time": "Closed"}], "id": "1711100054", "name": "USPS COLLECTION BOX - BLUE BOX", "address": {"city": "HARRISBURG", "state": "PA", "street": "4700 UNION DEPOSIT RD", "postcode": "17111"}}},
{"geometry": {"type": "Point", "coordinates": [-76.7939499447, 40.2665600485]}, "type": "Feature", "properties": {"collection_times": [{"days": "Mon-Sat", "time": "9:00am"}, {"days": "Sun", "time": "Closed"}], "id": "1711100055", "name": "USPS COLLECTION BOX - EXPRESS", "address": {"city": "HARRISBURG", "state": "PA", "street": "2771 PAXTON ST", "postcode": "17111"}}},
{"geometry": {"type": "Point", "coordinates": [-76.7939499447, 40.2665600485]}, "type": "Feature", "properties": {"collection_times": [{"days": "Mon-Fri", "time": "3:00pm"}, {"days": "Sat", "time": "9:00am"}, {"days": "Sun", "time": "Closed"}], "id": "1711100056", "name": "USPS COLLECTION BOX - EXPRESS", "address": {"city": "HARRISBURG", "state": "PA", "street": "599 EISENHOWER BLVD", "postcode": "17111"}}},
{"geometry": {"type": "Point", "coordinates": [-76.7939499447, 40.2665600485]}, "type": "Feature", "properties": {"collection_times": [{"days": "Mon-Fri", "time": "9:00am"}, {"days": "Sat", "time": "11:00am"}, {"days": "Sun", "time": "Closed"}], "id": "1711100057", "name": "USPS COLLECTION BOX - EXPRESS", "address": {"city": "HARRISBURG", "state": "PA", "street": "4501 CHAMBERS HILL RD", "postcode": "17111"}}},
{"geometry": {"type": "Point", "coordinates": [-76.7939499447, 40.2665600485]}, "type": "Feature", "properties": {"collection_times": [{"days": "Mon-Fri", "time": "5:30pm"}, {"days": "Sat", "time": "4:15pm"}, {"days": "Sun", "time": "Closed"}], "id": "1711100058", "name": "USPS COLLECTION BOX - EXPRESS", "address": {"city": "HARRISBURG", "state": "PA", "street": "5120 DERRY ST", "postcode": "17111"}}},
{"geometry": {"type": "Point", "coordinates": [-76.7973750679, 40.2590595237]}, "type": "Feature", "properties": {"collection_times": [{"days": "Mon-Fri", "time": "5:30pm"}, {"days": "Sat", "time": "4:15pm"}, {"days": "Sun", "time": "Closed"}], "id": "1711100059", "name": "USPS COLLECTION BOX - BLUE BOX", "address": {"city": "HARRISBURG", "state": "PA", "street": "5120 DERRY ST", "postcode": "17111"}}},
{"geometry": {"type": "Point", "coordinates": [-76.8194999494, 40.2577984894]}, "type": "Feature", "properties": {"collection_times": [{"days": "Mon-Sat", "time": "11:00am"}, {"days": "Sun", "time": "Closed"}], "id": "1711100060", "name": "USPS COLLECTION BOX - BLUE BOX", "address": {"city": "HARRISBURG", "state": "PA", "street": "3869 DERRY ST", "postcode": "17111"}}},
{"geometry": {"type": "Point", "coordinates": [-76.7939835245, 40.2819509626]}, "type": "Feature", "properties": {"collection_times": [{"days": "Mon-Fri", "time": "11:00am"}, {"days": "Sat-Sun", "time": "Closed"}], "id": "1711100068", "name": "USPS COLLECTION BOX - BLUE BOX", "address": {"city": "HARRISBURG", "state": "PA", "street": "5400 POND RD", "postcode": "17111"}}},
{"geometry": {"type": "Point", "coordinates": [-76.8080926761, 40.2559305972]}, "type": "Feature", "properties": {"collection_times": [{"days": "Mon-Sat", "time": "11:00am"}, {"days": "Sun", "time": "Closed"}], "id": "1711100070", "name": "USPS COLLECTION BOX - BLUE BOX", "address": {"city": "HARRISBURG", "state": "PA", "street": "150 S 43RD ST", "postcode": "17111"}}},
{"geometry": {"type": "Point", "coordinates": [-76.7973750679, 40.2590595237]}, "type": "Feature", "properties": {"collection_times": [{"days": "Mon-Fri", "time": "5:45pm"}, {"days": "Sat", "time": "3:00pm"}, {"days": "Sun", "time": "Closed"}], "id": "1711100071", "name": "USPS COLLECTION BOX - PO LOBBY", "address": {"city": "HARRISBURG", "state": "PA", "street": "5120 DERRY ST", "postcode": "17111"}}},
{"geometry": {"type": "Point", "coordinates": [-76.8223524755, 40.251545017]}, "type": "Feature", "properties": {"collection_times": [{"days": "Mon-Fri", "time": "9:00am"}, {"days": "Sat-Sun", "time": "Closed"}], "id": "1711100072", "name": "USPS COLLECTION BOX - BLUE BOX", "address": {"city": "HARRISBURG", "state": "PA", "street": "3721 TECPORT DR", "postcode": "17111"}}},
{"geometry": {"type": "Point", "coordinates": [-76.741270873, 40.2585165455]}, "type": "Feature", "properties": {"collection_times": [{"days": "Mon-Fri", "time": "9:00am"}, {"days": "Sat", "time": "11:00am"}, {"days": "Sun", "time": "Closed"}], "id": "1711100074", "name": "USPS COLLECTION BOX - BLUE BOX", "address": {"city": "HARRISBURG", "state": "PA", "street": "671 S 82ND ST", "postcode": "17111"}}},
{"geometry": {"type": "Point", "coordinates": [-76.8361607435, 40.2592641756]}, "type": "Feature", "properties": {"collection_times": [{"days": "Mon-Sat", "time": "9:00am"}, {"days": "Sun", "time": "Closed"}], "id": "1711100076", "name": "USPS COLLECTION BOX - BLUE BOX", "address": {"city": "HARRISBURG", "state": "PA", "street": "3200 DERRY ST", "postcode": "17111"}}},
{"geometry": {"type": "Point", "coordinates": [-76.7918778576, 40.3310260153]}, "type": "Feature", "properties": {"collection_times": [{"days": "Mon-Sat", "time": "11:00am"}, {"days": "Sun", "time": "Closed"}], "id": "1711200001", "name": "USPS COLLECTION BOX - BLUE BOX", "address": {"city": "HARRISBURG", "state": "PA", "street": "600 N MOUNTAIN RD", "postcode": "17112"}}},
{"geometry": {"type": "Point", "coordinates": [-76.7266039094, 40.35352742]}, "type": "Feature", "properties": {"collection_times": [{"days": "Mon-Sat", "time": "11:00am"}, {"days": "Sun", "time": "Closed"}], "id": "1711200002", "name": "USPS COLLECTION BOX - BLUE BOX", "address": {"city": "HARRISBURG", "state": "PA", "street": "7848 LINGLESTOWN RD", "postcode": "17112"}}},
{"geometry": {"type": "Point", "coordinates": [-76.7733599693, 40.3148666722]}, "type": "Feature", "properties": {"collection_times": [{"days": "Mon-Fri", "time": "11:00am"}, {"days": "Sat-Sun", "time": "Closed"}], "id": "1711200003", "name": "USPS COLLECTION BOX - BLUE BOX", "address": {"city": "HARRISBURG", "state": "PA", "street": "400 LOPAX RD", "postcode": "17112"}}},
{"geometry": {"type": "Point", "coordinates": [-76.8278963125, 40.3046858237]}, "type": "Feature", "properties": {"collection_times": [{"days": "Mon-Fri", "time": "11:00am"}, {"days": "Sat-Sun", "time": "Closed"}], "id": "1711200006", "name": "USPS COLLECTION BOX - BLUE BOX", "address": {"city": "HARRISBURG", "state": "PA", "street": "4117 BEECHWOOD LN", "postcode": "17112"}}},
{"geometry": {"type": "Point", "coordinates": [-76.79169095, 40.3407061685]}, "type": "Feature", "properties": {"collection_times": [{"days": "Mon-Sat", "time": "11:00am"}, {"days": "Sun", "time": "Closed"}], "id": "1711200009", "name": "USPS COLLECTION BOX - BLUE BOX", "address": {"city": "HARRISBURG", "state": "PA", "street": "1288 N MOUNTAIN RD", "postcode": "17112"}}},
{"geometry": {"type": "Point", "coordinates": [-76.7897662758, 40.3437783129]}, "type": "Feature", "properties": {"collection_times": [{"days": "Mon-Sat", "time": "11:00am"}, {"days": "Sun", "time": "Closed"}], "id": "1711200013", "name": "USPS COLLECTION BOX - BLUE BOX", "address": {"city": "HARRISBURG", "state": "PA", "street": "6041 LINGLESTOWN RD", "postcode": "17112"}}},
{"geometry": {"type": "Point", "coordinates": [-76.7254819197, 40.3359731497]}, "type": "Feature", "properties": {"collection_times": [{"days": "Mon-Sat", "time": "11:00am"}, {"days": "Sun", "time": "Closed"}], "id": "1711200016", "name": "USPS COLLECTION BOX - BLUE BOX", "address": {"city": "HARRISBURG", "state": "PA", "street": "7710 ALLENTOWN BLVD", "postcode": "17112"}}},
{"geometry": {"type": "Point", "coordinates": [-76.8216409209, 40.3412250151]}, "type": "Feature", "properties": {"collection_times": [{"days": "Mon-Fri", "time": "11:00am"}, {"days": "Sat-Sun", "time": "Closed"}], "id": "1711200018", "name": "USPS COLLECTION BOX - BLUE BOX", "address": {"city": "HARRISBURG", "state": "PA", "street": "1 FAIRFAX VIL", "postcode": "17112"}}},
{"geometry": {"type": "Point", "coordinates": [-76.819395849, 40.3365882883]}, "type": "Feature", "properties": {"collection_times": [{"days": "Mon-Fri", "time": "11:00am"}, {"days": "Sat-Sun", "time": "Closed"}], "id": "1711200019", "name": "USPS COLLECTION BOX - BLUE BOX", "address": {"city": "HARRISBURG", "state": "PA", "street": "4800 LINGLESTOWN RD", "postcode": "17112"}}},
{"geometry": {"type": "Point", "coordinates": [-76.8163213387, 40.3368686496]}, "type": "Feature", "properties": {"collection_times": [{"days": "Mon-Sat", "time": "11:00am"}, {"days": "Sun", "time": "Closed"}], "id": "1711200020", "name": "USPS COLLECTION BOX - BLUE BOX", "address": {"city": "HARRISBURG", "state": "PA", "street": "4755 LINGLESTOWN RD", "postcode": "17112"}}},
{"geometry": {"type": "Point", "coordinates": [-76.8154601445, 40.3370508253]}, "type": "Feature", "properties": {"collection_times": [{"days": "Mon-Sat", "time": "11:00am"}, {"days": "Sun", "time": "Closed"}], "id": "1711200021", "name": "USPS COLLECTION BOX - BLUE BOX", "address": {"city": "HARRISBURG", "state": "PA", "street": "4775 LINGLESTOWN RD", "postcode": "17112"}}},
{"geometry": {"type": "Point", "coordinates": [-76.8198205313, 40.3365516166]}, "type": "Feature", "properties": {"collection_times": [{"days": "Mon-Sat", "time": "11:00am"}, {"days": "Sun", "time": "Closed"}], "id": "1711200023", "name": "USPS COLLECTION BOX - BLUE BOX", "address": {"city": "HARRISBURG", "state": "PA", "street": "4401 LINGLESTOWN RD", "postcode": "17112"}}},
{"geometry": {"type": "Point", "coordinates": [-76.7877766161, 40.3226972811]}, "type": "Feature", "properties": {"collection_times": [{"days": "Mon-Fri", "time": "3:30pm"}, {"days": "Sat", "time": "11:00am"}, {"days": "Sun", "time": "Closed"}], "id": "1711200025", "name": "USPS COLLECTION BOX - BLUE BOX", "address": {"city": "HARRISBURG", "state": "PA", "street": "6059 ALLENTOWN BLVD", "postcode": "17112"}}},
{"geometry": {"type": "Point", "coordinates": [-76.8336305188, 40.3360869211]}, "type": "Feature", "properties": {"collection_times": [{"days": "Mon-Sat", "time": "11:00am"}, {"days": "Sun", "time": "Closed"}], "id": "1711200031", "name": "USPS COLLECTION BOX - BLUE BOX", "address": {"city": "HARRISBURG", "state": "PA", "street": "2213 FOREST HILLS DR", "postcode": "17112"}}},
{"geometry": {"type": "Point", "coordinates": [-76.7832568861, 40.3365624321]}, "type": "Feature", "properties": {"collection_times": [{"days": "Mon-Sat", "time": "11:00am"}, {"days": "Sun", "time": "Closed"}], "id": "1711200032", "name": "USPS COLLECTION BOX - EXPRESS", "address": {"city": "HARRISBURG", "state": "PA", "street": "2213 FOREST HILLS DR", "postcode": "17112"}}},
{"geometry": {"type": "Point", "coordinates": [-76.7832568861, 40.3365624321]}, "type": "Feature", "properties": {"collection_times": [{"days": "Mon-Fri", "time": "4:00pm"}, {"days": "Sat", "time": "11:00am"}, {"days": "Sun", "time": "Closed"}], "id": "1711200035", "name": "USPS COLLECTION BOX - EXPRESS", "address": {"city": "HARRISBURG", "state": "PA", "street": "6332 FLANK DR", "postcode": "17112"}}},
{"geometry": {"type": "Point", "coordinates": [-76.7904512091, 40.3187315228]}, "type": "Feature", "properties": {"collection_times": [{"days": "Mon-Fri", "time": "5:45pm"}, {"days": "Sat", "time": "4:00pm"}, {"days": "Sun", "time": "Closed"}], "id": "1711200037", "name": "USPS COLLECTION BOX - BLUE BOX", "address": {"city": "HARRISBURG", "state": "PA", "street": "5901 OLD JONESTOWN RD", "postcode": "17112"}}},
{"geometry": {"type": "Point", "coordinates": [-76.7904512091, 40.3187315228]}, "type": "Feature", "properties": {"collection_times": [{"days": "Mon-Fri", "time": "5:45pm"}, {"days": "Sat", "time": "4:00pm"}, {"days": "Sun", "time": "Closed"}], "id": "1711200038", "name": "USPS COLLECTION BOX - BLUE BOX", "address": {"city": "HARRISBURG", "state": "PA", "street": "5901 OLD JONESTOWN RD", "postcode": "17112"}}},
{"geometry": {"type": "Point", "coordinates": [-76.7832568861, 40.3365624321]}, "type": "Feature", "properties": {"collection_times": [{"days": "Mon-Fri", "time": "5:45pm"}, {"days": "Sat", "time": "4:00pm"}, {"days": "Sun", "time": "Closed"}], "id": "1711200039", "name": "USPS COLLECTION BOX - EXPRESS", "address": {"city": "HARRISBURG", "state": "PA", "street": "5901 OLD JONESTOWN RD", "postcode": "17112"}}},
{"geometry": {"type": "Point", "coordinates": [-76.8336305188, 40.3360869211]}, "type": "Feature", "properties": {"collection_times": [{"days": "Mon-Sat", "time": "11:00am"}, {"days": "Sun", "time": "Closed"}], "id": "1711200040", "name": "USPS COLLECTION BOX - BLUE BOX", "address": {"city": "HARRISBURG", "state": "PA", "street": "2213 FOREST HILLS DR", "postcode": "17112"}}},
{"geometry": {"type": "Point", "coordinates": [-76.7987804231, 40.3176195413]}, "type": "Feature", "properties": {"collection_times": [{"days": "Mon-Sat", "time": "11:00am"}, {"days": "Sun", "time": "Closed"}], "id": "1711200041", "name": "USPS COLLECTION BOX - BLUE BOX", "address": {"city": "HARRISBURG", "state": "PA", "street": "5351 JAYCEE AVE", "postcode": "17112"}}},
{"geometry": {"type": "Point", "coordinates": [-76.8044390739, 40.3080780654]}, "type": "Feature", "properties": {"collection_times": [{"days": "Mon-Fri", "time": "4:15pm"}, {"days": "Sat", "time": "11:00am"}, {"days": "Sun", "time": "Closed"}], "id": "1711200042", "name": "USPS COLLECTION BOX - BLUE BOX", "address": {"city": "HARRISBURG", "state": "PA", "street": "5050 JONESTOWN RD", "postcode": "17112"}}},
{"geometry": {"type": "Point", "coordinates": [-76.8044390739, 40.3080780654]}, "type": "Feature", "properties": {"collection_times": [{"days": "Mon-Fri", "time": "4:15pm"}, {"days": "Sat", "time": "11:00am"}, {"days": "Sun", "time": "Closed"}], "id": "1711200043", "name": "USPS COLLECTION BOX - BLUE BOX", "address": {"city": "HARRISBURG", "state": "PA", "street": "5050 JONESTOWN RD", "postcode": "17112"}}},
{"geometry": {"type": "Point", "coordinates": [-76.7904512091, 40.3187315228]}, "type": "Feature", "properties": {"collection_times": [{"days": "Mon-Fri", "time": "6:00pm"}, {"days": "Sat", "time": "3:00pm"}, {"days": "Sun", "time": "Closed"}], "id": "1711200045", "name": "USPS COLLECTION BOX - PO LOBBY", "address": {"city": "HARRISBURG", "state": "PA", "street": "5901 OLD JONESTOWN RD", "postcode": "17112"}}},
{"geometry": {"type": "Point", "coordinates": [-76.7799440548, 40.326526476]}, "type": "Feature", "properties": {"collection_times": [{"days": "Mon-Fri", "time": "4:00pm"}, {"days": "Sat", "time": "11:00am"}, {"days": "Sun", "time": "Closed"}], "id": "1711200046", "name": "USPS COLLECTION BOX - BLUE BOX", "address": {"city": "HARRISBURG", "state": "PA", "street": "6332 FLANK DR", "postcode": "17112"}}},
{"geometry": {"type": "Point", "coordinates": [-76.7799440548, 40.326526476]}, "type": "Feature", "properties": {"collection_times": [{"days": "Mon-Fri", "time": "4:00pm"}, {"days": "Sat", "time": "11:00am"}, {"days": "Sun", "time": "Closed"}], "id": "1711200047", "name": "USPS COLLECTION BOX - BLUE BOX", "address": {"city": "HARRISBURG", "state": "PA", "street": "6332 FLANK DR", "postcode": "17112"}}},
{"geometry": {"type": "Point", "coordinates": [-76.8311546469, 40.3109906368]}, "type": "Feature", "properties": {"collection_times": [{"days": "Mon-Sat", "time": "11:00am"}, {"days": "Sun", "time": "Closed"}], "id": "1711200048", "name": "USPS COLLECTION BOX - BLUE BOX", "address": {"city": "HARRISBURG", "state": "PA", "street": "4200 CRUMS MILL RD", "postcode": "17112"}}},
{"geometry": {"type": "Point", "coordinates": [-76.7904512091, 40.3187315228]}, "type": "Feature", "properties": {"collection_times": [{"days": "Mon-Fri", "time": "6:00pm"}, {"days": "Sat", "time": "3:00pm"}, {"days": "Sun", "time": "Closed"}], "id": "1711200049", "name": "USPS COLLECTION BOX - APC", "address": {"city": "HARRISBURG", "state": "PA", "street": "5901 OLD JONESTOWN RD", "postcode": "17112"}}},
{"geometry": {"type": "Point", "coordinates": [-76.8266170309, 40.224270768]}, "type": "Feature", "properties": {"collection_times": [{"days": "Mon-Fri", "time": "9:00am"}, {"days": "Sat", "time": "8:00am"}, {"days": "Sun", "time": "Closed"}], "id": "1711300001", "name": "USPS COLLECTION BOX - BLUE BOX", "address": {"city": "STEELTON", "state": "PA", "street": "803 S FRONT ST", "postcode": "17113"}}},
{"geometry": {"type": "Point", "coordinates": [-76.834848842, 40.2324618743]}, "type": "Feature", "properties": {"collection_times": [{"days": "Mon-Fri", "time": "9:00am"}, {"days": "Sat", "time": "8:00am"}, {"days": "Sun", "time": "Closed"}], "id": "1711300002", "name": "USPS COLLECTION BOX - BLUE BOX", "address": {"city": "STEELTON", "state": "PA", "street": "270 S 2ND ST", "postcode": "17113"}}},
{"geometry": {"type": "Point", "coordinates": [-76.8091096159, 40.2159337347]}, "type": "Feature", "properties": {"collection_times": [{"days": "Mon-Fri", "time": "9:00am"}, {"days": "Sat", "time": "8:00am"}, {"days": "Sun", "time": "Closed"}], "id": "1711300004", "name": "USPS COLLECTION BOX - BLUE BOX", "address": {"city": "STEELTON", "state": "PA", "street": "101 FELTON ST", "postcode": "17113"}}},
{"geometry": {"type": "Point", "coordinates": [-76.8392423516, 40.2351779481]}, "type": "Feature", "properties": {"collection_times": [{"days": "Mon-Fri", "time": "5:00pm"}, {"days": "Sat", "time": "3:00pm"}, {"days": "Sun", "time": "Closed"}], "id": "1711300006", "name": "USPS COLLECTION BOX - BLUE BOX", "address": {"city": "STEELTON", "state": "PA", "street": "5 S 2ND ST", "postcode": "17113"}}},
{"geometry": {"type": "Point", "coordinates": [-76.8320274848, 40.2298676453]}, "type": "Feature", "properties": {"collection_times": [{"days": "Mon-Fri", "time": "9:00am"}, {"days": "Sat", "time": "8:00am"}, {"days": "Sun", "time": "Closed"}], "id": "1711300007", "name": "USPS COLLECTION BOX - BLUE BOX", "address": {"city": "STEELTON", "state": "PA", "street": "410 S 2ND ST", "postcode": "17113"}}},
{"geometry": {"type": "Point", "coordinates": [-76.8321043772, 40.2350549204]}, "type": "Feature", "properties": {"collection_times": [{"days": "Mon-Fri", "time": "9:00am"}, {"days": "Sat", "time": "8:00am"}, {"days": "Sun", "time": "Closed"}], "id": "1711300013", "name": "USPS COLLECTION BOX - BLUE BOX", "address": {"city": "STEELTON", "state": "PA", "street": "434 SPRUCE ST", "postcode": "17113"}}},
{"geometry": {"type": "Point", "coordinates": [-76.8256844589, 40.2335170737]}, "type": "Feature", "properties": {"collection_times": [{"days": "Mon-Fri", "time": "9:00am"}, {"days": "Sat", "time": "8:00am"}, {"days": "Sun", "time": "Closed"}], "id": "1711300014", "name": "USPS COLLECTION BOX - BLUE BOX", "address": {"city": "STEELTON", "state": "PA", "street": "603 HIGHLAND ST", "postcode": "17113"}}},
{"geometry": {"type": "Point", "coordinates": [-76.843591116, 40.236116815]}, "type": "Feature", "properties": {"collection_times": [{"days": "Mon-Fri", "time": "9:00am"}, {"days": "Sat", "time": "8:00am"}, {"days": "Sun", "time": "Closed"}], "id": "1711300016", "name": "USPS COLLECTION BOX - BLUE BOX", "address": {"city": "STEELTON", "state": "PA", "street": "225 N FRONT ST", "postcode": "17113"}}},
{"geometry": {"type": "Point", "coordinates": [-76.8463282758, 40.2370990735]}, "type": "Feature", "properties": {"collection_times": [{"days": "Mon-Fri", "time": "9:00am"}, {"days": "Sat", "time": "8:00am"}, {"days": "Sun", "time": "Closed"}], "id": "1711300017", "name": "USPS COLLECTION BOX - BLUE BOX", "address": {"city": "STEELTON", "state": "PA", "street": "407 N FRONT ST", "postcode": "17113"}}},
{"geometry": {"type": "Point", "coordinates": [-76.8496394223, 40.2384865209]}, "type": "Feature", "properties": {"collection_times": [{"days": "Mon-Fri", "time": "9:00am"}, {"days": "Sat", "time": "8:00am"}, {"days": "Sun", "time": "Closed"}], "id": "1711300018", "name": "USPS COLLECTION BOX - BLUE BOX", "address": {"city": "STEELTON", "state": "PA", "street": "661 N FRONT ST", "postcode": "17113"}}},
{"geometry": {"type": "Point", "coordinates": [-76.8410073263, 40.2351117024]}, "type": "Feature", "properties": {"collection_times": [{"days": "Mon-Sat", "time": "9:00am"}, {"days": "Sun", "time": "Closed"}], "id": "1711300022", "name": "USPS COLLECTION BOX - BLUE BOX", "address": {"city": "STEELTON", "state": "PA", "street": "51 S FRONT ST", "postcode": "17113"}}},
{"geometry": {"type": "Point", "coordinates": [-76.8306579588, 40.2275064007]}, "type": "Feature", "properties": {"collection_times": [{"days": "Mon-Fri", "time": "9:00am"}, {"days": "Sat", "time": "8:00am"}, {"days": "Sun", "time": "Closed"}], "id": "1711300023", "name": "USPS COLLECTION BOX - BLUE BOX", "address": {"city": "STEELTON", "state": "PA", "street": "575 S FRONT ST", "postcode": "17113"}}},
{"geometry": {"type": "Point", "coordinates": [-76.8375944897, 40.2373758859]}, "type": "Feature", "properties": {"collection_times": [{"days": "Mon-Sat", "time": "9:00am"}, {"days": "Sun", "time": "Closed"}], "id": "1711300024", "name": "USPS COLLECTION BOX - BLUE BOX", "address": {"city": "STEELTON", "state": "PA", "street": "364 LOCUST ST", "postcode": "17113"}}},
{"geometry": {"type": "Point", "coordinates": [-76.8432111789, 40.2382725687]}, "type": "Feature", "properties": {"collection_times": [{"days": "Mon-Fri", "time": "9:00am"}, {"days": "Sat", "time": "8:00am"}, {"days": "Sun", "time": "Closed"}], "id": "1711300027", "name": "USPS COLLECTION BOX - BLUE BOX", "address": {"city": "STEELTON", "state": "PA", "street": "150 LINCOLN ST", "postcode": "17113"}}},
{"geometry": {"type": "Point", "coordinates": [-76.8203670583, 40.229991856]}, "type": "Feature", "properties": {"collection_times": [{"days": "Mon-Fri", "time": "9:00am"}, {"days": "Sat", "time": "8:00am"}, {"days": "Sun", "time": "Closed"}], "id": "1711300029", "name": "USPS COLLECTION BOX - BLUE BOX", "address": {"city": "STEELTON", "state": "PA", "street": "623 MAIN ST", "postcode": "17113"}}},
{"geometry": {"type": "Point", "coordinates": [-76.8146368051, 40.2385138924]}, "type": "Feature", "properties": {"collection_times": [{"days": "Mon-Fri", "time": "9:00am"}, {"days": "Sat", "time": "8:00am"}, {"days": "Sun", "time": "Closed"}], "id": "1711300030", "name": "USPS COLLECTION BOX - BLUE BOX", "address": {"city": "STEELTON", "state": "PA", "street": "1152 MAIN ST", "postcode": "17113"}}},
{"geometry": {"type": "Point", "coordinates": [-76.830753438, 40.2314445296]}, "type": "Feature", "properties": {"collection_times": [{"days": "Mon-Fri", "time": "9:00am"}, {"days": "Sat", "time": "8:00am"}, {"days": "Sun", "time": "Closed"}], "id": "1711300031", "name": "USPS COLLECTION BOX - BLUE BOX", "address": {"city": "STEELTON", "state": "PA", "street": "301 MOHN ST", "postcode": "17113"}}},
{"geometry": {"type": "Point", "coordinates": [-76.8297408252, 40.232587268]}, "type": "Feature", "properties": {"collection_times": [{"days": "Mon-Fri", "time": "9:00am"}, {"days": "Sat", "time": "8:00am"}, {"days": "Sun", "time": "Closed"}], "id": "1711300032", "name": "USPS COLLECTION BOX - BLUE BOX", "address": {"city": "STEELTON", "state": "PA", "street": "501 MOHN ST", "postcode": "17113"}}},
{"geometry": {"type": "Point", "coordinates": [-76.8185254772, 40.2315049575]}, "type": "Feature", "properties": {"collection_times": [{"days": "Mon-Fri", "time": "5:00pm"}, {"days": "Sat", "time": "3:00pm"}, {"days": "Sun", "time": "Closed"}], "id": "1711300033", "name": "USPS COLLECTION BOX - PO LOBBY", "address": {"city": "STEELTON", "state": "PA", "street": "29 LOCUST ST", "postcode": "17113"}}},
{"geometry": {"type": "Point", "coordinates": [-76.8836291408, 40.2650635512]}, "type": "Feature", "properties": {"collection_times": [{"days": "Mon-Fri", "time": "4:00pm"}, {"days": "Sat-Sun", "time": "Closed"}], "id": "1712000025", "name": "USPS COLLECTION BOX - BLUE BOX", "address": {"city": "HARRISBURG", "state": "PA", "street": "100 COMMONWEALTH", "postcode": "17120"}}},
{"geometry": {"type": "Point", "coordinates": [-76.8847189057, 40.2654987306]}, "type": "Feature", "properties": {"collection_times": [{"days": "Mon-Fri", "time": "4:00pm"}, {"days": "Sat-Sun", "time": "Closed"}], "id": "1712000026", "name": "USPS COLLECTION BOX - BLUE BOX", "address": {"city": "HARRISBURG", "state": "PA", "street": "400 NORTH ST", "postcode": "17120"}}}
]}
