{"type": "FeatureCollection", "features": [
{"geometry": {"type": "Point", "coordinates": [-77.6595500755, 39.9373393455]}, "type": "Feature", "properties": {"collection_times": [{"days": "Mon-Fri", "time": "3:00pm"}, {"days": "Sat-Sun", "time": "Closed"}], "id": "1720100003", "name": "USPS COLLECTION BOX - BLUE BOX", "address": {"city": "CHAMBERSBURG", "state": "PA", "street": "183 LINCOLN WAY E", "postcode": "17201"}}},
{"geometry": {"type": "Point", "coordinates": [-77.6594258014, 39.9359132591]}, "type": "Feature", "properties": {"collection_times": [{"days": "Mon-Fri", "time": "3:30pm"}, {"days": "Sat", "time": "9:00am"}, {"days": "Sun", "time": "Closed"}], "id": "1720100004", "name": "USPS COLLECTION BOX - BLUE BOX", "address": {"city": "CHAMBERSBURG", "state": "PA", "street": "100 S 2ND ST", "postcode": "17201"}}},
{"geometry": {"type": "Point", "coordinates": [-77.6511938093, 39.9372857726]}, "type": "Feature", "properties": {"collection_times": [{"days": "Mon-Fri", "time": "2:00pm"}, {"days": "Sat", "time": "12:00pm"}, {"days": "Sun", "time": "Closed"}], "id": "1720100010", "name": "USPS COLLECTION BOX - BLUE BOX", "address": {"city": "CHAMBERSBURG", "state": "PA", "street": "149 5TH AVE", "postcode": "17201"}}},
{"geometry": {"type": "Point", "coordinates": [-77.64659944, 39.9324847673]}, "type": "Feature", "properties": {"collection_times": [{"days": "Mon-Fri", "time": "3:00pm"}, {"days": "Sat", "time": "9:00am"}, {"days": "Sun", "time": "Closed"}], "id": "1720100018", "name": "USPS COLLECTION BOX - BLUE BOX", "address": {"city": "CHAMBERSBURG", "state": "PA", "street": "144 S 8TH ST", "postcode": "17201"}}},
{"geometry": {"type": "Point", "coordinates": [-77.6581101131, 39.9286773325]}, "type": "Feature", "properties": {"collection_times": [{"days": "Mon-Fri", "time": "3:00pm"}, {"days": "Sat", "time": "9:30am"}, {"days": "Sun", "time": "Closed"}], "id": "1720100021", "name": "USPS COLLECTION BOX - BLUE BOX", "address": {"city": "CHAMBERSBURG", "state": "PA", "street": "550 CLEVELAND AVE", "postcode": "17201"}}},
{"geometry": {"type": "Point", "coordinates": [-77.661156298, 39.93784287]}, "type": "Feature", "properties": {"collection_times": [{"days": "Mon-Fri", "time": "3:30pm"}, {"days": "Sat-Sun", "time": "Closed"}], "id": "1720100025", "name": "USPS COLLECTION BOX - BLUE BOX", "address": {"city": "CHAMBERSBURG", "state": "PA", "street": "14 N MAIN ST", "postcode": "17201"}}},
{"geometry": {"type": "Point", "coordinates": [-77.6650643405, 39.937953628]}, "type": "Feature", "properties": {"collection_times": [{"days": "Mon-Sat", "time": "10:00am"}, {"days": "Sun", "time": "Closed"}], "id": "1720100027", "name": "USPS COLLECTION BOX - BLUE BOX", "address": {"city": "CHAMBERSBURG", "state": "PA", "street": "204 LINCOLN WAY W", "postcode": "17201"}}},
{"geometry": {"type": "Point", "coordinates": [-77.6614244471, 39.9372582297]}, "type": "Feature", "properties": {"collection_times": [{"days": "Mon-Sat", "time": "10:00am"}, {"days": "Sun", "time": "Closed"}], "id": "1720100033", "name": "USPS COLLECTION BOX - BLUE BOX", "address": {"city": "CHAMBERSBURG", "state": "PA", "street": "19 S MAIN ST", "postcode": "17201"}}},
{"geometry": {"type": "Point", "coordinates": [-77.6612434168, 39.9380535774]}, "type": "Feature", "properties": {"collection_times": [{"days": "Mon-Sat", "time": "12:00pm"}, {"days": "Sun", "time": "Closed"}], "id": "1720100034", "name": "USPS COLLECTION BOX - BLUE BOX", "address": {"city": "CHAMBERSBURG", "state": "PA", "street": "101 N MAIN ST", "postcode": "17201"}}},
{"geometry": {"type": "Point", "coordinates": [-77.6525554476, 39.946192756]}, "type": "Feature", "properties": {"collection_times": [{"days": "Mon-Fri", "time": "10:30am"}, {"days": "Sat", "time": "10:00am"}, {"days": "Sun", "time": "Closed"}], "id": "1720100039", "name": "USPS COLLECTION BOX - BLUE BOX", "address": {"city": "CHAMBERSBURG", "state": "PA", "street": "1140 EDGAR AVE", "postcode": "17201"}}},
{"geometry": {"type": "Point", "coordinates": [-77.6569198711, 39.9368586618]}, "type": "Feature", "properties": {"collection_times": [{"days": "Mon-Sat", "time": "5:00pm"}, {"days": "Sun", "time": "Closed"}], "id": "1720100044", "name": "USPS COLLECTION BOX - BLUE BOX", "address": {"city": "CHAMBERSBURG", "state": "PA", "street": "308 LINCOLN WAY E", "postcode": "17201"}}},
{"geometry": {"type": "Point", "coordinates": [-77.6552876504, 39.9366002241]}, "type": "Feature", "properties": {"collection_times": [{"days": "Mon-Fri", "time": "3:30pm"}, {"days": "Sat", "time": "2:00pm"}, {"days": "Sun", "time": "Closed"}], "id": "1720100045", "name": "USPS COLLECTION BOX - BLUE BOX", "address": {"city": "CHAMBERSBURG", "state": "PA", "street": "25 PENNCRAFT AVE", "postcode": "17201"}}},
{"geometry": {"type": "Point", "coordinates": [-77.6653236777, 39.9343713918]}, "type": "Feature", "properties": {"collection_times": [{"days": "Mon-Sat", "time": "10:00am"}, {"days": "Sun", "time": "Closed"}], "id": "1720100047", "name": "USPS COLLECTION BOX - BLUE BOX", "address": {"city": "CHAMBERSBURG", "state": "PA", "street": "221 SOUTHGATE MALL", "postcode": "17201"}}},
{"geometry": {"type": "Point", "coordinates": [-77.6531272132, 39.9141070188]}, "type": "Feature", "properties": {"collection_times": [{"days": "Mon-Sat", "time": "12:00pm"}, {"days": "Sun", "time": "Closed"}], "id": "1720100052", "name": "USPS COLLECTION BOX - BLUE BOX", "address": {"city": "CHAMBERSBURG", "state": "PA", "street": "993 WAYNE AVE", "postcode": "17201"}}},
{"geometry": {"type": "Point", "coordinates": [-77.640338692, 39.9271428074]}, "type": "Feature", "properties": {"collection_times": [{"days": "Mon-Fri", "time": "3:00pm"}, {"days": "Sat", "time": "10:00am"}, {"days": "Sun", "time": "Closed"}], "id": "1720100053", "name": "USPS COLLECTION BOX - BLUE BOX", "address": {"city": "CHAMBERSBURG", "state": "PA", "street": "442 STOUFFER AVE", "postcode": "17201"}}},
{"geometry": {"type": "Point", "coordinates": [-77.6382518624, 39.964664277]}, "type": "Feature", "properties": {"collection_times": [{"days": "Mon-Sat", "time": "10:00am"}, {"days": "Sun", "time": "Closed"}], "id": "1720100055", "name": "USPS COLLECTION BOX - BLUE BOX", "address": {"city": "CHAMBERSBURG", "state": "PA", "street": "2655 PHILADELPHIA AVE", "postcode": "17201"}}},
{"geometry": {"type": "Point", "coordinates": [-77.6552690749, 39.9409236113]}, "type": "Feature", "properties": {"collection_times": [{"days": "Mon-Sat", "time": "5:00pm"}, {"days": "Sun", "time": "Closed"}], "id": "1720100061", "name": "USPS COLLECTION BOX - EXPRESS", "address": {"city": "CHAMBERSBURG", "state": "PA", "street": "308 LINCOLN WAY E", "postcode": "17201"}}},
{"geometry": {"type": "Point", "coordinates": [-77.6569198711, 39.9368586618]}, "type": "Feature", "properties": {"collection_times": [{"days": "Mon-Sat", "time": "5:00pm"}, {"days": "Sun", "time": "Closed"}], "id": "1720100062", "name": "USPS COLLECTION BOX - BLUE BOX", "address": {"city": "CHAMBERSBURG", "state": "PA", "street": "308 LINCOLN WAY E", "postcode": "17201"}}},
{"geometry": {"type": "Point", "coordinates": [-77.6570630092, 39.9368983127]}, "type": "Feature", "properties": {"collection_times": [{"days": "Mon-Sat", "time": "5:00pm"}, {"days": "Sun", "time": "Closed"}], "id": "1720100065", "name": "USPS COLLECTION BOX - BLUE BOX", "address": {"city": "CHAMBERSBURG", "state": "PA", "street": "2 S 3RD ST", "postcode": "17201"}}},
{"geometry": {"type": "Point", "coordinates": [-77.6570630092, 39.9368983127]}, "type": "Feature", "properties": {"collection_times": [{"days": "Mon-Sat", "time": "5:00pm"}, {"days": "Sun", "time": "Closed"}], "id": "1720100066", "name": "USPS COLLECTION BOX - BLUE BOX", "address": {"city": "CHAMBERSBURG", "state": "PA", "street": "2 S 3RD ST", "postcode": "17201"}}},
{"geometry": {"type": "Point", "coordinates": [-77.6586282335, 39.9396335936]}, "type": "Feature", "properties": {"collection_times": [{"days": "Mon-Fri", "time": "3:30pm"}, {"days": "Sat", "time": "10:00am"}, {"days": "Sun", "time": "Closed"}], "id": "1720100068", "name": "USPS COLLECTION BOX - BLUE BOX", "address": {"city": "CHAMBERSBURG", "state": "PA", "street": "218 N 2ND ST", "postcode": "17201"}}},
{"geometry": {"type": "Point", "coordinates": [-77.6595500755, 39.9373393455]}, "type": "Feature", "properties": {"collection_times": [{"days": "Mon-Fri", "time": "3:00pm"}, {"days": "Sat-Sun", "time": "Closed"}], "id": "1720100069", "name": "USPS COLLECTION BOX - BLUE BOX", "address": {"city": "CHAMBERSBURG", "state": "PA", "street": "183 LINCOLN WAY E", "postcode": "17201"}}},
{"geometry": {"type": "Point", "coordinates": [-77.6569198711, 39.9368586618]}, "type": "Feature", "properties": {"collection_times": [{"days": "Mon-Sat", "time": "5:00pm"}, {"days": "Sun", "time": "Closed"}], "id": "1720100070", "name": "USPS COLLECTION BOX - BLUE BOX", "address": {"city": "CHAMBERSBURG", "state": "PA", "street": "308 LINCOLN WAY E", "postcode": "17201"}}},
{"geometry": {"type": "Point", "coordinates": [-77.6581101131, 39.9286773325]}, "type": "Feature", "properties": {"collection_times": [{"days": "Mon-Fri", "time": "3:00pm"}, {"days": "Sat", "time": "9:30am"}, {"days": "Sun", "time": "Closed"}], "id": "1720100071", "name": "USPS COLLECTION BOX - BLUE BOX", "address": {"city": "CHAMBERSBURG", "state": "PA", "street": "550 CLEVELAND AVE", "postcode": "17201"}}},
{"geometry": {"type": "Point", "coordinates": [-77.661156298, 39.93784287]}, "type": "Feature", "properties": {"collection_times": [{"days": "Mon-Fri", "time": "3:30pm"}, {"days": "Sat-Sun", "time": "Closed"}], "id": "1720100073", "name": "USPS COLLECTION BOX - BLUE BOX", "address": {"city": "CHAMBERSBURG", "state": "PA", "street": "14 N MAIN ST", "postcode": "17201"}}},
{"geometry": {"type": "Point", "coordinates": [-77.661156298, 39.93784287]}, "type": "Feature", "properties": {"collection_times": [{"days": "Mon-Fri", "time": "3:30pm"}, {"days": "Sat-Sun", "time": "Closed"}], "id": "1720100074", "name": "USPS COLLECTION BOX - BLUE BOX", "address": {"city": "CHAMBERSBURG", "state": "PA", "street": "14 N MAIN ST", "postcode": "17201"}}},
{"geometry": {"type": "Point", "coordinates": [-77.6569198711, 39.9368586618]}, "type": "Feature", "properties": {"collection_times": [{"days": "Mon-Sat", "time": "5:00pm"}, {"days": "Sun", "time": "Closed"}], "id": "1720100075", "name": "USPS COLLECTION BOX - PO LOBBY", "address": {"city": "CHAMBERSBURG", "state": "PA", "street": "308 LINCOLN WAY E", "postcode": "17201"}}},
{"geometry": {"type": "Point", "coordinates": [-77.640338692, 39.9271428074]}, "type": "Feature", "properties": {"collection_times": [{"days": "Mon-Fri", "time": "3:00pm"}, {"days": "Sat", "time": "10:00am"}, {"days": "Sun", "time": "Closed"}], "id": "1720100077", "name": "USPS COLLECTION BOX - BLUE BOX", "address": {"city": "CHAMBERSBURG", "state": "PA", "street": "442 STOUFFER AVE", "postcode": "17201"}}},
{"geometry": {"type": "Point", "coordinates": [-77.6497331126, 39.9900777205]}, "type": "Feature", "properties": {"collection_times": [{"days": "Mon-Sat", "time": "10:00am"}, {"days": "Sun", "time": "Closed"}], "id": "1720100078", "name": "USPS COLLECTION BOX - BLUE BOX", "address": {"city": "CHAMBERSBURG", "state": "PA", "street": "5000 LETTERKENNY RD", "postcode": "17201"}}},
{"geometry": {"type": "Point", "coordinates": [-77.6527622781, 39.9136830256]}, "type": "Feature", "properties": {"collection_times": [{"days": "Mon-Sat", "time": "12:00pm"}, {"days": "Sun", "time": "Closed"}], "id": "1720100080", "name": "USPS COLLECTION BOX - BLUE BOX", "address": {"city": "CHAMBERSBURG", "state": "PA", "street": "1005 WAYNE AVE", "postcode": "17201"}}},
{"geometry": {"type": "Point", "coordinates": [-77.6569198711, 39.9368586618]}, "type": "Feature", "properties": {"collection_times": [{"days": "Mon-Sat", "time": "5:00pm"}, {"days": "Sun", "time": "Closed"}], "id": "1720100081", "name": "USPS COLLECTION BOX - APC", "address": {"city": "CHAMBERSBURG", "state": "PA", "street": "308 LINCOLN WAY E", "postcode": "17201"}}},
{"geometry": {"type": "Point", "coordinates": [-77.6956205, 39.9328465363]}, "type": "Feature", "properties": {"collection_times": [{"days": "Mon-Sat", "time": "9:30am"}, {"days": "Sun", "time": "Closed"}], "id": "1720200001", "name": "USPS COLLECTION BOX - BLUE BOX", "address": {"city": "CHAMBERSBURG", "state": "PA", "street": "49 WARM SPRING RD", "postcode": "17202"}}},
{"geometry": {"type": "Point", "coordinates": [-77.609840893, 39.9238946411]}, "type": "Feature", "properties": {"collection_times": [{"days": "Mon-Sat", "time": "10:00am"}, {"days": "Sun", "time": "Closed"}], "id": "1720200003", "name": "USPS COLLECTION BOX - BLUE BOX", "address": {"city": "CHAMBERSBURG", "state": "PA", "street": "1730 LINCOLN WAY E", "postcode": "17202"}}},
{"geometry": {"type": "Point", "coordinates": [-77.676042145, 40.1713613588]}, "type": "Feature", "properties": {"collection_times": [{"days": "Mon-Fri", "time": "3:30pm"}, {"days": "Sat", "time": "11:15am"}, {"days": "Sun", "time": "Closed"}], "id": "1721000001", "name": "USPS COLLECTION BOX - BLUE BOX", "address": {"city": "AMBERSON", "state": "PA", "street": "19362 AMBERSON RD", "postcode": "17210"}}},
{"geometry": {"type": "Point", "coordinates": [-77.676042145, 40.1713613588]}, "type": "Feature", "properties": {"collection_times": [{"days": "Mon-Fri", "time": "3:30pm"}, {"days": "Sat", "time": "11:15am"}, {"days": "Sun", "time": "Closed"}], "id": "1721000002", "name": "USPS COLLECTION BOX - PO LOBBY", "address": {"city": "AMBERSON", "state": "PA", "street": "19362 AMBERSON RD", "postcode": "17210"}}},
{"geometry": {"type": "Point", "coordinates": [-78.3988689709, 39.7491003549]}, "type": "Feature", "properties": {"collection_times": [{"days": "Mon-Fri", "time": "12:00pm"}, {"days": "Sat", "time": "11:30am"}, {"days": "Sun", "time": "Closed"}], "id": "1721100001", "name": "USPS COLLECTION BOX - BLUE BOX", "address": {"city": "ARTEMAS", "state": "PA", "street": "633 CROOKED RUN RD", "postcode": "17211"}}},
{"geometry": {"type": "Point", "coordinates": [-77.7746943523, 40.2560813484]}, "type": "Feature", "properties": {"collection_times": [{"days": "Mon-Fri", "time": "4:00pm"}, {"days": "Sat", "time": "11:45am"}, {"days": "Sun", "time": "Closed"}], "id": "1721300001", "name": "USPS COLLECTION BOX - BLUE BOX", "address": {"city": "BLAIRS MILLS", "state": "PA", "street": "17394 TUSCARORA CREEK RD", "postcode": "17213"}}},
{"geometry": {"type": "Point", "coordinates": [-77.7746943523, 40.2560813484]}, "type": "Feature", "properties": {"collection_times": [{"days": "Mon-Fri", "time": "1:00pm"}, {"days": "Sat", "time": "11:45am"}, {"days": "Sun", "time": "Closed"}], "id": "1721300002", "name": "USPS COLLECTION BOX - PO LOBBY", "address": {"city": "BLAIRS MILLS", "state": "PA", "street": "17394 TUSCARORA CREEK RD", "postcode": "17213"}}},
{"geometry": {"type": "Point", "coordinates": [-77.4719046381, 39.7283174236]}, "type": "Feature", "properties": {"collection_times": [{"days": "Mon-Fri", "time": "4:00pm"}, {"days": "Sat", "time": "11:30am"}, {"days": "Sun", "time": "Closed"}], "id": "1721400002", "name": "USPS COLLECTION BOX - BLUE BOX", "address": {"city": "BLUE RIDGE SM", "state": "PA", "street": "14959 BUCHANAN TRL E", "postcode": "17214"}}},
{"geometry": {"type": "Point", "coordinates": [-77.4719046381, 39.7283174236]}, "type": "Feature", "properties": {"collection_times": [{"days": "Mon-Fri", "time": "4:00pm"}, {"days": "Sat", "time": "11:30am"}, {"days": "Sun", "time": "Closed"}], "id": "1721400003", "name": "USPS COLLECTION BOX - PO LOBBY", "address": {"city": "BLUE RIDGE SM", "state": "PA", "street": "14959 BUCHANAN TRL E", "postcode": "17214"}}},
{"geometry": {"type": "Point", "coordinates": [-77.8943247274, 40.0778299375]}, "type": "Feature", "properties": {"collection_times": [{"days": "Mon-Fri", "time": "4:30pm"}, {"days": "Sat", "time": "12:30pm"}, {"days": "Sun", "time": "Closed"}], "id": "1721500001", "name": "USPS COLLECTION BOX - BLUE BOX", "address": {"city": "BURNT CABINS", "state": "PA", "street": "233 GRIST MILL RD", "postcode": "17215"}}},
{"geometry": {"type": "Point", "coordinates": [-77.8943247274, 40.0778299375]}, "type": "Feature", "properties": {"collection_times": [{"days": "Mon-Fri", "time": "4:30pm"}, {"days": "Sat", "time": "12:30pm"}, {"days": "Sun", "time": "Closed"}], "id": "1721500002", "name": "USPS COLLECTION BOX - PO LOBBY", "address": {"city": "BURNT CABINS", "state": "PA", "street": "233 GRIST MILL RD", "postcode": "17215"}}},
{"geometry": {"type": "Point", "coordinates": [-77.6823276979, 40.2727798346]}, "type": "Feature", "properties": {"collection_times": [{"days": "Mon-Sat", "time": "11:00am"}, {"days": "Sun", "time": "Closed"}], "id": "1721700001", "name": "USPS COLLECTION BOX - BLUE BOX", "address": {"city": "CONCORD", "state": "PA", "street": "24173 PATH VALLEY RD", "postcode": "17217"}}},
{"geometry": {"type": "Point", "coordinates": [-77.6823276979, 40.2727798346]}, "type": "Feature", "properties": {"collection_times": [{"days": "Mon-Sat", "time": "11:00am"}, {"days": "Sun", "time": "Closed"}], "id": "1721700002", "name": "USPS COLLECTION BOX - PO LOBBY", "address": {"city": "CONCORD", "state": "PA", "street": "24173 PATH VALLEY RD", "postcode": "17217"}}},
{"geometry": {"type": "Point", "coordinates": [-77.735804737, 40.1811854158]}, "type": "Feature", "properties": {"collection_times": [{"days": "Mon-Fri", "time": "4:30pm"}, {"days": "Sat", "time": "11:30am"}, {"days": "Sun", "time": "Closed"}], "id": "1722000001", "name": "USPS COLLECTION BOX - BLUE BOX", "address": {"city": "DRY RUN", "state": "PA", "street": "18204 PATH VALLEY RD", "postcode": "17220"}}},
{"geometry": {"type": "Point", "coordinates": [-77.735804737, 40.1811854158]}, "type": "Feature", "properties": {"collection_times": [{"days": "Mon-Fri", "time": "12:30pm"}, {"days": "Sat", "time": "11:30am"}, {"days": "Sun", "time": "Closed"}], "id": "1722000002", "name": "USPS COLLECTION BOX - PO LOBBY", "address": {"city": "DRY RUN", "state": "PA", "street": "18204 PATH VALLEY RD", "postcode": "17220"}}},
{"geometry": {"type": "Point", "coordinates": [-77.8240148127, 40.0772184775]}, "type": "Feature", "properties": {"collection_times": [{"days": "Mon-Fri", "time": "4:30pm"}, {"days": "Sat", "time": "11:15am"}, {"days": "Sun", "time": "Closed"}], "id": "1722100001", "name": "USPS COLLECTION BOX - BLUE BOX", "address": {"city": "FANNETTSBURG", "state": "PA", "street": "10900 PATH VALLEY RD", "postcode": "17221"}}},
{"geometry": {"type": "Point", "coordinates": [-77.8240148127, 40.0772184775]}, "type": "Feature", "properties": {"collection_times": [{"days": "Mon-Fri", "time": "4:30pm"}, {"days": "Sat", "time": "11:15am"}, {"days": "Sun", "time": "Closed"}], "id": "1722100002", "name": "USPS COLLECTION BOX - PO LOBBY", "address": {"city": "FANNETTSBURG", "state": "PA", "street": "10900 PATH VALLEY RD", "postcode": "17221"}}},
{"geometry": {"type": "Point", "coordinates": [-77.5626361062, 39.9111823192]}, "type": "Feature", "properties": {"collection_times": [{"days": "Mon-Fri", "time": "4:30pm"}, {"days": "Sat", "time": "12:00pm"}, {"days": "Sun", "time": "Closed"}], "id": "1722200003", "name": "USPS COLLECTION BOX - BLUE BOX", "address": {"city": "FAYETTEVILLE", "state": "PA", "street": "4025 LINCOLN WAY E", "postcode": "17222"}}},
{"geometry": {"type": "Point", "coordinates": [-77.5626361062, 39.9111823192]}, "type": "Feature", "properties": {"collection_times": [{"days": "Mon-Fri", "time": "4:30pm"}, {"days": "Sat", "time": "12:00pm"}, {"days": "Sun", "time": "Closed"}], "id": "1722200006", "name": "USPS COLLECTION BOX - PO LOBBY", "address": {"city": "FAYETTEVILLE", "state": "PA", "street": "4025 LINCOLN WAY E", "postcode": "17222"}}},
{"geometry": {"type": "Point", "coordinates": [-77.8800839222, 39.9767237576]}, "type": "Feature", "properties": {"collection_times": [{"days": "Mon-Fri", "time": "4:30pm"}, {"days": "Sat", "time": "11:30am"}, {"days": "Sun", "time": "Closed"}], "id": "1722400001", "name": "USPS COLLECTION BOX - BLUE BOX", "address": {"city": "FORT LOUDON", "state": "PA", "street": "131 HAWBAKER DR N", "postcode": "17224"}}},
{"geometry": {"type": "Point", "coordinates": [-77.8800839222, 39.9767237576]}, "type": "Feature", "properties": {"collection_times": [{"days": "Mon-Fri", "time": "4:30pm"}, {"days": "Sat", "time": "11:30am"}, {"days": "Sun", "time": "Closed"}], "id": "1722400002", "name": "USPS COLLECTION BOX - PO LOBBY", "address": {"city": "FORT LOUDON", "state": "PA", "street": "131 HAWBAKER DR N", "postcode": "17224"}}},
{"geometry": {"type": "Point", "coordinates": [-77.7258639459, 39.7898212219]}, "type": "Feature", "properties": {"collection_times": [{"days": "Mon-Fri", "time": "5:00pm"}, {"days": "Sat", "time": "3:00pm"}, {"days": "Sun", "time": "Closed"}], "id": "1722500001", "name": "USPS COLLECTION BOX - BLUE BOX", "address": {"city": "GREENCASTLE", "state": "PA", "street": "2 N WASHINGTON ST", "postcode": "17225"}}},
{"geometry": {"type": "Point", "coordinates": [-77.7282066282, 39.7893115049]}, "type": "Feature", "properties": {"collection_times": [{"days": "Mon-Sat", "time": "9:30am"}, {"days": "Sun", "time": "Closed"}], "id": "1722500004", "name": "USPS COLLECTION BOX - BLUE BOX", "address": {"city": "GREENCASTLE", "state": "PA", "street": "14 CENTER SQ", "postcode": "17225"}}},
{"geometry": {"type": "Point", "coordinates": [-77.7284839408, 39.7982193027]}, "type": "Feature", "properties": {"collection_times": [{"days": "Mon-Sat", "time": "10:00am"}, {"days": "Sun", "time": "Closed"}], "id": "1722500011", "name": "USPS COLLECTION BOX - BLUE BOX", "address": {"city": "GREENCASTLE", "state": "PA", "street": "128 W WALTER AVE", "postcode": "17225"}}},
{"geometry": {"type": "Point", "coordinates": [-77.7258639459, 39.7898212219]}, "type": "Feature", "properties": {"collection_times": [{"days": "Mon-Fri", "time": "5:00pm"}, {"days": "Sat", "time": "3:00pm"}, {"days": "Sun", "time": "Closed"}], "id": "1722500022", "name": "USPS COLLECTION BOX - BLUE BOX", "address": {"city": "GREENCASTLE", "state": "PA", "street": "2 N WASHINGTON ST", "postcode": "17225"}}},
{"geometry": {"type": "Point", "coordinates": [-77.7258639459, 39.7898212219]}, "type": "Feature", "properties": {"collection_times": [{"days": "Mon-Fri", "time": "5:00pm"}, {"days": "Sat", "time": "3:00pm"}, {"days": "Sun", "time": "Closed"}], "id": "1722500023", "name": "USPS COLLECTION BOX - PO LOBBY", "address": {"city": "GREENCASTLE", "state": "PA", "street": "2 N WASHINGTON ST", "postcode": "17225"}}},
{"geometry": {"type": "Point", "coordinates": [-78.0600149502, 39.9876275523]}, "type": "Feature", "properties": {"collection_times": [{"days": "Mon-Fri", "time": "3:45pm"}, {"days": "Sat", "time": "11:00am"}, {"days": "Sun", "time": "Closed"}], "id": "1722800000", "name": "USPS COLLECTION BOX - BLUE BOX", "address": {"city": "HARRISONVILLE", "state": "PA", "street": "8764 LINCOLN HWY", "postcode": "17228"}}},
{"geometry": {"type": "Point", "coordinates": [-78.0301885209, 40.0480471651]}, "type": "Feature", "properties": {"collection_times": [{"days": "Mon-Fri", "time": "4:00pm"}, {"days": "Sat", "time": "11:00am"}, {"days": "Sun", "time": "Closed"}], "id": "1722900001", "name": "USPS COLLECTION BOX - BLUE BOX", "address": {"city": "HUSTONTOWN", "state": "PA", "street": "313 PITT ST STE A", "postcode": "17229"}}},
{"geometry": {"type": "Point", "coordinates": [-78.0301885209, 40.0480471651]}, "type": "Feature", "properties": {"collection_times": [{"days": "Mon-Fri", "time": "4:00pm"}, {"days": "Sat", "time": "11:00am"}, {"days": "Sun", "time": "Closed"}], "id": "1722900002", "name": "USPS COLLECTION BOX - PO LOBBY", "address": {"city": "HUSTONTOWN", "state": "PA", "street": "313 PITT ST", "postcode": "17229"}}},
{"geometry": {"type": "Point", "coordinates": [-77.8593248324, 39.854989477]}, "type": "Feature", "properties": {"collection_times": [{"days": "Mon-Fri", "time": "4:15pm"}, {"days": "Sat", "time": "11:45am"}, {"days": "Sun", "time": "Closed"}], "id": "1723100001", "name": "USPS COLLECTION BOX - BLUE BOX", "address": {"city": "LEMASTERS", "state": "PA", "street": "4729 STEELE AVE", "postcode": "17231"}}},
{"geometry": {"type": "Point", "coordinates": [-77.8593248324, 39.854989477]}, "type": "Feature", "properties": {"collection_times": [{"days": "Mon-Fri", "time": "4:15pm"}, {"days": "Sat", "time": "11:45am"}, {"days": "Sun", "time": "Closed"}], "id": "1723100002", "name": "USPS COLLECTION BOX - PO LOBBY", "address": {"city": "LEMASTERS", "state": "PA", "street": "4729 STEELE AVE", "postcode": "17231"}}},
{"geometry": {"type": "Point", "coordinates": [-77.6330268542, 40.095555972]}, "type": "Feature", "properties": {"collection_times": [{"days": "Mon-Fri", "time": "4:30pm"}, {"days": "Sat", "time": "11:30am"}, {"days": "Sun", "time": "Closed"}], "id": "1723200001", "name": "USPS COLLECTION BOX - BLUE BOX", "address": {"city": "LURGAN", "state": "PA", "street": "8406 ROXBURY RD", "postcode": "17232"}}},
{"geometry": {"type": "Point", "coordinates": [-77.6330268542, 40.095555972]}, "type": "Feature", "properties": {"collection_times": [{"days": "Mon-Fri", "time": "4:30pm"}, {"days": "Sat", "time": "11:30am"}, {"days": "Sun", "time": "Closed"}], "id": "1723200002", "name": "USPS COLLECTION BOX - PO LOBBY", "address": {"city": "LURGAN", "state": "PA", "street": "8406 ROXBURY RD", "postcode": "17232"}}},
{"geometry": {"type": "Point", "coordinates": [-77.9984136855, 39.9338834351]}, "type": "Feature", "properties": {"collection_times": [{"days": "Mon-Sat", "time": "12:30pm"}, {"days": "Sun", "time": "Closed"}], "id": "1723300002", "name": "USPS COLLECTION BOX - BLUE BOX", "address": {"city": "MC CONNELLSBURG", "state": "PA", "street": "201 N 2ND ST", "postcode": "17233"}}},
{"geometry": {"type": "Point", "coordinates": [-77.9996102077, 39.9313006843]}, "type": "Feature", "properties": {"collection_times": [{"days": "Mon-Fri", "time": "4:30pm"}, {"days": "Sat", "time": "2:00pm"}, {"days": "Sun", "time": "Closed"}], "id": "1723300005", "name": "USPS COLLECTION BOX - BLUE BOX", "address": {"city": "MC CONNELLSBURG", "state": "PA", "street": "115 E MAPLE ST", "postcode": "17233"}}},
{"geometry": {"type": "Point", "coordinates": [-78.0017396639, 39.9334246127]}, "type": "Feature", "properties": {"collection_times": [{"days": "Mon-Sat", "time": "12:30pm"}, {"days": "Sun", "time": "Closed"}], "id": "1723300007", "name": "USPS COLLECTION BOX - BLUE BOX", "address": {"city": "MC CONNELLSBURG", "state": "PA", "street": "225 LINCOLN WAY W", "postcode": "17233"}}},
{"geometry": {"type": "Point", "coordinates": [-77.9881743568, 39.9291548185]}, "type": "Feature", "properties": {"collection_times": [{"days": "Mon-Sat", "time": "12:30pm"}, {"days": "Sun", "time": "Closed"}], "id": "1723300008", "name": "USPS COLLECTION BOX - BLUE BOX", "address": {"city": "MC CONNELLSBURG", "state": "PA", "street": "656 LINCOLN WAY E", "postcode": "17233"}}},
{"geometry": {"type": "Point", "coordinates": [-77.9996102077, 39.9313006843]}, "type": "Feature", "properties": {"collection_times": [{"days": "Mon-Fri", "time": "4:30pm"}, {"days": "Sat", "time": "2:00pm"}, {"days": "Sun", "time": "Closed"}], "id": "1723300009", "name": "USPS COLLECTION BOX - PO LOBBY", "address": {"city": "MC CONNELLSBURG", "state": "PA", "street": "115 E MAPLE ST", "postcode": "17233"}}},
{"geometry": {"type": "Point", "coordinates": [-78.001474448, 39.9290064366]}, "type": "Feature", "properties": {"collection_times": [{"days": "Mon-Sat", "time": "12:30pm"}, {"days": "Sun", "time": "Closed"}], "id": "1723300010", "name": "USPS COLLECTION BOX - BLUE BOX", "address": {"city": "MC CONNELLSBURG", "state": "PA", "street": "360 S 2ND ST", "postcode": "17233"}}},
{"geometry": {"type": "Point", "coordinates": [-77.6966065873, 39.8572542083]}, "type": "Feature", "properties": {"collection_times": [{"days": "Mon-Fri", "time": "4:30pm"}, {"days": "Sat", "time": "11:30am"}, {"days": "Sun", "time": "Closed"}], "id": "1723500001", "name": "USPS COLLECTION BOX - BLUE BOX", "address": {"city": "MARION", "state": "PA", "street": "144 COLORADO ST", "postcode": "17235"}}},
{"geometry": {"type": "Point", "coordinates": [-77.6966065873, 39.8572542083]}, "type": "Feature", "properties": {"collection_times": [{"days": "Mon-Fri", "time": "4:30pm"}, {"days": "Sat", "time": "11:30am"}, {"days": "Sun", "time": "Closed"}], "id": "1723500002", "name": "USPS COLLECTION BOX - PO LOBBY", "address": {"city": "MARION", "state": "PA", "street": "144 COLORADO ST", "postcode": "17235"}}},
{"geometry": {"type": "Point", "coordinates": [-77.9041111933, 39.8282394546]}, "type": "Feature", "properties": {"collection_times": [{"days": "Mon-Sat", "time": "1:30pm"}, {"days": "Sun", "time": "Closed"}], "id": "1723600002", "name": "USPS COLLECTION BOX - BLUE BOX", "address": {"city": "MERCERSBURG", "state": "PA", "street": "13 W SEMINARY ST", "postcode": "17236"}}},
{"geometry": {"type": "Point", "coordinates": [-77.903652055, 39.8267372507]}, "type": "Feature", "properties": {"collection_times": [{"days": "Mon-Fri", "time": "4:30pm"}, {"days": "Sat", "time": "3:00pm"}, {"days": "Sun", "time": "Closed"}], "id": "1723600004", "name": "USPS COLLECTION BOX - BLUE BOX", "address": {"city": "MERCERSBURG", "state": "PA", "street": "128 S MAIN ST", "postcode": "17236"}}},
{"geometry": {"type": "Point", "coordinates": [-77.903652055, 39.8267372507]}, "type": "Feature", "properties": {"collection_times": [{"days": "Mon-Fri", "time": "4:30pm"}, {"days": "Sat", "time": "3:00pm"}, {"days": "Sun", "time": "Closed"}], "id": "1723600005", "name": "USPS COLLECTION BOX - BLUE BOX", "address": {"city": "MERCERSBURG", "state": "PA", "street": "128 S MAIN ST REAR", "postcode": "17236"}}},
{"geometry": {"type": "Point", "coordinates": [-77.9406122053, 39.8004426988]}, "type": "Feature", "properties": {"collection_times": [{"days": "Mon-Sat", "time": "10:00am"}, {"days": "Sun", "time": "Closed"}], "id": "1723600007", "name": "USPS COLLECTION BOX - BLUE BOX", "address": {"city": "MERCERSBURG", "state": "PA", "street": "431 LOUDON RD", "postcode": "17236"}}},
{"geometry": {"type": "Point", "coordinates": [-77.903652055, 39.8267372507]}, "type": "Feature", "properties": {"collection_times": [{"days": "Mon-Fri", "time": "4:30pm"}, {"days": "Sat", "time": "3:00pm"}, {"days": "Sun", "time": "Closed"}], "id": "1723600008", "name": "USPS COLLECTION BOX - PO LOBBY", "address": {"city": "MERCERSBURG", "state": "PA", "street": "128 S MAIN ST", "postcode": "17236"}}},
{"geometry": {"type": "Point", "coordinates": [-77.5431799572, 39.8413037115]}, "type": "Feature", "properties": {"collection_times": [{"days": "Mon-Sat", "time": "10:00am"}, {"days": "Sun", "time": "Closed"}], "id": "1723700001", "name": "USPS COLLECTION BOX - BLUE BOX", "address": {"city": "MONT ALTO", "state": "PA", "street": "1 CAMPUS DR", "postcode": "17237"}}},
{"geometry": {"type": "Point", "coordinates": [-77.5590531704, 39.8441675794]}, "type": "Feature", "properties": {"collection_times": [{"days": "Mon-Fri", "time": "4:00pm"}, {"days": "Sat", "time": "12:00pm"}, {"days": "Sun", "time": "Closed"}], "id": "1723700003", "name": "USPS COLLECTION BOX - BLUE BOX", "address": {"city": "MONT ALTO", "state": "PA", "street": "3 ASH ST", "postcode": "17237"}}},
{"geometry": {"type": "Point", "coordinates": [-77.5590531704, 39.8441675794]}, "type": "Feature", "properties": {"collection_times": [{"days": "Mon-Fri", "time": "4:00pm"}, {"days": "Sat", "time": "12:00pm"}, {"days": "Sun", "time": "Closed"}], "id": "1723700005", "name": "USPS COLLECTION BOX - PO LOBBY", "address": {"city": "MONT ALTO", "state": "PA", "street": "3 ASH ST", "postcode": "17237"}}},
{"geometry": {"type": "Point", "coordinates": [-78.1225043104, 39.849650398]}, "type": "Feature", "properties": {"collection_times": [{"days": "Mon-Fri", "time": "4:00pm"}, {"days": "Sat", "time": "11:30am"}, {"days": "Sun", "time": "Closed"}], "id": "1723800001", "name": "USPS COLLECTION BOX - BLUE BOX", "address": {"city": "NEEDMORE", "state": "PA", "street": "7992 GREAT COVE RD", "postcode": "17238"}}},
{"geometry": {"type": "Point", "coordinates": [-78.1225043104, 39.849650398]}, "type": "Feature", "properties": {"collection_times": [{"days": "Mon-Fri", "time": "4:00pm"}, {"days": "Sat", "time": "11:30am"}, {"days": "Sun", "time": "Closed"}], "id": "1723800002", "name": "USPS COLLECTION BOX - PO LOBBY", "address": {"city": "NEEDMORE", "state": "PA", "street": "7992 GREAT COVE RD", "postcode": "17238"}}},
{"geometry": {"type": "Point", "coordinates": [-77.5557358186, 40.1358485301]}, "type": "Feature", "properties": {"collection_times": [{"days": "Mon-Fri", "time": "4:00pm"}, {"days": "Sat", "time": "11:45am"}, {"days": "Sun", "time": "Closed"}], "id": "1724000001", "name": "USPS COLLECTION BOX - BLUE BOX", "address": {"city": "NEWBURG", "state": "PA", "street": "12 S WATER ST", "postcode": "17240"}}},
{"geometry": {"type": "Point", "coordinates": [-77.5557358186, 40.1358485301]}, "type": "Feature", "properties": {"collection_times": [{"days": "Mon-Fri", "time": "4:00pm"}, {"days": "Sat", "time": "11:45am"}, {"days": "Sun", "time": "Closed"}], "id": "1724000002", "name": "USPS COLLECTION BOX - PO LOBBY", "address": {"city": "NEWBURG", "state": "PA", "street": "12 S WATER ST", "postcode": "17240"}}},
{"geometry": {"type": "Point", "coordinates": [-77.4026999021, 40.1704653609]}, "type": "Feature", "properties": {"collection_times": [{"days": "Mon-Sat", "time": "9:00am"}, {"days": "Sun", "time": "Closed"}], "id": "1724100003", "name": "USPS COLLECTION BOX - BLUE BOX", "address": {"city": "NEWVILLE", "state": "PA", "street": "51 PARSONAGE ST", "postcode": "17241"}}},
{"geometry": {"type": "Point", "coordinates": [-77.4004298038, 40.1700891799]}, "type": "Feature", "properties": {"collection_times": [{"days": "Mon-Sat", "time": "10:00am"}, {"days": "Sun", "time": "Closed"}], "id": "1724100005", "name": "USPS COLLECTION BOX - BLUE BOX", "address": {"city": "NEWVILLE", "state": "PA", "street": "60 W BIG SPRING AVE", "postcode": "17241"}}},
{"geometry": {"type": "Point", "coordinates": [-77.3990753158, 40.1718577036]}, "type": "Feature", "properties": {"collection_times": [{"days": "Mon-Sat", "time": "8:30am"}, {"days": "Sun", "time": "Closed"}], "id": "1724100008", "name": "USPS COLLECTION BOX - BLUE BOX", "address": {"city": "NEWVILLE", "state": "PA", "street": "9 E BIG SPRING AVE", "postcode": "17241"}}},
{"geometry": {"type": "Point", "coordinates": [-77.3980031322, 40.173575629]}, "type": "Feature", "properties": {"collection_times": [{"days": "Mon-Sat", "time": "8:00am"}, {"days": "Sun", "time": "Closed"}], "id": "1724100009", "name": "USPS COLLECTION BOX - BLUE BOX", "address": {"city": "NEWVILLE", "state": "PA", "street": "34 E MAIN ST", "postcode": "17241"}}},
{"geometry": {"type": "Point", "coordinates": [-77.3894633572, 40.1776231695]}, "type": "Feature", "properties": {"collection_times": [{"days": "Mon-Sat", "time": "12:00pm"}, {"days": "Sun", "time": "Closed"}], "id": "1724100010", "name": "USPS COLLECTION BOX - BLUE BOX", "address": {"city": "NEWVILLE", "state": "PA", "street": "39 CARLISLE RD", "postcode": "17241"}}},
{"geometry": {"type": "Point", "coordinates": [-77.401752352, 40.1744803236]}, "type": "Feature", "properties": {"collection_times": [{"days": "Mon-Fri", "time": "4:30pm"}, {"days": "Sat", "time": "3:00pm"}, {"days": "Sun", "time": "Closed"}], "id": "1724100011", "name": "USPS COLLECTION BOX - BLUE BOX", "address": {"city": "NEWVILLE", "state": "PA", "street": "57 WEST ST", "postcode": "17241"}}},
{"geometry": {"type": "Point", "coordinates": [-77.3944942367, 40.1498774092]}, "type": "Feature", "properties": {"collection_times": [{"days": "Mon-Sat", "time": "9:00am"}, {"days": "Sun", "time": "Closed"}], "id": "1724100014", "name": "USPS COLLECTION BOX - BLUE BOX", "address": {"city": "NEWVILLE", "state": "PA", "street": "11 BIG SPRING TER", "postcode": "17241"}}},
{"geometry": {"type": "Point", "coordinates": [-77.401752352, 40.1744803236]}, "type": "Feature", "properties": {"collection_times": [{"days": "Mon-Fri", "time": "4:30pm"}, {"days": "Sat", "time": "3:00pm"}, {"days": "Sun", "time": "Closed"}], "id": "1724100015", "name": "USPS COLLECTION BOX - BLUE BOX", "address": {"city": "NEWVILLE", "state": "PA", "street": "57 WEST ST", "postcode": "17241"}}},
{"geometry": {"type": "Point", "coordinates": [-77.401752352, 40.1744803236]}, "type": "Feature", "properties": {"collection_times": [{"days": "Mon-Fri", "time": "4:30pm"}, {"days": "Sat", "time": "3:00pm"}, {"days": "Sun", "time": "Closed"}], "id": "1724100017", "name": "USPS COLLECTION BOX - PO LOBBY", "address": {"city": "NEWVILLE", "state": "PA", "street": "57 WEST ST", "postcode": "17241"}}},
{"geometry": {"type": "Point", "coordinates": [-77.4471445089, 40.1983989328]}, "type": "Feature", "properties": {"collection_times": [{"days": "Mon-Sat", "time": "9:30am"}, {"days": "Sun", "time": "Closed"}], "id": "1724100019", "name": "USPS COLLECTION BOX - BLUE BOX", "address": {"city": "NEWVILLE", "state": "PA", "street": "14 RAYS DR", "postcode": "17241"}}},
{"geometry": {"type": "Point", "coordinates": [-77.8972776868, 40.2448879067]}, "type": "Feature", "properties": {"collection_times": [{"days": "Mon-Fri", "time": "3:30pm"}, {"days": "Sat", "time": "11:30am"}, {"days": "Sun", "time": "Closed"}], "id": "1724300001", "name": "USPS COLLECTION BOX - BLUE BOX", "address": {"city": "ORBISONIA", "state": "PA", "street": "655 WATER ST", "postcode": "17243"}}},
{"geometry": {"type": "Point", "coordinates": [-77.8972776868, 40.2448879067]}, "type": "Feature", "properties": {"collection_times": [{"days": "Mon-Fri", "time": "3:30pm"}, {"days": "Sat", "time": "11:30am"}, {"days": "Sun", "time": "Closed"}], "id": "1724300003", "name": "USPS COLLECTION BOX - PO LOBBY", "address": {"city": "ORBISONIA", "state": "PA", "street": "655 WATER ST", "postcode": "17243"}}},
{"geometry": {"type": "Point", "coordinates": [-77.6059441159, 40.0598572101]}, "type": "Feature", "properties": {"collection_times": [{"days": "Mon-Fri", "time": "3:00pm"}, {"days": "Sat", "time": "12:00pm"}, {"days": "Sun", "time": "Closed"}], "id": "1724400001", "name": "USPS COLLECTION BOX - BLUE BOX", "address": {"city": "ORRSTOWN", "state": "PA", "street": "3630 ORRSTOWN RD", "postcode": "17244"}}},
{"geometry": {"type": "Point", "coordinates": [-77.6059441159, 40.0598572101]}, "type": "Feature", "properties": {"collection_times": [{"days": "Mon-Fri", "time": "3:00pm"}, {"days": "Sat", "time": "12:00pm"}, {"days": "Sun", "time": "Closed"}], "id": "1724400002", "name": "USPS COLLECTION BOX - PO LOBBY", "address": {"city": "ORRSTOWN", "state": "PA", "street": "3630 ORRSTOWN RD", "postcode": "17244"}}},
{"geometry": {"type": "Point", "coordinates": [-77.6546587473, 40.0532798416]}, "type": "Feature", "properties": {"collection_times": [{"days": "Mon-Fri", "time": "4:30pm"}, {"days": "Sat", "time": "11:30am"}, {"days": "Sun", "time": "Closed"}], "id": "1724600001", "name": "USPS COLLECTION BOX - BLUE BOX", "address": {"city": "PLEASANT HALL", "state": "PA", "street": "6535 UPPER STRASBURG RD", "postcode": "17246"}}},
{"geometry": {"type": "Point", "coordinates": [-77.6546587473, 40.0532798416]}, "type": "Feature", "properties": {"collection_times": [{"days": "Mon-Fri", "time": "12:00pm"}, {"days": "Sat", "time": "11:30am"}, {"days": "Sun", "time": "Closed"}], "id": "1724600002", "name": "USPS COLLECTION BOX - PO LOBBY", "address": {"city": "PLEASANT HALL", "state": "PA", "street": "6535 UPPERSTRASBURG RD", "postcode": "17246"}}},
{"geometry": {"type": "Point", "coordinates": [-77.57697791, 39.8036039454]}, "type": "Feature", "properties": {"collection_times": [{"days": "Mon-Fri", "time": "4:30pm"}, {"days": "Sat", "time": "11:45am"}, {"days": "Sun", "time": "Closed"}], "id": "1724700001", "name": "USPS COLLECTION BOX - BLUE BOX", "address": {"city": "QUINCY", "state": "PA", "street": "6617 ORPHANAGE RD", "postcode": "17247"}}},
{"geometry": {"type": "Point", "coordinates": [-77.57697791, 39.8036039454]}, "type": "Feature", "properties": {"collection_times": [{"days": "Mon-Fri", "time": "4:30pm"}, {"days": "Sat", "time": "11:45am"}, {"days": "Sun", "time": "Closed"}], "id": "1724700002", "name": "USPS COLLECTION BOX - PO LOBBY", "address": {"city": "QUINCY", "state": "PA", "street": "6617 ORPHANAGE RD", "postcode": "17247"}}},
{"geometry": {"type": "Point", "coordinates": [-77.901986744, 40.2409016813]}, "type": "Feature", "properties": {"collection_times": [{"days": "Mon-Fri", "time": "3:30pm"}, {"days": "Sat", "time": "11:30am"}, {"days": "Sun", "time": "Closed"}], "id": "1724900001", "name": "USPS COLLECTION BOX - BLUE BOX", "address": {"city": "ROCKHILL FURN", "state": "PA", "street": "444 MEADOW ST", "postcode": "17249"}}},
{"geometry": {"type": "Point", "coordinates": [-77.901986744, 40.2409016813]}, "type": "Feature", "properties": {"collection_times": [{"days": "Mon-Fri", "time": "3:30pm"}, {"days": "Sat", "time": "11:30am"}, {"days": "Sun", "time": "Closed"}], "id": "1724900002", "name": "USPS COLLECTION BOX - BLUE BOX", "address": {"city": "ROCKHILL FURN", "state": "PA", "street": "445 MEADOW ST", "postcode": "17249"}}},
{"geometry": {"type": "Point", "coordinates": [-77.901986744, 40.2409016813]}, "type": "Feature", "properties": {"collection_times": [{"days": "Mon-Fri", "time": "3:30pm"}, {"days": "Sat", "time": "11:30am"}, {"days": "Sun", "time": "Closed"}], "id": "1724900003", "name": "USPS COLLECTION BOX - PO LOBBY", "address": {"city": "ROCKHILL FURN", "state": "PA", "street": "444 MEADOW ST", "postcode": "17249"}}},
{"geometry": {"type": "Point", "coordinates": [-77.5243703263, 39.7375616139]}, "type": "Feature", "properties": {"collection_times": [{"days": "Mon-Fri", "time": "4:15pm"}, {"days": "Sat", "time": "11:30am"}, {"days": "Sun", "time": "Closed"}], "id": "1725000001", "name": "USPS COLLECTION BOX - BLUE BOX", "address": {"city": "ROUZERVILLE", "state": "PA", "street": "11738 PEN MAR RD", "postcode": "17250"}}},
{"geometry": {"type": "Point", "coordinates": [-77.5243703263, 39.7375616139]}, "type": "Feature", "properties": {"collection_times": [{"days": "Mon-Fri", "time": "4:30pm"}, {"days": "Sat", "time": "11:30am"}, {"days": "Sun", "time": "Closed"}], "id": "1725000002", "name": "USPS COLLECTION BOX - PO LOBBY", "address": {"city": "ROUZERVILLE", "state": "PA", "street": "11738 PEN MAR RD", "postcode": "17250"}}},
{"geometry": {"type": "Point", "coordinates": [-77.6624210791, 40.109952189]}, "type": "Feature", "properties": {"collection_times": [{"days": "Mon-Fri", "time": "4:30pm"}, {"days": "Sat", "time": "11:30am"}, {"days": "Sun", "time": "Closed"}], "id": "1725100001", "name": "USPS COLLECTION BOX - BLUE BOX", "address": {"city": "ROXBURY", "state": "PA", "street": "10970 ROXBURY RD", "postcode": "17251"}}},
{"geometry": {"type": "Point", "coordinates": [-77.6624210791, 40.109952189]}, "type": "Feature", "properties": {"collection_times": [{"days": "Mon-Fri", "time": "4:30pm"}, {"days": "Sat", "time": "11:30am"}, {"days": "Sun", "time": "Closed"}], "id": "1725100002", "name": "USPS COLLECTION BOX - PO LOBBY", "address": {"city": "ROXBURY", "state": "PA", "street": "10970 ROXBURY RD", "postcode": "17251"}}},
{"geometry": {"type": "Point", "coordinates": [-77.7964543717, 39.9155814447]}, "type": "Feature", "properties": {"collection_times": [{"days": "Mon-Fri", "time": "4:00pm"}, {"days": "Sat", "time": "11:30am"}, {"days": "Sun", "time": "Closed"}], "id": "1725200001", "name": "USPS COLLECTION BOX - BLUE BOX", "address": {"city": "SAINT THOMAS", "state": "PA", "street": "164 SAINT THOMAS WILLIAMSON RD", "postcode": "17252"}}},
{"geometry": {"type": "Point", "coordinates": [-77.7740313895, 39.9230944303]}, "type": "Feature", "properties": {"collection_times": [{"days": "Mon-Sat", "time": "11:30am"}, {"days": "Sun", "time": "Closed"}], "id": "1725200002", "name": "USPS COLLECTION BOX - BLUE BOX", "address": {"city": "SAINT THOMAS", "state": "PA", "street": "6241 NUGGET WAY", "postcode": "17252"}}},
{"geometry": {"type": "Point", "coordinates": [-77.7964543717, 39.9155814447]}, "type": "Feature", "properties": {"collection_times": [{"days": "Mon-Fri", "time": "4:00pm"}, {"days": "Sat", "time": "11:30am"}, {"days": "Sun", "time": "Closed"}], "id": "1725200003", "name": "USPS COLLECTION BOX - PO LOBBY", "address": {"city": "SAINT THOMAS", "state": "PA", "street": "164 SAINT THOMAS WILLIAMSON RD", "postcode": "17252"}}},
{"geometry": {"type": "Point", "coordinates": [-77.7839672334, 39.9201049746]}, "type": "Feature", "properties": {"collection_times": [{"days": "Mon-Sat", "time": "12:00pm"}, {"days": "Sun", "time": "Closed"}], "id": "1725200005", "name": "USPS COLLECTION BOX - BLUE BOX", "address": {"city": "SAINT THOMAS", "state": "PA", "street": "6450 LINCOLN WAY W", "postcode": "17252"}}},
{"geometry": {"type": "Point", "coordinates": [-78.005373007, 40.2100521763]}, "type": "Feature", "properties": {"collection_times": [{"days": "Mon-Fri", "time": "3:15pm"}, {"days": "Sat", "time": "11:30am"}, {"days": "Sun", "time": "Closed"}], "id": "1725300002", "name": "USPS COLLECTION BOX - PO LOBBY", "address": {"city": "SALTILLO", "state": "PA", "street": "20548 S MAIN ST", "postcode": "17253"}}},
{"geometry": {"type": "Point", "coordinates": [-77.5799885534, 39.9654157297]}, "type": "Feature", "properties": {"collection_times": [{"days": "Mon-Fri", "time": "4:45pm"}, {"days": "Sat", "time": "11:45am"}, {"days": "Sun", "time": "Closed"}], "id": "1725400001", "name": "USPS COLLECTION BOX - BLUE BOX", "address": {"city": "SCOTLAND", "state": "PA", "street": "3735 SCOTLAND RD", "postcode": "17254"}}},
{"geometry": {"type": "Point", "coordinates": [-77.5799885534, 39.9654157297]}, "type": "Feature", "properties": {"collection_times": [{"days": "Mon-Fri", "time": "4:45pm"}, {"days": "Sat", "time": "11:45am"}, {"days": "Sun", "time": "Closed"}], "id": "1725400002", "name": "USPS COLLECTION BOX - PO LOBBY", "address": {"city": "SCOTLAND", "state": "PA", "street": "3735 SCOTLAND RD", "postcode": "17254"}}},
{"geometry": {"type": "Point", "coordinates": [-77.8636859538, 40.1683020941]}, "type": "Feature", "properties": {"collection_times": [{"days": "Mon-Fri", "time": "3:30pm"}, {"days": "Sat", "time": "11:15am"}, {"days": "Sun", "time": "Closed"}], "id": "1725500001", "name": "USPS COLLECTION BOX - BLUE BOX", "address": {"city": "SHADE GAP", "state": "PA", "street": "21379 MAIN ST", "postcode": "17255"}}},
{"geometry": {"type": "Point", "coordinates": [-77.8636859538, 40.1683020941]}, "type": "Feature", "properties": {"collection_times": [{"days": "Mon-Fri", "time": "3:30pm"}, {"days": "Sat", "time": "11:15am"}, {"days": "Sun", "time": "Closed"}], "id": "1725500002", "name": "USPS COLLECTION BOX - PO LOBBY", "address": {"city": "SHADE GAP", "state": "PA", "street": "21379 MAIN ST", "postcode": "17255"}}},
{"geometry": {"type": "Point", "coordinates": [-77.668131214, 39.777535382]}, "type": "Feature", "properties": {"collection_times": [{"days": "Mon-Fri", "time": "4:30pm"}, {"days": "Sat", "time": "11:45am"}, {"days": "Sun", "time": "Closed"}], "id": "1725600001", "name": "USPS COLLECTION BOX - BLUE BOX", "address": {"city": "SHADY GROVE", "state": "PA", "street": "1814 BUCHANAN TRL E", "postcode": "17256"}}},
{"geometry": {"type": "Point", "coordinates": [-77.668131214, 39.777535382]}, "type": "Feature", "properties": {"collection_times": [{"days": "Mon-Fri", "time": "4:30pm"}, {"days": "Sat", "time": "11:45am"}, {"days": "Sun", "time": "Closed"}], "id": "1725600002", "name": "USPS COLLECTION BOX - PO LOBBY", "address": {"city": "SHADY GROVE", "state": "PA", "street": "1814 BUCHANAN TRL E", "postcode": "17256"}}},
{"geometry": {"type": "Point", "coordinates": [-77.5126772312, 40.0549411372]}, "type": "Feature", "properties": {"collection_times": [{"days": "Mon-Sat", "time": "9:00am"}, {"days": "Sun", "time": "Closed"}], "id": "1725700001", "name": "USPS COLLECTION BOX - BLUE BOX", "address": {"city": "SHIPPENSBURG", "state": "PA", "street": "401 E KING ST", "postcode": "17257"}}},
{"geometry": {"type": "Point", "coordinates": [-77.5157339971, 40.0505630061]}, "type": "Feature", "properties": {"collection_times": [{"days": "Mon-Sat", "time": "9:00am"}, {"days": "Sun", "time": "Closed"}], "id": "1725700006", "name": "USPS COLLECTION BOX - BLUE BOX", "address": {"city": "SHIPPENSBURG", "state": "PA", "street": "200 E ORANGE ST", "postcode": "17257"}}},
{"geometry": {"type": "Point", "coordinates": [-77.5183980207, 40.0514171025]}, "type": "Feature", "properties": {"collection_times": [{"days": "Mon-Sat", "time": "9:00am"}, {"days": "Sun", "time": "Closed"}], "id": "1725700011", "name": "USPS COLLECTION BOX - BLUE BOX", "address": {"city": "SHIPPENSBURG", "state": "PA", "street": "101 E KING ST", "postcode": "17257"}}},
{"geometry": {"type": "Point", "coordinates": [-77.5122643785, 40.0552581702]}, "type": "Feature", "properties": {"collection_times": [{"days": "Mon-Sat", "time": "9:00am"}, {"days": "Sun", "time": "Closed"}], "id": "1725700013", "name": "USPS COLLECTION BOX - BLUE BOX", "address": {"city": "SHIPPENSBURG", "state": "PA", "street": "425 W KING ST", "postcode": "17257"}}},
{"geometry": {"type": "Point", "coordinates": [-77.5351746331, 40.0466904051]}, "type": "Feature", "properties": {"collection_times": [{"days": "Mon-Sat", "time": "9:00am"}, {"days": "Sun", "time": "Closed"}], "id": "1725700017", "name": "USPS COLLECTION BOX - BLUE BOX", "address": {"city": "SHIPPENSBURG", "state": "PA", "street": "208 LURGAN AVE", "postcode": "17257"}}},
{"geometry": {"type": "Point", "coordinates": [-77.5356381564, 40.0491076713]}, "type": "Feature", "properties": {"collection_times": [{"days": "Mon-Sat", "time": "9:00am"}, {"days": "Sun", "time": "Closed"}], "id": "1725700018", "name": "USPS COLLECTION BOX - BLUE BOX", "address": {"city": "SHIPPENSBURG", "state": "PA", "street": "330 N MORRIS ST", "postcode": "17257"}}},
{"geometry": {"type": "Point", "coordinates": [-77.5168743696, 40.0540420884]}, "type": "Feature", "properties": {"collection_times": [{"days": "Mon-Sat", "time": "9:00am"}, {"days": "Sun", "time": "Closed"}], "id": "1725700019", "name": "USPS COLLECTION BOX - BLUE BOX", "address": {"city": "SHIPPENSBURG", "state": "PA", "street": "218 E BURD ST", "postcode": "17257"}}},
{"geometry": {"type": "Point", "coordinates": [-77.5105005867, 40.0527763223]}, "type": "Feature", "properties": {"collection_times": [{"days": "Mon-Sat", "time": "9:00am"}, {"days": "Sun", "time": "Closed"}], "id": "1725700022", "name": "USPS COLLECTION BOX - BLUE BOX", "address": {"city": "SHIPPENSBURG", "state": "PA", "street": "117 S QUEEN ST", "postcode": "17257"}}},
{"geometry": {"type": "Point", "coordinates": [-77.49574, 40.060608]}, "type": "Feature", "properties": {"collection_times": [{"days": "Mon-Sat", "time": "9:00am"}, {"days": "Sun", "time": "Closed"}], "id": "1725700023", "name": "USPS COLLECTION BOX - BLUE BOX", "address": {"city": "SHIPPENSBURG", "state": "PA", "street": "109 S CONESTOGA DR", "postcode": "17257"}}},
{"geometry": {"type": "Point", "coordinates": [-77.5246026405, 40.0489293398]}, "type": "Feature", "properties": {"collection_times": [{"days": "Mon-Sat", "time": "9:00am"}, {"days": "Sun", "time": "Closed"}], "id": "1725700026", "name": "USPS COLLECTION BOX - BLUE BOX", "address": {"city": "SHIPPENSBURG", "state": "PA", "street": "111 W KING ST", "postcode": "17257"}}},
{"geometry": {"type": "Point", "coordinates": [-77.5238459276, 40.0511720844]}, "type": "Feature", "properties": {"collection_times": [{"days": "Mon-Sat", "time": "9:00am"}, {"days": "Sun", "time": "Closed"}], "id": "1725700027", "name": "USPS COLLECTION BOX - BLUE BOX", "address": {"city": "SHIPPENSBURG", "state": "PA", "street": "60 W BURD ST", "postcode": "17257"}}},
{"geometry": {"type": "Point", "coordinates": [-77.52779467, 40.0618483027]}, "type": "Feature", "properties": {"collection_times": [{"days": "Mon-Sat", "time": "8:30am"}, {"days": "Sun", "time": "Closed"}], "id": "1725700028", "name": "USPS COLLECTION BOX - BLUE BOX", "address": {"city": "SHIPPENSBURG", "state": "PA", "street": "100 BARD DR", "postcode": "17257"}}},
{"geometry": {"type": "Point", "coordinates": [-77.5222596507, 40.0499186468]}, "type": "Feature", "properties": {"collection_times": [{"days": "Mon-Fri", "time": "5:00pm"}, {"days": "Sat", "time": "4:30pm"}, {"days": "Sun", "time": "Closed"}], "id": "1725700031", "name": "USPS COLLECTION BOX - BLUE BOX", "address": {"city": "SHIPPENSBURG", "state": "PA", "street": "46 W KING ST", "postcode": "17257"}}},
{"geometry": {"type": "Point", "coordinates": [-77.5326096932, 40.0443220532]}, "type": "Feature", "properties": {"collection_times": [{"days": "Mon-Sat", "time": "8:30am"}, {"days": "Sun", "time": "Closed"}], "id": "1725700033", "name": "USPS COLLECTION BOX - BLUE BOX", "address": {"city": "SHIPPENSBURG", "state": "PA", "street": "1075 W KING ST", "postcode": "17257"}}},
{"geometry": {"type": "Point", "coordinates": [-77.5222596507, 40.0499186468]}, "type": "Feature", "properties": {"collection_times": [{"days": "Mon-Fri", "time": "5:00pm"}, {"days": "Sat", "time": "4:30pm"}, {"days": "Sun", "time": "Closed"}], "id": "1725700034", "name": "USPS COLLECTION BOX - PO LOBBY", "address": {"city": "SHIPPENSBURG", "state": "PA", "street": "46 W KING ST", "postcode": "17257"}}},
{"geometry": {"type": "Point", "coordinates": [-77.8388001721, 40.3210978913]}, "type": "Feature", "properties": {"collection_times": [{"days": "Mon-Fri", "time": "12:00pm"}, {"days": "Sat", "time": "11:45am"}, {"days": "Sun", "time": "Closed"}], "id": "1726000001", "name": "USPS COLLECTION BOX - BLUE BOX", "address": {"city": "SHIRLEYSBURG", "state": "PA", "street": "17084 CROGHAN PIKE", "postcode": "17260"}}},
{"geometry": {"type": "Point", "coordinates": [-77.8388001721, 40.3210978913]}, "type": "Feature", "properties": {"collection_times": [{"days": "Mon-Fri", "time": "12:00pm"}, {"days": "Sat", "time": "11:45am"}, {"days": "Sun", "time": "Closed"}], "id": "1726000002", "name": "USPS COLLECTION BOX - PO LOBBY", "address": {"city": "SHIRLEYSBURG", "state": "PA", "street": "17084 CROGHAN PIKE", "postcode": "17260"}}},
{"geometry": {"type": "Point", "coordinates": [-77.4747353789, 39.8442256097]}, "type": "Feature", "properties": {"collection_times": [{"days": "Mon-Fri", "time": "4:00pm"}, {"days": "Sat", "time": "11:45am"}, {"days": "Sun", "time": "Closed"}], "id": "1726100001", "name": "USPS COLLECTION BOX - BLUE BOX", "address": {"city": "SOUTH MOUNTAIN", "state": "PA", "street": "10444 S MOUNTAIN RD", "postcode": "17261"}}},
{"geometry": {"type": "Point", "coordinates": [-77.4747353789, 39.8442256097]}, "type": "Feature", "properties": {"collection_times": [{"days": "Mon-Fri", "time": "4:00pm"}, {"days": "Sat", "time": "11:45am"}, {"days": "Sun", "time": "Closed"}], "id": "1726100002", "name": "USPS COLLECTION BOX - PO LOBBY", "address": {"city": "SOUTH MOUNTAIN", "state": "PA", "street": "10444 S MOUNTAIN RD", "postcode": "17261"}}},
{"geometry": {"type": "Point", "coordinates": [-77.7705682326, 40.1447605824]}, "type": "Feature", "properties": {"collection_times": [{"days": "Mon-Fri", "time": "4:30pm"}, {"days": "Sat", "time": "11:30am"}, {"days": "Sun", "time": "Closed"}], "id": "1726200001", "name": "USPS COLLECTION BOX - BLUE BOX", "address": {"city": "SPRING RUN", "state": "PA", "street": "16363 PATH VALLEY RD", "postcode": "17262"}}},
{"geometry": {"type": "Point", "coordinates": [-77.7705682326, 40.1447605824]}, "type": "Feature", "properties": {"collection_times": [{"days": "Mon-Fri", "time": "4:30pm"}, {"days": "Sat", "time": "11:30am"}, {"days": "Sun", "time": "Closed"}], "id": "1726200002", "name": "USPS COLLECTION BOX - PO LOBBY", "address": {"city": "SPRING RUN", "state": "PA", "street": "16363 PATH VALLEY RD", "postcode": "17262"}}},
{"geometry": {"type": "Point", "coordinates": [-77.7220170496, 39.7227739664]}, "type": "Feature", "properties": {"collection_times": [{"days": "Mon-Fri", "time": "4:30pm"}, {"days": "Sat", "time": "11:30am"}, {"days": "Sun", "time": "Closed"}], "id": "1726300001", "name": "USPS COLLECTION BOX - BLUE BOX", "address": {"city": "STATE LINE", "state": "PA", "street": "15753 PENNSYLVANIA AVE S", "postcode": "17263"}}},
{"geometry": {"type": "Point", "coordinates": [-77.7220170496, 39.7227739664]}, "type": "Feature", "properties": {"collection_times": [{"days": "Mon-Fri", "time": "4:30pm"}, {"days": "Sat", "time": "11:30am"}, {"days": "Sun", "time": "Closed"}], "id": "1726300002", "name": "USPS COLLECTION BOX - PO LOBBY", "address": {"city": "STATE LINE", "state": "PA", "street": "15753 PENNSYLVANIA AVE S", "postcode": "17263"}}},
{"geometry": {"type": "Point", "coordinates": [-77.9862279289, 40.1664198686]}, "type": "Feature", "properties": {"collection_times": [{"days": "Mon-Fri", "time": "2:30pm"}, {"days": "Sat", "time": "11:45am"}, {"days": "Sun", "time": "Closed"}], "id": "1726400001", "name": "USPS COLLECTION BOX - BLUE BOX", "address": {"city": "THREE SPRINGS", "state": "PA", "street": "20675 FREEDOM ST", "postcode": "17264"}}},
{"geometry": {"type": "Point", "coordinates": [-77.9862279289, 40.1664198686]}, "type": "Feature", "properties": {"collection_times": [{"days": "Mon-Fri", "time": "2:30pm"}, {"days": "Sat", "time": "11:45am"}, {"days": "Sun", "time": "Closed"}], "id": "1726400002", "name": "USPS COLLECTION BOX - PO LOBBY", "address": {"city": "THREE SPRINGS", "state": "PA", "street": "20675 FREEDOM ST", "postcode": "17264"}}},
{"geometry": {"type": "Point", "coordinates": [-77.7140768095, 40.0618735331]}, "type": "Feature", "properties": {"collection_times": [{"days": "Mon-Fri", "time": "4:15pm"}, {"days": "Sat", "time": "11:45am"}, {"days": "Sun", "time": "Closed"}], "id": "1726500000", "name": "USPS COLLECTION BOX - BLUE BOX", "address": {"city": "UPPERSTRASBURG", "state": "PA", "street": "9808 UPPER STRASBURG RD", "postcode": "17265"}}},
{"geometry": {"type": "Point", "coordinates": [-77.7140768095, 40.0618735331]}, "type": "Feature", "properties": {"collection_times": [{"days": "Mon-Fri", "time": "11:30am"}, {"days": "Sat", "time": "11:45am"}, {"days": "Sun", "time": "Closed"}], "id": "1726500001", "name": "USPS COLLECTION BOX - PO LOBBY", "address": {"city": "UPPERSTRASBURG", "state": "PA", "street": "9808 UPPERSTRASBURG RD", "postcode": "17265"}}},
{"geometry": {"type": "Point", "coordinates": [-77.4072140735, 40.091732344]}, "type": "Feature", "properties": {"collection_times": [{"days": "Mon-Fri", "time": "4:00pm"}, {"days": "Sat", "time": "11:45am"}, {"days": "Sun", "time": "Closed"}], "id": "1726600001", "name": "USPS COLLECTION BOX - BLUE BOX", "address": {"city": "WALNUT BOTTOM", "state": "PA", "street": "40 MAPLE AVE", "postcode": "17266"}}},
{"geometry": {"type": "Point", "coordinates": [-77.4072140735, 40.091732344]}, "type": "Feature", "properties": {"collection_times": [{"days": "Mon-Fri", "time": "4:00pm"}, {"days": "Sat", "time": "11:45am"}, {"days": "Sun", "time": "Closed"}], "id": "1726600002", "name": "USPS COLLECTION BOX - PO LOBBY", "address": {"city": "WALNUT BOTTOM", "state": "PA", "street": "40 MAPLE AVE", "postcode": "17266"}}},
{"geometry": {"type": "Point", "coordinates": [-78.1849246602, 39.7506777325]}, "type": "Feature", "properties": {"collection_times": [{"days": "Mon-Fri", "time": "3:45pm"}, {"days": "Sat", "time": "11:00am"}, {"days": "Sun", "time": "Closed"}], "id": "1726700001", "name": "USPS COLLECTION BOX - BLUE BOX", "address": {"city": "WARFORDSBURG", "state": "PA", "street": "13363 BUCK VALLEY RD", "postcode": "17267"}}},
{"geometry": {"type": "Point", "coordinates": [-78.1849246602, 39.7506777325]}, "type": "Feature", "properties": {"collection_times": [{"days": "Mon-Fri", "time": "3:45pm"}, {"days": "Sat", "time": "11:00am"}, {"days": "Sun", "time": "Closed"}], "id": "1726700002", "name": "USPS COLLECTION BOX - PO LOBBY", "address": {"city": "WARFORDSBURG", "state": "PA", "street": "13363 BUCK VALLEY RD", "postcode": "17267"}}},
{"geometry": {"type": "Point", "coordinates": [-77.5769719498, 39.7551677588]}, "type": "Feature", "properties": {"collection_times": [{"days": "Mon-Sat", "time": "5:00pm"}, {"days": "Sun", "time": "Closed"}], "id": "1726800014", "name": "USPS COLLECTION BOX - BLUE BOX", "address": {"city": "WAYNESBORO", "state": "PA", "street": "118 E MAIN ST", "postcode": "17268"}}},
{"geometry": {"type": "Point", "coordinates": [-77.5900354918, 39.7452372885]}, "type": "Feature", "properties": {"collection_times": [{"days": "Mon-Sat", "time": "2:00pm"}, {"days": "Sun", "time": "Closed"}], "id": "1726800021", "name": "USPS COLLECTION BOX - BLUE BOX", "address": {"city": "WAYNESBORO", "state": "PA", "street": "712 S POTOMAC ST", "postcode": "17268"}}},
{"geometry": {"type": "Point", "coordinates": [-77.5665283955, 39.7503379992]}, "type": "Feature", "properties": {"collection_times": [{"days": "Mon-Sat", "time": "2:00pm"}, {"days": "Sun", "time": "Closed"}], "id": "1726800026", "name": "USPS COLLECTION BOX - BLUE BOX", "address": {"city": "WAYNESBORO", "state": "PA", "street": "1513 E MAIN ST", "postcode": "17268"}}},
{"geometry": {"type": "Point", "coordinates": [-77.5494328198, 39.7437287611]}, "type": "Feature", "properties": {"collection_times": [{"days": "Mon-Sat", "time": "2:00pm"}, {"days": "Sun", "time": "Closed"}], "id": "1726800027", "name": "USPS COLLECTION BOX - BLUE BOX", "address": {"city": "WAYNESBORO", "state": "PA", "street": "25 N OLLER AVE", "postcode": "17268"}}},
{"geometry": {"type": "Point", "coordinates": [-77.5769719498, 39.7551677588]}, "type": "Feature", "properties": {"collection_times": [{"days": "Mon-Sat", "time": "5:00pm"}, {"days": "Sun", "time": "Closed"}], "id": "1726800035", "name": "USPS COLLECTION BOX - PO LOBBY", "address": {"city": "WAYNESBORO", "state": "PA", "street": "118 E MAIN ST", "postcode": "17268"}}},
{"geometry": {"type": "Point", "coordinates": [-77.7839691437, 40.1159610624]}, "type": "Feature", "properties": {"collection_times": [{"days": "Mon-Fri", "time": "4:30pm"}, {"days": "Sat", "time": "11:30am"}, {"days": "Sun", "time": "Closed"}], "id": "1727100001", "name": "USPS COLLECTION BOX - BLUE BOX", "address": {"city": "WILLOW HILL", "state": "PA", "street": "14413 PATH VALLEY RD", "postcode": "17271"}}},
{"geometry": {"type": "Point", "coordinates": [-77.7839691437, 40.1159610624]}, "type": "Feature", "properties": {"collection_times": [{"days": "Mon-Fri", "time": "12:00pm"}, {"days": "Sat", "time": "11:30am"}, {"days": "Sun", "time": "Closed"}], "id": "1727100002", "name": "USPS COLLECTION BOX - PO LOBBY", "address": {"city": "WILLOW HILL", "state": "PA", "street": "14413 PATH VALLEY RD", "postcode": "17271"}}},
{"geometry": {"type": "Point", "coordinates": [-77.6229062063, 39.7682448688]}, "type": "Feature", "properties": {"collection_times": [{"days": "Mon-Fri", "time": "4:30pm"}, {"days": "Sat", "time": "11:30am"}, {"days": "Sun", "time": "Closed"}], "id": "1727200001", "name": "USPS COLLECTION BOX - BLUE BOX", "address": {"city": "ZULLINGER", "state": "PA", "street": "5012 BUCHANAN TRL E", "postcode": "17272"}}},
{"geometry": {"type": "Point", "coordinates": [-77.6229062063, 39.7682448688]}, "type": "Feature", "properties": {"collection_times": [{"days": "Mon-Fri", "time": "12:00pm"}, {"days": "Sat", "time": "11:30am"}, {"days": "Sun", "time": "Closed"}], "id": "1727200002", "name": "USPS COLLECTION BOX - PO LOBBY", "address": {"city": "ZULLINGER", "state": "PA", "street": "5012 BUCHANAN TRL E", "postcode": "17272"}}}
]}
