{"type": "FeatureCollection", "features": [
{"geometry": {"type": "Point", "coordinates": [-76.9837157299, 39.8812293104]}, "type": "Feature", "properties": {"collection_times": [{"days": "Mon-Sat", "time": "8:30am"}, {"days": "Sun", "time": "Closed"}], "id": "1730100002", "name": "USPS COLLECTION BOX - BLUE BOX", "address": {"city": "ABBOTTSTOWN", "state": "PA", "street": "101 SUNRISE DR", "postcode": "17301"}}},
{"geometry": {"type": "Point", "coordinates": [-76.9971428969, 39.8824237498]}, "type": "Feature", "properties": {"collection_times": [{"days": "Mon-Fri", "time": "4:30pm"}, {"days": "Sat", "time": "11:00am"}, {"days": "Sun", "time": "Closed"}], "id": "1730100003", "name": "USPS COLLECTION BOX - BLUE BOX", "address": {"city": "ABBOTTSTOWN", "state": "PA", "street": "680 W KING ST", "postcode": "17301"}}},
{"geometry": {"type": "Point", "coordinates": [-76.9971428969, 39.8824237498]}, "type": "Feature", "properties": {"collection_times": [{"days": "Mon-Fri", "time": "4:30pm"}, {"days": "Sat", "time": "11:00am"}, {"days": "Sun", "time": "Closed"}], "id": "1730100004", "name": "USPS COLLECTION BOX - PO LOBBY", "address": {"city": "ABBOTTSTOWN", "state": "PA", "street": "680 W KING ST", "postcode": "17301"}}},
{"geometry": {"type": "Point", "coordinates": [-77.2997091287, 39.9213827042]}, "type": "Feature", "properties": {"collection_times": [{"days": "Mon-Fri", "time": "4:30pm"}, {"days": "Sat", "time": "12:15pm"}, {"days": "Sun", "time": "Closed"}], "id": "1730300001", "name": "USPS COLLECTION BOX - BLUE BOX", "address": {"city": "ARENDTSVILLE", "state": "PA", "street": "26 S HIGH ST", "postcode": "17303"}}},
{"geometry": {"type": "Point", "coordinates": [-77.2997091287, 39.9213827042]}, "type": "Feature", "properties": {"collection_times": [{"days": "Mon-Fri", "time": "4:00pm"}, {"days": "Sat", "time": "12:15pm"}, {"days": "Sun", "time": "Closed"}], "id": "1730300002", "name": "USPS COLLECTION BOX - PO LOBBY", "address": {"city": "ARENDTSVILLE", "state": "PA", "street": "26 S HIGH ST", "postcode": "17303"}}},
{"geometry": {"type": "Point", "coordinates": [-77.2342832172, 39.9792613374]}, "type": "Feature", "properties": {"collection_times": [{"days": "Mon-Fri", "time": "4:00pm"}, {"days": "Sat", "time": "10:30am"}, {"days": "Sun", "time": "Closed"}], "id": "1730400001", "name": "USPS COLLECTION BOX - BLUE BOX", "address": {"city": "ASPERS", "state": "PA", "street": "420 ASPERS BENDERSVILLE RD", "postcode": "17304"}}},
{"geometry": {"type": "Point", "coordinates": [-77.2342832172, 39.9792613374]}, "type": "Feature", "properties": {"collection_times": [{"days": "Mon-Fri", "time": "4:00pm"}, {"days": "Sat", "time": "10:30am"}, {"days": "Sun", "time": "Closed"}], "id": "1730400003", "name": "USPS COLLECTION BOX - PO LOBBY", "address": {"city": "ASPERS", "state": "PA", "street": "420 ASPERS BENDERSVILLE RD", "postcode": "17304"}}},
{"geometry": {"type": "Point", "coordinates": [-77.248343029, 39.9837505971]}, "type": "Feature", "properties": {"collection_times": [{"days": "Mon-Fri", "time": "4:00pm"}, {"days": "Sat", "time": "11:15am"}, {"days": "Sun", "time": "Closed"}], "id": "1730600002", "name": "USPS COLLECTION BOX - PO LOBBY", "address": {"city": "BENDERSVILLE", "state": "PA", "street": "125 RAMPIKE HILL RD", "postcode": "17306"}}},
{"geometry": {"type": "Point", "coordinates": [-77.248343029, 39.9837505971]}, "type": "Feature", "properties": {"collection_times": [{"days": "Mon-Fri", "time": "4:00pm"}, {"days": "Sat", "time": "11:15am"}, {"days": "Sun", "time": "Closed"}], "id": "1730600003", "name": "USPS COLLECTION BOX - BLUE BOX", "address": {"city": "BENDERSVILLE", "state": "PA", "street": "125 RAMPIKE HILL RD", "postcode": "17306"}}},
{"geometry": {"type": "Point", "coordinates": [-77.2511356506, 39.9300727207]}, "type": "Feature", "properties": {"collection_times": [{"days": "Mon-Fri", "time": "4:30pm"}, {"days": "Sat", "time": "12:00pm"}, {"days": "Sun", "time": "Closed"}], "id": "1730700001", "name": "USPS COLLECTION BOX - BLUE BOX", "address": {"city": "BIGLERVILLE", "state": "PA", "street": "2 HIGH ST", "postcode": "17307"}}},
{"geometry": {"type": "Point", "coordinates": [-77.2511356506, 39.9300727207]}, "type": "Feature", "properties": {"collection_times": [{"days": "Mon-Fri", "time": "4:30pm"}, {"days": "Sat", "time": "12:00pm"}, {"days": "Sun", "time": "Closed"}], "id": "1730700003", "name": "USPS COLLECTION BOX - PO LOBBY", "address": {"city": "BIGLERVILLE", "state": "PA", "street": "2 HIGH ST", "postcode": "17307"}}},
{"geometry": {"type": "Point", "coordinates": [-76.513936561, 39.8777121344]}, "type": "Feature", "properties": {"collection_times": [{"days": "Mon-Fri", "time": "4:30pm"}, {"days": "Sat", "time": "10:00am"}, {"days": "Sun", "time": "Closed"}], "id": "1730900001", "name": "USPS COLLECTION BOX - BLUE BOX", "address": {"city": "BROGUE", "state": "PA", "street": "2224 DELTA RD", "postcode": "17309"}}},
{"geometry": {"type": "Point", "coordinates": [-76.513936561, 39.8777121344]}, "type": "Feature", "properties": {"collection_times": [{"days": "Mon-Fri", "time": "4:30pm"}, {"days": "Sat", "time": "10:00am"}, {"days": "Sun", "time": "Closed"}], "id": "1730900003", "name": "USPS COLLECTION BOX - PO LOBBY", "address": {"city": "BROGUE", "state": "PA", "street": "2224 DELTA RD", "postcode": "17309"}}},
{"geometry": {"type": "Point", "coordinates": [-77.3586558226, 39.8838967688]}, "type": "Feature", "properties": {"collection_times": [{"days": "Mon-Fri", "time": "4:15pm"}, {"days": "Sat", "time": "12:15pm"}, {"days": "Sun", "time": "Closed"}], "id": "1731000001", "name": "USPS COLLECTION BOX - BLUE BOX", "address": {"city": "CASHTOWN", "state": "PA", "street": "372 HIGH ST", "postcode": "17310"}}},
{"geometry": {"type": "Point", "coordinates": [-77.3586558226, 39.8838967688]}, "type": "Feature", "properties": {"collection_times": [{"days": "Mon-Fri", "time": "4:15pm"}, {"days": "Sat", "time": "12:15pm"}, {"days": "Sun", "time": "Closed"}], "id": "1731000005", "name": "USPS COLLECTION BOX - PO LOBBY", "address": {"city": "CASHTOWN", "state": "PA", "street": "372 HIGH ST", "postcode": "17310"}}},
{"geometry": {"type": "Point", "coordinates": [-76.8453943953, 39.8213523918]}, "type": "Feature", "properties": {"collection_times": [{"days": "Mon-Fri", "time": "1:00pm"}, {"days": "Sat", "time": "11:30am"}, {"days": "Sun", "time": "Closed"}], "id": "1731100001", "name": "USPS COLLECTION BOX - BLUE BOX", "address": {"city": "CODORUS", "state": "PA", "street": "11 BALTIMORE ST", "postcode": "17311"}}},
{"geometry": {"type": "Point", "coordinates": [-76.8453943953, 39.8213523918]}, "type": "Feature", "properties": {"collection_times": [{"days": "Mon-Fri", "time": "1:00pm"}, {"days": "Sat", "time": "11:30am"}, {"days": "Sun", "time": "Closed"}], "id": "1731100002", "name": "USPS COLLECTION BOX - PO LOBBY", "address": {"city": "CODORUS", "state": "PA", "street": "11 BALTIMORE ST", "postcode": "17311"}}},
{"geometry": {"type": "Point", "coordinates": [-76.5107228024, 39.9476672833]}, "type": "Feature", "properties": {"collection_times": [{"days": "Mon-Fri", "time": "4:00pm"}, {"days": "Sat", "time": "10:30am"}, {"days": "Sun", "time": "Closed"}], "id": "1731200001", "name": "USPS COLLECTION BOX - BLUE BOX", "address": {"city": "CRALEY", "state": "PA", "street": "86 NEW BRIDGEVILLE RD", "postcode": "17312"}}},
{"geometry": {"type": "Point", "coordinates": [-76.5107228024, 39.9476672833]}, "type": "Feature", "properties": {"collection_times": [{"days": "Mon-Fri", "time": "4:00pm"}, {"days": "Sat", "time": "11:00am"}, {"days": "Sun", "time": "Closed"}], "id": "1731200002", "name": "USPS COLLECTION BOX - PO LOBBY", "address": {"city": "CRALEY", "state": "PA", "street": "86 NEW BRIDGEVILLE RD", "postcode": "17312"}}},
{"geometry": {"type": "Point", "coordinates": [-76.6374585867, 39.904550793]}, "type": "Feature", "properties": {"collection_times": [{"days": "Mon-Sat", "time": "10:30am"}, {"days": "Sun", "time": "Closed"}], "id": "1731300028", "name": "USPS COLLECTION BOX - BLUE BOX", "address": {"city": "DALLASTOWN", "state": "PA", "street": "74 S MAIN ST", "postcode": "17313"}}},
{"geometry": {"type": "Point", "coordinates": [-76.3262595787, 39.7265768234]}, "type": "Feature", "properties": {"collection_times": [{"days": "Mon-Fri", "time": "4:00pm"}, {"days": "Sat", "time": "10:00am"}, {"days": "Sun", "time": "Closed"}], "id": "1731400007", "name": "USPS COLLECTION BOX - BLUE BOX", "address": {"city": "DELTA", "state": "PA", "street": "101 COLLEGE AVE", "postcode": "17314"}}},
{"geometry": {"type": "Point", "coordinates": [-76.3262595787, 39.7265768234]}, "type": "Feature", "properties": {"collection_times": [{"days": "Mon-Fri", "time": "4:00pm"}, {"days": "Sat", "time": "10:00am"}, {"days": "Sun", "time": "Closed"}], "id": "1731400008", "name": "USPS COLLECTION BOX - PO LOBBY", "address": {"city": "DELTA", "state": "PA", "street": "101 COLLEGE AVE", "postcode": "17314"}}},
{"geometry": {"type": "Point", "coordinates": [-76.8514097794, 40.002220301]}, "type": "Feature", "properties": {"collection_times": [{"days": "Mon-Fri", "time": "4:30pm"}, {"days": "Sat", "time": "12:00pm"}, {"days": "Sun", "time": "Closed"}], "id": "1731500014", "name": "USPS COLLECTION BOX - BLUE BOX", "address": {"city": "DOVER", "state": "PA", "street": "24 N MAIN ST", "postcode": "17315"}}},
{"geometry": {"type": "Point", "coordinates": [-76.8514097794, 40.002220301]}, "type": "Feature", "properties": {"collection_times": [{"days": "Mon-Fri", "time": "4:30pm"}, {"days": "Sat", "time": "12:00pm"}, {"days": "Sun", "time": "Closed"}], "id": "1731500016", "name": "USPS COLLECTION BOX - BLUE BOX", "address": {"city": "DOVER", "state": "PA", "street": "24 N MAIN ST", "postcode": "17315"}}},
{"geometry": {"type": "Point", "coordinates": [-76.8514097794, 40.002220301]}, "type": "Feature", "properties": {"collection_times": [{"days": "Mon-Fri", "time": "4:30pm"}, {"days": "Sat", "time": "12:00pm"}, {"days": "Sun", "time": "Closed"}], "id": "1731500017", "name": "USPS COLLECTION BOX - PO LOBBY", "address": {"city": "DOVER", "state": "PA", "street": "24 N MAIN ST", "postcode": "17315"}}},
{"geometry": {"type": "Point", "coordinates": [-76.8136727165, 39.9818177998]}, "type": "Feature", "properties": {"collection_times": [{"days": "Mon-Sat", "time": "10:30am"}, {"days": "Sun", "time": "Closed"}], "id": "1731500020", "name": "USPS COLLECTION BOX - BLUE BOX", "address": {"city": "DOVER", "state": "PA", "street": "2850 CARLISLE RD", "postcode": "17315"}}},
{"geometry": {"type": "Point", "coordinates": [-76.9814139221, 39.9378848063]}, "type": "Feature", "properties": {"collection_times": [{"days": "Mon-Fri", "time": "4:30pm"}, {"days": "Sat", "time": "11:00am"}, {"days": "Sun", "time": "Closed"}], "id": "1731600001", "name": "USPS COLLECTION BOX - BLUE BOX", "address": {"city": "EAST BERLIN", "state": "PA", "street": "214 S 3RD ST", "postcode": "17316"}}},
{"geometry": {"type": "Point", "coordinates": [-76.9814139221, 39.9378848063]}, "type": "Feature", "properties": {"collection_times": [{"days": "Mon-Fri", "time": "4:30pm"}, {"days": "Sat", "time": "11:00am"}, {"days": "Sun", "time": "Closed"}], "id": "1731600002", "name": "USPS COLLECTION BOX - PO LOBBY", "address": {"city": "EAST BERLIN", "state": "PA", "street": "214 S 3RD ST", "postcode": "17316"}}},
{"geometry": {"type": "Point", "coordinates": [-76.5193253485, 39.971392531]}, "type": "Feature", "properties": {"collection_times": [{"days": "Mon-Fri", "time": "4:00pm"}, {"days": "Sat", "time": "11:00am"}, {"days": "Sun", "time": "Closed"}], "id": "1731700001", "name": "USPS COLLECTION BOX - BLUE BOX", "address": {"city": "EAST PROSPECT", "state": "PA", "street": "1 W RIDGE AVE", "postcode": "17317"}}},
{"geometry": {"type": "Point", "coordinates": [-76.5193253485, 39.971392531]}, "type": "Feature", "properties": {"collection_times": [{"days": "Mon-Fri", "time": "4:00pm"}, {"days": "Sat", "time": "11:00am"}, {"days": "Sun", "time": "Closed"}], "id": "1731700002", "name": "USPS COLLECTION BOX - PO LOBBY", "address": {"city": "EAST PROSPECT", "state": "PA", "street": "1 W RIDGE AVE", "postcode": "17317"}}},
{"geometry": {"type": "Point", "coordinates": [-76.6470854856, 39.9932006014]}, "type": "Feature", "properties": {"collection_times": [{"days": "Mon-Fri", "time": "4:30pm"}, {"days": "Sat", "time": "10:00am"}, {"days": "Sun", "time": "Closed"}], "id": "1731800001", "name": "USPS COLLECTION BOX - BLUE BOX", "address": {"city": "EMIGSVILLE", "state": "PA", "street": "2 EMIG RD", "postcode": "17318"}}},
{"geometry": {"type": "Point", "coordinates": [-76.6470854856, 39.9932006014]}, "type": "Feature", "properties": {"collection_times": [{"days": "Mon-Fri", "time": "4:30pm"}, {"days": "Sat", "time": "10:00am"}, {"days": "Sun", "time": "Closed"}], "id": "1731800002", "name": "USPS COLLECTION BOX - PO LOBBY", "address": {"city": "EMIGSVILLE", "state": "PA", "street": "2 EMIG RD", "postcode": "17318"}}},
{"geometry": {"type": "Point", "coordinates": [-76.805634166, 40.1597090191]}, "type": "Feature", "properties": {"collection_times": [{"days": "Mon-Sat", "time": "10:00am"}, {"days": "Sun", "time": "Closed"}], "id": "1731900000", "name": "USPS COLLECTION BOX - BLUE BOX", "address": {"city": "ETTERS", "state": "PA", "street": "185 NEWBERRY COMMONS", "postcode": "17319"}}},
{"geometry": {"type": "Point", "coordinates": [-76.7516035416, 40.1515802115]}, "type": "Feature", "properties": {"collection_times": [{"days": "Mon-Fri", "time": "4:00pm"}, {"days": "Sat", "time": "12:00pm"}, {"days": "Sun", "time": "Closed"}], "id": "1731900001", "name": "USPS COLLECTION BOX - BLUE BOX", "address": {"city": "ETTERS", "state": "PA", "street": "53 S KISTER ST", "postcode": "17319"}}},
{"geometry": {"type": "Point", "coordinates": [-76.805634166, 40.1597090191]}, "type": "Feature", "properties": {"collection_times": [{"days": "Mon-Sat", "time": "10:00am"}, {"days": "Sun", "time": "Closed"}], "id": "1731900002", "name": "USPS COLLECTION BOX - BLUE BOX", "address": {"city": "ETTERS", "state": "PA", "street": "185 NEWBERRY COMMONS", "postcode": "17319"}}},
{"geometry": {"type": "Point", "coordinates": [-76.8054984239, 40.1596701465]}, "type": "Feature", "properties": {"collection_times": [{"days": "Mon-Sat", "time": "10:00am"}, {"days": "Sun", "time": "Closed"}], "id": "1731900004", "name": "USPS COLLECTION BOX - BLUE BOX", "address": {"city": "ETTERS", "state": "PA", "street": "200 NEWBERRY COMMONS", "postcode": "17319"}}},
{"geometry": {"type": "Point", "coordinates": [-76.7516035416, 40.1515802115]}, "type": "Feature", "properties": {"collection_times": [{"days": "Mon-Fri", "time": "4:00pm"}, {"days": "Sat", "time": "12:00pm"}, {"days": "Sun", "time": "Closed"}], "id": "1731900006", "name": "USPS COLLECTION BOX - PO LOBBY", "address": {"city": "ETTERS", "state": "PA", "street": "53 S KISTER ST", "postcode": "17319"}}},
{"geometry": {"type": "Point", "coordinates": [-76.814397364, 40.1574162243]}, "type": "Feature", "properties": {"collection_times": [{"days": "Mon-Sat", "time": "10:00am"}, {"days": "Sun", "time": "Closed"}], "id": "1731900007", "name": "USPS COLLECTION BOX - BLUE BOX", "address": {"city": "ETTERS", "state": "PA", "street": "222 WHITE DOGWOOD DR", "postcode": "17319"}}},
{"geometry": {"type": "Point", "coordinates": [-77.3640266076, 39.7918262213]}, "type": "Feature", "properties": {"collection_times": [{"days": "Mon-Fri", "time": "4:30pm"}, {"days": "Sat", "time": "11:00am"}, {"days": "Sun", "time": "Closed"}], "id": "1732000001", "name": "USPS COLLECTION BOX - BLUE BOX", "address": {"city": "FAIRFIELD", "state": "PA", "street": "6 CARROLLS TRACT RD", "postcode": "17320"}}},
{"geometry": {"type": "Point", "coordinates": [-77.3640266076, 39.7918262213]}, "type": "Feature", "properties": {"collection_times": [{"days": "Mon-Fri", "time": "4:30pm"}, {"days": "Sat", "time": "11:00am"}, {"days": "Sun", "time": "Closed"}], "id": "1732000003", "name": "USPS COLLECTION BOX - PO LOBBY", "address": {"city": "FAIRFIELD", "state": "PA", "street": "6 CARROLLS TRACT RD", "postcode": "17320"}}},
{"geometry": {"type": "Point", "coordinates": [-76.5384707337, 39.8529066061]}, "type": "Feature", "properties": {"collection_times": [{"days": "Mon-Fri", "time": "4:00pm"}, {"days": "Sat", "time": "10:30am"}, {"days": "Sun", "time": "Closed"}], "id": "1732200001", "name": "USPS COLLECTION BOX - BLUE BOX", "address": {"city": "FELTON", "state": "PA", "street": "13 LEBANON AVE", "postcode": "17322"}}},
{"geometry": {"type": "Point", "coordinates": [-76.5384707337, 39.8529066061]}, "type": "Feature", "properties": {"collection_times": [{"days": "Mon-Fri", "time": "4:00pm"}, {"days": "Sat", "time": "10:30am"}, {"days": "Sun", "time": "Closed"}], "id": "1732200003", "name": "USPS COLLECTION BOX - PO LOBBY", "address": {"city": "FELTON", "state": "PA", "street": "13 LEBANON AVE", "postcode": "17322"}}},
{"geometry": {"type": "Point", "coordinates": [-77.0283900841, 40.0761176147]}, "type": "Feature", "properties": {"collection_times": [{"days": "Mon-Fri", "time": "4:15pm"}, {"days": "Sat", "time": "10:45am"}, {"days": "Sun", "time": "Closed"}], "id": "1732300002", "name": "USPS COLLECTION BOX - BLUE BOX", "address": {"city": "FRANKLINTOWN", "state": "PA", "street": "2 S BALTIMORE ST", "postcode": "17323"}}},
{"geometry": {"type": "Point", "coordinates": [-77.0283900841, 40.0761176147]}, "type": "Feature", "properties": {"collection_times": [{"days": "Mon-Fri", "time": "4:15pm"}, {"days": "Sat", "time": "10:45am"}, {"days": "Sun", "time": "Closed"}], "id": "1732300003", "name": "USPS COLLECTION BOX - PO LOBBY", "address": {"city": "FRANKLINTOWN", "state": "PA", "street": "2 S BALTIMORE ST", "postcode": "17323"}}},
{"geometry": {"type": "Point", "coordinates": [-77.2363214555, 39.8297187628]}, "type": "Feature", "properties": {"collection_times": [{"days": "Mon-Sat", "time": "9:00am"}, {"days": "Sun", "time": "Closed"}], "id": "1732500006", "name": "USPS COLLECTION BOX - BLUE BOX", "address": {"city": "GETTYSBURG", "state": "PA", "street": "260 W MIDDLE ST", "postcode": "17325"}}},
{"geometry": {"type": "Point", "coordinates": [-77.2446609155, 39.830515425]}, "type": "Feature", "properties": {"collection_times": [{"days": "Mon-Sat", "time": "9:00am"}, {"days": "Sun", "time": "Closed"}], "id": "1732500007", "name": "USPS COLLECTION BOX - BLUE BOX", "address": {"city": "GETTYSBURG", "state": "PA", "street": "369 SPRINGS AVE", "postcode": "17325"}}},
{"geometry": {"type": "Point", "coordinates": [-77.2262355474, 39.8399608216]}, "type": "Feature", "properties": {"collection_times": [{"days": "Mon-Sat", "time": "10:00am"}, {"days": "Sun", "time": "Closed"}], "id": "1732500009", "name": "USPS COLLECTION BOX - BLUE BOX", "address": {"city": "GETTYSBURG", "state": "PA", "street": "705 OLD HARRISBURG RD", "postcode": "17325"}}},
{"geometry": {"type": "Point", "coordinates": [-77.2332398474, 39.8242617731]}, "type": "Feature", "properties": {"collection_times": [{"days": "Mon-Sat", "time": "9:30am"}, {"days": "Sun", "time": "Closed"}], "id": "1732500010", "name": "USPS COLLECTION BOX - BLUE BOX", "address": {"city": "GETTYSBURG", "state": "PA", "street": "508 S WASHINGTON ST", "postcode": "17325"}}},
{"geometry": {"type": "Point", "coordinates": [-77.2310738495, 39.828936827]}, "type": "Feature", "properties": {"collection_times": [{"days": "Mon-Sat", "time": "11:30am"}, {"days": "Sun", "time": "Closed"}], "id": "1732500012", "name": "USPS COLLECTION BOX - BLUE BOX", "address": {"city": "GETTYSBURG", "state": "PA", "street": "140 BALTIMORE ST", "postcode": "17325"}}},
{"geometry": {"type": "Point", "coordinates": [-77.2024710847, 39.8433417183]}, "type": "Feature", "properties": {"collection_times": [{"days": "Mon-Sat", "time": "9:30am"}, {"days": "Sun", "time": "Closed"}], "id": "1732500020", "name": "USPS COLLECTION BOX - BLUE BOX", "address": {"city": "GETTYSBURG", "state": "PA", "street": "1275 YORK RD", "postcode": "17325"}}},
{"geometry": {"type": "Point", "coordinates": [-77.2388766469, 39.8319581042]}, "type": "Feature", "properties": {"collection_times": [{"days": "Mon-Fri", "time": "5:00pm"}, {"days": "Sat", "time": "4:00pm"}, {"days": "Sun", "time": "Closed"}], "id": "1732500022", "name": "USPS COLLECTION BOX - BLUE BOX", "address": {"city": "GETTYSBURG", "state": "PA", "street": "115 BUFORD AVE", "postcode": "17325"}}},
{"geometry": {"type": "Point", "coordinates": [-77.2388766469, 39.8319581042]}, "type": "Feature", "properties": {"collection_times": [{"days": "Mon-Fri", "time": "5:00pm"}, {"days": "Sat", "time": "4:00pm"}, {"days": "Sun", "time": "Closed"}], "id": "1732500024", "name": "USPS COLLECTION BOX - BLUE BOX", "address": {"city": "GETTYSBURG", "state": "PA", "street": "115 BUFORD AVE", "postcode": "17325"}}},
{"geometry": {"type": "Point", "coordinates": [-77.2388766469, 39.8319581042]}, "type": "Feature", "properties": {"collection_times": [{"days": "Mon-Fri", "time": "5:00pm"}, {"days": "Sat", "time": "4:00pm"}, {"days": "Sun", "time": "Closed"}], "id": "1732500027", "name": "USPS COLLECTION BOX - PO LOBBY", "address": {"city": "GETTYSBURG", "state": "PA", "street": "115 BUFORD AVE", "postcode": "17325"}}},
{"geometry": {"type": "Point", "coordinates": [-77.2014277149, 39.7943234476]}, "type": "Feature", "properties": {"collection_times": [{"days": "Mon-Sat", "time": "9:00am"}, {"days": "Sun", "time": "Closed"}], "id": "1732500028", "name": "USPS COLLECTION BOX - BLUE BOX", "address": {"city": "GETTYSBURG", "state": "PA", "street": "1863 GETTYSBURG VILLAGE DR", "postcode": "17325"}}},
{"geometry": {"type": "Point", "coordinates": [-77.2380426608, 39.8626251324]}, "type": "Feature", "properties": {"collection_times": [{"days": "Mon-Fri", "time": "10:30am"}, {"days": "Sat-Sun", "time": "Closed"}], "id": "1732500029", "name": "USPS COLLECTION BOX - BLUE BOX", "address": {"city": "GETTYSBURG", "state": "PA", "street": "1380 BIGLERVILLE RD", "postcode": "17325"}}},
{"geometry": {"type": "Point", "coordinates": [-77.2223447953, 39.8309975415]}, "type": "Feature", "properties": {"collection_times": [{"days": "Mon-Fri", "time": "9:00am"}, {"days": "Sat-Sun", "time": "Closed"}], "id": "1732500031", "name": "USPS COLLECTION BOX - BLUE BOX", "address": {"city": "GETTYSBURG", "state": "PA", "street": "206 HANOVER ST", "postcode": "17325"}}},
{"geometry": {"type": "Point", "coordinates": [-77.2388766469, 39.8319581042]}, "type": "Feature", "properties": {"collection_times": [{"days": "Mon-Fri", "time": "5:00pm"}, {"days": "Sat", "time": "4:00pm"}, {"days": "Sun", "time": "Closed"}], "id": "1732500032", "name": "USPS COLLECTION BOX - APC", "address": {"city": "GETTYSBURG", "state": "PA", "street": "115 BUFORD AVE", "postcode": "17325"}}},
{"geometry": {"type": "Point", "coordinates": [-77.1509023546, 39.9424050679]}, "type": "Feature", "properties": {"collection_times": [{"days": "Mon-Sat", "time": "11:00am"}, {"days": "Sun", "time": "Closed"}], "id": "1732500033", "name": "USPS COLLECTION BOX - BLUE BOX", "address": {"city": "GETTYSBURG", "state": "PA", "street": "4820 OLD HARRISBURG RD", "postcode": "17325"}}},
{"geometry": {"type": "Point", "coordinates": [-76.7319236773, 39.7870313229]}, "type": "Feature", "properties": {"collection_times": [{"days": "Mon-Fri", "time": "12:00pm"}, {"days": "Sat", "time": "11:00am"}, {"days": "Sun", "time": "Closed"}], "id": "1732700006", "name": "USPS COLLECTION BOX - BLUE BOX", "address": {"city": "GLEN ROCK", "state": "PA", "street": "139 MANCHESTER ST", "postcode": "17327"}}},
{"geometry": {"type": "Point", "coordinates": [-76.7314773772, 39.7961560066]}, "type": "Feature", "properties": {"collection_times": [{"days": "Mon-Fri", "time": "4:15pm"}, {"days": "Sat", "time": "11:15am"}, {"days": "Sun", "time": "Closed"}], "id": "1732700011", "name": "USPS COLLECTION BOX - BLUE BOX", "address": {"city": "GLEN ROCK", "state": "PA", "street": "201 CHURCH ST", "postcode": "17327"}}},
{"geometry": {"type": "Point", "coordinates": [-76.6968881402, 39.8232736417]}, "type": "Feature", "properties": {"collection_times": [{"days": "Mon-Sat", "time": "9:00am"}, {"days": "Sun", "time": "Closed"}], "id": "1732700014", "name": "USPS COLLECTION BOX - BLUE BOX", "address": {"city": "GLEN ROCK", "state": "PA", "street": "9990 SUSQUEHANNA TRL S", "postcode": "17327"}}},
{"geometry": {"type": "Point", "coordinates": [-76.7314773772, 39.7961560066]}, "type": "Feature", "properties": {"collection_times": [{"days": "Mon-Fri", "time": "4:30pm"}, {"days": "Sat", "time": "11:15am"}, {"days": "Sun", "time": "Closed"}], "id": "1732700015", "name": "USPS COLLECTION BOX - PO LOBBY", "address": {"city": "GLEN ROCK", "state": "PA", "street": "201 CHURCH ST", "postcode": "17327"}}},
{"geometry": {"type": "Point", "coordinates": [-76.8168335277, 39.7601325281]}, "type": "Feature", "properties": {"collection_times": [{"days": "Mon-Fri", "time": "4:00pm"}, {"days": "Sat", "time": "12:00pm"}, {"days": "Sun", "time": "Closed"}], "id": "1732900001", "name": "USPS COLLECTION BOX - BLUE BOX", "address": {"city": "GLENVILLE", "state": "PA", "street": "8142 BLOOMING GROVE RD", "postcode": "17329"}}},
{"geometry": {"type": "Point", "coordinates": [-76.8168335277, 39.7601325281]}, "type": "Feature", "properties": {"collection_times": [{"days": "Mon-Fri", "time": "4:00pm"}, {"days": "Sat", "time": "12:00pm"}, {"days": "Sun", "time": "Closed"}], "id": "1732900002", "name": "USPS COLLECTION BOX - PO LOBBY", "address": {"city": "GLENVILLE", "state": "PA", "street": "8142 BLOOMING GROVE RD", "postcode": "17329"}}},
{"geometry": {"type": "Point", "coordinates": [-76.9625783662, 39.7800287883]}, "type": "Feature", "properties": {"collection_times": [{"days": "Mon-Fri", "time": "4:00pm"}, {"days": "Sat", "time": "2:45pm"}, {"days": "Sun", "time": "Closed"}], "id": "1733100004", "name": "USPS COLLECTION BOX - BLUE BOX", "address": {"city": "HANOVER", "state": "PA", "street": "1049 BALTIMORE ST", "postcode": "17331"}}},
{"geometry": {"type": "Point", "coordinates": [-76.9667630578, 39.8013456077]}, "type": "Feature", "properties": {"collection_times": [{"days": "Mon-Sat", "time": "12:00pm"}, {"days": "Sun", "time": "Closed"}], "id": "1733100006", "name": "USPS COLLECTION BOX - BLUE BOX", "address": {"city": "HANOVER", "state": "PA", "street": "101 CENTER ST", "postcode": "17331"}}},
{"geometry": {"type": "Point", "coordinates": [-76.9866295749, 39.8001542524]}, "type": "Feature", "properties": {"collection_times": [{"days": "Mon-Fri", "time": "5:00pm"}, {"days": "Sat", "time": "3:30pm"}, {"days": "Sun", "time": "Closed"}], "id": "1733100020", "name": "USPS COLLECTION BOX - BLUE BOX", "address": {"city": "HANOVER", "state": "PA", "street": "18 HIGH ST", "postcode": "17331"}}},
{"geometry": {"type": "Point", "coordinates": [-76.9873801001, 39.7998335108]}, "type": "Feature", "properties": {"collection_times": [{"days": "Mon-Fri", "time": "5:00pm"}, {"days": "Sat", "time": "3:30pm"}, {"days": "Sun", "time": "Closed"}], "id": "1733100023", "name": "USPS COLLECTION BOX - BLUE BOX", "address": {"city": "HANOVER", "state": "PA", "street": "215 W CHESTNUT ST", "postcode": "17331"}}},
{"geometry": {"type": "Point", "coordinates": [-76.9766816226, 39.8021898197]}, "type": "Feature", "properties": {"collection_times": [{"days": "Mon-Sat", "time": "11:00am"}, {"days": "Sun", "time": "Closed"}], "id": "1733100024", "name": "USPS COLLECTION BOX - BLUE BOX", "address": {"city": "HANOVER", "state": "PA", "street": "234 BAER AVE", "postcode": "17331"}}},
{"geometry": {"type": "Point", "coordinates": [-76.9842754866, 39.7998466831]}, "type": "Feature", "properties": {"collection_times": [{"days": "Mon-Fri", "time": "4:00pm"}, {"days": "Sat", "time": "2:45pm"}, {"days": "Sun", "time": "Closed"}], "id": "1733100027", "name": "USPS COLLECTION BOX - BLUE BOX", "address": {"city": "HANOVER", "state": "PA", "street": "44 FREDERICK ST", "postcode": "17331"}}},
{"geometry": {"type": "Point", "coordinates": [-76.9849757983, 39.8127362039]}, "type": "Feature", "properties": {"collection_times": [{"days": "Mon-Sat", "time": "1:30pm"}, {"days": "Sun", "time": "Closed"}], "id": "1733100030", "name": "USPS COLLECTION BOX - BLUE BOX", "address": {"city": "HANOVER", "state": "PA", "street": "228 CHARLES ST", "postcode": "17331"}}},
{"geometry": {"type": "Point", "coordinates": [-76.9746663109, 39.8187172445]}, "type": "Feature", "properties": {"collection_times": [{"days": "Mon-Sat", "time": "9:30am"}, {"days": "Sun", "time": "Closed"}], "id": "1733100039", "name": "USPS COLLECTION BOX - BLUE BOX", "address": {"city": "HANOVER", "state": "PA", "street": "925 BROADWAY", "postcode": "17331"}}},
{"geometry": {"type": "Point", "coordinates": [-76.9818500858, 39.8023754247]}, "type": "Feature", "properties": {"collection_times": [{"days": "Mon-Fri", "time": "2:30pm"}, {"days": "Sat", "time": "9:30am"}, {"days": "Sun", "time": "Closed"}], "id": "1733100043", "name": "USPS COLLECTION BOX - BLUE BOX", "address": {"city": "HANOVER", "state": "PA", "street": "146 BROADWAY", "postcode": "17331"}}},
{"geometry": {"type": "Point", "coordinates": [-76.9860392784, 39.8065812684]}, "type": "Feature", "properties": {"collection_times": [{"days": "Mon-Fri", "time": "4:15pm"}, {"days": "Sat", "time": "3:00pm"}, {"days": "Sun", "time": "Closed"}], "id": "1733100044", "name": "USPS COLLECTION BOX - BLUE BOX", "address": {"city": "HANOVER", "state": "PA", "street": "195 STOCK ST", "postcode": "17331"}}},
{"geometry": {"type": "Point", "coordinates": [-76.9807892013, 39.8006119097]}, "type": "Feature", "properties": {"collection_times": [{"days": "Mon-Fri", "time": "4:15pm"}, {"days": "Sat", "time": "3:00pm"}, {"days": "Sun", "time": "Closed"}], "id": "1733100045", "name": "USPS COLLECTION BOX - BLUE BOX", "address": {"city": "HANOVER", "state": "PA", "street": "100 YORK ST", "postcode": "17331"}}},
{"geometry": {"type": "Point", "coordinates": [-76.9838354259, 39.8001294102]}, "type": "Feature", "properties": {"collection_times": [{"days": "Mon-Sat", "time": "10:00am"}, {"days": "Sun", "time": "Closed"}], "id": "1733100046", "name": "USPS COLLECTION BOX - BLUE BOX", "address": {"city": "HANOVER", "state": "PA", "street": "1 FREDERICK ST", "postcode": "17331"}}},
{"geometry": {"type": "Point", "coordinates": [-76.9943176252, 39.8176679599]}, "type": "Feature", "properties": {"collection_times": [{"days": "Mon-Fri", "time": "5:00pm"}, {"days": "Sat", "time": "3:15pm"}, {"days": "Sun", "time": "Closed"}], "id": "1733100049", "name": "USPS COLLECTION BOX - BLUE BOX", "address": {"city": "HANOVER", "state": "PA", "street": "1000 CARLISLE ST", "postcode": "17331"}}},
{"geometry": {"type": "Point", "coordinates": [-76.9970242354, 39.8224104424]}, "type": "Feature", "properties": {"collection_times": [{"days": "Mon-Fri", "time": "5:00pm"}, {"days": "Sat", "time": "3:15pm"}, {"days": "Sun", "time": "Closed"}], "id": "1733100051", "name": "USPS COLLECTION BOX - BLUE BOX", "address": {"city": "HANOVER", "state": "PA", "street": "1150 CARLISLE ST", "postcode": "17331"}}},
{"geometry": {"type": "Point", "coordinates": [-76.9833859014, 39.8080315761]}, "type": "Feature", "properties": {"collection_times": [{"days": "Mon-Sat", "time": "11:15am"}, {"days": "Sun", "time": "Closed"}], "id": "1733100054", "name": "USPS COLLECTION BOX - BLUE BOX", "address": {"city": "HANOVER", "state": "PA", "street": "300 HIGHLAND AVE", "postcode": "17331"}}},
{"geometry": {"type": "Point", "coordinates": [-76.9916583335, 39.8129041841]}, "type": "Feature", "properties": {"collection_times": [{"days": "Mon-Sat", "time": "9:30am"}, {"days": "Sun", "time": "Closed"}], "id": "1733100056", "name": "USPS COLLECTION BOX - BLUE BOX", "address": {"city": "HANOVER", "state": "PA", "street": "860 CARLISLE ST", "postcode": "17331"}}},
{"geometry": {"type": "Point", "coordinates": [-76.9756881183, 39.8253285537]}, "type": "Feature", "properties": {"collection_times": [{"days": "Mon-Fri", "time": "4:30pm"}, {"days": "Sat", "time": "3:15pm"}, {"days": "Sun", "time": "Closed"}], "id": "1733100121", "name": "USPS COLLECTION BOX - BLUE BOX", "address": {"city": "HANOVER", "state": "PA", "street": "485 EISENHOWER DR", "postcode": "17331"}}},
{"geometry": {"type": "Point", "coordinates": [-76.9902423316, 39.8095564102]}, "type": "Feature", "properties": {"collection_times": [{"days": "Mon-Fri", "time": "3:30pm"}, {"days": "Sat", "time": "12:00pm"}, {"days": "Sun", "time": "Closed"}], "id": "1733100125", "name": "USPS COLLECTION BOX - BLUE BOX", "address": {"city": "HANOVER", "state": "PA", "street": "600 CARLISLE ST", "postcode": "17331"}}},
{"geometry": {"type": "Point", "coordinates": [-76.9866295749, 39.8001542524]}, "type": "Feature", "properties": {"collection_times": [{"days": "Mon-Fri", "time": "5:00pm"}, {"days": "Sat", "time": "3:30pm"}, {"days": "Sun", "time": "Closed"}], "id": "1733100128", "name": "USPS COLLECTION BOX - PO LOBBY", "address": {"city": "HANOVER", "state": "PA", "street": "18 HIGH ST", "postcode": "17331"}}},
{"geometry": {"type": "Point", "coordinates": [-76.9604057406, 39.7722778244]}, "type": "Feature", "properties": {"collection_times": [{"days": "Mon-Sat", "time": "10:00am"}, {"days": "Sun", "time": "Closed"}], "id": "1733100130", "name": "USPS COLLECTION BOX - BLUE BOX", "address": {"city": "HANOVER", "state": "PA", "street": "1424 BALTIMORE ST", "postcode": "17331"}}},
{"geometry": {"type": "Point", "coordinates": [-76.9889990417, 39.8065907321]}, "type": "Feature", "properties": {"collection_times": [{"days": "Mon-Fri", "time": "3:30pm"}, {"days": "Sat", "time": "12:00pm"}, {"days": "Sun", "time": "Closed"}], "id": "1733100131", "name": "USPS COLLECTION BOX - BLUE BOX", "address": {"city": "HANOVER", "state": "PA", "street": "454 CARLISLE ST", "postcode": "17331"}}},
{"geometry": {"type": "Point", "coordinates": [-76.9697487505, 39.8246024653]}, "type": "Feature", "properties": {"collection_times": [{"days": "Mon-Sat", "time": "10:00am"}, {"days": "Sun", "time": "Closed"}], "id": "1733100132", "name": "USPS COLLECTION BOX - BLUE BOX", "address": {"city": "HANOVER", "state": "PA", "street": "250 FAME AVE", "postcode": "17331"}}},
{"geometry": {"type": "Point", "coordinates": [-76.9866295749, 39.8001542524]}, "type": "Feature", "properties": {"collection_times": [{"days": "Mon-Fri", "time": "5:00pm"}, {"days": "Sat", "time": "3:00pm"}, {"days": "Sun", "time": "Closed"}], "id": "1733100133", "name": "USPS COLLECTION BOX - APC", "address": {"city": "HANOVER", "state": "PA", "street": "18 HIGH ST", "postcode": "17331"}}},
{"geometry": {"type": "Point", "coordinates": [-76.9693548252, 39.7877201707]}, "type": "Feature", "properties": {"collection_times": [{"days": "Mon-Fri", "time": "9:30am"}, {"days": "Sat-Sun", "time": "Closed"}], "id": "1733100135", "name": "USPS COLLECTION BOX - BLUE BOX", "address": {"city": "HANOVER", "state": "PA", "street": "801 BALTIMORE ST", "postcode": "17331"}}},
{"geometry": {"type": "Point", "coordinates": [-76.8587720638, 40.1371402132]}, "type": "Feature", "properties": {"collection_times": [{"days": "Mon-Fri", "time": "4:00pm"}, {"days": "Sat", "time": "12:00pm"}, {"days": "Sun", "time": "Closed"}], "id": "1733900002", "name": "USPS COLLECTION BOX - BLUE BOX", "address": {"city": "LEWISBERRY", "state": "PA", "street": "408 MARKET ST", "postcode": "17339"}}},
{"geometry": {"type": "Point", "coordinates": [-76.8587720638, 40.1371402132]}, "type": "Feature", "properties": {"collection_times": [{"days": "Mon-Fri", "time": "4:00pm"}, {"days": "Sat", "time": "12:00pm"}, {"days": "Sun", "time": "Closed"}], "id": "1733900005", "name": "USPS COLLECTION BOX - PO LOBBY", "address": {"city": "LEWISBERRY", "state": "PA", "street": "408 MARKET ST", "postcode": "17339"}}},
{"geometry": {"type": "Point", "coordinates": [-77.0890631747, 39.744354078]}, "type": "Feature", "properties": {"collection_times": [{"days": "Mon-Fri", "time": "4:00pm"}, {"days": "Sat", "time": "12:00pm"}, {"days": "Sun", "time": "Closed"}], "id": "1734000004", "name": "USPS COLLECTION BOX - BLUE BOX", "address": {"city": "LITTLESTOWN", "state": "PA", "street": "24 W KING ST", "postcode": "17340"}}},
{"geometry": {"type": "Point", "coordinates": [-77.0985930921, 39.7430126025]}, "type": "Feature", "properties": {"collection_times": [{"days": "Mon-Sat", "time": "10:30am"}, {"days": "Sun", "time": "Closed"}], "id": "1734000013", "name": "USPS COLLECTION BOX - BLUE BOX", "address": {"city": "LITTLESTOWN", "state": "PA", "street": "520 W KING ST", "postcode": "17340"}}},
{"geometry": {"type": "Point", "coordinates": [-77.0830632068, 39.7469849787]}, "type": "Feature", "properties": {"collection_times": [{"days": "Mon-Sat", "time": "9:30am"}, {"days": "Sun", "time": "Closed"}], "id": "1734000017", "name": "USPS COLLECTION BOX - BLUE BOX", "address": {"city": "LITTLESTOWN", "state": "PA", "street": "223 E KING ST", "postcode": "17340"}}},
{"geometry": {"type": "Point", "coordinates": [-77.0880757604, 39.7481581544]}, "type": "Feature", "properties": {"collection_times": [{"days": "Mon-Sat", "time": "9:00am"}, {"days": "Sun", "time": "Closed"}], "id": "1734000018", "name": "USPS COLLECTION BOX - BLUE BOX", "address": {"city": "LITTLESTOWN", "state": "PA", "street": "97 MAPLE AVE", "postcode": "17340"}}},
{"geometry": {"type": "Point", "coordinates": [-77.0890631747, 39.744354078]}, "type": "Feature", "properties": {"collection_times": [{"days": "Mon-Fri", "time": "4:00pm"}, {"days": "Sat", "time": "12:00pm"}, {"days": "Sun", "time": "Closed"}], "id": "1734000021", "name": "USPS COLLECTION BOX - PO LOBBY", "address": {"city": "LITTLESTOWN", "state": "PA", "street": "24 W KING ST", "postcode": "17340"}}},
{"geometry": {"type": "Point", "coordinates": [-76.7091489618, 39.8557592373]}, "type": "Feature", "properties": {"collection_times": [{"days": "Mon-Fri", "time": "4:00pm"}, {"days": "Sat", "time": "10:30am"}, {"days": "Sun", "time": "Closed"}], "id": "1734200001", "name": "USPS COLLECTION BOX - BLUE BOX", "address": {"city": "LOGANVILLE", "state": "PA", "street": "107 W ORE ST", "postcode": "17342"}}},
{"geometry": {"type": "Point", "coordinates": [-76.7091489618, 39.8557592373]}, "type": "Feature", "properties": {"collection_times": [{"days": "Mon-Fri", "time": "4:00pm"}, {"days": "Sat", "time": "10:30am"}, {"days": "Sun", "time": "Closed"}], "id": "1734200002", "name": "USPS COLLECTION BOX - PO LOBBY", "address": {"city": "LOGANVILLE", "state": "PA", "street": "107 W ORE ST", "postcode": "17342"}}},
{"geometry": {"type": "Point", "coordinates": [-77.3273087443, 39.870736682]}, "type": "Feature", "properties": {"collection_times": [{"days": "Mon-Fri", "time": "4:15pm"}, {"days": "Sat", "time": "12:00pm"}, {"days": "Sun", "time": "Closed"}], "id": "1734300001", "name": "USPS COLLECTION BOX - PO LOBBY", "address": {"city": "MCKNIGHTSTOWN", "state": "PA", "street": "245 OLD ROUTE 30", "postcode": "17343"}}},
{"geometry": {"type": "Point", "coordinates": [-77.3273087443, 39.870736682]}, "type": "Feature", "properties": {"collection_times": [{"days": "Mon-Fri", "time": "4:15pm"}, {"days": "Sat", "time": "12:00pm"}, {"days": "Sun", "time": "Closed"}], "id": "1734300003", "name": "USPS COLLECTION BOX - BLUE BOX", "address": {"city": "MCKNIGHTSTOWN", "state": "PA", "street": "245 OLD ROUTE 30", "postcode": "17343"}}},
{"geometry": {"type": "Point", "coordinates": [-77.0171227082, 39.8073785828]}, "type": "Feature", "properties": {"collection_times": [{"days": "Mon-Sat", "time": "9:30am"}, {"days": "Sun", "time": "Closed"}], "id": "1734400002", "name": "USPS COLLECTION BOX - BLUE BOX", "address": {"city": "MCSHERRYSTOWN", "state": "PA", "street": "430 RIDGE AVE", "postcode": "17344"}}},
{"geometry": {"type": "Point", "coordinates": [-77.0179200225, 39.8059069818]}, "type": "Feature", "properties": {"collection_times": [{"days": "Mon-Sat", "time": "11:00am"}, {"days": "Sun", "time": "Closed"}], "id": "1734400004", "name": "USPS COLLECTION BOX - BLUE BOX", "address": {"city": "MCSHERRYSTOWN", "state": "PA", "street": "403 NORTH ST", "postcode": "17344"}}},
{"geometry": {"type": "Point", "coordinates": [-77.0195856287, 39.8037670091]}, "type": "Feature", "properties": {"collection_times": [{"days": "Mon-Fri", "time": "4:15pm"}, {"days": "Sat", "time": "11:00am"}, {"days": "Sun", "time": "Closed"}], "id": "1734400012", "name": "USPS COLLECTION BOX - BLUE BOX", "address": {"city": "MCSHERRYSTOWN", "state": "PA", "street": "328 MAIN ST", "postcode": "17344"}}},
{"geometry": {"type": "Point", "coordinates": [-77.0195856287, 39.8037670091]}, "type": "Feature", "properties": {"collection_times": [{"days": "Mon-Fri", "time": "4:15pm"}, {"days": "Sat", "time": "11:00am"}, {"days": "Sun", "time": "Closed"}], "id": "1734400015", "name": "USPS COLLECTION BOX - PO LOBBY", "address": {"city": "MCSHERRYSTOWN", "state": "PA", "street": "328 MAIN ST", "postcode": "17344"}}},
{"geometry": {"type": "Point", "coordinates": [-76.721125797, 40.063601629]}, "type": "Feature", "properties": {"collection_times": [{"days": "Mon-Fri", "time": "5:00pm"}, {"days": "Sat", "time": "10:00am"}, {"days": "Sun", "time": "Closed"}], "id": "1734500002", "name": "USPS COLLECTION BOX - BLUE BOX", "address": {"city": "MANCHESTER", "state": "PA", "street": "15 MANCHESTER ST", "postcode": "17345"}}},
{"geometry": {"type": "Point", "coordinates": [-76.7241014918, 40.0442249201]}, "type": "Feature", "properties": {"collection_times": [{"days": "Mon-Sat", "time": "10:30am"}, {"days": "Sun", "time": "Closed"}], "id": "1734500003", "name": "USPS COLLECTION BOX - BLUE BOX", "address": {"city": "MANCHESTER", "state": "PA", "street": "205 GLEN DR", "postcode": "17345"}}},
{"geometry": {"type": "Point", "coordinates": [-76.7191581269, 40.0630535218]}, "type": "Feature", "properties": {"collection_times": [{"days": "Mon-Fri", "time": "5:00pm"}, {"days": "Sat", "time": "10:00am"}, {"days": "Sun", "time": "Closed"}], "id": "1734500009", "name": "USPS COLLECTION BOX - PO LOBBY", "address": {"city": "MANCHESTER", "state": "PA", "street": "15 MANCHESTER ST", "postcode": "17345"}}},
{"geometry": {"type": "Point", "coordinates": [-76.7053837195, 40.0618577504]}, "type": "Feature", "properties": {"collection_times": [{"days": "Mon-Fri", "time": "4:15pm"}, {"days": "Sat", "time": "10:00am"}, {"days": "Sun", "time": "Closed"}], "id": "1734700001", "name": "USPS COLLECTION BOX - BLUE BOX", "address": {"city": "MOUNT WOLF", "state": "PA", "street": "94 S 4TH ST", "postcode": "17347"}}},
{"geometry": {"type": "Point", "coordinates": [-76.6922477102, 40.0512002266]}, "type": "Feature", "properties": {"collection_times": [{"days": "Mon-Sat", "time": "9:00am"}, {"days": "Sun", "time": "Closed"}], "id": "1734700002", "name": "USPS COLLECTION BOX - BLUE BOX", "address": {"city": "MOUNT WOLF", "state": "PA", "street": "4775 N SHERMAN STREET EXT", "postcode": "17347"}}},
{"geometry": {"type": "Point", "coordinates": [-76.7053837195, 40.0618577504]}, "type": "Feature", "properties": {"collection_times": [{"days": "Mon-Fri", "time": "4:15pm"}, {"days": "Sat", "time": "10:00am"}, {"days": "Sun", "time": "Closed"}], "id": "1734700003", "name": "USPS COLLECTION BOX - PO LOBBY", "address": {"city": "MOUNT WOLF", "state": "PA", "street": "94 S 4TH ST", "postcode": "17347"}}},
{"geometry": {"type": "Point", "coordinates": [-76.7031444201, 39.7388261089]}, "type": "Feature", "properties": {"collection_times": [{"days": "Mon-Fri", "time": "4:30pm"}, {"days": "Sat", "time": "11:00am"}, {"days": "Sun", "time": "Closed"}], "id": "1734900001", "name": "USPS COLLECTION BOX - BLUE BOX", "address": {"city": "NEW FREEDOM", "state": "PA", "street": "5 S BROAD ST", "postcode": "17349"}}},
{"geometry": {"type": "Point", "coordinates": [-76.7031444201, 39.7388261089]}, "type": "Feature", "properties": {"collection_times": [{"days": "Mon-Fri", "time": "4:30pm"}, {"days": "Sat", "time": "11:00am"}, {"days": "Sun", "time": "Closed"}], "id": "1734900004", "name": "USPS COLLECTION BOX - PO LOBBY", "address": {"city": "NEW FREEDOM", "state": "PA", "street": "5 S BROAD ST", "postcode": "17349"}}},
{"geometry": {"type": "Point", "coordinates": [-77.0809267829, 39.8441792532]}, "type": "Feature", "properties": {"collection_times": [{"days": "Mon-Sat", "time": "9:00am"}, {"days": "Sun", "time": "Closed"}], "id": "1735000001", "name": "USPS COLLECTION BOX - BLUE BOX", "address": {"city": "NEW OXFORD", "state": "PA", "street": "575 KOHLER SCHOOL RD", "postcode": "17350"}}},
{"geometry": {"type": "Point", "coordinates": [-77.0447530807, 39.8665513732]}, "type": "Feature", "properties": {"collection_times": [{"days": "Mon-Sat", "time": "9:45am"}, {"days": "Sun", "time": "Closed"}], "id": "1735000008", "name": "USPS COLLECTION BOX - BLUE BOX", "address": {"city": "NEW OXFORD", "state": "PA", "street": "370 LINCOLN WAY E", "postcode": "17350"}}},
{"geometry": {"type": "Point", "coordinates": [-77.0557226592, 39.8641748086]}, "type": "Feature", "properties": {"collection_times": [{"days": "Mon-Fri", "time": "5:00pm"}, {"days": "Sat", "time": "12:00pm"}, {"days": "Sun", "time": "Closed"}], "id": "1735000009", "name": "USPS COLLECTION BOX - BLUE BOX", "address": {"city": "NEW OXFORD", "state": "PA", "street": "4 CENTER SQ", "postcode": "17350"}}},
{"geometry": {"type": "Point", "coordinates": [-77.0557226592, 39.8641748086]}, "type": "Feature", "properties": {"collection_times": [{"days": "Mon-Fri", "time": "5:00pm"}, {"days": "Sat", "time": "12:00pm"}, {"days": "Sun", "time": "Closed"}], "id": "1735000012", "name": "USPS COLLECTION BOX - PO LOBBY", "address": {"city": "NEW OXFORD", "state": "PA", "street": "4 CENTER SQ", "postcode": "17350"}}},
{"geometry": {"type": "Point", "coordinates": [-76.5060523449, 39.7334945265]}, "type": "Feature", "properties": {"collection_times": [{"days": "Mon-Fri", "time": "12:00pm"}, {"days": "Sat", "time": "11:00am"}, {"days": "Sun", "time": "Closed"}], "id": "1735200001", "name": "USPS COLLECTION BOX - BLUE BOX", "address": {"city": "NEW PARK", "state": "PA", "street": "44 CAREA RD", "postcode": "17352"}}},
{"geometry": {"type": "Point", "coordinates": [-76.5060523449, 39.7334945265]}, "type": "Feature", "properties": {"collection_times": [{"days": "Mon-Fri", "time": "12:00pm"}, {"days": "Sat", "time": "11:00am"}, {"days": "Sun", "time": "Closed"}], "id": "1735200002", "name": "USPS COLLECTION BOX - PO LOBBY", "address": {"city": "NEW PARK", "state": "PA", "street": "44 CAREA RD", "postcode": "17352"}}},
{"geometry": {"type": "Point", "coordinates": [-76.7004658708, 39.7580425658]}, "type": "Feature", "properties": {"collection_times": [{"days": "Mon-Fri", "time": "4:30pm"}, {"days": "Sat", "time": "11:00am"}, {"days": "Sun", "time": "Closed"}], "id": "1735500002", "name": "USPS COLLECTION BOX - PO LOBBY", "address": {"city": "RAILROAD", "state": "PA", "street": "14 E MAIN ST", "postcode": "17355"}}},
{"geometry": {"type": "Point", "coordinates": [-76.6247777298, 39.8958904315]}, "type": "Feature", "properties": {"collection_times": [{"days": "Mon-Fri", "time": "12:00pm"}, {"days": "Sat", "time": "11:00am"}, {"days": "Sun", "time": "Closed"}], "id": "1735600000", "name": "USPS COLLECTION BOX - BLUE BOX", "address": {"city": "RED LION", "state": "PA", "street": "4 DAIRYLAND SQ", "postcode": "17356"}}},
{"geometry": {"type": "Point", "coordinates": [-76.6308332294, 39.9151045912]}, "type": "Feature", "properties": {"collection_times": [{"days": "Mon-Sat", "time": "10:00am"}, {"days": "Sun", "time": "Closed"}], "id": "1735600001", "name": "USPS COLLECTION BOX - BLUE BOX", "address": {"city": "RED LION", "state": "PA", "street": "653 LOMBARD RD", "postcode": "17356"}}},
{"geometry": {"type": "Point", "coordinates": [-76.6180124939, 39.8967857517]}, "type": "Feature", "properties": {"collection_times": [{"days": "Mon-Fri", "time": "11:00am"}, {"days": "Sat", "time": "10:00am"}, {"days": "Sun", "time": "Closed"}], "id": "1735600010", "name": "USPS COLLECTION BOX - BLUE BOX", "address": {"city": "RED LION", "state": "PA", "street": "801 W BROADWAY", "postcode": "17356"}}},
{"geometry": {"type": "Point", "coordinates": [-76.6074621467, 39.8999358127]}, "type": "Feature", "properties": {"collection_times": [{"days": "Mon-Sat", "time": "8:30am"}, {"days": "Sun", "time": "Closed"}], "id": "1735600013", "name": "USPS COLLECTION BOX - BLUE BOX", "address": {"city": "RED LION", "state": "PA", "street": "143 W BROADWAY", "postcode": "17356"}}},
{"geometry": {"type": "Point", "coordinates": [-76.6027104475, 39.9012940439]}, "type": "Feature", "properties": {"collection_times": [{"days": "Mon-Fri", "time": "9:30am"}, {"days": "Sat", "time": "9:00am"}, {"days": "Sun", "time": "Closed"}], "id": "1735600014", "name": "USPS COLLECTION BOX - BLUE BOX", "address": {"city": "RED LION", "state": "PA", "street": "157 E BROADWAY", "postcode": "17356"}}},
{"geometry": {"type": "Point", "coordinates": [-76.5968190075, 39.8903235835]}, "type": "Feature", "properties": {"collection_times": [{"days": "Mon-Sat", "time": "11:00am"}, {"days": "Sun", "time": "Closed"}], "id": "1735600015", "name": "USPS COLLECTION BOX - BLUE BOX", "address": {"city": "RED LION", "state": "PA", "street": "737 S MAIN ST", "postcode": "17356"}}},
{"geometry": {"type": "Point", "coordinates": [-76.6166842589, 39.9084205826]}, "type": "Feature", "properties": {"collection_times": [{"days": "Mon-Fri", "time": "4:30pm"}, {"days": "Sat", "time": "12:00pm"}, {"days": "Sun", "time": "Closed"}], "id": "1735600021", "name": "USPS COLLECTION BOX - BLUE BOX", "address": {"city": "RED LION", "state": "PA", "street": "500 N MAIN ST", "postcode": "17356"}}},
{"geometry": {"type": "Point", "coordinates": [-76.6054738359, 39.9011511195]}, "type": "Feature", "properties": {"collection_times": [{"days": "Mon-Sat", "time": "9:00am"}, {"days": "Sun", "time": "Closed"}], "id": "1735600025", "name": "USPS COLLECTION BOX - BLUE BOX", "address": {"city": "RED LION", "state": "PA", "street": "23 E BROADWAY", "postcode": "17356"}}},
{"geometry": {"type": "Point", "coordinates": [-76.6166842589, 39.9084205826]}, "type": "Feature", "properties": {"collection_times": [{"days": "Mon-Fri", "time": "4:30pm"}, {"days": "Sat", "time": "12:00pm"}, {"days": "Sun", "time": "Closed"}], "id": "1735600026", "name": "USPS COLLECTION BOX - PO LOBBY", "address": {"city": "RED LION", "state": "PA", "street": "500 N MAIN ST", "postcode": "17356"}}},
{"geometry": {"type": "Point", "coordinates": [-76.6166842589, 39.9084205826]}, "type": "Feature", "properties": {"collection_times": [{"days": "Mon-Fri", "time": "4:30pm"}, {"days": "Sat", "time": "12:00pm"}, {"days": "Sun", "time": "Closed"}], "id": "1735600028", "name": "USPS COLLECTION BOX - BLUE BOX", "address": {"city": "RED LION", "state": "PA", "street": "500 N MAIN ST", "postcode": "17356"}}},
{"geometry": {"type": "Point", "coordinates": [-76.7665529559, 39.8564937993]}, "type": "Feature", "properties": {"collection_times": [{"days": "Mon-Fri", "time": "4:30pm"}, {"days": "Sat", "time": "10:00am"}, {"days": "Sun", "time": "Closed"}], "id": "1736000000", "name": "USPS COLLECTION BOX - BLUE BOX", "address": {"city": "SEVEN VALLEYS", "state": "PA", "street": "63 CHURCH ST", "postcode": "17360"}}},
{"geometry": {"type": "Point", "coordinates": [-76.7665529559, 39.8564937993]}, "type": "Feature", "properties": {"collection_times": [{"days": "Mon-Fri", "time": "4:30pm"}, {"days": "Sat", "time": "10:00am"}, {"days": "Sun", "time": "Closed"}], "id": "1736000001", "name": "USPS COLLECTION BOX - PO LOBBY", "address": {"city": "SEVEN VALLEYS", "state": "PA", "street": "63 CHURCH ST", "postcode": "17360"}}},
{"geometry": {"type": "Point", "coordinates": [-76.6776155784, 39.7544994314]}, "type": "Feature", "properties": {"collection_times": [{"days": "Mon-Sat", "time": "12:00pm"}, {"days": "Sun", "time": "Closed"}], "id": "1736100005", "name": "USPS COLLECTION BOX - BLUE BOX", "address": {"city": "SHREWSBURY", "state": "PA", "street": "549 S MAIN ST", "postcode": "17361"}}},
{"geometry": {"type": "Point", "coordinates": [-76.680637853, 39.7687909036]}, "type": "Feature", "properties": {"collection_times": [{"days": "Mon-Sat", "time": "11:30am"}, {"days": "Sun", "time": "Closed"}], "id": "1736100008", "name": "USPS COLLECTION BOX - BLUE BOX", "address": {"city": "SHREWSBURY", "state": "PA", "street": "9 W FORREST AVE", "postcode": "17361"}}},
{"geometry": {"type": "Point", "coordinates": [-76.6783583723, 39.7533360713]}, "type": "Feature", "properties": {"collection_times": [{"days": "Mon-Fri", "time": "4:00pm"}, {"days": "Sat", "time": "12:00pm"}, {"days": "Sun", "time": "Closed"}], "id": "1736100010", "name": "USPS COLLECTION BOX - BLUE BOX", "address": {"city": "SHREWSBURY", "state": "PA", "street": "50 CONSTITUTION AVE", "postcode": "17361"}}},
{"geometry": {"type": "Point", "coordinates": [-76.669750011, 39.770566961]}, "type": "Feature", "properties": {"collection_times": [{"days": "Mon-Sat", "time": "10:00am"}, {"days": "Sun", "time": "Closed"}], "id": "1736100013", "name": "USPS COLLECTION BOX - BLUE BOX", "address": {"city": "SHREWSBURY", "state": "PA", "street": "664 SHREWSBURY COMMONS AVE FRNT", "postcode": "17361"}}},
{"geometry": {"type": "Point", "coordinates": [-76.6783583723, 39.7533360713]}, "type": "Feature", "properties": {"collection_times": [{"days": "Mon-Fri", "time": "4:00pm"}, {"days": "Sat", "time": "12:00pm"}, {"days": "Sun", "time": "Closed"}], "id": "1736100015", "name": "USPS COLLECTION BOX - PO LOBBY", "address": {"city": "SHREWSBURY", "state": "PA", "street": "50 CONSTITUTION AVE", "postcode": "17361"}}},
{"geometry": {"type": "Point", "coordinates": [-76.8648432803, 39.880417262]}, "type": "Feature", "properties": {"collection_times": [{"days": "Mon-Sat", "time": "11:30am"}, {"days": "Sun", "time": "Closed"}], "id": "1736200006", "name": "USPS COLLECTION BOX - BLUE BOX", "address": {"city": "SPRING GROVE", "state": "PA", "street": "450 N MAIN ST", "postcode": "17362"}}},
{"geometry": {"type": "Point", "coordinates": [-76.8667586644, 39.8768029088]}, "type": "Feature", "properties": {"collection_times": [{"days": "Mon-Fri", "time": "4:45pm"}, {"days": "Sat", "time": "3:00pm"}, {"days": "Sun", "time": "Closed"}], "id": "1736200007", "name": "USPS COLLECTION BOX - BLUE BOX", "address": {"city": "SPRING GROVE", "state": "PA", "street": "55 W JACKSON ST", "postcode": "17362"}}},
{"geometry": {"type": "Point", "coordinates": [-76.8691698117, 39.850971497]}, "type": "Feature", "properties": {"collection_times": [{"days": "Mon-Fri", "time": "4:45pm"}, {"days": "Sat", "time": "3:00pm"}, {"days": "Sun", "time": "Closed"}], "id": "1736200008", "name": "USPS COLLECTION BOX - BLUE BOX", "address": {"city": "SPRING GROVE", "state": "PA", "street": "200 N ELM AVE", "postcode": "17362"}}},
{"geometry": {"type": "Point", "coordinates": [-76.86493084, 39.8768317454]}, "type": "Feature", "properties": {"collection_times": [{"days": "Mon-Sat", "time": "9:30am"}, {"days": "Sun", "time": "Closed"}], "id": "1736200010", "name": "USPS COLLECTION BOX - BLUE BOX", "address": {"city": "SPRING GROVE", "state": "PA", "street": "327 N PINE AVE", "postcode": "17362"}}},
{"geometry": {"type": "Point", "coordinates": [-76.8667586644, 39.8768029088]}, "type": "Feature", "properties": {"collection_times": [{"days": "Mon-Fri", "time": "4:45pm"}, {"days": "Sat", "time": "3:00pm"}, {"days": "Sun", "time": "Closed"}], "id": "1736200012", "name": "USPS COLLECTION BOX - PO LOBBY", "address": {"city": "SPRING GROVE", "state": "PA", "street": "55 W JACKSON ST", "postcode": "17362"}}},
{"geometry": {"type": "Point", "coordinates": [-76.5917429321, 39.7548508801]}, "type": "Feature", "properties": {"collection_times": [{"days": "Mon-Fri", "time": "4:00pm"}, {"days": "Sat", "time": "11:15am"}, {"days": "Sun", "time": "Closed"}], "id": "1736300004", "name": "USPS COLLECTION BOX - BLUE BOX", "address": {"city": "STEWARTSTOWN", "state": "PA", "street": "18 N MAIN ST", "postcode": "17363"}}},
{"geometry": {"type": "Point", "coordinates": [-76.5917429321, 39.7548508801]}, "type": "Feature", "properties": {"collection_times": [{"days": "Mon-Fri", "time": "4:00pm"}, {"days": "Sat", "time": "11:15am"}, {"days": "Sun", "time": "Closed"}], "id": "1736300007", "name": "USPS COLLECTION BOX - PO LOBBY", "address": {"city": "STEWARTSTOWN", "state": "PA", "street": "18 N MAIN ST", "postcode": "17363"}}},
{"geometry": {"type": "Point", "coordinates": [-76.5913830397, 39.7510243788]}, "type": "Feature", "properties": {"collection_times": [{"days": "Mon-Sat", "time": "9:30am"}, {"days": "Sun", "time": "Closed"}], "id": "1736300009", "name": "USPS COLLECTION BOX - BLUE BOX", "address": {"city": "STEWARTSTOWN", "state": "PA", "street": "18 S MAIN ST", "postcode": "17363"}}},
{"geometry": {"type": "Point", "coordinates": [-76.8590889092, 39.9340230242]}, "type": "Feature", "properties": {"collection_times": [{"days": "Mon-Sat", "time": "10:00am"}, {"days": "Sun", "time": "Closed"}], "id": "1736400001", "name": "USPS COLLECTION BOX - BLUE BOX", "address": {"city": "THOMASVILLE", "state": "PA", "street": "1 CHESAPEAKE EST", "postcode": "17364"}}},
{"geometry": {"type": "Point", "coordinates": [-76.8537714235, 39.9285859421]}, "type": "Feature", "properties": {"collection_times": [{"days": "Mon-Fri", "time": "4:30pm"}, {"days": "Sat", "time": "10:30am"}, {"days": "Sun", "time": "Closed"}], "id": "1736400003", "name": "USPS COLLECTION BOX - BLUE BOX", "address": {"city": "THOMASVILLE", "state": "PA", "street": "5285 LINCOLN HWY W", "postcode": "17364"}}},
{"geometry": {"type": "Point", "coordinates": [-76.8537714235, 39.9285859421]}, "type": "Feature", "properties": {"collection_times": [{"days": "Mon-Fri", "time": "4:30pm"}, {"days": "Sat", "time": "10:30am"}, {"days": "Sun", "time": "Closed"}], "id": "1736400004", "name": "USPS COLLECTION BOX - PO LOBBY", "address": {"city": "THOMASVILLE", "state": "PA", "street": "5285 LINCOLN HWY W", "postcode": "17364"}}},
{"geometry": {"type": "Point", "coordinates": [-76.9458178463, 40.0524385009]}, "type": "Feature", "properties": {"collection_times": [{"days": "Mon-Fri", "time": "4:15pm"}, {"days": "Sat", "time": "11:00am"}, {"days": "Sun", "time": "Closed"}], "id": "1736500002", "name": "USPS COLLECTION BOX - BLUE BOX", "address": {"city": "WELLSVILLE", "state": "PA", "street": "224 MAIN ST", "postcode": "17365"}}},
{"geometry": {"type": "Point", "coordinates": [-76.9458178463, 40.0524385009]}, "type": "Feature", "properties": {"collection_times": [{"days": "Mon-Fri", "time": "4:15pm"}, {"days": "Sat", "time": "11:00am"}, {"days": "Sun", "time": "Closed"}], "id": "1736500003", "name": "USPS COLLECTION BOX - PO LOBBY", "address": {"city": "WELLSVILLE", "state": "PA", "street": "224 MAIN ST", "postcode": "17365"}}},
{"geometry": {"type": "Point", "coordinates": [-76.5895565628, 39.9133532003]}, "type": "Feature", "properties": {"collection_times": [{"days": "Mon-Fri", "time": "4:15pm"}, {"days": "Sat", "time": "11:00am"}, {"days": "Sun", "time": "Closed"}], "id": "1736600004", "name": "USPS COLLECTION BOX - BLUE BOX", "address": {"city": "WINDSOR", "state": "PA", "street": "3 S CAMP ST", "postcode": "17366"}}},
{"geometry": {"type": "Point", "coordinates": [-76.5895565628, 39.9133532003]}, "type": "Feature", "properties": {"collection_times": [{"days": "Mon-Fri", "time": "4:30pm"}, {"days": "Sat", "time": "11:00am"}, {"days": "Sun", "time": "Closed"}], "id": "1736600005", "name": "USPS COLLECTION BOX - PO LOBBY", "address": {"city": "WINDSOR", "state": "PA", "street": "3 S CAMP ST", "postcode": "17366"}}},
{"geometry": {"type": "Point", "coordinates": [-76.5328083573, 40.0251155923]}, "type": "Feature", "properties": {"collection_times": [{"days": "Mon-Fri", "time": "4:30pm"}, {"days": "Sat", "time": "1:00pm"}, {"days": "Sun", "time": "Closed"}], "id": "1736800012", "name": "USPS COLLECTION BOX - BLUE BOX", "address": {"city": "WRIGHTSVILLE", "state": "PA", "street": "307 HELLAM ST", "postcode": "17368"}}},
{"geometry": {"type": "Point", "coordinates": [-76.5385647158, 40.0239444701]}, "type": "Feature", "properties": {"collection_times": [{"days": "Mon-Sat", "time": "9:00am"}, {"days": "Sun", "time": "Closed"}], "id": "1736800013", "name": "USPS COLLECTION BOX - BLUE BOX", "address": {"city": "WRIGHTSVILLE", "state": "PA", "street": "700 HELLAM ST", "postcode": "17368"}}},
{"geometry": {"type": "Point", "coordinates": [-76.5355777699, 40.0246115145]}, "type": "Feature", "properties": {"collection_times": [{"days": "Mon-Sat", "time": "9:30am"}, {"days": "Sun", "time": "Closed"}], "id": "1736800014", "name": "USPS COLLECTION BOX - BLUE BOX", "address": {"city": "WRIGHTSVILLE", "state": "PA", "street": "500 HELLAM ST", "postcode": "17368"}}},
{"geometry": {"type": "Point", "coordinates": [-76.5328083573, 40.0251155923]}, "type": "Feature", "properties": {"collection_times": [{"days": "Mon-Fri", "time": "4:30pm"}, {"days": "Sat", "time": "1:00pm"}, {"days": "Sun", "time": "Closed"}], "id": "1736800023", "name": "USPS COLLECTION BOX - PO LOBBY", "address": {"city": "WRIGHTSVILLE", "state": "PA", "street": "307 HELLAM ST", "postcode": "17368"}}},
{"geometry": {"type": "Point", "coordinates": [-76.7140657961, 40.1104825025]}, "type": "Feature", "properties": {"collection_times": [{"days": "Mon-Fri", "time": "4:30pm"}, {"days": "Sat", "time": "11:00am"}, {"days": "Sun", "time": "Closed"}], "id": "1737000000", "name": "USPS COLLECTION BOX - BLUE BOX", "address": {"city": "YORK HAVEN", "state": "PA", "street": "15 PENNSYLVANIA AVE", "postcode": "17370"}}},
{"geometry": {"type": "Point", "coordinates": [-76.7140657961, 40.1104825025]}, "type": "Feature", "properties": {"collection_times": [{"days": "Mon-Fri", "time": "4:30pm"}, {"days": "Sat", "time": "11:00am"}, {"days": "Sun", "time": "Closed"}], "id": "1737000003", "name": "USPS COLLECTION BOX - PO LOBBY", "address": {"city": "YORK HAVEN", "state": "PA", "street": "15 PENNSYLVANIA AVE", "postcode": "17370"}}},
{"geometry": {"type": "Point", "coordinates": [-76.7720179533, 39.965427096]}, "type": "Feature", "properties": {"collection_times": [{"days": "Mon-Fri", "time": "4:15pm"}, {"days": "Sat", "time": "11:15am"}, {"days": "Sun", "time": "Closed"}], "id": "1737100002", "name": "USPS COLLECTION BOX - BLUE BOX", "address": {"city": "YORK NEW SALEM", "state": "PA", "street": "115 S MAIN ST", "postcode": "17371"}}},
{"geometry": {"type": "Point", "coordinates": [-76.7720179533, 39.965427096]}, "type": "Feature", "properties": {"collection_times": [{"days": "Mon-Fri", "time": "4:30pm"}, {"days": "Sat", "time": "11:15am"}, {"days": "Sun", "time": "Closed"}], "id": "1737100003", "name": "USPS COLLECTION BOX - PO LOBBY", "address": {"city": "YORK NEW SALEM", "state": "PA", "street": "115 S MAIN ST", "postcode": "17371"}}},
{"geometry": {"type": "Point", "coordinates": [-77.1117771698, 40.0055620641]}, "type": "Feature", "properties": {"collection_times": [{"days": "Mon-Fri", "time": "4:15pm"}, {"days": "Sat", "time": "12:00pm"}, {"days": "Sun", "time": "Closed"}], "id": "1737200001", "name": "USPS COLLECTION BOX - BLUE BOX", "address": {"city": "YORK SPRINGS", "state": "PA", "street": "203 MAIN ST", "postcode": "17372"}}},
{"geometry": {"type": "Point", "coordinates": [-77.1021470815, 40.0065083372]}, "type": "Feature", "properties": {"collection_times": [{"days": "Mon-Sat", "time": "9:00am"}, {"days": "Sun", "time": "Closed"}], "id": "1737200003", "name": "USPS COLLECTION BOX - BLUE BOX", "address": {"city": "YORK SPRINGS", "state": "PA", "street": "250 RIDGE RD", "postcode": "17372"}}},
{"geometry": {"type": "Point", "coordinates": [-77.1117771698, 40.0055620641]}, "type": "Feature", "properties": {"collection_times": [{"days": "Mon-Fri", "time": "4:30pm"}, {"days": "Sat", "time": "12:00pm"}, {"days": "Sun", "time": "Closed"}], "id": "1737200004", "name": "USPS COLLECTION BOX - PO LOBBY", "address": {"city": "YORK SPRINGS", "state": "PA", "street": "203 MAIN ST", "postcode": "17372"}}}
]}
