{"type": "FeatureCollection", "features": [
{"geometry": {"type": "Point", "coordinates": [-76.7273037064, 39.9626480572]}, "type": "Feature", "properties": {"collection_times": [{"days": "Mon-Fri", "time": "4:00pm"}, {"days": "Sat", "time": "12:00pm"}, {"days": "Sun", "time": "Closed"}], "id": "1740100004", "name": "USPS COLLECTION BOX - BLUE BOX", "address": {"city": "YORK", "state": "PA", "street": "21 E MARKET ST", "postcode": "17401"}}},
{"geometry": {"type": "Point", "coordinates": [-76.726718907, 39.9647427426]}, "type": "Feature", "properties": {"collection_times": [{"days": "Mon-Fri", "time": "1:00pm"}, {"days": "Sat-Sun", "time": "Closed"}], "id": "1740100005", "name": "USPS COLLECTION BOX - BLUE BOX", "address": {"city": "YORK", "state": "PA", "street": "140 N DUKE ST", "postcode": "17401"}}},
{"geometry": {"type": "Point", "coordinates": [-76.725249696, 39.9632728615]}, "type": "Feature", "properties": {"collection_times": [{"days": "Mon-Fri", "time": "4:00pm"}, {"days": "Sat", "time": "12:00pm"}, {"days": "Sun", "time": "Closed"}], "id": "1740100006", "name": "USPS COLLECTION BOX - BLUE BOX", "address": {"city": "YORK", "state": "PA", "street": "127 E MARKET ST", "postcode": "17401"}}},
{"geometry": {"type": "Point", "coordinates": [-76.7252820686, 39.9622722081]}, "type": "Feature", "properties": {"collection_times": [{"days": "Mon-Fri", "time": "4:00pm"}, {"days": "Sat-Sun", "time": "Closed"}], "id": "1740100008", "name": "USPS COLLECTION BOX - BLUE BOX", "address": {"city": "YORK", "state": "PA", "street": "33 S DUKE ST", "postcode": "17401"}}},
{"geometry": {"type": "Point", "coordinates": [-76.7260623796, 39.9637762805]}, "type": "Feature", "properties": {"collection_times": [{"days": "Mon-Fri", "time": "4:30pm"}, {"days": "Sat", "time": "10:00am"}, {"days": "Sun", "time": "Closed"}], "id": "1740100009", "name": "USPS COLLECTION BOX - BLUE BOX", "address": {"city": "YORK", "state": "PA", "street": "25 N DUKE ST", "postcode": "17401"}}},
{"geometry": {"type": "Point", "coordinates": [-76.7282534917, 39.9606297213]}, "type": "Feature", "properties": {"collection_times": [{"days": "Mon-Fri", "time": "4:00pm"}, {"days": "Sat-Sun", "time": "Closed"}], "id": "1740100011", "name": "USPS COLLECTION BOX - BLUE BOX", "address": {"city": "YORK", "state": "PA", "street": "50 W KING ST", "postcode": "17401"}}},
{"geometry": {"type": "Point", "coordinates": [-76.7343804208, 39.9604901113]}, "type": "Feature", "properties": {"collection_times": [{"days": "Mon-Fri", "time": "9:45am"}, {"days": "Sat", "time": "3:00pm"}, {"days": "Sun", "time": "Closed"}], "id": "1740100013", "name": "USPS COLLECTION BOX - BLUE BOX", "address": {"city": "YORK", "state": "PA", "street": "287 W MARKET ST", "postcode": "17401"}}},
{"geometry": {"type": "Point", "coordinates": [-76.7332198028, 39.9591900144]}, "type": "Feature", "properties": {"collection_times": [{"days": "Mon-Fri", "time": "2:00pm"}, {"days": "Sat", "time": "12:00pm"}, {"days": "Sun", "time": "Closed"}], "id": "1740100014", "name": "USPS COLLECTION BOX - BLUE BOX", "address": {"city": "YORK", "state": "PA", "street": "160 W MARKET ST", "postcode": "17401"}}},
{"geometry": {"type": "Point", "coordinates": [-76.7271289814, 39.9625829815]}, "type": "Feature", "properties": {"collection_times": [{"days": "Mon-Fri", "time": "4:00pm"}, {"days": "Sat-Sun", "time": "Closed"}], "id": "1740100021", "name": "USPS COLLECTION BOX - BLUE BOX", "address": {"city": "YORK", "state": "PA", "street": "28 E MARKET ST", "postcode": "17401"}}},
{"geometry": {"type": "Point", "coordinates": [-76.7277685373, 39.9625074066]}, "type": "Feature", "properties": {"collection_times": [{"days": "Mon-Fri", "time": "4:45pm"}, {"days": "Sat", "time": "12:00pm"}, {"days": "Sun", "time": "Closed"}], "id": "1740100022", "name": "USPS COLLECTION BOX - BLUE BOX", "address": {"city": "YORK", "state": "PA", "street": "1 W MARKET ST", "postcode": "17401"}}},
{"geometry": {"type": "Point", "coordinates": [-76.728911421, 39.964786711]}, "type": "Feature", "properties": {"collection_times": [{"days": "Mon-Fri", "time": "4:15pm"}, {"days": "Sat-Sun", "time": "Closed"}], "id": "1740100025", "name": "USPS COLLECTION BOX - BLUE BOX", "address": {"city": "YORK", "state": "PA", "street": "135 N GEORGE ST", "postcode": "17401"}}},
{"geometry": {"type": "Point", "coordinates": [-76.7256764506, 39.9630222043]}, "type": "Feature", "properties": {"collection_times": [{"days": "Mon-Fri", "time": "4:00pm"}, {"days": "Sat-Sun", "time": "Closed"}], "id": "1740100027", "name": "USPS COLLECTION BOX - BLUE BOX", "address": {"city": "YORK", "state": "PA", "street": "100 E MARKET ST", "postcode": "17401"}}},
{"geometry": {"type": "Point", "coordinates": [-76.7282613262, 39.9633996936]}, "type": "Feature", "properties": {"collection_times": [{"days": "Mon-Fri", "time": "4:00pm"}, {"days": "Sat", "time": "3:00pm"}, {"days": "Sun", "time": "Closed"}], "id": "1740100028", "name": "USPS COLLECTION BOX - BLUE BOX", "address": {"city": "YORK", "state": "PA", "street": "50 N GEORGE ST", "postcode": "17401"}}},
{"geometry": {"type": "Point", "coordinates": [-76.725249696, 39.9632728615]}, "type": "Feature", "properties": {"collection_times": [{"days": "Mon-Fri", "time": "4:00pm"}, {"days": "Sat", "time": "12:00pm"}, {"days": "Sun", "time": "Closed"}], "id": "1740100029", "name": "USPS COLLECTION BOX - BLUE BOX", "address": {"city": "YORK", "state": "PA", "street": "127 E MARKET ST", "postcode": "17401"}}},
{"geometry": {"type": "Point", "coordinates": [-76.7277685373, 39.9625074066]}, "type": "Feature", "properties": {"collection_times": [{"days": "Mon-Fri", "time": "4:45pm"}, {"days": "Sat", "time": "12:00pm"}, {"days": "Sun", "time": "Closed"}], "id": "1740100031", "name": "USPS COLLECTION BOX - BLUE BOX", "address": {"city": "YORK", "state": "PA", "street": "1 W MARKET ST", "postcode": "17401"}}},
{"geometry": {"type": "Point", "coordinates": [-76.7432453111, 39.9577444249]}, "type": "Feature", "properties": {"collection_times": [{"days": "Mon-Fri", "time": "12:00pm"}, {"days": "Sat-Sun", "time": "Closed"}], "id": "1740100032", "name": "USPS COLLECTION BOX - BLUE BOX", "address": {"city": "YORK", "state": "PA", "street": "601 W MARKET ST", "postcode": "17401"}}},
{"geometry": {"type": "Point", "coordinates": [-76.7332198028, 39.9591900144]}, "type": "Feature", "properties": {"collection_times": [{"days": "Mon-Fri", "time": "5:00pm"}, {"days": "Sat", "time": "1:00pm"}, {"days": "Sun", "time": "Closed"}], "id": "1740100033", "name": "USPS COLLECTION BOX - PO LOBBY", "address": {"city": "YORK", "state": "PA", "street": "160 W MARKET ST", "postcode": "17401"}}},
{"geometry": {"type": "Point", "coordinates": [-76.6748311765, 39.9555033292]}, "type": "Feature", "properties": {"collection_times": [{"days": "Mon-Sat", "time": "11:30am"}, {"days": "Sun", "time": "Closed"}], "id": "1740200001", "name": "USPS COLLECTION BOX - BLUE BOX", "address": {"city": "YORK", "state": "PA", "street": "1246 GREENSPRINGS DR", "postcode": "17402"}}},
{"geometry": {"type": "Point", "coordinates": [-76.6799941105, 39.9741617234]}, "type": "Feature", "properties": {"collection_times": [{"days": "Mon-Fri", "time": "4:30pm"}, {"days": "Sat-Sun", "time": "Closed"}], "id": "1740200005", "name": "USPS COLLECTION BOX - BLUE BOX", "address": {"city": "YORK", "state": "PA", "street": "2400 E MARKET ST", "postcode": "17402"}}},
{"geometry": {"type": "Point", "coordinates": [-76.6937651471, 39.9868786835]}, "type": "Feature", "properties": {"collection_times": [{"days": "Mon-Fri", "time": "12:00pm"}, {"days": "Sat-Sun", "time": "Closed"}], "id": "1740200009", "name": "USPS COLLECTION BOX - BLUE BOX", "address": {"city": "YORK", "state": "PA", "street": "1800 N HILLS RD", "postcode": "17402"}}},
{"geometry": {"type": "Point", "coordinates": [-76.6821575494, 39.9356906015]}, "type": "Feature", "properties": {"collection_times": [{"days": "Mon-Fri", "time": "4:00pm"}, {"days": "Sat", "time": "12:00pm"}, {"days": "Sun", "time": "Closed"}], "id": "1740200018", "name": "USPS COLLECTION BOX - BLUE BOX", "address": {"city": "YORK", "state": "PA", "street": "265 PAULINE DR", "postcode": "17402"}}},
{"geometry": {"type": "Point", "coordinates": [-76.6850461916, 39.9189188169]}, "type": "Feature", "properties": {"collection_times": [{"days": "Mon-Fri", "time": "3:30pm"}, {"days": "Sat", "time": "12:00pm"}, {"days": "Sun", "time": "Closed"}], "id": "1740200019", "name": "USPS COLLECTION BOX - BLUE BOX", "address": {"city": "YORK", "state": "PA", "street": "2449 S QUEEN ST", "postcode": "17402"}}},
{"geometry": {"type": "Point", "coordinates": [-76.6810216885, 39.9619422208]}, "type": "Feature", "properties": {"collection_times": [{"days": "Mon-Fri", "time": "4:00pm"}, {"days": "Sat", "time": "12:00pm"}, {"days": "Sun", "time": "Closed"}], "id": "1740200021", "name": "USPS COLLECTION BOX - BLUE BOX", "address": {"city": "YORK", "state": "PA", "street": "1081 HAINES RD", "postcode": "17402"}}},
{"geometry": {"type": "Point", "coordinates": [-76.6761848221, 39.9711245884]}, "type": "Feature", "properties": {"collection_times": [{"days": "Mon-Fri", "time": "4:00pm"}, {"days": "Sat", "time": "12:00pm"}, {"days": "Sun", "time": "Closed"}], "id": "1740200023", "name": "USPS COLLECTION BOX - BLUE BOX", "address": {"city": "YORK", "state": "PA", "street": "2550 KINGSTON RD", "postcode": "17402"}}},
{"geometry": {"type": "Point", "coordinates": [-76.7404036313, 40.0210523963]}, "type": "Feature", "properties": {"collection_times": [{"days": "Mon-Sat", "time": "10:15am"}, {"days": "Sun", "time": "Closed"}], "id": "1740200024", "name": "USPS COLLECTION BOX - BLUE BOX", "address": {"city": "YORK", "state": "PA", "street": "3300 BOARD RD", "postcode": "17402"}}},
{"geometry": {"type": "Point", "coordinates": [-76.6762931458, 39.9729430853]}, "type": "Feature", "properties": {"collection_times": [{"days": "Mon-Fri", "time": "4:00pm"}, {"days": "Sat-Sun", "time": "Closed"}], "id": "1740200026", "name": "USPS COLLECTION BOX - BLUE BOX", "address": {"city": "YORK", "state": "PA", "street": "2540 EASTERN BLVD", "postcode": "17402"}}},
{"geometry": {"type": "Point", "coordinates": [-76.6623493288, 39.9881100292]}, "type": "Feature", "properties": {"collection_times": [{"days": "Mon-Fri", "time": "5:45pm"}, {"days": "Sat", "time": "5:00pm"}, {"days": "Sun", "time": "Closed"}], "id": "1740200042", "name": "USPS COLLECTION BOX - BLUE BOX", "address": {"city": "YORK", "state": "PA", "street": "3435 CONCORD RD", "postcode": "17402"}}},
{"geometry": {"type": "Point", "coordinates": [-76.6623493288, 39.9881100292]}, "type": "Feature", "properties": {"collection_times": [{"days": "Mon-Fri", "time": "5:45pm"}, {"days": "Sat", "time": "5:00pm"}, {"days": "Sun", "time": "Closed"}], "id": "1740200043", "name": "USPS COLLECTION BOX - BLUE BOX", "address": {"city": "YORK", "state": "PA", "street": "3435 CONCORD RD", "postcode": "17402"}}},
{"geometry": {"type": "Point", "coordinates": [-76.6623493288, 39.9881100292]}, "type": "Feature", "properties": {"collection_times": [{"days": "Mon-Fri", "time": "5:45pm"}, {"days": "Sat", "time": "5:00pm"}, {"days": "Sun", "time": "Closed"}], "id": "1740200046", "name": "USPS COLLECTION BOX - BLUE BOX", "address": {"city": "YORK", "state": "PA", "street": "3435 CONCORD RD", "postcode": "17402"}}},
{"geometry": {"type": "Point", "coordinates": [-76.6649858364, 39.9626616738]}, "type": "Feature", "properties": {"collection_times": [{"days": "Mon-Fri", "time": "5:45pm"}, {"days": "Sat", "time": "5:00pm"}, {"days": "Sun", "time": "Closed"}], "id": "1740200047", "name": "USPS COLLECTION BOX - EXPRESS", "address": {"city": "YORK", "state": "PA", "street": "3435 CONCORD RD", "postcode": "17402"}}},
{"geometry": {"type": "Point", "coordinates": [-76.6565742005, 40.0175475697]}, "type": "Feature", "properties": {"collection_times": [{"days": "Mon-Sat", "time": "11:00am"}, {"days": "Sun", "time": "Closed"}], "id": "1740200052", "name": "USPS COLLECTION BOX - BLUE BOX", "address": {"city": "YORK", "state": "PA", "street": "4070 DRUCK VALLEY RD", "postcode": "17402"}}},
{"geometry": {"type": "Point", "coordinates": [-76.6787795169, 39.9725116154]}, "type": "Feature", "properties": {"collection_times": [{"days": "Mon-Fri", "time": "4:00pm"}, {"days": "Sat", "time": "12:00pm"}, {"days": "Sun", "time": "Closed"}], "id": "1740200055", "name": "USPS COLLECTION BOX - BLUE BOX", "address": {"city": "YORK", "state": "PA", "street": "2430 EASTERN BLVD", "postcode": "17402"}}},
{"geometry": {"type": "Point", "coordinates": [-76.6822127874, 39.9738469901]}, "type": "Feature", "properties": {"collection_times": [{"days": "Mon-Fri", "time": "3:00pm"}, {"days": "Sat", "time": "12:00pm"}, {"days": "Sun", "time": "Closed"}], "id": "1740200057", "name": "USPS COLLECTION BOX - BLUE BOX", "address": {"city": "YORK", "state": "PA", "street": "2300 E MARKET ST", "postcode": "17402"}}},
{"geometry": {"type": "Point", "coordinates": [-76.6797632561, 39.9744179863]}, "type": "Feature", "properties": {"collection_times": [{"days": "Mon-Fri", "time": "3:00pm"}, {"days": "Sat", "time": "12:00pm"}, {"days": "Sun", "time": "Closed"}], "id": "1740200062", "name": "USPS COLLECTION BOX - BLUE BOX", "address": {"city": "YORK", "state": "PA", "street": "2415 E MARKET ST", "postcode": "17402"}}},
{"geometry": {"type": "Point", "coordinates": [-76.6623493288, 39.9881100292]}, "type": "Feature", "properties": {"collection_times": [{"days": "Mon-Fri", "time": "5:00pm"}, {"days": "Sat", "time": "2:00pm"}, {"days": "Sun", "time": "Closed"}], "id": "1740200064", "name": "USPS COLLECTION BOX - APC", "address": {"city": "YORK", "state": "PA", "street": "3435 CONCORD RD", "postcode": "17402"}}},
{"geometry": {"type": "Point", "coordinates": [-76.6623493288, 39.9881100292]}, "type": "Feature", "properties": {"collection_times": [{"days": "Mon-Fri", "time": "5:45pm"}, {"days": "Sat", "time": "5:00pm"}, {"days": "Sun", "time": "Closed"}], "id": "1740200066", "name": "USPS COLLECTION BOX - PO LOBBY", "address": {"city": "YORK", "state": "PA", "street": "3435 CONCORD RD", "postcode": "17402"}}},
{"geometry": {"type": "Point", "coordinates": [-76.724586947, 39.9618574367]}, "type": "Feature", "properties": {"collection_times": [{"days": "Mon-Fri", "time": "4:00pm"}, {"days": "Sat-Sun", "time": "Closed"}], "id": "1740300000", "name": "USPS COLLECTION BOX - BLUE BOX", "address": {"city": "YORK", "state": "PA", "street": "131 E KING ST", "postcode": "17403"}}},
{"geometry": {"type": "Point", "coordinates": [-76.724961423, 39.9616576352]}, "type": "Feature", "properties": {"collection_times": [{"days": "Mon-Fri", "time": "1:00pm"}, {"days": "Sat", "time": "10:00am"}, {"days": "Sun", "time": "Closed"}], "id": "1740300004", "name": "USPS COLLECTION BOX - BLUE BOX", "address": {"city": "YORK", "state": "PA", "street": "101 S DUKE ST", "postcode": "17403"}}},
{"geometry": {"type": "Point", "coordinates": [-76.7116020289, 39.968267058]}, "type": "Feature", "properties": {"collection_times": [{"days": "Mon-Fri", "time": "9:30am"}, {"days": "Sat-Sun", "time": "Closed"}], "id": "1740300011", "name": "USPS COLLECTION BOX - BLUE BOX", "address": {"city": "YORK", "state": "PA", "street": "813 E MARKET ST", "postcode": "17403"}}},
{"geometry": {"type": "Point", "coordinates": [-76.7217999905, 39.9643531978]}, "type": "Feature", "properties": {"collection_times": [{"days": "Mon-Fri", "time": "4:00pm"}, {"days": "Sat-Sun", "time": "Closed"}], "id": "1740300012", "name": "USPS COLLECTION BOX - BLUE BOX", "address": {"city": "YORK", "state": "PA", "street": "301 E MARKET ST", "postcode": "17403"}}},
{"geometry": {"type": "Point", "coordinates": [-76.7042764504, 39.9603550663]}, "type": "Feature", "properties": {"collection_times": [{"days": "Mon-Fri", "time": "1:00pm"}, {"days": "Sat", "time": "10:00am"}, {"days": "Sun", "time": "Closed"}], "id": "1740300017", "name": "USPS COLLECTION BOX - BLUE BOX", "address": {"city": "YORK", "state": "PA", "street": "1045 MOUNT ROSE AVE", "postcode": "17403"}}},
{"geometry": {"type": "Point", "coordinates": [-76.7210429597, 39.9474281297]}, "type": "Feature", "properties": {"collection_times": [{"days": "Mon-Fri", "time": "3:00pm"}, {"days": "Sat", "time": "12:00pm"}, {"days": "Sun", "time": "Closed"}], "id": "1740300023", "name": "USPS COLLECTION BOX - BLUE BOX", "address": {"city": "YORK", "state": "PA", "street": "976 S GEORGE ST", "postcode": "17403"}}},
{"geometry": {"type": "Point", "coordinates": [-76.7104846136, 39.9510020611]}, "type": "Feature", "properties": {"collection_times": [{"days": "Mon-Fri", "time": "3:00pm"}, {"days": "Sat", "time": "10:00am"}, {"days": "Sun", "time": "Closed"}], "id": "1740300043", "name": "USPS COLLECTION BOX - BLUE BOX", "address": {"city": "YORK", "state": "PA", "street": "1077 EDGAR ST", "postcode": "17403"}}},
{"geometry": {"type": "Point", "coordinates": [-76.7075248257, 39.9701375366]}, "type": "Feature", "properties": {"collection_times": [{"days": "Mon-Fri", "time": "3:00pm"}, {"days": "Sat", "time": "12:00pm"}, {"days": "Sun", "time": "Closed"}], "id": "1740300048", "name": "USPS COLLECTION BOX - BLUE BOX", "address": {"city": "YORK", "state": "PA", "street": "1017 E MARKET ST", "postcode": "17403"}}},
{"geometry": {"type": "Point", "coordinates": [-76.6917837282, 39.9351216703]}, "type": "Feature", "properties": {"collection_times": [{"days": "Mon-Fri", "time": "4:00pm"}, {"days": "Sat", "time": "10:00am"}, {"days": "Sun", "time": "Closed"}], "id": "1740300049", "name": "USPS COLLECTION BOX - BLUE BOX", "address": {"city": "YORK", "state": "PA", "street": "2122 S QUEEN ST", "postcode": "17403"}}},
{"geometry": {"type": "Point", "coordinates": [-76.6904901805, 39.9382727236]}, "type": "Feature", "properties": {"collection_times": [{"days": "Mon-Fri", "time": "4:00pm"}, {"days": "Sat", "time": "10:00am"}, {"days": "Sun", "time": "Closed"}], "id": "1740300051", "name": "USPS COLLECTION BOX - BLUE BOX", "address": {"city": "YORK", "state": "PA", "street": "2081 SPRINGWOOD RD", "postcode": "17403"}}},
{"geometry": {"type": "Point", "coordinates": [-76.7162909449, 39.9235997784]}, "type": "Feature", "properties": {"collection_times": [{"days": "Mon-Fri", "time": "4:00pm"}, {"days": "Sat", "time": "10:00am"}, {"days": "Sun", "time": "Closed"}], "id": "1740300053", "name": "USPS COLLECTION BOX - BLUE BOX", "address": {"city": "YORK", "state": "PA", "street": "25 MONUMENT RD", "postcode": "17403"}}},
{"geometry": {"type": "Point", "coordinates": [-76.723201914, 39.9534373419]}, "type": "Feature", "properties": {"collection_times": [{"days": "Mon-Fri", "time": "11:00am"}, {"days": "Sat-Sun", "time": "Closed"}], "id": "1740300054", "name": "USPS COLLECTION BOX - BLUE BOX", "address": {"city": "YORK", "state": "PA", "street": "710 S GEORGE ST", "postcode": "17403"}}},
{"geometry": {"type": "Point", "coordinates": [-76.7262978606, 39.9596601389]}, "type": "Feature", "properties": {"collection_times": [{"days": "Mon-Sat", "time": "5:00pm"}, {"days": "Sun", "time": "Closed"}], "id": "1740300056", "name": "USPS COLLECTION BOX - BLUE BOX", "address": {"city": "YORK", "state": "PA", "street": "200 S GEORGE ST", "postcode": "17403"}}},
{"geometry": {"type": "Point", "coordinates": [-76.6937660681, 39.9673791405]}, "type": "Feature", "properties": {"collection_times": [{"days": "Mon-Fri", "time": "4:00pm"}, {"days": "Sat", "time": "12:00pm"}, {"days": "Sun", "time": "Closed"}], "id": "1740300066", "name": "USPS COLLECTION BOX - BLUE BOX", "address": {"city": "YORK", "state": "PA", "street": "325 S BELMONT ST", "postcode": "17403"}}},
{"geometry": {"type": "Point", "coordinates": [-76.7044303097, 39.9662196458]}, "type": "Feature", "properties": {"collection_times": [{"days": "Mon-Fri", "time": "4:00pm"}, {"days": "Sat-Sun", "time": "Closed"}], "id": "1740300069", "name": "USPS COLLECTION BOX - BLUE BOX", "address": {"city": "YORK", "state": "PA", "street": "1110 E PRINCESS ST", "postcode": "17403"}}},
{"geometry": {"type": "Point", "coordinates": [-76.7233397623, 39.9638680978]}, "type": "Feature", "properties": {"collection_times": [{"days": "Mon-Fri", "time": "4:00pm"}, {"days": "Sat", "time": "12:00pm"}, {"days": "Sun", "time": "Closed"}], "id": "1740300075", "name": "USPS COLLECTION BOX - BLUE BOX", "address": {"city": "YORK", "state": "PA", "street": "225 E MARKET ST", "postcode": "17403"}}},
{"geometry": {"type": "Point", "coordinates": [-76.7332817337, 39.9784076832]}, "type": "Feature", "properties": {"collection_times": [{"days": "Mon-Fri", "time": "1:00pm"}, {"days": "Sat", "time": "12:00pm"}, {"days": "Sun", "time": "Closed"}], "id": "1740400009", "name": "USPS COLLECTION BOX - BLUE BOX", "address": {"city": "YORK", "state": "PA", "street": "1121 N GEORGE ST", "postcode": "17404"}}},
{"geometry": {"type": "Point", "coordinates": [-76.7510316135, 39.9805217532]}, "type": "Feature", "properties": {"collection_times": [{"days": "Mon-Fri", "time": "11:00am"}, {"days": "Sat", "time": "12:00pm"}, {"days": "Sun", "time": "Closed"}], "id": "1740400013", "name": "USPS COLLECTION BOX - BLUE BOX", "address": {"city": "YORK", "state": "PA", "street": "925 LOUCKS RD", "postcode": "17404"}}},
{"geometry": {"type": "Point", "coordinates": [-76.773458635, 39.951946835]}, "type": "Feature", "properties": {"collection_times": [{"days": "Mon-Sat", "time": "12:00pm"}, {"days": "Sun", "time": "Closed"}], "id": "1740400057", "name": "USPS COLLECTION BOX - BLUE BOX", "address": {"city": "YORK", "state": "PA", "street": "2201 W MARKET ST", "postcode": "17404"}}},
{"geometry": {"type": "Point", "coordinates": [-76.7453392707, 39.9835426606]}, "type": "Feature", "properties": {"collection_times": [{"days": "Mon-Fri", "time": "4:00pm"}, {"days": "Sat", "time": "12:00pm"}, {"days": "Sun", "time": "Closed"}], "id": "1740400067", "name": "USPS COLLECTION BOX - BLUE BOX", "address": {"city": "YORK", "state": "PA", "street": "1900 PENNSYLVANIA AVE", "postcode": "17404"}}},
{"geometry": {"type": "Point", "coordinates": [-76.7393113041, 39.9615406838]}, "type": "Feature", "properties": {"collection_times": [{"days": "Mon-Fri", "time": "4:45pm"}, {"days": "Sat-Sun", "time": "Closed"}], "id": "1740400087", "name": "USPS COLLECTION BOX - BLUE BOX", "address": {"city": "YORK", "state": "PA", "street": "160 ROOSEVELT AVE", "postcode": "17404"}}},
{"geometry": {"type": "Point", "coordinates": [-76.74881695, 39.9666168066]}, "type": "Feature", "properties": {"collection_times": [{"days": "Mon-Fri", "time": "11:00am"}, {"days": "Sat", "time": "10:00am"}, {"days": "Sun", "time": "Closed"}], "id": "1740400088", "name": "USPS COLLECTION BOX - BLUE BOX", "address": {"city": "YORK", "state": "PA", "street": "830 ROOSEVELT AVE", "postcode": "17404"}}},
{"geometry": {"type": "Point", "coordinates": [-76.7453392707, 39.9835426606]}, "type": "Feature", "properties": {"collection_times": [{"days": "Mon-Fri", "time": "4:00pm"}, {"days": "Sat", "time": "12:00pm"}, {"days": "Sun", "time": "Closed"}], "id": "1740400091", "name": "USPS COLLECTION BOX - BLUE BOX", "address": {"city": "YORK", "state": "PA", "street": "1900 PENNSYLVANIA AVE", "postcode": "17404"}}},
{"geometry": {"type": "Point", "coordinates": [-76.7706417309, 39.9631380883]}, "type": "Feature", "properties": {"collection_times": [{"days": "Mon-Fri", "time": "6:00pm"}, {"days": "Sat", "time": "2:00pm"}, {"days": "Sun", "time": "Closed"}], "id": "1740400092", "name": "USPS COLLECTION BOX - BLUE BOX", "address": {"city": "YORK", "state": "PA", "street": "2150 WHITE ST", "postcode": "17404"}}},
{"geometry": {"type": "Point", "coordinates": [-76.7706417309, 39.9631380883]}, "type": "Feature", "properties": {"collection_times": [{"days": "Mon-Fri", "time": "6:00pm"}, {"days": "Sat", "time": "2:00pm"}, {"days": "Sun", "time": "Closed"}], "id": "1740400119", "name": "USPS COLLECTION BOX - PO LOBBY", "address": {"city": "YORK", "state": "PA", "street": "2150 WHITE ST", "postcode": "17404"}}},
{"geometry": {"type": "Point", "coordinates": [-76.7706417309, 39.9631380883]}, "type": "Feature", "properties": {"collection_times": [{"days": "Mon-Fri", "time": "6:00pm"}, {"days": "Sat-Sun", "time": "Closed"}], "id": "1740400120", "name": "USPS COLLECTION BOX - APC", "address": {"city": "YORK", "state": "PA", "street": "2150 WHITE ST", "postcode": "17404"}}},
{"geometry": {"type": "Point", "coordinates": [-76.761222555, 39.953527765]}, "type": "Feature", "properties": {"collection_times": [{"days": "Mon-Sat", "time": "12:00pm"}, {"days": "Sun", "time": "Closed"}], "id": "1740400122", "name": "USPS COLLECTION BOX - BLUE BOX", "address": {"city": "YORK", "state": "PA", "street": "1501 W MARKET ST", "postcode": "17404"}}},
{"geometry": {"type": "Point", "coordinates": [-76.6043439384, 40.0049351869]}, "type": "Feature", "properties": {"collection_times": [{"days": "Mon-Fri", "time": "1:00pm"}, {"days": "Sat", "time": "12:00pm"}, {"days": "Sun", "time": "Closed"}], "id": "1740600001", "name": "USPS COLLECTION BOX - BLUE BOX", "address": {"city": "HALLAM", "state": "PA", "street": "2 W MARKET ST", "postcode": "17406"}}},
{"geometry": {"type": "Point", "coordinates": [-76.7116273003, 39.882052492]}, "type": "Feature", "properties": {"collection_times": [{"days": "Mon-Fri", "time": "3:15pm"}, {"days": "Sat", "time": "12:00pm"}, {"days": "Sun", "time": "Closed"}], "id": "1740700002", "name": "USPS COLLECTION BOX - BLUE BOX", "address": {"city": "YORK", "state": "PA", "street": "2 SMITH ST", "postcode": "17407"}}},
{"geometry": {"type": "Point", "coordinates": [-76.7116273003, 39.882052492]}, "type": "Feature", "properties": {"collection_times": [{"days": "Mon-Fri", "time": "3:00pm"}, {"days": "Sat", "time": "12:00pm"}, {"days": "Sun", "time": "Closed"}], "id": "1740700005", "name": "USPS COLLECTION BOX - PO LOBBY", "address": {"city": "YORK", "state": "PA", "street": "2 SMITH ST", "postcode": "17407"}}},
{"geometry": {"type": "Point", "coordinates": [-76.800834103, 39.9593332424]}, "type": "Feature", "properties": {"collection_times": [{"days": "Mon-Fri", "time": "10:00am"}, {"days": "Sat-Sun", "time": "Closed"}], "id": "1740800001", "name": "USPS COLLECTION BOX - BLUE BOX", "address": {"city": "YORK", "state": "PA", "street": "1701 TAXVILLE RD", "postcode": "17408"}}},
{"geometry": {"type": "Point", "coordinates": [-76.76741853, 39.9845769004]}, "type": "Feature", "properties": {"collection_times": [{"days": "Mon-Fri", "time": "4:45pm"}, {"days": "Sat", "time": "12:00pm"}, {"days": "Sun", "time": "Closed"}], "id": "1740800002", "name": "USPS COLLECTION BOX - BLUE BOX", "address": {"city": "YORK", "state": "PA", "street": "1800 ROOSEVELT AVE", "postcode": "17408"}}}
]}
