{"type": "FeatureCollection", "features": [
{"geometry": {"type": "Point", "coordinates": [-76.2030954306, 40.1570678103]}, "type": "Feature", "properties": {"collection_times": [{"days": "Mon-Sat", "time": "1:30pm"}, {"days": "Sun", "time": "Closed"}], "id": "1750100018", "name": "USPS COLLECTION BOX - BLUE BOX", "address": {"city": "AKRON", "state": "PA", "street": "820 MAIN ST", "postcode": "17501"}}},
{"geometry": {"type": "Point", "coordinates": [-76.2038112117, 40.1590628194]}, "type": "Feature", "properties": {"collection_times": [{"days": "Mon-Fri", "time": "4:45pm"}, {"days": "Sat", "time": "12:15pm"}, {"days": "Sun", "time": "Closed"}], "id": "1750100020", "name": "USPS COLLECTION BOX - PO LOBBY", "address": {"city": "AKRON", "state": "PA", "street": "100 N 7TH ST", "postcode": "17501"}}},
{"geometry": {"type": "Point", "coordinates": [-76.2038112117, 40.1590628194]}, "type": "Feature", "properties": {"collection_times": [{"days": "Mon-Fri", "time": "4:30pm"}, {"days": "Sat", "time": "12:15pm"}, {"days": "Sun", "time": "Closed"}], "id": "1750100022", "name": "USPS COLLECTION BOX - BLUE BOX", "address": {"city": "AKRON", "state": "PA", "street": "100 N 7TH ST", "postcode": "17501"}}},
{"geometry": {"type": "Point", "coordinates": [-76.6691840229, 40.0932760399]}, "type": "Feature", "properties": {"collection_times": [{"days": "Mon-Fri", "time": "4:15pm"}, {"days": "Sat", "time": "11:00am"}, {"days": "Sun", "time": "Closed"}], "id": "1750200001", "name": "USPS COLLECTION BOX - BLUE BOX", "address": {"city": "BAINBRIDGE", "state": "PA", "street": "205 N 2ND ST", "postcode": "17502"}}},
{"geometry": {"type": "Point", "coordinates": [-76.6691840229, 40.0932760399]}, "type": "Feature", "properties": {"collection_times": [{"days": "Mon-Fri", "time": "4:15pm"}, {"days": "Sat", "time": "11:00am"}, {"days": "Sun", "time": "Closed"}], "id": "1750200003", "name": "USPS COLLECTION BOX - PO LOBBY", "address": {"city": "BAINBRIDGE", "state": "PA", "street": "205 N 2ND ST", "postcode": "17502"}}},
{"geometry": {"type": "Point", "coordinates": [-76.0834813829, 39.9375299823]}, "type": "Feature", "properties": {"collection_times": [{"days": "Mon-Fri", "time": "4:00pm"}, {"days": "Sat", "time": "11:00am"}, {"days": "Sun", "time": "Closed"}], "id": "1750300001", "name": "USPS COLLECTION BOX - BLUE BOX", "address": {"city": "BART", "state": "PA", "street": "1093 GEORGETOWN RD", "postcode": "17503"}}},
{"geometry": {"type": "Point", "coordinates": [-76.0834813829, 39.9375299823]}, "type": "Feature", "properties": {"collection_times": [{"days": "Mon-Fri", "time": "4:00pm"}, {"days": "Sat", "time": "11:00am"}, {"days": "Sun", "time": "Closed"}], "id": "1750300002", "name": "USPS COLLECTION BOX - PO LOBBY", "address": {"city": "BART", "state": "PA", "street": "1093 GEORGETOWN RD", "postcode": "17503"}}},
{"geometry": {"type": "Point", "coordinates": [-76.3352686405, 40.0601465704]}, "type": "Feature", "properties": {"collection_times": [{"days": "Mon-Fri", "time": "4:45pm"}, {"days": "Sat", "time": "12:00pm"}, {"days": "Sun", "time": "Closed"}], "id": "1750400001", "name": "USPS COLLECTION BOX - PO LOBBY", "address": {"city": "BAUSMAN", "state": "PA", "street": "220 ROSEDALE AVE", "postcode": "17504"}}},
{"geometry": {"type": "Point", "coordinates": [-76.3352686405, 40.0601465704]}, "type": "Feature", "properties": {"collection_times": [{"days": "Mon-Fri", "time": "4:45pm"}, {"days": "Sat", "time": "12:00pm"}, {"days": "Sun", "time": "Closed"}], "id": "1750400002", "name": "USPS COLLECTION BOX - BLUE BOX", "address": {"city": "BAUSMAN", "state": "PA", "street": "220 ROSEDALE AVE", "postcode": "17504"}}},
{"geometry": {"type": "Point", "coordinates": [-76.1803966598, 40.0385079979]}, "type": "Feature", "properties": {"collection_times": [{"days": "Mon-Fri", "time": "4:00pm"}, {"days": "Sat", "time": "10:45am"}, {"days": "Sun", "time": "Closed"}], "id": "1750500002", "name": "USPS COLLECTION BOX - BLUE BOX", "address": {"city": "BIRD IN HAND", "state": "PA", "street": "2694 OLD PHILADELPHIA PIKE", "postcode": "17505"}}},
{"geometry": {"type": "Point", "coordinates": [-76.1803966598, 40.0385079979]}, "type": "Feature", "properties": {"collection_times": [{"days": "Mon-Fri", "time": "4:00pm"}, {"days": "Sat", "time": "10:45am"}, {"days": "Sun", "time": "Closed"}], "id": "1750500003", "name": "USPS COLLECTION BOX - PO LOBBY", "address": {"city": "BIRD IN HAND", "state": "PA", "street": "2694 OLD PHILADELPHIA PIKE", "postcode": "17505"}}},
{"geometry": {"type": "Point", "coordinates": [-76.0429719606, 40.1169566591]}, "type": "Feature", "properties": {"collection_times": [{"days": "Mon-Fri", "time": "4:30pm"}, {"days": "Sat", "time": "12:00pm"}, {"days": "Sun", "time": "Closed"}], "id": "1750600001", "name": "USPS COLLECTION BOX - BLUE BOX", "address": {"city": "BLUE BALL", "state": "PA", "street": "1058 MAIN ST", "postcode": "17506"}}},
{"geometry": {"type": "Point", "coordinates": [-76.0429719606, 40.1169566591]}, "type": "Feature", "properties": {"collection_times": [{"days": "Mon-Fri", "time": "4:30pm"}, {"days": "Sat", "time": "12:00pm"}, {"days": "Sun", "time": "Closed"}], "id": "1750600002", "name": "USPS COLLECTION BOX - PO LOBBY", "address": {"city": "BLUE BALL", "state": "PA", "street": "1058 MAIN ST", "postcode": "17506"}}},
{"geometry": {"type": "Point", "coordinates": [-76.0265462651, 40.1971031417]}, "type": "Feature", "properties": {"collection_times": [{"days": "Mon-Fri", "time": "4:30pm"}, {"days": "Sat", "time": "11:30am"}, {"days": "Sun", "time": "Closed"}], "id": "1750700001", "name": "USPS COLLECTION BOX - BLUE BOX", "address": {"city": "BOWMANSVILLE", "state": "PA", "street": "127 E MAPLEGROVE RD", "postcode": "17507"}}},
{"geometry": {"type": "Point", "coordinates": [-76.0265462651, 40.1971031417]}, "type": "Feature", "properties": {"collection_times": [{"days": "Mon-Fri", "time": "4:30pm"}, {"days": "Sat", "time": "11:15am"}, {"days": "Sun", "time": "Closed"}], "id": "1750700003", "name": "USPS COLLECTION BOX - PO LOBBY", "address": {"city": "BOWMANSVILLE", "state": "PA", "street": "127 E MAPLEGROVE RD", "postcode": "17507"}}},
{"geometry": {"type": "Point", "coordinates": [-76.2099653479, 40.1253563401]}, "type": "Feature", "properties": {"collection_times": [{"days": "Mon-Fri", "time": "4:30pm"}, {"days": "Sat", "time": "12:00pm"}, {"days": "Sun", "time": "Closed"}], "id": "1750800002", "name": "USPS COLLECTION BOX - BLUE BOX", "address": {"city": "BROWNSTOWN", "state": "PA", "street": "3 CHARLES PL", "postcode": "17508"}}},
{"geometry": {"type": "Point", "coordinates": [-76.2099653479, 40.1253563401]}, "type": "Feature", "properties": {"collection_times": [{"days": "Mon-Fri", "time": "4:30pm"}, {"days": "Sat", "time": "12:00pm"}, {"days": "Sun", "time": "Closed"}], "id": "1750800004", "name": "USPS COLLECTION BOX - PO LOBBY", "address": {"city": "BROWNSTOWN", "state": "PA", "street": "3 CHARLES PL", "postcode": "17508"}}},
{"geometry": {"type": "Point", "coordinates": [-75.9968198946, 39.9553948541]}, "type": "Feature", "properties": {"collection_times": [{"days": "Mon-Fri", "time": "4:00pm"}, {"days": "Sat", "time": "11:00am"}, {"days": "Sun", "time": "Closed"}], "id": "1750900003", "name": "USPS COLLECTION BOX - PO LOBBY", "address": {"city": "CHRISTIANA", "state": "PA", "street": "19 N BRIDGE ST", "postcode": "17509"}}},
{"geometry": {"type": "Point", "coordinates": [-75.9968198946, 39.9553948541]}, "type": "Feature", "properties": {"collection_times": [{"days": "Mon-Fri", "time": "4:00pm"}, {"days": "Sat", "time": "11:00am"}, {"days": "Sun", "time": "Closed"}], "id": "1750900004", "name": "USPS COLLECTION BOX - BLUE BOX", "address": {"city": "CHRISTIANA", "state": "PA", "street": "19 N BRIDGE ST", "postcode": "17509"}}},
{"geometry": {"type": "Point", "coordinates": [-76.4905023527, 40.0318468364]}, "type": "Feature", "properties": {"collection_times": [{"days": "Mon-Sat", "time": "9:00am"}, {"days": "Sun", "time": "Closed"}], "id": "1751200004", "name": "USPS COLLECTION BOX - BLUE BOX", "address": {"city": "COLUMBIA", "state": "PA", "street": "960 LANCASTER AVE", "postcode": "17512"}}},
{"geometry": {"type": "Point", "coordinates": [-76.4515370145, 40.0370015645]}, "type": "Feature", "properties": {"collection_times": [{"days": "Mon-Sat", "time": "10:30am"}, {"days": "Sun", "time": "Closed"}], "id": "1751200013", "name": "USPS COLLECTION BOX - BLUE BOX", "address": {"city": "COLUMBIA", "state": "PA", "street": "3975 COLUMBIA AVE", "postcode": "17512"}}},
{"geometry": {"type": "Point", "coordinates": [-76.4727796441, 40.0319305646]}, "type": "Feature", "properties": {"collection_times": [{"days": "Mon-Sat", "time": "9:30am"}, {"days": "Sun", "time": "Closed"}], "id": "1751200018", "name": "USPS COLLECTION BOX - BLUE BOX", "address": {"city": "COLUMBIA", "state": "PA", "street": "1786J COLUMBIA AVE", "postcode": "17512"}}},
{"geometry": {"type": "Point", "coordinates": [-76.5020020439, 40.0336951942]}, "type": "Feature", "properties": {"collection_times": [{"days": "Mon-Fri", "time": "5:00pm"}, {"days": "Sat", "time": "12:45pm"}, {"days": "Sun", "time": "Closed"}], "id": "1751200023", "name": "USPS COLLECTION BOX - BLUE BOX", "address": {"city": "COLUMBIA", "state": "PA", "street": "53 N 4TH ST", "postcode": "17512"}}},
{"geometry": {"type": "Point", "coordinates": [-76.5011319647, 40.0328897142]}, "type": "Feature", "properties": {"collection_times": [{"days": "Mon-Sat", "time": "9:00am"}, {"days": "Sun", "time": "Closed"}], "id": "1751200025", "name": "USPS COLLECTION BOX - BLUE BOX", "address": {"city": "COLUMBIA", "state": "PA", "street": "2 N 4TH ST", "postcode": "17512"}}},
{"geometry": {"type": "Point", "coordinates": [-76.4934147245, 40.0395647277]}, "type": "Feature", "properties": {"collection_times": [{"days": "Mon-Sat", "time": "9:30am"}, {"days": "Sun", "time": "Closed"}], "id": "1751200026", "name": "USPS COLLECTION BOX - BLUE BOX", "address": {"city": "COLUMBIA", "state": "PA", "street": "1000 WALNUT ST", "postcode": "17512"}}},
{"geometry": {"type": "Point", "coordinates": [-76.5020020439, 40.0336951942]}, "type": "Feature", "properties": {"collection_times": [{"days": "Mon-Fri", "time": "4:30pm"}, {"days": "Sat", "time": "12:45pm"}, {"days": "Sun", "time": "Closed"}], "id": "1751200060", "name": "USPS COLLECTION BOX - PO LOBBY", "address": {"city": "COLUMBIA", "state": "PA", "street": "53 N 4TH ST", "postcode": "17512"}}},
{"geometry": {"type": "Point", "coordinates": [-76.4965950018, 40.0337357191]}, "type": "Feature", "properties": {"collection_times": [{"days": "Mon-Sat", "time": "9:30am"}, {"days": "Sun", "time": "Closed"}], "id": "1751200061", "name": "USPS COLLECTION BOX - BLUE BOX", "address": {"city": "COLUMBIA", "state": "PA", "street": "98 S 6TH ST", "postcode": "17512"}}},
{"geometry": {"type": "Point", "coordinates": [-76.3465012555, 39.9403677051]}, "type": "Feature", "properties": {"collection_times": [{"days": "Mon-Fri", "time": "4:15pm"}, {"days": "Sat", "time": "10:15am"}, {"days": "Sun", "time": "Closed"}], "id": "1751600002", "name": "USPS COLLECTION BOX - BLUE BOX", "address": {"city": "CONESTOGA", "state": "PA", "street": "1 RIVER CORNER RD", "postcode": "17516"}}},
{"geometry": {"type": "Point", "coordinates": [-76.3465012555, 39.9403677051]}, "type": "Feature", "properties": {"collection_times": [{"days": "Mon-Fri", "time": "4:15pm"}, {"days": "Sat", "time": "10:15am"}, {"days": "Sun", "time": "Closed"}], "id": "1751600003", "name": "USPS COLLECTION BOX - PO LOBBY", "address": {"city": "CONESTOGA", "state": "PA", "street": "1 RIVER CORNER RD", "postcode": "17516"}}},
{"geometry": {"type": "Point", "coordinates": [-76.1382712272, 40.2338312434]}, "type": "Feature", "properties": {"collection_times": [{"days": "Mon-Sat", "time": "9:15am"}, {"days": "Sun", "time": "Closed"}], "id": "1751700002", "name": "USPS COLLECTION BOX - BLUE BOX", "address": {"city": "DENVER", "state": "PA", "street": "501 MAIN ST", "postcode": "17517"}}},
{"geometry": {"type": "Point", "coordinates": [-76.1279179814, 40.228682525]}, "type": "Feature", "properties": {"collection_times": [{"days": "Mon-Fri", "time": "4:30pm"}, {"days": "Sat", "time": "12:00pm"}, {"days": "Sun", "time": "Closed"}], "id": "1751700018", "name": "USPS COLLECTION BOX - BLUE BOX", "address": {"city": "DENVER", "state": "PA", "street": "101 SNYDER ST", "postcode": "17517"}}},
{"geometry": {"type": "Point", "coordinates": [-76.0788678885, 40.2327356832]}, "type": "Feature", "properties": {"collection_times": [{"days": "Mon-Sat", "time": "10:15am"}, {"days": "Sun", "time": "Closed"}], "id": "1751700020", "name": "USPS COLLECTION BOX - BLUE BOX", "address": {"city": "DENVER", "state": "PA", "street": "2590 N READING RD", "postcode": "17517"}}},
{"geometry": {"type": "Point", "coordinates": [-76.1279179814, 40.228682525]}, "type": "Feature", "properties": {"collection_times": [{"days": "Mon-Fri", "time": "4:30pm"}, {"days": "Sat", "time": "12:00pm"}, {"days": "Sun", "time": "Closed"}], "id": "1751700021", "name": "USPS COLLECTION BOX - PO LOBBY", "address": {"city": "DENVER", "state": "PA", "street": "101 SNYDER ST", "postcode": "17517"}}},
{"geometry": {"type": "Point", "coordinates": [-76.0323924051, 40.1213825657]}, "type": "Feature", "properties": {"collection_times": [{"days": "Mon-Sat", "time": "9:45am"}, {"days": "Sun", "time": "Closed"}], "id": "1751900003", "name": "USPS COLLECTION BOX - BLUE BOX", "address": {"city": "EAST EARL", "state": "PA", "street": "1338 MAIN ST", "postcode": "17519"}}},
{"geometry": {"type": "Point", "coordinates": [-76.0341216629, 40.1097381624]}, "type": "Feature", "properties": {"collection_times": [{"days": "Mon-Fri", "time": "4:30pm"}, {"days": "Sat", "time": "10:45am"}, {"days": "Sun", "time": "Closed"}], "id": "1751900004", "name": "USPS COLLECTION BOX - BLUE BOX", "address": {"city": "EAST EARL", "state": "PA", "street": "1238 E EARL RD", "postcode": "17519"}}},
{"geometry": {"type": "Point", "coordinates": [-76.0341216634, 40.1097381622]}, "type": "Feature", "properties": {"collection_times": [{"days": "Mon-Fri", "time": "4:30pm"}, {"days": "Sat", "time": "10:45am"}, {"days": "Sun", "time": "Closed"}], "id": "1751900005", "name": "USPS COLLECTION BOX - PO LOBBY", "address": {"city": "EAST EARL", "state": "PA", "street": "1238 E EARL RD", "postcode": "17519"}}},
{"geometry": {"type": "Point", "coordinates": [-76.3465713426, 40.0941043875]}, "type": "Feature", "properties": {"collection_times": [{"days": "Mon-Fri", "time": "4:30pm"}, {"days": "Sat", "time": "12:00pm"}, {"days": "Sun", "time": "Closed"}], "id": "1752000011", "name": "USPS COLLECTION BOX - BLUE BOX", "address": {"city": "EAST PETERSBURG", "state": "PA", "street": "2049 MILLER RD", "postcode": "17520"}}},
{"geometry": {"type": "Point", "coordinates": [-76.3465713426, 40.0941043875]}, "type": "Feature", "properties": {"collection_times": [{"days": "Mon-Fri", "time": "4:30pm"}, {"days": "Sat", "time": "12:00pm"}, {"days": "Sun", "time": "Closed"}], "id": "1752000022", "name": "USPS COLLECTION BOX - PO LOBBY", "address": {"city": "EAST PETERSBURG", "state": "PA", "street": "2049 MILLER RD", "postcode": "17520"}}},
{"geometry": {"type": "Point", "coordinates": [-76.3478440086, 40.2037183167]}, "type": "Feature", "properties": {"collection_times": [{"days": "Mon-Fri", "time": "4:00pm"}, {"days": "Sat", "time": "10:30am"}, {"days": "Sun", "time": "Closed"}], "id": "1752100000", "name": "USPS COLLECTION BOX - BLUE BOX", "address": {"city": "ELM", "state": "PA", "street": "656 W NEWPORT RD", "postcode": "17521"}}},
{"geometry": {"type": "Point", "coordinates": [-76.3478440086, 40.2037183167]}, "type": "Feature", "properties": {"collection_times": [{"days": "Mon-Fri", "time": "4:00pm"}, {"days": "Sat", "time": "10:30am"}, {"days": "Sun", "time": "Closed"}], "id": "1752100001", "name": "USPS COLLECTION BOX - PO LOBBY", "address": {"city": "ELM", "state": "PA", "street": "656 W NEWPORT RD", "postcode": "17521"}}},
{"geometry": {"type": "Point", "coordinates": [-76.1752557652, 40.1771159562]}, "type": "Feature", "properties": {"collection_times": [{"days": "Mon-Fri", "time": "5:00pm"}, {"days": "Sat", "time": "3:00pm"}, {"days": "Sun", "time": "Closed"}], "id": "1752200002", "name": "USPS COLLECTION BOX - BLUE BOX", "address": {"city": "EPHRATA", "state": "PA", "street": "129 E MAIN ST", "postcode": "17522"}}},
{"geometry": {"type": "Point", "coordinates": [-76.1842628148, 40.1868505255]}, "type": "Feature", "properties": {"collection_times": [{"days": "Mon-Fri", "time": "9:00am"}, {"days": "Sat-Sun", "time": "Closed"}], "id": "1752200003", "name": "USPS COLLECTION BOX - BLUE BOX", "address": {"city": "EPHRATA", "state": "PA", "street": "169 MARTIN AVE", "postcode": "17522"}}},
{"geometry": {"type": "Point", "coordinates": [-76.1775731818, 40.1789116879]}, "type": "Feature", "properties": {"collection_times": [{"days": "Mon-Sat", "time": "8:00am"}, {"days": "Sun", "time": "Closed"}], "id": "1752200006", "name": "USPS COLLECTION BOX - BLUE BOX", "address": {"city": "EPHRATA", "state": "PA", "street": "1 W MAIN ST", "postcode": "17522"}}},
{"geometry": {"type": "Point", "coordinates": [-76.1844899429, 40.1796179144]}, "type": "Feature", "properties": {"collection_times": [{"days": "Mon-Sat", "time": "9:00am"}, {"days": "Sun", "time": "Closed"}], "id": "1752200009", "name": "USPS COLLECTION BOX - BLUE BOX", "address": {"city": "EPHRATA", "state": "PA", "street": "302 S OAK ST", "postcode": "17522"}}},
{"geometry": {"type": "Point", "coordinates": [-76.1769958979, 40.1813722425]}, "type": "Feature", "properties": {"collection_times": [{"days": "Mon-Sat", "time": "8:30am"}, {"days": "Sun", "time": "Closed"}], "id": "1752200011", "name": "USPS COLLECTION BOX - BLUE BOX", "address": {"city": "EPHRATA", "state": "PA", "street": "77 PARK AVE", "postcode": "17522"}}},
{"geometry": {"type": "Point", "coordinates": [-76.1865956099, 40.1848820818]}, "type": "Feature", "properties": {"collection_times": [{"days": "Mon-Sat", "time": "9:00am"}, {"days": "Sun", "time": "Closed"}], "id": "1752200012", "name": "USPS COLLECTION BOX - BLUE BOX", "address": {"city": "EPHRATA", "state": "PA", "street": "647 W MAIN ST", "postcode": "17522"}}},
{"geometry": {"type": "Point", "coordinates": [-76.1691824539, 40.1807582868]}, "type": "Feature", "properties": {"collection_times": [{"days": "Mon-Sat", "time": "8:30am"}, {"days": "Sun", "time": "Closed"}], "id": "1752200013", "name": "USPS COLLECTION BOX - BLUE BOX", "address": {"city": "EPHRATA", "state": "PA", "street": "58 E WALNUT ST", "postcode": "17522"}}},
{"geometry": {"type": "Point", "coordinates": [-76.1719541267, 40.1811344678]}, "type": "Feature", "properties": {"collection_times": [{"days": "Mon-Sat", "time": "8:00am"}, {"days": "Sun", "time": "Closed"}], "id": "1752200017", "name": "USPS COLLECTION BOX - BLUE BOX", "address": {"city": "EPHRATA", "state": "PA", "street": "251 N STATE ST", "postcode": "17522"}}},
{"geometry": {"type": "Point", "coordinates": [-76.198353039, 40.1937436274]}, "type": "Feature", "properties": {"collection_times": [{"days": "Mon-Sat", "time": "8:30am"}, {"days": "Sun", "time": "Closed"}], "id": "1752200018", "name": "USPS COLLECTION BOX - BLUE BOX", "address": {"city": "EPHRATA", "state": "PA", "street": "1248 W MAIN ST", "postcode": "17522"}}},
{"geometry": {"type": "Point", "coordinates": [-76.1788401309, 40.1797090022]}, "type": "Feature", "properties": {"collection_times": [{"days": "Mon-Sat", "time": "8:00am"}, {"days": "Sun", "time": "Closed"}], "id": "1752200020", "name": "USPS COLLECTION BOX - BLUE BOX", "address": {"city": "EPHRATA", "state": "PA", "street": "103 W MAIN ST", "postcode": "17522"}}},
{"geometry": {"type": "Point", "coordinates": [-76.1842537922, 40.1875466466]}, "type": "Feature", "properties": {"collection_times": [{"days": "Mon-Sat", "time": "10:00am"}, {"days": "Sun", "time": "Closed"}], "id": "1752200022", "name": "USPS COLLECTION BOX - BLUE BOX", "address": {"city": "EPHRATA", "state": "PA", "street": "108 N READING RD", "postcode": "17522"}}},
{"geometry": {"type": "Point", "coordinates": [-76.1748034454, 40.1929380106]}, "type": "Feature", "properties": {"collection_times": [{"days": "Mon-Sat", "time": "9:00am"}, {"days": "Sun", "time": "Closed"}], "id": "1752200023", "name": "USPS COLLECTION BOX - BLUE BOX", "address": {"city": "EPHRATA", "state": "PA", "street": "363 N READING RD", "postcode": "17522"}}},
{"geometry": {"type": "Point", "coordinates": [-76.1736200444, 40.1805146459]}, "type": "Feature", "properties": {"collection_times": [{"days": "Mon-Sat", "time": "8:00am"}, {"days": "Sun", "time": "Closed"}], "id": "1752200024", "name": "USPS COLLECTION BOX - BLUE BOX", "address": {"city": "EPHRATA", "state": "PA", "street": "200 N STATE ST", "postcode": "17522"}}},
{"geometry": {"type": "Point", "coordinates": [-76.2013499873, 40.1966117189]}, "type": "Feature", "properties": {"collection_times": [{"days": "Mon-Sat", "time": "10:00am"}, {"days": "Sun", "time": "Closed"}], "id": "1752200025", "name": "USPS COLLECTION BOX - BLUE BOX", "address": {"city": "EPHRATA", "state": "PA", "street": "1423 W MAIN ST", "postcode": "17522"}}},
{"geometry": {"type": "Point", "coordinates": [-76.1803862583, 40.177638824]}, "type": "Feature", "properties": {"collection_times": [{"days": "Mon-Sat", "time": "8:30am"}, {"days": "Sun", "time": "Closed"}], "id": "1752200026", "name": "USPS COLLECTION BOX - BLUE BOX", "address": {"city": "EPHRATA", "state": "PA", "street": "141 S STATE ST", "postcode": "17522"}}},
{"geometry": {"type": "Point", "coordinates": [-76.1991266942, 40.1676794925]}, "type": "Feature", "properties": {"collection_times": [{"days": "Mon-Sat", "time": "8:30am"}, {"days": "Sun", "time": "Closed"}], "id": "1752200030", "name": "USPS COLLECTION BOX - BLUE BOX", "address": {"city": "EPHRATA", "state": "PA", "street": "1127 S STATE ST", "postcode": "17522"}}},
{"geometry": {"type": "Point", "coordinates": [-76.1667112526, 40.1819601731]}, "type": "Feature", "properties": {"collection_times": [{"days": "Mon-Sat", "time": "9:00am"}, {"days": "Sun", "time": "Closed"}], "id": "1752200031", "name": "USPS COLLECTION BOX - BLUE BOX", "address": {"city": "EPHRATA", "state": "PA", "street": "468 WASHINGTON AVE", "postcode": "17522"}}},
{"geometry": {"type": "Point", "coordinates": [-76.1752557652, 40.1771159562]}, "type": "Feature", "properties": {"collection_times": [{"days": "Mon-Fri", "time": "5:00pm"}, {"days": "Sat", "time": "3:00pm"}, {"days": "Sun", "time": "Closed"}], "id": "1752200036", "name": "USPS COLLECTION BOX - PO LOBBY", "address": {"city": "EPHRATA", "state": "PA", "street": "129 E MAIN ST", "postcode": "17522"}}},
{"geometry": {"type": "Point", "coordinates": [-76.1551751701, 40.1644750879]}, "type": "Feature", "properties": {"collection_times": [{"days": "Mon-Sat", "time": "10:30am"}, {"days": "Sun", "time": "Closed"}], "id": "1752200037", "name": "USPS COLLECTION BOX - BLUE BOX", "address": {"city": "EPHRATA", "state": "PA", "street": "890 E MAIN ST", "postcode": "17522"}}},
{"geometry": {"type": "Point", "coordinates": [-76.1872092713, 40.17599851]}, "type": "Feature", "properties": {"collection_times": [{"days": "Mon-Sat", "time": "9:00am"}, {"days": "Sun", "time": "Closed"}], "id": "1752200039", "name": "USPS COLLECTION BOX - BLUE BOX", "address": {"city": "EPHRATA", "state": "PA", "street": "2 E ORANGE ST", "postcode": "17522"}}},
{"geometry": {"type": "Point", "coordinates": [-76.0172173673, 39.9826481747]}, "type": "Feature", "properties": {"collection_times": [{"days": "Mon-Fri", "time": "4:30pm"}, {"days": "Sat", "time": "10:30am"}, {"days": "Sun", "time": "Closed"}], "id": "1752700002", "name": "USPS COLLECTION BOX - BLUE BOX", "address": {"city": "GAP", "state": "PA", "street": "937 ROUTE 41", "postcode": "17527"}}},
{"geometry": {"type": "Point", "coordinates": [-76.0177684382, 39.9916327223]}, "type": "Feature", "properties": {"collection_times": [{"days": "Mon-Sat", "time": "8:30am"}, {"days": "Sun", "time": "Closed"}], "id": "1752700004", "name": "USPS COLLECTION BOX - BLUE BOX", "address": {"city": "GAP", "state": "PA", "street": "5360 LINCOLN HWY", "postcode": "17527"}}},
{"geometry": {"type": "Point", "coordinates": [-76.0172173673, 39.9826481747]}, "type": "Feature", "properties": {"collection_times": [{"days": "Mon-Fri", "time": "4:30pm"}, {"days": "Sat", "time": "10:30am"}, {"days": "Sun", "time": "Closed"}], "id": "1752700005", "name": "USPS COLLECTION BOX - PO LOBBY", "address": {"city": "GAP", "state": "PA", "street": "937 ROUTE 41", "postcode": "17527"}}},
{"geometry": {"type": "Point", "coordinates": [-76.0194750141, 39.991953305]}, "type": "Feature", "properties": {"collection_times": [{"days": "Mon-Sat", "time": "10:30am"}, {"days": "Sun", "time": "Closed"}], "id": "1752700007", "name": "USPS COLLECTION BOX - BLUE BOX", "address": {"city": "GAP", "state": "PA", "street": "5351 LINCOLN HWY", "postcode": "17527"}}},
{"geometry": {"type": "Point", "coordinates": [-76.0256255964, 40.133386617]}, "type": "Feature", "properties": {"collection_times": [{"days": "Mon-Fri", "time": "3:45pm"}, {"days": "Sat", "time": "10:00am"}, {"days": "Sun", "time": "Closed"}], "id": "1752800001", "name": "USPS COLLECTION BOX - BLUE BOX", "address": {"city": "GOODVILLE", "state": "PA", "street": "1599 MAIN ST", "postcode": "17528"}}},
{"geometry": {"type": "Point", "coordinates": [-76.0256255964, 40.133386617]}, "type": "Feature", "properties": {"collection_times": [{"days": "Mon-Fri", "time": "2:00pm"}, {"days": "Sat", "time": "10:00am"}, {"days": "Sun", "time": "Closed"}], "id": "1752800002", "name": "USPS COLLECTION BOX - PO LOBBY", "address": {"city": "GOODVILLE", "state": "PA", "street": "1599 MAIN ST", "postcode": "17528"}}},
{"geometry": {"type": "Point", "coordinates": [-76.1346160175, 40.0193404806]}, "type": "Feature", "properties": {"collection_times": [{"days": "Mon-Fri", "time": "3:45pm"}, {"days": "Sat", "time": "10:30am"}, {"days": "Sun", "time": "Closed"}], "id": "1752900001", "name": "USPS COLLECTION BOX - BLUE BOX", "address": {"city": "GORDONVILLE", "state": "PA", "street": "3197 IRISHTOWN RD", "postcode": "17529"}}},
{"geometry": {"type": "Point", "coordinates": [-76.1346160175, 40.0193404806]}, "type": "Feature", "properties": {"collection_times": [{"days": "Mon-Fri", "time": "3:45pm"}, {"days": "Sat", "time": "10:30am"}, {"days": "Sun", "time": "Closed"}], "id": "1752900002", "name": "USPS COLLECTION BOX - PO LOBBY", "address": {"city": "GORDONVILLE", "state": "PA", "street": "3197 IRISHTOWN RD", "postcode": "17529"}}},
{"geometry": {"type": "Point", "coordinates": [-76.2713801036, 39.8795779942]}, "type": "Feature", "properties": {"collection_times": [{"days": "Mon-Fri", "time": "4:00pm"}, {"days": "Sat", "time": "10:00am"}, {"days": "Sun", "time": "Closed"}], "id": "1753200001", "name": "USPS COLLECTION BOX - BLUE BOX", "address": {"city": "HOLTWOOD", "state": "PA", "street": "55 DRYTOWN RD", "postcode": "17532"}}},
{"geometry": {"type": "Point", "coordinates": [-76.2713801036, 39.8795779942]}, "type": "Feature", "properties": {"collection_times": [{"days": "Mon-Fri", "time": "4:00pm"}, {"days": "Sat", "time": "10:00am"}, {"days": "Sun", "time": "Closed"}], "id": "1753200002", "name": "USPS COLLECTION BOX - PO LOBBY", "address": {"city": "HOLTWOOD", "state": "PA", "street": "55 DRYTOWN RD", "postcode": "17532"}}},
{"geometry": {"type": "Point", "coordinates": [-76.2635729872, 40.2339781959]}, "type": "Feature", "properties": {"collection_times": [{"days": "Mon-Fri", "time": "4:30pm"}, {"days": "Sat", "time": "10:30am"}, {"days": "Sun", "time": "Closed"}], "id": "1753300001", "name": "USPS COLLECTION BOX - BLUE BOX", "address": {"city": "HOPELAND", "state": "PA", "street": "482 N CLAY ST", "postcode": "17533"}}},
{"geometry": {"type": "Point", "coordinates": [-76.109176135, 40.037469049]}, "type": "Feature", "properties": {"collection_times": [{"days": "Mon-Fri", "time": "4:30pm"}, {"days": "Sat", "time": "11:15am"}, {"days": "Sun", "time": "Closed"}], "id": "1753400001", "name": "USPS COLLECTION BOX - BLUE BOX", "address": {"city": "INTERCOURSE", "state": "PA", "street": "14J CENTER ST", "postcode": "17534"}}},
{"geometry": {"type": "Point", "coordinates": [-76.109176135, 40.037469049]}, "type": "Feature", "properties": {"collection_times": [{"days": "Mon-Fri", "time": "4:30pm"}, {"days": "Sat", "time": "11:15am"}, {"days": "Sun", "time": "Closed"}], "id": "1753400003", "name": "USPS COLLECTION BOX - PO LOBBY", "address": {"city": "INTERCOURSE", "state": "PA", "street": "14J CENTER ST", "postcode": "17534"}}},
{"geometry": {"type": "Point", "coordinates": [-76.0628558346, 39.9986897803]}, "type": "Feature", "properties": {"collection_times": [{"days": "Mon-Fri", "time": "4:00pm"}, {"days": "Sat", "time": "9:45am"}, {"days": "Sun", "time": "Closed"}], "id": "1753500002", "name": "USPS COLLECTION BOX - BLUE BOX", "address": {"city": "KINZERS", "state": "PA", "street": "3583 LINCOLN HWY E", "postcode": "17535"}}},
{"geometry": {"type": "Point", "coordinates": [-76.0628558346, 39.9986897803]}, "type": "Feature", "properties": {"collection_times": [{"days": "Mon-Fri", "time": "4:00pm"}, {"days": "Sat", "time": "9:45am"}, {"days": "Sun", "time": "Closed"}], "id": "1753500004", "name": "USPS COLLECTION BOX - PO LOBBY", "address": {"city": "KINZERS", "state": "PA", "street": "3583 LINCOLN HWY E", "postcode": "17535"}}},
{"geometry": {"type": "Point", "coordinates": [-76.0779881473, 39.8568227186]}, "type": "Feature", "properties": {"collection_times": [{"days": "Mon-Fri", "time": "4:15pm"}, {"days": "Sat", "time": "10:00am"}, {"days": "Sun", "time": "Closed"}], "id": "1753600001", "name": "USPS COLLECTION BOX - BLUE BOX", "address": {"city": "KIRKWOOD", "state": "PA", "street": "1713 KIRKWOOD PIKE", "postcode": "17536"}}},
{"geometry": {"type": "Point", "coordinates": [-76.0779881473, 39.8568227186]}, "type": "Feature", "properties": {"collection_times": [{"days": "Mon-Fri", "time": "4:15pm"}, {"days": "Sat", "time": "10:00am"}, {"days": "Sun", "time": "Closed"}], "id": "1753600004", "name": "USPS COLLECTION BOX - PO LOBBY", "address": {"city": "KIRKWOOD", "state": "PA", "street": "1713 KIRKWOOD PIKE", "postcode": "17536"}}},
{"geometry": {"type": "Point", "coordinates": [-76.2397094821, 39.9896855793]}, "type": "Feature", "properties": {"collection_times": [{"days": "Mon-Fri", "time": "4:00pm"}, {"days": "Sat", "time": "11:00am"}, {"days": "Sun", "time": "Closed"}], "id": "1753700001", "name": "USPS COLLECTION BOX - BLUE BOX", "address": {"city": "LAMPETER", "state": "PA", "street": "1638 LAMPETER RD", "postcode": "17537"}}},
{"geometry": {"type": "Point", "coordinates": [-76.2397094821, 39.9896855793]}, "type": "Feature", "properties": {"collection_times": [{"days": "Mon-Fri", "time": "4:00pm"}, {"days": "Sat", "time": "11:00am"}, {"days": "Sun", "time": "Closed"}], "id": "1753700003", "name": "USPS COLLECTION BOX - PO LOBBY", "address": {"city": "LAMPETER", "state": "PA", "street": "1638 LAMPETER RD", "postcode": "17537"}}},
{"geometry": {"type": "Point", "coordinates": [-76.4120285509, 40.09588453]}, "type": "Feature", "properties": {"collection_times": [{"days": "Mon-Sat", "time": "9:00am"}, {"days": "Sun", "time": "Closed"}], "id": "1753800008", "name": "USPS COLLECTION BOX - BLUE BOX", "address": {"city": "LANDISVILLE", "state": "PA", "street": "270 MAIN ST", "postcode": "17538"}}},
{"geometry": {"type": "Point", "coordinates": [-76.408623995, 40.0946980221]}, "type": "Feature", "properties": {"collection_times": [{"days": "Mon-Sat", "time": "9:00am"}, {"days": "Sun", "time": "Closed"}], "id": "1753800014", "name": "USPS COLLECTION BOX - BLUE BOX", "address": {"city": "LANDISVILLE", "state": "PA", "street": "359 MAIN ST", "postcode": "17538"}}},
{"geometry": {"type": "Point", "coordinates": [-76.4139342978, 40.0953865042]}, "type": "Feature", "properties": {"collection_times": [{"days": "Mon-Fri", "time": "4:30pm"}, {"days": "Sat", "time": "12:00pm"}, {"days": "Sun", "time": "Closed"}], "id": "1753800018", "name": "USPS COLLECTION BOX - BLUE BOX", "address": {"city": "LANDISVILLE", "state": "PA", "street": "241 ELIZABETH ST", "postcode": "17538"}}},
{"geometry": {"type": "Point", "coordinates": [-76.4139342978, 40.0953865042]}, "type": "Feature", "properties": {"collection_times": [{"days": "Mon-Fri", "time": "4:30pm"}, {"days": "Sat", "time": "12:00pm"}, {"days": "Sun", "time": "Closed"}], "id": "1753800021", "name": "USPS COLLECTION BOX - PO LOBBY", "address": {"city": "LANDISVILLE", "state": "PA", "street": "241 ELIZABETH ST", "postcode": "17538"}}},
{"geometry": {"type": "Point", "coordinates": [-76.1818968969, 40.0885986857]}, "type": "Feature", "properties": {"collection_times": [{"days": "Mon-Fri", "time": "4:45pm"}, {"days": "Sat", "time": "2:45pm"}, {"days": "Sun", "time": "Closed"}], "id": "1754000003", "name": "USPS COLLECTION BOX - BLUE BOX", "address": {"city": "LEOLA", "state": "PA", "street": "10 E MAIN ST", "postcode": "17540"}}},
{"geometry": {"type": "Point", "coordinates": [-76.1849367706, 40.0911430768]}, "type": "Feature", "properties": {"collection_times": [{"days": "Mon-Sat", "time": "9:30am"}, {"days": "Sun", "time": "Closed"}], "id": "1754000014", "name": "USPS COLLECTION BOX - BLUE BOX", "address": {"city": "LEOLA", "state": "PA", "street": "27 MAGNOLIA DR", "postcode": "17540"}}},
{"geometry": {"type": "Point", "coordinates": [-76.1900026735, 40.0866984712]}, "type": "Feature", "properties": {"collection_times": [{"days": "Mon-Sat", "time": "12:00pm"}, {"days": "Sun", "time": "Closed"}], "id": "1754000015", "name": "USPS COLLECTION BOX - BLUE BOX", "address": {"city": "LEOLA", "state": "PA", "street": "10 NEWPORT RD", "postcode": "17540"}}},
{"geometry": {"type": "Point", "coordinates": [-76.2124408973, 40.0856933385]}, "type": "Feature", "properties": {"collection_times": [{"days": "Mon-Fri", "time": "2:00pm"}, {"days": "Sat", "time": "1:30pm"}, {"days": "Sun", "time": "Closed"}], "id": "1754000016", "name": "USPS COLLECTION BOX - BLUE BOX", "address": {"city": "LEOLA", "state": "PA", "street": "1 HOLLY DR", "postcode": "17540"}}},
{"geometry": {"type": "Point", "coordinates": [-76.1818968969, 40.0885986857]}, "type": "Feature", "properties": {"collection_times": [{"days": "Mon-Fri", "time": "4:45pm"}, {"days": "Sat", "time": "2:45pm"}, {"days": "Sun", "time": "Closed"}], "id": "1754000024", "name": "USPS COLLECTION BOX - PO LOBBY", "address": {"city": "LEOLA", "state": "PA", "street": "10 E MAIN ST", "postcode": "17540"}}},
{"geometry": {"type": "Point", "coordinates": [-76.3049647305, 40.1567947408]}, "type": "Feature", "properties": {"collection_times": [{"days": "Mon-Fri", "time": "5:00pm"}, {"days": "Sat", "time": "12:00pm"}, {"days": "Sun", "time": "Closed"}], "id": "1754300025", "name": "USPS COLLECTION BOX - BLUE BOX", "address": {"city": "LITITZ", "state": "PA", "street": "74 E MAIN ST", "postcode": "17543"}}},
{"geometry": {"type": "Point", "coordinates": [-76.3071888127, 40.1556026644]}, "type": "Feature", "properties": {"collection_times": [{"days": "Mon-Fri", "time": "2:30pm"}, {"days": "Sat", "time": "9:00am"}, {"days": "Sun", "time": "Closed"}], "id": "1754300049", "name": "USPS COLLECTION BOX - BLUE BOX", "address": {"city": "LITITZ", "state": "PA", "street": "47 S BROAD ST", "postcode": "17543"}}},
{"geometry": {"type": "Point", "coordinates": [-76.3043552038, 40.1422344567]}, "type": "Feature", "properties": {"collection_times": [{"days": "Mon-Fri", "time": "12:00pm"}, {"days": "Sat", "time": "10:00am"}, {"days": "Sun", "time": "Closed"}], "id": "1754300051", "name": "USPS COLLECTION BOX - BLUE BOX", "address": {"city": "LITITZ", "state": "PA", "street": "740 S BROAD ST", "postcode": "17543"}}},
{"geometry": {"type": "Point", "coordinates": [-76.3077488089, 40.1736725791]}, "type": "Feature", "properties": {"collection_times": [{"days": "Mon-Fri", "time": "2:30pm"}, {"days": "Sat", "time": "9:15am"}, {"days": "Sun", "time": "Closed"}], "id": "1754300065", "name": "USPS COLLECTION BOX - BLUE BOX", "address": {"city": "LITITZ", "state": "PA", "street": "20 COPPERFIELD CIR", "postcode": "17543"}}},
{"geometry": {"type": "Point", "coordinates": [-76.3049837772, 40.1278480812]}, "type": "Feature", "properties": {"collection_times": [{"days": "Mon-Fri", "time": "10:00am"}, {"days": "Sat", "time": "9:30am"}, {"days": "Sun", "time": "Closed"}], "id": "1754300068", "name": "USPS COLLECTION BOX - BLUE BOX", "address": {"city": "LITITZ", "state": "PA", "street": "1050 LITITZ PIKE", "postcode": "17543"}}},
{"geometry": {"type": "Point", "coordinates": [-76.3085112975, 40.1169241815]}, "type": "Feature", "properties": {"collection_times": [{"days": "Mon-Fri", "time": "12:00pm"}, {"days": "Sat", "time": "11:00am"}, {"days": "Sun", "time": "Closed"}], "id": "1754300070", "name": "USPS COLLECTION BOX - BLUE BOX", "address": {"city": "LITITZ", "state": "PA", "street": "118 W AIRPORT RD", "postcode": "17543"}}},
{"geometry": {"type": "Point", "coordinates": [-76.3049647305, 40.1567947408]}, "type": "Feature", "properties": {"collection_times": [{"days": "Mon-Fri", "time": "5:00pm"}, {"days": "Sat", "time": "12:00pm"}, {"days": "Sun", "time": "Closed"}], "id": "1754300076", "name": "USPS COLLECTION BOX - PO LOBBY", "address": {"city": "LITITZ", "state": "PA", "street": "74 E MAIN ST", "postcode": "17543"}}},
{"geometry": {"type": "Point", "coordinates": [-76.2938328664, 40.1758425148]}, "type": "Feature", "properties": {"collection_times": [{"days": "Mon-Fri", "time": "2:30pm"}, {"days": "Sat", "time": "10:00am"}, {"days": "Sun", "time": "Closed"}], "id": "1754300078", "name": "USPS COLLECTION BOX - BLUE BOX", "address": {"city": "LITITZ", "state": "PA", "street": "2 DANBURY DR", "postcode": "17543"}}},
{"geometry": {"type": "Point", "coordinates": [-76.305710114, 40.1371189306]}, "type": "Feature", "properties": {"collection_times": [{"days": "Mon-Sat", "time": "10:00am"}, {"days": "Sun", "time": "Closed"}], "id": "1754300083", "name": "USPS COLLECTION BOX - BLUE BOX", "address": {"city": "LITITZ", "state": "PA", "street": "100 HIGHLANDS DR", "postcode": "17543"}}},
{"geometry": {"type": "Point", "coordinates": [-76.3047332048, 40.1304589907]}, "type": "Feature", "properties": {"collection_times": [{"days": "Mon-Sat", "time": "10:00am"}, {"days": "Sun", "time": "Closed"}], "id": "1754300084", "name": "USPS COLLECTION BOX - BLUE BOX", "address": {"city": "LITITZ", "state": "PA", "street": "1002 LITITZ PIKE", "postcode": "17543"}}},
{"geometry": {"type": "Point", "coordinates": [-76.4403815227, 40.2472761712]}, "type": "Feature", "properties": {"collection_times": [{"days": "Mon-Sat", "time": "9:00am"}, {"days": "Sun", "time": "Closed"}], "id": "1754500024", "name": "USPS COLLECTION BOX - BLUE BOX", "address": {"city": "MANHEIM", "state": "PA", "street": "200 MAPLE AVE", "postcode": "17545"}}},
{"geometry": {"type": "Point", "coordinates": [-76.3953689398, 40.1636467854]}, "type": "Feature", "properties": {"collection_times": [{"days": "Mon-Sat", "time": "2:15pm"}, {"days": "Sun", "time": "Closed"}], "id": "1754500027", "name": "USPS COLLECTION BOX - BLUE BOX", "address": {"city": "MANHEIM", "state": "PA", "street": "2 MARKET SQ", "postcode": "17545"}}},
{"geometry": {"type": "Point", "coordinates": [-76.3815301987, 40.1720548636]}, "type": "Feature", "properties": {"collection_times": [{"days": "Mon-Sat", "time": "1:45pm"}, {"days": "Sun", "time": "Closed"}], "id": "1754500032", "name": "USPS COLLECTION BOX - BLUE BOX", "address": {"city": "MANHEIM", "state": "PA", "street": "75 DOE RUN RD", "postcode": "17545"}}},
{"geometry": {"type": "Point", "coordinates": [-76.4026453204, 40.1655951188]}, "type": "Feature", "properties": {"collection_times": [{"days": "Mon-Sat", "time": "10:30am"}, {"days": "Sun", "time": "Closed"}], "id": "1754500036", "name": "USPS COLLECTION BOX - BLUE BOX", "address": {"city": "MANHEIM", "state": "PA", "street": "178 N GRANT ST", "postcode": "17545"}}},
{"geometry": {"type": "Point", "coordinates": [-76.424878972, 40.1750880779]}, "type": "Feature", "properties": {"collection_times": [{"days": "Mon-Sat", "time": "10:30am"}, {"days": "Sun", "time": "Closed"}], "id": "1754500044", "name": "USPS COLLECTION BOX - BLUE BOX", "address": {"city": "MANHEIM", "state": "PA", "street": "44 W FERDINAND ST", "postcode": "17545"}}},
{"geometry": {"type": "Point", "coordinates": [-76.3939990734, 40.1627666639]}, "type": "Feature", "properties": {"collection_times": [{"days": "Mon-Fri", "time": "5:00pm"}, {"days": "Sat", "time": "3:00pm"}, {"days": "Sun", "time": "Closed"}], "id": "1754500046", "name": "USPS COLLECTION BOX - BLUE BOX", "address": {"city": "MANHEIM", "state": "PA", "street": "47 S MAIN ST", "postcode": "17545"}}},
{"geometry": {"type": "Point", "coordinates": [-76.3943661893, 40.1630431677]}, "type": "Feature", "properties": {"collection_times": [{"days": "Mon-Fri", "time": "5:00pm"}, {"days": "Sat", "time": "3:00pm"}, {"days": "Sun", "time": "Closed"}], "id": "1754500047", "name": "USPS COLLECTION BOX - BLUE BOX", "address": {"city": "MANHEIM", "state": "PA", "street": "1 LOGAN AVE", "postcode": "17545"}}},
{"geometry": {"type": "Point", "coordinates": [-76.3943661893, 40.1630431677]}, "type": "Feature", "properties": {"collection_times": [{"days": "Mon-Fri", "time": "5:00pm"}, {"days": "Sat", "time": "3:00pm"}, {"days": "Sun", "time": "Closed"}], "id": "1754500048", "name": "USPS COLLECTION BOX - BLUE BOX", "address": {"city": "MANHEIM", "state": "PA", "street": "1 LOGAN AVE", "postcode": "17545"}}},
{"geometry": {"type": "Point", "coordinates": [-76.3932589931, 40.1632234522]}, "type": "Feature", "properties": {"collection_times": [{"days": "Mon-Fri", "time": "5:00pm"}, {"days": "Sat", "time": "3:00pm"}, {"days": "Sun", "time": "Closed"}], "id": "1754500049", "name": "USPS COLLECTION BOX - BLUE BOX", "address": {"city": "MANHEIM", "state": "PA", "street": "46 S WOLF ST", "postcode": "17545"}}},
{"geometry": {"type": "Point", "coordinates": [-76.3939990734, 40.1627666639]}, "type": "Feature", "properties": {"collection_times": [{"days": "Mon-Fri", "time": "5:00pm"}, {"days": "Sat", "time": "3:00pm"}, {"days": "Sun", "time": "Closed"}], "id": "1754500052", "name": "USPS COLLECTION BOX - PO LOBBY", "address": {"city": "MANHEIM", "state": "PA", "street": "47 S MAIN ST", "postcode": "17545"}}},
{"geometry": {"type": "Point", "coordinates": [-76.5524410483, 40.0576915168]}, "type": "Feature", "properties": {"collection_times": [{"days": "Mon-Fri", "time": "4:30pm"}, {"days": "Sat", "time": "11:30am"}, {"days": "Sun", "time": "Closed"}], "id": "1754700008", "name": "USPS COLLECTION BOX - BLUE BOX", "address": {"city": "MARIETTA", "state": "PA", "street": "16 N NEW HAVEN ST", "postcode": "17547"}}},
{"geometry": {"type": "Point", "coordinates": [-76.5524410483, 40.0576915168]}, "type": "Feature", "properties": {"collection_times": [{"days": "Mon-Fri", "time": "4:30pm"}, {"days": "Sat", "time": "11:30am"}, {"days": "Sun", "time": "Closed"}], "id": "1754700009", "name": "USPS COLLECTION BOX - BLUE BOX", "address": {"city": "MARIETTA", "state": "PA", "street": "16 N NEW HAVEN ST", "postcode": "17547"}}},
{"geometry": {"type": "Point", "coordinates": [-76.5524410483, 40.0576915168]}, "type": "Feature", "properties": {"collection_times": [{"days": "Mon-Fri", "time": "4:30pm"}, {"days": "Sat", "time": "11:30am"}, {"days": "Sun", "time": "Closed"}], "id": "1754700010", "name": "USPS COLLECTION BOX - PO LOBBY", "address": {"city": "MARIETTA", "state": "PA", "street": "16 N NEW HAVEN ST", "postcode": "17547"}}},
{"geometry": {"type": "Point", "coordinates": [-76.5824763764, 40.0752170539]}, "type": "Feature", "properties": {"collection_times": [{"days": "Mon-Fri", "time": "4:15pm"}, {"days": "Sat", "time": "10:30am"}, {"days": "Sun", "time": "Closed"}], "id": "1755000002", "name": "USPS COLLECTION BOX - BLUE BOX", "address": {"city": "MAYTOWN", "state": "PA", "street": "1 W HIGH ST", "postcode": "17550"}}},
{"geometry": {"type": "Point", "coordinates": [-76.5824763764, 40.0752170539]}, "type": "Feature", "properties": {"collection_times": [{"days": "Mon-Fri", "time": "4:15pm"}, {"days": "Sat", "time": "10:30am"}, {"days": "Sun", "time": "Closed"}], "id": "1755000003", "name": "USPS COLLECTION BOX - PO LOBBY", "address": {"city": "MAYTOWN", "state": "PA", "street": "1 W HIGH ST", "postcode": "17550"}}},
{"geometry": {"type": "Point", "coordinates": [-76.3455817459, 40.0103234739]}, "type": "Feature", "properties": {"collection_times": [{"days": "Mon-Sat", "time": "11:00am"}, {"days": "Sun", "time": "Closed"}], "id": "1755100010", "name": "USPS COLLECTION BOX - BLUE BOX", "address": {"city": "MILLERSVILLE", "state": "PA", "street": "101 WABANK RD", "postcode": "17551"}}},
{"geometry": {"type": "Point", "coordinates": [-76.3571794756, 40.009139332]}, "type": "Feature", "properties": {"collection_times": [{"days": "Mon-Sat", "time": "9:15am"}, {"days": "Sun", "time": "Closed"}], "id": "1755100015", "name": "USPS COLLECTION BOX - BLUE BOX", "address": {"city": "MILLERSVILLE", "state": "PA", "street": "25 MANOR AVE", "postcode": "17551"}}},
{"geometry": {"type": "Point", "coordinates": [-76.3578348348, 40.0063475489]}, "type": "Feature", "properties": {"collection_times": [{"days": "Mon-Fri", "time": "4:30pm"}, {"days": "Sat", "time": "11:30am"}, {"days": "Sun", "time": "Closed"}], "id": "1755100025", "name": "USPS COLLECTION BOX - PO LOBBY", "address": {"city": "MILLERSVILLE", "state": "PA", "street": "431 N GEORGE ST", "postcode": "17551"}}},
{"geometry": {"type": "Point", "coordinates": [-76.3578348348, 40.0063475489]}, "type": "Feature", "properties": {"collection_times": [{"days": "Mon-Fri", "time": "4:30pm"}, {"days": "Sat", "time": "11:30am"}, {"days": "Sun", "time": "Closed"}], "id": "1755100029", "name": "USPS COLLECTION BOX - BLUE BOX", "address": {"city": "MILLERSVILLE", "state": "PA", "street": "431 N GEORGE ST", "postcode": "17551"}}},
{"geometry": {"type": "Point", "coordinates": [-76.5152488184, 40.1127062064]}, "type": "Feature", "properties": {"collection_times": [{"days": "Mon-Sat", "time": "9:00am"}, {"days": "Sun", "time": "Closed"}], "id": "1755200022", "name": "USPS COLLECTION BOX - BLUE BOX", "address": {"city": "MOUNT JOY", "state": "PA", "street": "441 W MAIN ST", "postcode": "17552"}}},
{"geometry": {"type": "Point", "coordinates": [-76.503084925, 40.10986821]}, "type": "Feature", "properties": {"collection_times": [{"days": "Mon-Fri", "time": "4:45pm"}, {"days": "Sat", "time": "3:00pm"}, {"days": "Sun", "time": "Closed"}], "id": "1755200032", "name": "USPS COLLECTION BOX - BLUE BOX", "address": {"city": "MOUNT JOY", "state": "PA", "street": "1 E MAIN ST", "postcode": "17552"}}},
{"geometry": {"type": "Point", "coordinates": [-76.4986128665, 40.1092425026]}, "type": "Feature", "properties": {"collection_times": [{"days": "Mon-Sat", "time": "8:30am"}, {"days": "Sun", "time": "Closed"}], "id": "1755200034", "name": "USPS COLLECTION BOX - BLUE BOX", "address": {"city": "MOUNT JOY", "state": "PA", "street": "101 E MAIN ST", "postcode": "17552"}}},
{"geometry": {"type": "Point", "coordinates": [-76.5035753793, 40.1099262529]}, "type": "Feature", "properties": {"collection_times": [{"days": "Mon-Fri", "time": "4:45pm"}, {"days": "Sat", "time": "3:00pm"}, {"days": "Sun", "time": "Closed"}], "id": "1755200052", "name": "USPS COLLECTION BOX - PO LOBBY", "address": {"city": "MOUNT JOY", "state": "PA", "street": "1 E MAIN ST", "postcode": "17552"}}},
{"geometry": {"type": "Point", "coordinates": [-76.4242177601, 40.038140754]}, "type": "Feature", "properties": {"collection_times": [{"days": "Mon-Fri", "time": "4:30pm"}, {"days": "Sat", "time": "12:30pm"}, {"days": "Sun", "time": "Closed"}], "id": "1755400001", "name": "USPS COLLECTION BOX - BLUE BOX", "address": {"city": "MOUNTVILLE", "state": "PA", "street": "6 S BRIDGE ST", "postcode": "17554"}}},
{"geometry": {"type": "Point", "coordinates": [-76.4279866674, 40.0396478437]}, "type": "Feature", "properties": {"collection_times": [{"days": "Mon-Sat", "time": "10:00am"}, {"days": "Sun", "time": "Closed"}], "id": "1755400002", "name": "USPS COLLECTION BOX - BLUE BOX", "address": {"city": "MOUNTVILLE", "state": "PA", "street": "2 COLLEGE AVE", "postcode": "17554"}}},
{"geometry": {"type": "Point", "coordinates": [-76.4273487954, 40.0402113779]}, "type": "Feature", "properties": {"collection_times": [{"days": "Mon-Sat", "time": "10:00am"}, {"days": "Sun", "time": "Closed"}], "id": "1755400003", "name": "USPS COLLECTION BOX - BLUE BOX", "address": {"city": "MOUNTVILLE", "state": "PA", "street": "10 APPLE LN", "postcode": "17554"}}},
{"geometry": {"type": "Point", "coordinates": [-76.4242177601, 40.038140754]}, "type": "Feature", "properties": {"collection_times": [{"days": "Mon-Fri", "time": "4:30pm"}, {"days": "Sat", "time": "12:30pm"}, {"days": "Sun", "time": "Closed"}], "id": "1755400004", "name": "USPS COLLECTION BOX - PO LOBBY", "address": {"city": "MOUNTVILLE", "state": "PA", "street": "6 S BRIDGE ST", "postcode": "17554"}}},
{"geometry": {"type": "Point", "coordinates": [-76.4260866393, 40.039900384]}, "type": "Feature", "properties": {"collection_times": [{"days": "Mon-Fri", "time": "1:15pm"}, {"days": "Sat", "time": "1:30pm"}, {"days": "Sun", "time": "Closed"}], "id": "1755400005", "name": "USPS COLLECTION BOX - BLUE BOX", "address": {"city": "MOUNTVILLE", "state": "PA", "street": "200 HUNTINGTON DR", "postcode": "17554"}}},
{"geometry": {"type": "Point", "coordinates": [-76.4396932293, 40.0442152483]}, "type": "Feature", "properties": {"collection_times": [{"days": "Mon-Fri", "time": "12:15pm"}, {"days": "Sat", "time": "12:30pm"}, {"days": "Sun", "time": "Closed"}], "id": "1755400006", "name": "USPS COLLECTION BOX - BLUE BOX", "address": {"city": "MOUNTVILLE", "state": "PA", "street": "527 HUNTINGTON DR", "postcode": "17554"}}},
{"geometry": {"type": "Point", "coordinates": [-76.4171822073, 40.0370520351]}, "type": "Feature", "properties": {"collection_times": [{"days": "Mon-Sat", "time": "9:15am"}, {"days": "Sun", "time": "Closed"}], "id": "1755400007", "name": "USPS COLLECTION BOX - BLUE BOX", "address": {"city": "MOUNTVILLE", "state": "PA", "street": "111 OAKRIDGE DR", "postcode": "17554"}}},
{"geometry": {"type": "Point", "coordinates": [-75.9783877343, 40.1080299697]}, "type": "Feature", "properties": {"collection_times": [{"days": "Mon-Fri", "time": "4:15pm"}, {"days": "Sat", "time": "10:30am"}, {"days": "Sun", "time": "Closed"}], "id": "1755500001", "name": "USPS COLLECTION BOX - BLUE BOX", "address": {"city": "NARVON", "state": "PA", "street": "1125 NARVON RD", "postcode": "17555"}}},
{"geometry": {"type": "Point", "coordinates": [-75.9783877343, 40.1080299697]}, "type": "Feature", "properties": {"collection_times": [{"days": "Mon-Fri", "time": "4:15pm"}, {"days": "Sat", "time": "10:30am"}, {"days": "Sun", "time": "Closed"}], "id": "1755500003", "name": "USPS COLLECTION BOX - PO LOBBY", "address": {"city": "NARVON", "state": "PA", "street": "1125 NARVON RD", "postcode": "17555"}}},
{"geometry": {"type": "Point", "coordinates": [-76.0757103246, 40.1052116693]}, "type": "Feature", "properties": {"collection_times": [{"days": "Mon-Sat", "time": "9:00am"}, {"days": "Sun", "time": "Closed"}], "id": "1755700000", "name": "USPS COLLECTION BOX - BLUE BOX", "address": {"city": "NEW HOLLAND", "state": "PA", "street": "504 E MAIN ST", "postcode": "17557"}}},
{"geometry": {"type": "Point", "coordinates": [-76.098648401, 40.1000381846]}, "type": "Feature", "properties": {"collection_times": [{"days": "Mon-Sat", "time": "9:00am"}, {"days": "Sun", "time": "Closed"}], "id": "1755700003", "name": "USPS COLLECTION BOX - BLUE BOX", "address": {"city": "NEW HOLLAND", "state": "PA", "street": "9 OAK AVE", "postcode": "17557"}}},
{"geometry": {"type": "Point", "coordinates": [-76.0904908406, 40.1018998763]}, "type": "Feature", "properties": {"collection_times": [{"days": "Mon-Fri", "time": "1:00pm"}, {"days": "Sat", "time": "9:00am"}, {"days": "Sun", "time": "Closed"}], "id": "1755700004", "name": "USPS COLLECTION BOX - BLUE BOX", "address": {"city": "NEW HOLLAND", "state": "PA", "street": "125 W MAIN ST", "postcode": "17557"}}},
{"geometry": {"type": "Point", "coordinates": [-76.0883082813, 40.1027859126]}, "type": "Feature", "properties": {"collection_times": [{"days": "Mon-Fri", "time": "1:00pm"}, {"days": "Sat", "time": "10:00am"}, {"days": "Sun", "time": "Closed"}], "id": "1755700006", "name": "USPS COLLECTION BOX - BLUE BOX", "address": {"city": "NEW HOLLAND", "state": "PA", "street": "121 E MAIN ST", "postcode": "17557"}}},
{"geometry": {"type": "Point", "coordinates": [-76.0666427595, 40.1105048535]}, "type": "Feature", "properties": {"collection_times": [{"days": "Mon-Sat", "time": "11:00am"}, {"days": "Sun", "time": "Closed"}], "id": "1755700008", "name": "USPS COLLECTION BOX - BLUE BOX", "address": {"city": "NEW HOLLAND", "state": "PA", "street": "14 S TOWER RD", "postcode": "17557"}}},
{"geometry": {"type": "Point", "coordinates": [-76.0977944292, 40.1014278757]}, "type": "Feature", "properties": {"collection_times": [{"days": "Mon-Sat", "time": "1:00pm"}, {"days": "Sun", "time": "Closed"}], "id": "1755700009", "name": "USPS COLLECTION BOX - BLUE BOX", "address": {"city": "NEW HOLLAND", "state": "PA", "street": "332 W BROAD ST", "postcode": "17557"}}},
{"geometry": {"type": "Point", "coordinates": [-76.0979186399, 40.0969669374]}, "type": "Feature", "properties": {"collection_times": [{"days": "Mon-Fri", "time": "5:00pm"}, {"days": "Sat", "time": "2:15pm"}, {"days": "Sun", "time": "Closed"}], "id": "1755700011", "name": "USPS COLLECTION BOX - BLUE BOX", "address": {"city": "NEW HOLLAND", "state": "PA", "street": "150 DILLER AVE", "postcode": "17557"}}},
{"geometry": {"type": "Point", "coordinates": [-76.1098601551, 40.0954046323]}, "type": "Feature", "properties": {"collection_times": [{"days": "Mon-Sat", "time": "11:00am"}, {"days": "Sun", "time": "Closed"}], "id": "1755700012", "name": "USPS COLLECTION BOX - BLUE BOX", "address": {"city": "NEW HOLLAND", "state": "PA", "street": "681 W MAIN ST", "postcode": "17557"}}},
{"geometry": {"type": "Point", "coordinates": [-76.0979186399, 40.0969669374]}, "type": "Feature", "properties": {"collection_times": [{"days": "Mon-Fri", "time": "5:00pm"}, {"days": "Sat", "time": "2:15pm"}, {"days": "Sun", "time": "Closed"}], "id": "1755700016", "name": "USPS COLLECTION BOX - PO LOBBY", "address": {"city": "NEW HOLLAND", "state": "PA", "street": "150 DILLER AVE", "postcode": "17557"}}},
{"geometry": {"type": "Point", "coordinates": [-76.197778121, 39.9237770131]}, "type": "Feature", "properties": {"collection_times": [{"days": "Mon-Fri", "time": "4:15pm"}, {"days": "Sat", "time": "10:15am"}, {"days": "Sun", "time": "Closed"}], "id": "1756000003", "name": "USPS COLLECTION BOX - BLUE BOX", "address": {"city": "NEW PROVIDENCE", "state": "PA", "street": "69 MAIN ST", "postcode": "17560"}}},
{"geometry": {"type": "Point", "coordinates": [-76.1840759073, 39.9067033664]}, "type": "Feature", "properties": {"collection_times": [{"days": "Mon-Sat", "time": "10:30am"}, {"days": "Sun", "time": "Closed"}], "id": "1756000004", "name": "USPS COLLECTION BOX - BLUE BOX", "address": {"city": "NEW PROVIDENCE", "state": "PA", "street": "2319 BEAVER VALLEY PIKE", "postcode": "17560"}}},
{"geometry": {"type": "Point", "coordinates": [-76.197778121, 39.9237770131]}, "type": "Feature", "properties": {"collection_times": [{"days": "Mon-Fri", "time": "1:00pm"}, {"days": "Sat", "time": "10:30am"}, {"days": "Sun", "time": "Closed"}], "id": "1756000005", "name": "USPS COLLECTION BOX - PO LOBBY", "address": {"city": "NEW PROVIDENCE", "state": "PA", "street": "69 MAIN ST", "postcode": "17560"}}},
{"geometry": {"type": "Point", "coordinates": [-76.1284767315, 40.009793898]}, "type": "Feature", "properties": {"collection_times": [{"days": "Mon-Fri", "time": "4:30pm"}, {"days": "Sat", "time": "11:00am"}, {"days": "Sun", "time": "Closed"}], "id": "1756200002", "name": "USPS COLLECTION BOX - BLUE BOX", "address": {"city": "PARADISE", "state": "PA", "street": "1 LEACOCK RD", "postcode": "17562"}}},
{"geometry": {"type": "Point", "coordinates": [-76.1284767315, 40.009793898]}, "type": "Feature", "properties": {"collection_times": [{"days": "Mon-Fri", "time": "4:30pm"}, {"days": "Sat", "time": "11:00am"}, {"days": "Sun", "time": "Closed"}], "id": "1756200003", "name": "USPS COLLECTION BOX - PO LOBBY", "address": {"city": "PARADISE", "state": "PA", "street": "1 LEACOCK RD", "postcode": "17562"}}},
{"geometry": {"type": "Point", "coordinates": [-76.1857468207, 39.8016975406]}, "type": "Feature", "properties": {"collection_times": [{"days": "Mon-Fri", "time": "4:30pm"}, {"days": "Sat", "time": "10:30am"}, {"days": "Sun", "time": "Closed"}], "id": "1756300001", "name": "USPS COLLECTION BOX - PO LOBBY", "address": {"city": "PEACH BOTTOM", "state": "PA", "street": "1842A LANCASTER PIKE", "postcode": "17563"}}},
{"geometry": {"type": "Point", "coordinates": [-76.1857468207, 39.8016975406]}, "type": "Feature", "properties": {"collection_times": [{"days": "Mon-Fri", "time": "4:15pm"}, {"days": "Sat", "time": "10:30am"}, {"days": "Sun", "time": "Closed"}], "id": "1756300002", "name": "USPS COLLECTION BOX - BLUE BOX", "address": {"city": "PEACH BOTTOM", "state": "PA", "street": "1842A LANCASTER PIKE", "postcode": "17563"}}},
{"geometry": {"type": "Point", "coordinates": [-76.3659092901, 40.2044741743]}, "type": "Feature", "properties": {"collection_times": [{"days": "Mon-Fri", "time": "4:00pm"}, {"days": "Sat", "time": "10:00am"}, {"days": "Sun", "time": "Closed"}], "id": "1756400002", "name": "USPS COLLECTION BOX - BLUE BOX", "address": {"city": "PENRYN", "state": "PA", "street": "1275 NEWPORT RD", "postcode": "17564"}}},
{"geometry": {"type": "Point", "coordinates": [-76.3659092901, 40.2044741743]}, "type": "Feature", "properties": {"collection_times": [{"days": "Mon-Fri", "time": "11:45am"}, {"days": "Sat", "time": "10:00am"}, {"days": "Sun", "time": "Closed"}], "id": "1756400003", "name": "USPS COLLECTION BOX - PO LOBBY", "address": {"city": "PENRYN", "state": "PA", "street": "1275 NEWPORT RD", "postcode": "17564"}}},
{"geometry": {"type": "Point", "coordinates": [-76.3057196934, 39.9241189575]}, "type": "Feature", "properties": {"collection_times": [{"days": "Mon-Fri", "time": "4:15pm"}, {"days": "Sat", "time": "9:45am"}, {"days": "Sun", "time": "Closed"}], "id": "1756500001", "name": "USPS COLLECTION BOX - PO LOBBY", "address": {"city": "PEQUEA", "state": "PA", "street": "735 MARTICVILLE RD", "postcode": "17565"}}},
{"geometry": {"type": "Point", "coordinates": [-76.3057196934, 39.9241189575]}, "type": "Feature", "properties": {"collection_times": [{"days": "Mon-Fri", "time": "4:15pm"}, {"days": "Sat", "time": "9:45am"}, {"days": "Sun", "time": "Closed"}], "id": "1756500002", "name": "USPS COLLECTION BOX - BLUE BOX", "address": {"city": "PEQUEA", "state": "PA", "street": "735 MARTICVILLE RD", "postcode": "17565"}}},
{"geometry": {"type": "Point", "coordinates": [-76.1695988555, 39.8939841916]}, "type": "Feature", "properties": {"collection_times": [{"days": "Mon-Fri", "time": "2:00pm"}, {"days": "Sat", "time": "9:00am"}, {"days": "Sun", "time": "Closed"}], "id": "1756600003", "name": "USPS COLLECTION BOX - BLUE BOX", "address": {"city": "QUARRYVILLE", "state": "PA", "street": "315 W 4TH ST", "postcode": "17566"}}},
{"geometry": {"type": "Point", "coordinates": [-76.2263039934, 39.8696235176]}, "type": "Feature", "properties": {"collection_times": [{"days": "Mon-Fri", "time": "9:30am"}, {"days": "Sat", "time": "8:45am"}, {"days": "Sun", "time": "Closed"}], "id": "1756600004", "name": "USPS COLLECTION BOX - BLUE BOX", "address": {"city": "QUARRYVILLE", "state": "PA", "street": "35 FRIENDLY DR", "postcode": "17566"}}},
{"geometry": {"type": "Point", "coordinates": [-76.1685188139, 39.8956356023]}, "type": "Feature", "properties": {"collection_times": [{"days": "Mon-Fri", "time": "4:45pm"}, {"days": "Sat", "time": "11:00am"}, {"days": "Sun", "time": "Closed"}], "id": "1756600007", "name": "USPS COLLECTION BOX - BLUE BOX", "address": {"city": "QUARRYVILLE", "state": "PA", "street": "220 W STATE ST", "postcode": "17566"}}},
{"geometry": {"type": "Point", "coordinates": [-76.1618682186, 39.8977270737]}, "type": "Feature", "properties": {"collection_times": [{"days": "Mon-Fri", "time": "2:00pm"}, {"days": "Sat", "time": "9:00am"}, {"days": "Sun", "time": "Closed"}], "id": "1756600009", "name": "USPS COLLECTION BOX - BLUE BOX", "address": {"city": "QUARRYVILLE", "state": "PA", "street": "29 E STATE ST", "postcode": "17566"}}},
{"geometry": {"type": "Point", "coordinates": [-76.1734463068, 39.8945788099]}, "type": "Feature", "properties": {"collection_times": [{"days": "Mon-Fri", "time": "12:00pm"}, {"days": "Sat", "time": "9:00am"}, {"days": "Sun", "time": "Closed"}], "id": "1756600010", "name": "USPS COLLECTION BOX - BLUE BOX", "address": {"city": "QUARRYVILLE", "state": "PA", "street": "112 TOWNS EDGE DR", "postcode": "17566"}}},
{"geometry": {"type": "Point", "coordinates": [-76.1685188139, 39.8956356023]}, "type": "Feature", "properties": {"collection_times": [{"days": "Mon-Fri", "time": "4:45pm"}, {"days": "Sat", "time": "11:00am"}, {"days": "Sun", "time": "Closed"}], "id": "1756600012", "name": "USPS COLLECTION BOX - BLUE BOX", "address": {"city": "QUARRYVILLE", "state": "PA", "street": "220 W STATE ST", "postcode": "17566"}}},
{"geometry": {"type": "Point", "coordinates": [-76.1685188139, 39.8956356023]}, "type": "Feature", "properties": {"collection_times": [{"days": "Mon-Fri", "time": "4:45pm"}, {"days": "Sat", "time": "11:00am"}, {"days": "Sun", "time": "Closed"}], "id": "1756600017", "name": "USPS COLLECTION BOX - PO LOBBY", "address": {"city": "QUARRYVILLE", "state": "PA", "street": "220 W STATE ST", "postcode": "17566"}}},
{"geometry": {"type": "Point", "coordinates": [-76.1622479484, 39.8871999219]}, "type": "Feature", "properties": {"collection_times": [{"days": "Mon-Sat", "time": "9:00am"}, {"days": "Sun", "time": "Closed"}], "id": "1756600018", "name": "USPS COLLECTION BOX - BLUE BOX", "address": {"city": "QUARRYVILLE", "state": "PA", "street": "625 ROBERT FULTON HWY", "postcode": "17566"}}},
{"geometry": {"type": "Point", "coordinates": [-76.1229124212, 40.2122030067]}, "type": "Feature", "properties": {"collection_times": [{"days": "Mon-Fri", "time": "4:15pm"}, {"days": "Sat", "time": "11:30am"}, {"days": "Sun", "time": "Closed"}], "id": "1756700001", "name": "USPS COLLECTION BOX - BLUE BOX", "address": {"city": "REAMSTOWN", "state": "PA", "street": "14 N REAMSTOWN RD", "postcode": "17567"}}},
{"geometry": {"type": "Point", "coordinates": [-76.1229124212, 40.2122030067]}, "type": "Feature", "properties": {"collection_times": [{"days": "Mon-Fri", "time": "4:15pm"}, {"days": "Sat", "time": "11:30am"}, {"days": "Sun", "time": "Closed"}], "id": "1756700002", "name": "USPS COLLECTION BOX - PO LOBBY", "address": {"city": "REAMSTOWN", "state": "PA", "street": "14 N REAMSTOWN RD", "postcode": "17567"}}},
{"geometry": {"type": "Point", "coordinates": [-76.2296815815, 39.9477539512]}, "type": "Feature", "properties": {"collection_times": [{"days": "Mon-Fri", "time": "4:45pm"}, {"days": "Sat", "time": "11:15am"}, {"days": "Sun", "time": "Closed"}], "id": "1756800001", "name": "USPS COLLECTION BOX - BLUE BOX", "address": {"city": "REFTON", "state": "PA", "street": "45 REFTON RD", "postcode": "17568"}}},
{"geometry": {"type": "Point", "coordinates": [-76.2296815815, 39.9477539512]}, "type": "Feature", "properties": {"collection_times": [{"days": "Mon-Fri", "time": "4:45pm"}, {"days": "Sat", "time": "11:15am"}, {"days": "Sun", "time": "Closed"}], "id": "1756800002", "name": "USPS COLLECTION BOX - PO LOBBY", "address": {"city": "REFTON", "state": "PA", "street": "45 REFTON RD", "postcode": "17568"}}},
{"geometry": {"type": "Point", "coordinates": [-76.100447962, 40.2662733239]}, "type": "Feature", "properties": {"collection_times": [{"days": "Mon-Fri", "time": "4:15pm"}, {"days": "Sat", "time": "10:45am"}, {"days": "Sun", "time": "Closed"}], "id": "1756900001", "name": "USPS COLLECTION BOX - BLUE BOX", "address": {"city": "REINHOLDS", "state": "PA", "street": "110B MECHANIC ST", "postcode": "17569"}}},
{"geometry": {"type": "Point", "coordinates": [-76.100447962, 40.2662733239]}, "type": "Feature", "properties": {"collection_times": [{"days": "Mon-Fri", "time": "4:15pm"}, {"days": "Sat", "time": "10:45am"}, {"days": "Sun", "time": "Closed"}], "id": "1756900003", "name": "USPS COLLECTION BOX - PO LOBBY", "address": {"city": "REINHOLDS", "state": "PA", "street": "110B MECHANIC ST", "postcode": "17569"}}},
{"geometry": {"type": "Point", "coordinates": [-76.5705913376, 40.1297847909]}, "type": "Feature", "properties": {"collection_times": [{"days": "Mon-Fri", "time": "4:45pm"}, {"days": "Sat", "time": "11:45am"}, {"days": "Sun", "time": "Closed"}], "id": "1757000002", "name": "USPS COLLECTION BOX - BLUE BOX", "address": {"city": "RHEEMS", "state": "PA", "street": "119 LIME ST", "postcode": "17570"}}},
{"geometry": {"type": "Point", "coordinates": [-76.5705913376, 40.1297847909]}, "type": "Feature", "properties": {"collection_times": [{"days": "Mon-Fri", "time": "4:45pm"}, {"days": "Sat", "time": "11:45am"}, {"days": "Sun", "time": "Closed"}], "id": "1757000004", "name": "USPS COLLECTION BOX - PO LOBBY", "address": {"city": "RHEEMS", "state": "PA", "street": "119 LIME ST", "postcode": "17570"}}},
{"geometry": {"type": "Point", "coordinates": [-76.1653792408, 40.0176388922]}, "type": "Feature", "properties": {"collection_times": [{"days": "Mon-Fri", "time": "4:30pm"}, {"days": "Sat", "time": "10:00am"}, {"days": "Sun", "time": "Closed"}], "id": "1757200003", "name": "USPS COLLECTION BOX - BLUE BOX", "address": {"city": "RONKS", "state": "PA", "street": "9 N RONKS RD", "postcode": "17572"}}},
{"geometry": {"type": "Point", "coordinates": [-76.1823197285, 39.9947947152]}, "type": "Feature", "properties": {"collection_times": [{"days": "Mon-Fri", "time": "5:00pm"}, {"days": "Sat", "time": "4:00pm"}, {"days": "Sun", "time": "Closed"}], "id": "1757200006", "name": "USPS COLLECTION BOX - BLUE BOX", "address": {"city": "RONKS", "state": "PA", "street": "356 HARTMAN BRIDGE RD", "postcode": "17572"}}},
{"geometry": {"type": "Point", "coordinates": [-76.1653792408, 40.0176388922]}, "type": "Feature", "properties": {"collection_times": [{"days": "Mon-Fri", "time": "4:30pm"}, {"days": "Sat", "time": "10:00am"}, {"days": "Sun", "time": "Closed"}], "id": "1757200007", "name": "USPS COLLECTION BOX - PO LOBBY", "address": {"city": "RONKS", "state": "PA", "street": "9 N RONKS RD", "postcode": "17572"}}},
{"geometry": {"type": "Point", "coordinates": [-76.4368917093, 40.0658155026]}, "type": "Feature", "properties": {"collection_times": [{"days": "Mon-Fri", "time": "4:30pm"}, {"days": "Sat", "time": "11:00am"}, {"days": "Sun", "time": "Closed"}], "id": "1757500002", "name": "USPS COLLECTION BOX - BLUE BOX", "address": {"city": "SILVER SPRING", "state": "PA", "street": "3672 MARIETTA AVE", "postcode": "17575"}}},
{"geometry": {"type": "Point", "coordinates": [-76.4368917093, 40.0658155026]}, "type": "Feature", "properties": {"collection_times": [{"days": "Mon-Fri", "time": "4:30pm"}, {"days": "Sat", "time": "11:00am"}, {"days": "Sun", "time": "Closed"}], "id": "1757500003", "name": "USPS COLLECTION BOX - PO LOBBY", "address": {"city": "SILVER SPRING", "state": "PA", "street": "3672 MARIETTA AVE", "postcode": "17575"}}},
{"geometry": {"type": "Point", "coordinates": [-76.1919668433, 40.0362731199]}, "type": "Feature", "properties": {"collection_times": [{"days": "Mon-Fri", "time": "4:30pm"}, {"days": "Sat", "time": "11:00am"}, {"days": "Sun", "time": "Closed"}], "id": "1757600001", "name": "USPS COLLECTION BOX - BLUE BOX", "address": {"city": "SMOKETOWN", "state": "PA", "street": "2433 OLD PHILADELPHIA PIKE", "postcode": "17576"}}},
{"geometry": {"type": "Point", "coordinates": [-76.1919668433, 40.0362731199]}, "type": "Feature", "properties": {"collection_times": [{"days": "Mon-Fri", "time": "4:30pm"}, {"days": "Sat", "time": "11:00am"}, {"days": "Sun", "time": "Closed"}], "id": "1757600003", "name": "USPS COLLECTION BOX - PO LOBBY", "address": {"city": "SMOKETOWN", "state": "PA", "street": "2433 OLD PHILADELPHIA PIKE", "postcode": "17576"}}},
{"geometry": {"type": "Point", "coordinates": [-76.1554956187, 40.2160317572]}, "type": "Feature", "properties": {"collection_times": [{"days": "Mon-Fri", "time": "4:00pm"}, {"days": "Sat", "time": "11:00am"}, {"days": "Sun", "time": "Closed"}], "id": "1757800001", "name": "USPS COLLECTION BOX - BLUE BOX", "address": {"city": "STEVENS", "state": "PA", "street": "16 S LINE RD", "postcode": "17578"}}},
{"geometry": {"type": "Point", "coordinates": [-76.1554956187, 40.2160317572]}, "type": "Feature", "properties": {"collection_times": [{"days": "Mon-Fri", "time": "4:00pm"}, {"days": "Sat", "time": "11:00am"}, {"days": "Sun", "time": "Closed"}], "id": "1757800003", "name": "USPS COLLECTION BOX - PO LOBBY", "address": {"city": "STEVENS", "state": "PA", "street": "16 S LINE RD", "postcode": "17578"}}},
{"geometry": {"type": "Point", "coordinates": [-76.1765832541, 39.9876357522]}, "type": "Feature", "properties": {"collection_times": [{"days": "Mon-Fri", "time": "4:30pm"}, {"days": "Sat", "time": "1:00pm"}, {"days": "Sun", "time": "Closed"}], "id": "1757900007", "name": "USPS COLLECTION BOX - BLUE BOX", "address": {"city": "STRASBURG", "state": "PA", "street": "200 HISTORIC DR", "postcode": "17579"}}},
{"geometry": {"type": "Point", "coordinates": [-76.1765832541, 39.9876357522]}, "type": "Feature", "properties": {"collection_times": [{"days": "Mon-Fri", "time": "4:30pm"}, {"days": "Sat", "time": "1:00pm"}, {"days": "Sun", "time": "Closed"}], "id": "1757900009", "name": "USPS COLLECTION BOX - PO LOBBY", "address": {"city": "STRASBURG", "state": "PA", "street": "200 HISTORIC DR", "postcode": "17579"}}},
{"geometry": {"type": "Point", "coordinates": [-76.2291402624, 40.118199846]}, "type": "Feature", "properties": {"collection_times": [{"days": "Mon-Fri", "time": "4:00pm"}, {"days": "Sat", "time": "10:00am"}, {"days": "Sun", "time": "Closed"}], "id": "1758000002", "name": "USPS COLLECTION BOX - PO LOBBY", "address": {"city": "TALMAGE", "state": "PA", "street": "247 S STATE ST", "postcode": "17580"}}},
{"geometry": {"type": "Point", "coordinates": [-76.0489051011, 40.1567820745]}, "type": "Feature", "properties": {"collection_times": [{"days": "Mon-Fri", "time": "3:30pm"}, {"days": "Sat", "time": "11:30am"}, {"days": "Sun", "time": "Closed"}], "id": "1758100000", "name": "USPS COLLECTION BOX - BLUE BOX", "address": {"city": "TERRE HILL", "state": "PA", "street": "104 W MAIN ST", "postcode": "17581"}}},
{"geometry": {"type": "Point", "coordinates": [-76.0489051011, 40.1567820745]}, "type": "Feature", "properties": {"collection_times": [{"days": "Mon-Fri", "time": "3:30pm"}, {"days": "Sat", "time": "11:30am"}, {"days": "Sun", "time": "Closed"}], "id": "1758100002", "name": "USPS COLLECTION BOX - PO LOBBY", "address": {"city": "TERRE HILL", "state": "PA", "street": "104 W MAIN ST", "postcode": "17581"}}},
{"geometry": {"type": "Point", "coordinates": [-76.4706432262, 39.9939594418]}, "type": "Feature", "properties": {"collection_times": [{"days": "Mon-Fri", "time": "4:15pm"}, {"days": "Sat", "time": "10:00am"}, {"days": "Sun", "time": "Closed"}], "id": "1758200001", "name": "USPS COLLECTION BOX - BLUE BOX", "address": {"city": "WASHINGTON BORO", "state": "PA", "street": "10 ELIZABETH ST", "postcode": "17582"}}},
{"geometry": {"type": "Point", "coordinates": [-76.4706432262, 39.9939594418]}, "type": "Feature", "properties": {"collection_times": [{"days": "Mon-Fri", "time": "4:30pm"}, {"days": "Sat", "time": "10:00am"}, {"days": "Sun", "time": "Closed"}], "id": "1758200002", "name": "USPS COLLECTION BOX - PO LOBBY", "address": {"city": "WASHINGTON BORO", "state": "PA", "street": "10 ELIZABETH ST", "postcode": "17582"}}},
{"geometry": {"type": "Point", "coordinates": [-76.288123544, 39.9728450699]}, "type": "Feature", "properties": {"collection_times": [{"days": "Mon-Fri", "time": "3:45pm"}, {"days": "Sat", "time": "11:45am"}, {"days": "Sun", "time": "Closed"}], "id": "1758300000", "name": "USPS COLLECTION BOX - BLUE BOX", "address": {"city": "WILLOW STREET", "state": "PA", "street": "725 MILLWOOD RD", "postcode": "17583"}}},
{"geometry": {"type": "Point", "coordinates": [-76.2743001875, 39.9752582043]}, "type": "Feature", "properties": {"collection_times": [{"days": "Mon-Fri", "time": "4:45pm"}, {"days": "Sat", "time": "11:45am"}, {"days": "Sun", "time": "Closed"}], "id": "1758400002", "name": "USPS COLLECTION BOX - BLUE BOX", "address": {"city": "WILLOW STREET", "state": "PA", "street": "6 VIOLET AVE", "postcode": "17584"}}},
{"geometry": {"type": "Point", "coordinates": [-76.2812005987, 39.9864198927]}, "type": "Feature", "properties": {"collection_times": [{"days": "Mon-Fri", "time": "6:00pm"}, {"days": "Sat", "time": "5:00pm"}, {"days": "Sun", "time": "Closed"}], "id": "1758400003", "name": "USPS COLLECTION BOX - BLUE BOX", "address": {"city": "WILLOW STREET", "state": "PA", "street": "2600 WILLOW STREET PIKE N", "postcode": "17584"}}},
{"geometry": {"type": "Point", "coordinates": [-76.2743001875, 39.9752582043]}, "type": "Feature", "properties": {"collection_times": [{"days": "Mon-Fri", "time": "4:45pm"}, {"days": "Sat", "time": "11:45am"}, {"days": "Sun", "time": "Closed"}], "id": "1758400005", "name": "USPS COLLECTION BOX - PO LOBBY", "address": {"city": "WILLOW STREET", "state": "PA", "street": "6 VIOLET AVE", "postcode": "17584"}}},
{"geometry": {"type": "Point", "coordinates": [-76.2115026372, 40.049040294]}, "type": "Feature", "properties": {"collection_times": [{"days": "Mon-Fri", "time": "12:15pm"}, {"days": "Sat", "time": "11:00am"}, {"days": "Sun", "time": "Closed"}], "id": "1758500001", "name": "USPS COLLECTION BOX - BLUE BOX", "address": {"city": "WITMER", "state": "PA", "street": "407 MOUNT SIDNEY RD", "postcode": "17585"}}},
{"geometry": {"type": "Point", "coordinates": [-76.2115026372, 40.049040294]}, "type": "Feature", "properties": {"collection_times": [{"days": "Mon-Fri", "time": "12:15pm"}, {"days": "Sat", "time": "10:45am"}, {"days": "Sun", "time": "Closed"}], "id": "1758500002", "name": "USPS COLLECTION BOX - PO LOBBY", "address": {"city": "WITMER", "state": "PA", "street": "407 MOUNT SIDNEY RD", "postcode": "17585"}}}
]}
