{"type": "FeatureCollection", "features": [
{"geometry": {"type": "Point", "coordinates": [-76.3983244742, 40.055160918]}, "type": "Feature", "properties": {"collection_times": [{"days": "Mon-Fri", "time": "3:15pm"}, {"days": "Sat", "time": "2:15pm"}, {"days": "Sun", "time": "Closed"}], "id": "1760100001", "name": "USPS COLLECTION BOX - BLUE BOX", "address": {"city": "LANCASTER", "state": "PA", "street": "590 CENTERVILLE RD", "postcode": "17601"}}},
{"geometry": {"type": "Point", "coordinates": [-76.3336054693, 40.0770565551]}, "type": "Feature", "properties": {"collection_times": [{"days": "Mon-Fri", "time": "4:30pm"}, {"days": "Sat", "time": "3:30pm"}, {"days": "Sun", "time": "Closed"}], "id": "1760100006", "name": "USPS COLLECTION BOX - BLUE BOX", "address": {"city": "LANCASTER", "state": "PA", "street": "211 GRANITE RUN DR", "postcode": "17601"}}},
{"geometry": {"type": "Point", "coordinates": [-76.3016087952, 40.0670782962]}, "type": "Feature", "properties": {"collection_times": [{"days": "Mon-Fri", "time": "5:00pm"}, {"days": "Sat", "time": "4:00pm"}, {"days": "Sun", "time": "Closed"}], "id": "1760100009", "name": "USPS COLLECTION BOX - BLUE BOX", "address": {"city": "LANCASTER", "state": "PA", "street": "202 BUTLER AVE", "postcode": "17601"}}},
{"geometry": {"type": "Point", "coordinates": [-76.3075644395, 40.0764608129]}, "type": "Feature", "properties": {"collection_times": [{"days": "Mon-Fri", "time": "5:00pm"}, {"days": "Sat", "time": "4:00pm"}, {"days": "Sun", "time": "Closed"}], "id": "1760100019", "name": "USPS COLLECTION BOX - BLUE BOX", "address": {"city": "LANCASTER", "state": "PA", "street": "1881 SANTA BARBARA DR", "postcode": "17601"}}},
{"geometry": {"type": "Point", "coordinates": [-76.29677865, 40.0548480416]}, "type": "Feature", "properties": {"collection_times": [{"days": "Mon-Fri", "time": "5:00pm"}, {"days": "Sat", "time": "4:00pm"}, {"days": "Sun", "time": "Closed"}], "id": "1760100024", "name": "USPS COLLECTION BOX - BLUE BOX", "address": {"city": "LANCASTER", "state": "PA", "street": "602 JANET AVE", "postcode": "17601"}}},
{"geometry": {"type": "Point", "coordinates": [-76.287460149, 40.0851945108]}, "type": "Feature", "properties": {"collection_times": [{"days": "Mon-Fri", "time": "4:30pm"}, {"days": "Sat", "time": "3:30pm"}, {"days": "Sun", "time": "Closed"}], "id": "1760100043", "name": "USPS COLLECTION BOX - BLUE BOX", "address": {"city": "LANCASTER", "state": "PA", "street": "2211 OREGON PIKE", "postcode": "17601"}}},
{"geometry": {"type": "Point", "coordinates": [-76.3057065651, 40.0634087575]}, "type": "Feature", "properties": {"collection_times": [{"days": "Mon-Fri", "time": "4:30pm"}, {"days": "Sat", "time": "3:30pm"}, {"days": "Sun", "time": "Closed"}], "id": "1760100046", "name": "USPS COLLECTION BOX - BLUE BOX", "address": {"city": "LANCASTER", "state": "PA", "street": "1525 OREGON PIKE", "postcode": "17601"}}},
{"geometry": {"type": "Point", "coordinates": [-76.3435763118, 40.0669963666]}, "type": "Feature", "properties": {"collection_times": [{"days": "Mon-Fri", "time": "5:30pm"}, {"days": "Sat", "time": "4:30pm"}, {"days": "Sun", "time": "Closed"}], "id": "1760100049", "name": "USPS COLLECTION BOX - BLUE BOX", "address": {"city": "LANCASTER", "state": "PA", "street": "878 PLAZA BLVD", "postcode": "17601"}}},
{"geometry": {"type": "Point", "coordinates": [-76.3968074179, 40.0496923483]}, "type": "Feature", "properties": {"collection_times": [{"days": "Mon-Fri", "time": "3:30pm"}, {"days": "Sat", "time": "2:30pm"}, {"days": "Sun", "time": "Closed"}], "id": "1760100052", "name": "USPS COLLECTION BOX - BLUE BOX", "address": {"city": "LANCASTER", "state": "PA", "street": "3002 HEMPLAND RD", "postcode": "17601"}}},
{"geometry": {"type": "Point", "coordinates": [-76.248542439, 40.0502518879]}, "type": "Feature", "properties": {"collection_times": [{"days": "Mon-Fri", "time": "5:30pm"}, {"days": "Sat", "time": "4:30pm"}, {"days": "Sun", "time": "Closed"}], "id": "1760100062", "name": "USPS COLLECTION BOX - BLUE BOX", "address": {"city": "LANCASTER", "state": "PA", "street": "1813 OLDE HOMESTEAD LN", "postcode": "17601"}}},
{"geometry": {"type": "Point", "coordinates": [-76.248542439, 40.0502518879]}, "type": "Feature", "properties": {"collection_times": [{"days": "Mon-Fri", "time": "5:30pm"}, {"days": "Sat", "time": "4:30pm"}, {"days": "Sun", "time": "Closed"}], "id": "1760100063", "name": "USPS COLLECTION BOX - BLUE BOX", "address": {"city": "LANCASTER", "state": "PA", "street": "1813 OLDE HOMESTEAD LN", "postcode": "17601"}}},
{"geometry": {"type": "Point", "coordinates": [-76.287460149, 40.0851945108]}, "type": "Feature", "properties": {"collection_times": [{"days": "Mon-Fri", "time": "4:30pm"}, {"days": "Sat", "time": "3:30pm"}, {"days": "Sun", "time": "Closed"}], "id": "1760100077", "name": "USPS COLLECTION BOX - BLUE BOX", "address": {"city": "LANCASTER", "state": "PA", "street": "2211 OREGON PIKE", "postcode": "17601"}}},
{"geometry": {"type": "Point", "coordinates": [-76.3024427813, 40.0564707032]}, "type": "Feature", "properties": {"collection_times": [{"days": "Mon-Fri", "time": "5:15pm"}, {"days": "Sat", "time": "4:15pm"}, {"days": "Sun", "time": "Closed"}], "id": "1760100082", "name": "USPS COLLECTION BOX - BLUE BOX", "address": {"city": "LANCASTER", "state": "PA", "street": "1301 MARSHALL AVE", "postcode": "17601"}}},
{"geometry": {"type": "Point", "coordinates": [-76.3024427813, 40.0564707032]}, "type": "Feature", "properties": {"collection_times": [{"days": "Mon-Fri", "time": "5:15pm"}, {"days": "Sat", "time": "4:15pm"}, {"days": "Sun", "time": "Closed"}], "id": "1760100083", "name": "USPS COLLECTION BOX - BLUE BOX", "address": {"city": "LANCASTER", "state": "PA", "street": "1301 MARSHALL AVE", "postcode": "17601"}}},
{"geometry": {"type": "Point", "coordinates": [-76.3024427813, 40.0564707032]}, "type": "Feature", "properties": {"collection_times": [{"days": "Mon-Fri", "time": "5:15pm"}, {"days": "Sat", "time": "4:15pm"}, {"days": "Sun", "time": "Closed"}], "id": "1760100084", "name": "USPS COLLECTION BOX - BLUE BOX", "address": {"city": "LANCASTER", "state": "PA", "street": "1301 MARSHALL AVE", "postcode": "17601"}}},
{"geometry": {"type": "Point", "coordinates": [-76.3210873411, 40.0743326602]}, "type": "Feature", "properties": {"collection_times": [{"days": "Mon-Fri", "time": "5:15pm"}, {"days": "Sat", "time": "4:15pm"}, {"days": "Sun", "time": "Closed"}], "id": "1760100085", "name": "USPS COLLECTION BOX - EXPRESS", "address": {"city": "LANCASTER", "state": "PA", "street": "1301 MARSHALL AVE", "postcode": "17601"}}},
{"geometry": {"type": "Point", "coordinates": [-76.3016939683, 40.0720100521]}, "type": "Feature", "properties": {"collection_times": [{"days": "Mon-Fri", "time": "5:00pm"}, {"days": "Sat", "time": "4:00pm"}, {"days": "Sun", "time": "Closed"}], "id": "1760100108", "name": "USPS COLLECTION BOX - BLUE BOX", "address": {"city": "LANCASTER", "state": "PA", "street": "160 N POINTE BLVD", "postcode": "17601"}}},
{"geometry": {"type": "Point", "coordinates": [-76.3035891955, 40.093840801]}, "type": "Feature", "properties": {"collection_times": [{"days": "Mon-Fri", "time": "5:00pm"}, {"days": "Sat", "time": "4:00pm"}, {"days": "Sun", "time": "Closed"}], "id": "1760100110", "name": "USPS COLLECTION BOX - BLUE BOX", "address": {"city": "LANCASTER", "state": "PA", "street": "16 MEADOW LN", "postcode": "17601"}}},
{"geometry": {"type": "Point", "coordinates": [-76.3035891955, 40.093840801]}, "type": "Feature", "properties": {"collection_times": [{"days": "Mon-Fri", "time": "4:45pm"}, {"days": "Sat", "time": "11:00am"}, {"days": "Sun", "time": "Closed"}], "id": "1760100111", "name": "USPS COLLECTION BOX - PO LOBBY", "address": {"city": "LANCASTER", "state": "PA", "street": "16 MEADOW LN", "postcode": "17601"}}},
{"geometry": {"type": "Point", "coordinates": [-76.248542439, 40.0502518879]}, "type": "Feature", "properties": {"collection_times": [{"days": "Mon-Fri", "time": "5:00pm"}, {"days": "Sat", "time": "12:00pm"}, {"days": "Sun", "time": "Closed"}], "id": "1760100112", "name": "USPS COLLECTION BOX - PO LOBBY", "address": {"city": "LANCASTER", "state": "PA", "street": "1813 OLDE HOMESTEAD LN", "postcode": "17601"}}},
{"geometry": {"type": "Point", "coordinates": [-76.2857796213, 40.0545472119]}, "type": "Feature", "properties": {"collection_times": [{"days": "Mon-Fri", "time": "5:00pm"}, {"days": "Sat", "time": "4:00pm"}, {"days": "Sun", "time": "Closed"}], "id": "1760100115", "name": "USPS COLLECTION BOX - BLUE BOX", "address": {"city": "LANCASTER", "state": "PA", "street": "1000 NEW HOLLAND AVE", "postcode": "17601"}}},
{"geometry": {"type": "Point", "coordinates": [-76.3983244742, 40.055160918]}, "type": "Feature", "properties": {"collection_times": [{"days": "Mon-Fri", "time": "3:15pm"}, {"days": "Sat", "time": "2:15pm"}, {"days": "Sun", "time": "Closed"}], "id": "1760100116", "name": "USPS COLLECTION BOX - BLUE BOX", "address": {"city": "LANCASTER", "state": "PA", "street": "590 CENTERVILLE RD", "postcode": "17601"}}},
{"geometry": {"type": "Point", "coordinates": [-76.3163934164, 40.0686587294]}, "type": "Feature", "properties": {"collection_times": [{"days": "Mon-Fri", "time": "5:00pm"}, {"days": "Sat", "time": "4:00pm"}, {"days": "Sun", "time": "Closed"}], "id": "1760100121", "name": "USPS COLLECTION BOX - BLUE BOX", "address": {"city": "LANCASTER", "state": "PA", "street": "1700 FRUITVILLE PIKE", "postcode": "17601"}}},
{"geometry": {"type": "Point", "coordinates": [-76.348507477, 40.0653864529]}, "type": "Feature", "properties": {"collection_times": [{"days": "Mon-Fri", "time": "3:30pm"}, {"days": "Sat", "time": "2:30pm"}, {"days": "Sun", "time": "Closed"}], "id": "1760100122", "name": "USPS COLLECTION BOX - BLUE BOX", "address": {"city": "LANCASTER", "state": "PA", "street": "694 GOOD DR", "postcode": "17601"}}},
{"geometry": {"type": "Point", "coordinates": [-76.248542439, 40.0502518879]}, "type": "Feature", "properties": {"collection_times": [{"days": "Mon-Fri", "time": "5:30pm"}, {"days": "Sat", "time": "4:30pm"}, {"days": "Sun", "time": "Closed"}], "id": "1760100123", "name": "USPS COLLECTION BOX - BLUE BOX", "address": {"city": "LANCASTER", "state": "PA", "street": "1813 OLDE HOMESTEAD LN", "postcode": "17601"}}},
{"geometry": {"type": "Point", "coordinates": [-76.3015562469, 40.0400356566]}, "type": "Feature", "properties": {"collection_times": [{"days": "Mon-Fri", "time": "5:00pm"}, {"days": "Sat", "time": "4:00pm"}, {"days": "Sun", "time": "Closed"}], "id": "1760200026", "name": "USPS COLLECTION BOX - BLUE BOX", "address": {"city": "LANCASTER", "state": "PA", "street": "101 N LIME ST", "postcode": "17602"}}},
{"geometry": {"type": "Point", "coordinates": [-76.3019114905, 40.0411316102]}, "type": "Feature", "properties": {"collection_times": [{"days": "Mon-Fri", "time": "5:00pm"}, {"days": "Sat", "time": "4:00pm"}, {"days": "Sun", "time": "Closed"}], "id": "1760200043", "name": "USPS COLLECTION BOX - BLUE BOX", "address": {"city": "LANCASTER", "state": "PA", "street": "158 N LIME ST", "postcode": "17602"}}},
{"geometry": {"type": "Point", "coordinates": [-76.2876792691, 40.0415057738]}, "type": "Feature", "properties": {"collection_times": [{"days": "Mon-Fri", "time": "1:15pm"}, {"days": "Sat", "time": "12:15pm"}, {"days": "Sun", "time": "Closed"}], "id": "1760200051", "name": "USPS COLLECTION BOX - BLUE BOX", "address": {"city": "LANCASTER", "state": "PA", "street": "899 E ORANGE ST", "postcode": "17602"}}},
{"geometry": {"type": "Point", "coordinates": [-76.3078879414, 40.0425744842]}, "type": "Feature", "properties": {"collection_times": [{"days": "Mon-Fri", "time": "5:00pm"}, {"days": "Sat", "time": "4:00pm"}, {"days": "Sun", "time": "Closed"}], "id": "1760200052", "name": "USPS COLLECTION BOX - BLUE BOX", "address": {"city": "LANCASTER", "state": "PA", "street": "60 E WALNUT ST", "postcode": "17602"}}},
{"geometry": {"type": "Point", "coordinates": [-76.2677536926, 40.0376474601]}, "type": "Feature", "properties": {"collection_times": [{"days": "Mon-Sat", "time": "3:00pm"}, {"days": "Sun", "time": "Closed"}], "id": "1760200053", "name": "USPS COLLECTION BOX - BLUE BOX", "address": {"city": "LANCASTER", "state": "PA", "street": "1643 LINCOLN HWY E", "postcode": "17602"}}},
{"geometry": {"type": "Point", "coordinates": [-76.2821831613, 39.9948363935]}, "type": "Feature", "properties": {"collection_times": [{"days": "Mon-Sat", "time": "12:00pm"}, {"days": "Sun", "time": "Closed"}], "id": "1760200054", "name": "USPS COLLECTION BOX - BLUE BOX", "address": {"city": "LANCASTER", "state": "PA", "street": "100 WILLOW VALLEY SQ", "postcode": "17602"}}},
{"geometry": {"type": "Point", "coordinates": [-76.3038185626, 40.0381573154]}, "type": "Feature", "properties": {"collection_times": [{"days": "Mon-Fri", "time": "5:00pm"}, {"days": "Sat", "time": "4:00pm"}, {"days": "Sun", "time": "Closed"}], "id": "1760200063", "name": "USPS COLLECTION BOX - BLUE BOX", "address": {"city": "LANCASTER", "state": "PA", "street": "46 E KING ST", "postcode": "17602"}}},
{"geometry": {"type": "Point", "coordinates": [-76.3038457706, 40.0394431918]}, "type": "Feature", "properties": {"collection_times": [{"days": "Mon-Fri", "time": "5:00pm"}, {"days": "Sat", "time": "4:00pm"}, {"days": "Sun", "time": "Closed"}], "id": "1760200110", "name": "USPS COLLECTION BOX - BLUE BOX", "address": {"city": "LANCASTER", "state": "PA", "street": "53 N DUKE ST", "postcode": "17602"}}},
{"geometry": {"type": "Point", "coordinates": [-76.3040350441, 40.0403540702]}, "type": "Feature", "properties": {"collection_times": [{"days": "Mon-Fri", "time": "5:00pm"}, {"days": "Sat", "time": "4:00pm"}, {"days": "Sun", "time": "Closed"}], "id": "1760200112", "name": "USPS COLLECTION BOX - BLUE BOX", "address": {"city": "LANCASTER", "state": "PA", "street": "120 N DUKE ST", "postcode": "17602"}}},
{"geometry": {"type": "Point", "coordinates": [-76.3038185626, 40.0381573154]}, "type": "Feature", "properties": {"collection_times": [{"days": "Mon-Fri", "time": "5:00pm"}, {"days": "Sat", "time": "4:00pm"}, {"days": "Sun", "time": "Closed"}], "id": "1760200120", "name": "USPS COLLECTION BOX - BLUE BOX", "address": {"city": "LANCASTER", "state": "PA", "street": "46 E KING ST", "postcode": "17602"}}},
{"geometry": {"type": "Point", "coordinates": [-76.2896478971, 40.051690366]}, "type": "Feature", "properties": {"collection_times": [{"days": "Mon-Sat", "time": "11:00am"}, {"days": "Sun", "time": "Closed"}], "id": "1760200128", "name": "USPS COLLECTION BOX - BLUE BOX", "address": {"city": "LANCASTER", "state": "PA", "street": "798 NEW HOLLAND AVE", "postcode": "17602"}}},
{"geometry": {"type": "Point", "coordinates": [-76.2921780173, 40.0455637605]}, "type": "Feature", "properties": {"collection_times": [{"days": "Mon-Sat", "time": "12:30pm"}, {"days": "Sun", "time": "Closed"}], "id": "1760200146", "name": "USPS COLLECTION BOX - BLUE BOX", "address": {"city": "LANCASTER", "state": "PA", "street": "702 LEHIGH AVE", "postcode": "17602"}}},
{"geometry": {"type": "Point", "coordinates": [-76.3038185626, 40.0381573154]}, "type": "Feature", "properties": {"collection_times": [{"days": "Mon-Fri", "time": "5:00pm"}, {"days": "Sat", "time": "4:00pm"}, {"days": "Sun", "time": "Closed"}], "id": "1760200149", "name": "USPS COLLECTION BOX - BLUE BOX", "address": {"city": "LANCASTER", "state": "PA", "street": "46 E KING ST", "postcode": "17602"}}},
{"geometry": {"type": "Point", "coordinates": [-76.3050942753, 40.0461203823]}, "type": "Feature", "properties": {"collection_times": [{"days": "Mon-Fri", "time": "4:00pm"}, {"days": "Sat", "time": "3:00pm"}, {"days": "Sun", "time": "Closed"}], "id": "1760200150", "name": "USPS COLLECTION BOX - BLUE BOX", "address": {"city": "LANCASTER", "state": "PA", "street": "501 N DUKE ST", "postcode": "17602"}}},
{"geometry": {"type": "Point", "coordinates": [-76.3038457706, 40.0394431918]}, "type": "Feature", "properties": {"collection_times": [{"days": "Mon-Fri", "time": "5:00pm"}, {"days": "Sat", "time": "4:00pm"}, {"days": "Sun", "time": "Closed"}], "id": "1760200153", "name": "USPS COLLECTION BOX - BLUE BOX", "address": {"city": "LANCASTER", "state": "PA", "street": "53 N DUKE ST", "postcode": "17602"}}},
{"geometry": {"type": "Point", "coordinates": [-76.3038457706, 40.0394431918]}, "type": "Feature", "properties": {"collection_times": [{"days": "Mon-Fri", "time": "5:00pm"}, {"days": "Sat", "time": "4:00pm"}, {"days": "Sun", "time": "Closed"}], "id": "1760200154", "name": "USPS COLLECTION BOX - BLUE BOX", "address": {"city": "LANCASTER", "state": "PA", "street": "53 N DUKE ST", "postcode": "17602"}}},
{"geometry": {"type": "Point", "coordinates": [-76.301470389, 40.0391770261]}, "type": "Feature", "properties": {"collection_times": [{"days": "Mon-Fri", "time": "5:00pm"}, {"days": "Sat", "time": "4:00pm"}, {"days": "Sun", "time": "Closed"}], "id": "1760200163", "name": "USPS COLLECTION BOX - BLUE BOX", "address": {"city": "LANCASTER", "state": "PA", "street": "23 N LIME ST", "postcode": "17602"}}},
{"geometry": {"type": "Point", "coordinates": [-76.2230088025, 40.0276923345]}, "type": "Feature", "properties": {"collection_times": [{"days": "Mon-Sat", "time": "9:30am"}, {"days": "Sun", "time": "Closed"}], "id": "1760200164", "name": "USPS COLLECTION BOX - BLUE BOX", "address": {"city": "LANCASTER", "state": "PA", "street": "2210 LINCOLN HWY E", "postcode": "17602"}}},
{"geometry": {"type": "Point", "coordinates": [-76.1974043059, 40.0222133945]}, "type": "Feature", "properties": {"collection_times": [{"days": "Mon-Sat", "time": "10:00am"}, {"days": "Sun", "time": "Closed"}], "id": "1760200165", "name": "USPS COLLECTION BOX - BLUE BOX", "address": {"city": "LANCASTER", "state": "PA", "street": "35 S WILLOWDALE DR", "postcode": "17602"}}},
{"geometry": {"type": "Point", "coordinates": [-76.2282251188, 40.029262647]}, "type": "Feature", "properties": {"collection_times": [{"days": "Mon-Sat", "time": "10:00am"}, {"days": "Sun", "time": "Closed"}], "id": "1760200171", "name": "USPS COLLECTION BOX - BLUE BOX", "address": {"city": "LANCASTER", "state": "PA", "street": "2160 LINCOLN HWY E", "postcode": "17602"}}},
{"geometry": {"type": "Point", "coordinates": [-76.3040350441, 40.0403540702]}, "type": "Feature", "properties": {"collection_times": [{"days": "Mon-Fri", "time": "5:00pm"}, {"days": "Sat", "time": "4:00pm"}, {"days": "Sun", "time": "Closed"}], "id": "1760200173", "name": "USPS COLLECTION BOX - BLUE BOX", "address": {"city": "LANCASTER", "state": "PA", "street": "120 N DUKE ST", "postcode": "17602"}}},
{"geometry": {"type": "Point", "coordinates": [-76.3048961714, 40.039703086]}, "type": "Feature", "properties": {"collection_times": [{"days": "Mon-Fri", "time": "3:30pm"}, {"days": "Sat", "time": "2:30pm"}, {"days": "Sun", "time": "Closed"}], "id": "1760200175", "name": "USPS COLLECTION BOX - BLUE BOX", "address": {"city": "LANCASTER", "state": "PA", "street": "33 E ORANGE ST", "postcode": "17602"}}},
{"geometry": {"type": "Point", "coordinates": [-76.3208929098, 40.0190953538]}, "type": "Feature", "properties": {"collection_times": [{"days": "Mon-Sat", "time": "10:00am"}, {"days": "Sun", "time": "Closed"}], "id": "1760300015", "name": "USPS COLLECTION BOX - BLUE BOX", "address": {"city": "LANCASTER", "state": "PA", "street": "502 MISTY DR", "postcode": "17603"}}},
{"geometry": {"type": "Point", "coordinates": [-76.3070440086, 40.0337649574]}, "type": "Feature", "properties": {"collection_times": [{"days": "Mon-Sat", "time": "10:00am"}, {"days": "Sun", "time": "Closed"}], "id": "1760300028", "name": "USPS COLLECTION BOX - BLUE BOX", "address": {"city": "LANCASTER", "state": "PA", "street": "250 S PRINCE ST", "postcode": "17603"}}},
{"geometry": {"type": "Point", "coordinates": [-76.3215180078, 40.0331669919]}, "type": "Feature", "properties": {"collection_times": [{"days": "Mon-Sat", "time": "10:30am"}, {"days": "Sun", "time": "Closed"}], "id": "1760300038", "name": "USPS COLLECTION BOX - BLUE BOX", "address": {"city": "LANCASTER", "state": "PA", "street": "742 4TH ST", "postcode": "17603"}}},
{"geometry": {"type": "Point", "coordinates": [-76.3355356538, 40.03497707]}, "type": "Feature", "properties": {"collection_times": [{"days": "Mon-Sat", "time": "10:30am"}, {"days": "Sun", "time": "Closed"}], "id": "1760300057", "name": "USPS COLLECTION BOX - BLUE BOX", "address": {"city": "LANCASTER", "state": "PA", "street": "302 ABBEYVILLE RD", "postcode": "17603"}}},
{"geometry": {"type": "Point", "coordinates": [-76.3190680866, 40.0240327854]}, "type": "Feature", "properties": {"collection_times": [{"days": "Mon-Sat", "time": "10:30am"}, {"days": "Sun", "time": "Closed"}], "id": "1760300097", "name": "USPS COLLECTION BOX - BLUE BOX", "address": {"city": "LANCASTER", "state": "PA", "street": "339 EUCLID AVE", "postcode": "17603"}}},
{"geometry": {"type": "Point", "coordinates": [-76.3213015131, 40.0380603128]}, "type": "Feature", "properties": {"collection_times": [{"days": "Mon-Sat", "time": "12:00pm"}, {"days": "Sun", "time": "Closed"}], "id": "1760300099", "name": "USPS COLLECTION BOX - BLUE BOX", "address": {"city": "LANCASTER", "state": "PA", "street": "731 COLUMBIA AVE", "postcode": "17603"}}},
{"geometry": {"type": "Point", "coordinates": [-76.3036257403, 40.0270647092]}, "type": "Feature", "properties": {"collection_times": [{"days": "Mon-Fri", "time": "4:00pm"}, {"days": "Sat", "time": "3:00pm"}, {"days": "Sun", "time": "Closed"}], "id": "1760300113", "name": "USPS COLLECTION BOX - BLUE BOX", "address": {"city": "LANCASTER", "state": "PA", "street": "635 N QUEEN ST", "postcode": "17603"}}},
{"geometry": {"type": "Point", "coordinates": [-76.3176213278, 40.0399625108]}, "type": "Feature", "properties": {"collection_times": [{"days": "Mon-Sat", "time": "12:00pm"}, {"days": "Sun", "time": "Closed"}], "id": "1760300141", "name": "USPS COLLECTION BOX - BLUE BOX", "address": {"city": "LANCASTER", "state": "PA", "street": "559 W CHESTNUT ST", "postcode": "17603"}}},
{"geometry": {"type": "Point", "coordinates": [-76.3153263874, 40.0418741725]}, "type": "Feature", "properties": {"collection_times": [{"days": "Mon-Sat", "time": "11:00am"}, {"days": "Sun", "time": "Closed"}], "id": "1760300144", "name": "USPS COLLECTION BOX - BLUE BOX", "address": {"city": "LANCASTER", "state": "PA", "street": "450 W WALNUT ST", "postcode": "17603"}}},
{"geometry": {"type": "Point", "coordinates": [-76.3158397916, 40.043416751]}, "type": "Feature", "properties": {"collection_times": [{"days": "Mon-Sat", "time": "12:30pm"}, {"days": "Sun", "time": "Closed"}], "id": "1760300156", "name": "USPS COLLECTION BOX - BLUE BOX", "address": {"city": "LANCASTER", "state": "PA", "street": "501 W LEMON ST", "postcode": "17603"}}},
{"geometry": {"type": "Point", "coordinates": [-76.3089529403, 40.0391540016]}, "type": "Feature", "properties": {"collection_times": [{"days": "Mon-Fri", "time": "5:30pm"}, {"days": "Sat", "time": "4:30pm"}, {"days": "Sun", "time": "Closed"}], "id": "1760300185", "name": "USPS COLLECTION BOX - BLUE BOX", "address": {"city": "LANCASTER", "state": "PA", "street": "204 W ORANGE ST", "postcode": "17603"}}},
{"geometry": {"type": "Point", "coordinates": [-76.3267401189, 40.0273998551]}, "type": "Feature", "properties": {"collection_times": [{"days": "Mon-Fri", "time": "4:30pm"}, {"days": "Sat", "time": "3:30pm"}, {"days": "Sun", "time": "Closed"}], "id": "1760300193", "name": "USPS COLLECTION BOX - BLUE BOX", "address": {"city": "LANCASTER", "state": "PA", "street": "1234 MILLERSVILLE PIKE", "postcode": "17603"}}},
{"geometry": {"type": "Point", "coordinates": [-76.3399353955, 40.0382120265]}, "type": "Feature", "properties": {"collection_times": [{"days": "Mon-Fri", "time": "3:45pm"}, {"days": "Sat", "time": "2:45pm"}, {"days": "Sun", "time": "Closed"}], "id": "1760300195", "name": "USPS COLLECTION BOX - BLUE BOX", "address": {"city": "LANCASTER", "state": "PA", "street": "1350 COLUMBIA AVE", "postcode": "17603"}}},
{"geometry": {"type": "Point", "coordinates": [-76.3542521735, 40.0383224343]}, "type": "Feature", "properties": {"collection_times": [{"days": "Mon-Fri", "time": "3:45pm"}, {"days": "Sat", "time": "2:45pm"}, {"days": "Sun", "time": "Closed"}], "id": "1760300196", "name": "USPS COLLECTION BOX - BLUE BOX", "address": {"city": "LANCASTER", "state": "PA", "street": "1805 COLUMBIA AVE", "postcode": "17603"}}},
{"geometry": {"type": "Point", "coordinates": [-76.3632387948, 40.0446161395]}, "type": "Feature", "properties": {"collection_times": [{"days": "Mon-Fri", "time": "5:00pm"}, {"days": "Sat", "time": "4:00pm"}, {"days": "Sun", "time": "Closed"}], "id": "1760300198", "name": "USPS COLLECTION BOX - BLUE BOX", "address": {"city": "LANCASTER", "state": "PA", "street": "153 ROHRERSTOWN RD", "postcode": "17603"}}},
{"geometry": {"type": "Point", "coordinates": [-76.323833545, 40.036790188]}, "type": "Feature", "properties": {"collection_times": [{"days": "Mon-Sat", "time": "11:00am"}, {"days": "Sun", "time": "Closed"}], "id": "1760300200", "name": "USPS COLLECTION BOX - BLUE BOX", "address": {"city": "LANCASTER", "state": "PA", "street": "117 S WEST END AVE", "postcode": "17603"}}},
{"geometry": {"type": "Point", "coordinates": [-76.3155345882, 40.0293028676]}, "type": "Feature", "properties": {"collection_times": [{"days": "Mon-Sat", "time": "1:00pm"}, {"days": "Sun", "time": "Closed"}], "id": "1760300208", "name": "USPS COLLECTION BOX - BLUE BOX", "address": {"city": "LANCASTER", "state": "PA", "street": "237 FAIRVIEW AVE", "postcode": "17603"}}},
{"geometry": {"type": "Point", "coordinates": [-76.3447104748, 40.031899785]}, "type": "Feature", "properties": {"collection_times": [{"days": "Mon-Sat", "time": "10:30am"}, {"days": "Sun", "time": "Closed"}], "id": "1760300211", "name": "USPS COLLECTION BOX - BLUE BOX", "address": {"city": "LANCASTER", "state": "PA", "street": "100 PHEASANT RIDGE CIR", "postcode": "17603"}}},
{"geometry": {"type": "Point", "coordinates": [-76.349989677, 40.0318726159]}, "type": "Feature", "properties": {"collection_times": [{"days": "Mon-Sat", "time": "10:30am"}, {"days": "Sun", "time": "Closed"}], "id": "1760300213", "name": "USPS COLLECTION BOX - BLUE BOX", "address": {"city": "LANCASTER", "state": "PA", "street": "300 PHEASANT RIDGE CIR", "postcode": "17603"}}},
{"geometry": {"type": "Point", "coordinates": [-76.3597808023, 40.0446162714]}, "type": "Feature", "properties": {"collection_times": [{"days": "Mon-Fri", "time": "5:00pm"}, {"days": "Sat", "time": "4:00pm"}, {"days": "Sun", "time": "Closed"}], "id": "1760300217", "name": "USPS COLLECTION BOX - BLUE BOX", "address": {"city": "LANCASTER", "state": "PA", "street": "2137 EMBASSY DR", "postcode": "17603"}}},
{"geometry": {"type": "Point", "coordinates": [-76.3107388725, 40.0463422085]}, "type": "Feature", "properties": {"collection_times": [{"days": "Mon-Sat", "time": "10:00am"}, {"days": "Sun", "time": "Closed"}], "id": "1760300218", "name": "USPS COLLECTION BOX - BLUE BOX", "address": {"city": "LANCASTER", "state": "PA", "street": "217 HARRISBURG AVE", "postcode": "17603"}}},
{"geometry": {"type": "Point", "coordinates": [-76.3147928587, 40.0515581403]}, "type": "Feature", "properties": {"collection_times": [{"days": "Mon-Fri", "time": "4:00pm"}, {"days": "Sat", "time": "3:00pm"}, {"days": "Sun", "time": "Closed"}], "id": "1760300223", "name": "USPS COLLECTION BOX - BLUE BOX", "address": {"city": "LANCASTER", "state": "PA", "street": "313 W LIBERTY ST", "postcode": "17603"}}},
{"geometry": {"type": "Point", "coordinates": [-76.3109868864, 40.040654672]}, "type": "Feature", "properties": {"collection_times": [{"days": "Mon-Sat", "time": "12:30pm"}, {"days": "Sun", "time": "Closed"}], "id": "1760300226", "name": "USPS COLLECTION BOX - BLUE BOX", "address": {"city": "LANCASTER", "state": "PA", "street": "201 N MULBERRY ST", "postcode": "17603"}}},
{"geometry": {"type": "Point", "coordinates": [-76.3632387948, 40.0446161395]}, "type": "Feature", "properties": {"collection_times": [{"days": "Mon-Fri", "time": "5:00pm"}, {"days": "Sat", "time": "12:00pm"}, {"days": "Sun", "time": "Closed"}], "id": "1760300231", "name": "USPS COLLECTION BOX - PO LOBBY", "address": {"city": "LANCASTER", "state": "PA", "street": "153 ROHRERSTOWN RD", "postcode": "17603"}}},
{"geometry": {"type": "Point", "coordinates": [-76.3399353955, 40.0382120265]}, "type": "Feature", "properties": {"collection_times": [{"days": "Mon-Fri", "time": "3:45pm"}, {"days": "Sat", "time": "2:45pm"}, {"days": "Sun", "time": "Closed"}], "id": "1760300235", "name": "USPS COLLECTION BOX - BLUE BOX", "address": {"city": "LANCASTER", "state": "PA", "street": "1350 COLUMBIA AVE", "postcode": "17603"}}},
{"geometry": {"type": "Point", "coordinates": [-76.3076852623, 40.0409189479]}, "type": "Feature", "properties": {"collection_times": [{"days": "Mon-Fri", "time": "5:00pm"}, {"days": "Sat", "time": "2:00pm"}, {"days": "Sun", "time": "Closed"}], "id": "1760300241", "name": "USPS COLLECTION BOX - PO LOBBY", "address": {"city": "LANCASTER", "state": "PA", "street": "48-50 W CHESTNUT ST", "postcode": "17603"}}},
{"geometry": {"type": "Point", "coordinates": [-76.3057910338, 40.0381254132]}, "type": "Feature", "properties": {"collection_times": [{"days": "Mon-Fri", "time": "5:00pm"}, {"days": "Sat", "time": "4:00pm"}, {"days": "Sun", "time": "Closed"}], "id": "1760300244", "name": "USPS COLLECTION BOX - BLUE BOX", "address": {"city": "LANCASTER", "state": "PA", "street": "8 N QUEEN ST", "postcode": "17603"}}},
{"geometry": {"type": "Point", "coordinates": [-76.3070401491, 40.0377408367]}, "type": "Feature", "properties": {"collection_times": [{"days": "Mon-Fri", "time": "5:00pm"}, {"days": "Sat", "time": "4:00pm"}, {"days": "Sun", "time": "Closed"}], "id": "1760300246", "name": "USPS COLLECTION BOX - BLUE BOX", "address": {"city": "LANCASTER", "state": "PA", "street": "44 W KING ST", "postcode": "17603"}}},
{"geometry": {"type": "Point", "coordinates": [-76.3528018269, 40.0458379972]}, "type": "Feature", "properties": {"collection_times": [{"days": "Mon-Sat", "time": "11:00am"}, {"days": "Sun", "time": "Closed"}], "id": "1760300247", "name": "USPS COLLECTION BOX - BLUE BOX", "address": {"city": "LANCASTER", "state": "PA", "street": "1800 VILLAGE CIR", "postcode": "17603"}}},
{"geometry": {"type": "Point", "coordinates": [-76.3344915056, 40.0593985266]}, "type": "Feature", "properties": {"collection_times": [{"days": "Mon-Fri", "time": "7:15pm"}, {"days": "Sat", "time": "6:30pm"}, {"days": "Sun", "time": "Closed"}], "id": "1760400000", "name": "USPS COLLECTION BOX - BLUE BOX", "address": {"city": "LANCASTER", "state": "PA", "street": "1400 HARRISBURG PIKE", "postcode": "17604"}}},
{"geometry": {"type": "Point", "coordinates": [-76.3344915056, 40.0593985266]}, "type": "Feature", "properties": {"collection_times": [{"days": "Mon-Fri", "time": "7:15pm"}, {"days": "Sat", "time": "6:30pm"}, {"days": "Sun", "time": "Closed"}], "id": "1760400005", "name": "USPS COLLECTION BOX - PO LOBBY", "address": {"city": "LANCASTER", "state": "PA", "street": "1400 HARRISBURG PIKE", "postcode": "17604"}}},
{"geometry": {"type": "Point", "coordinates": [-76.3344915056, 40.0593985266]}, "type": "Feature", "properties": {"collection_times": [{"days": "Mon-Fri", "time": "7:15pm"}, {"days": "Sat", "time": "6:30pm"}, {"days": "Sun", "time": "Closed"}], "id": "1760400006", "name": "USPS COLLECTION BOX - APC", "address": {"city": "LANCASTER", "state": "PA", "street": "1400 HARRISBURG PIKE", "postcode": "17604"}}}
]}
