{"type": "FeatureCollection", "features": [
{"geometry": {"type": "Point", "coordinates": [-77.0024457363, 41.2427585147]}, "type": "Feature", "properties": {"collection_times": [{"days": "Mon-Fri", "time": "4:00pm"}, {"days": "Sat", "time": "9:00am"}, {"days": "Sun", "time": "Closed"}], "id": "1770100002", "name": "USPS COLLECTION BOX - BLUE BOX", "address": {"city": "WILLIAMSPORT", "state": "PA", "street": "429 MARKET ST", "postcode": "17701"}}},
{"geometry": {"type": "Point", "coordinates": [-77.0117867954, 41.2563218864]}, "type": "Feature", "properties": {"collection_times": [{"days": "Mon-Fri", "time": "6:00pm"}, {"days": "Sat", "time": "5:30pm"}, {"days": "Sun", "time": "Closed"}], "id": "1770100007", "name": "USPS COLLECTION BOX - EXPRESS", "address": {"city": "WILLIAMSPORT", "state": "PA", "street": "2901 REACH RD", "postcode": "17701"}}},
{"geometry": {"type": "Point", "coordinates": [-76.9745290877, 41.2583771219]}, "type": "Feature", "properties": {"collection_times": [{"days": "Mon-Sat", "time": "10:00am"}, {"days": "Sun", "time": "Closed"}], "id": "1770100011", "name": "USPS COLLECTION BOX - BLUE BOX", "address": {"city": "WILLIAMSPORT", "state": "PA", "street": "1519 LAFAYETTE PKWY", "postcode": "17701"}}},
{"geometry": {"type": "Point", "coordinates": [-76.9847143644, 41.2606566838]}, "type": "Feature", "properties": {"collection_times": [{"days": "Mon-Fri", "time": "4:00pm"}, {"days": "Sat", "time": "9:00am"}, {"days": "Sun", "time": "Closed"}], "id": "1770100012", "name": "USPS COLLECTION BOX - BLUE BOX", "address": {"city": "WILLIAMSPORT", "state": "PA", "street": "1100 GRAMPIAN BLVD", "postcode": "17701"}}},
{"geometry": {"type": "Point", "coordinates": [-77.0145939594, 41.2478357975]}, "type": "Feature", "properties": {"collection_times": [{"days": "Mon-Fri", "time": "4:00pm"}, {"days": "Sat", "time": "2:00pm"}, {"days": "Sun", "time": "Closed"}], "id": "1770100015", "name": "USPS COLLECTION BOX - BLUE BOX", "address": {"city": "WILLIAMSPORT", "state": "PA", "street": "699 RURAL AVE", "postcode": "17701"}}},
{"geometry": {"type": "Point", "coordinates": [-77.0514395564, 41.2325154464]}, "type": "Feature", "properties": {"collection_times": [{"days": "Mon-Fri", "time": "4:15pm"}, {"days": "Sat", "time": "9:00am"}, {"days": "Sun", "time": "Closed"}], "id": "1770100019", "name": "USPS COLLECTION BOX - BLUE BOX", "address": {"city": "WILLIAMSPORT", "state": "PA", "street": "2138 LINCOLN ST", "postcode": "17701"}}},
{"geometry": {"type": "Point", "coordinates": [-76.9699723297, 41.2586468366]}, "type": "Feature", "properties": {"collection_times": [{"days": "Mon-Sat", "time": "10:30am"}, {"days": "Sun", "time": "Closed"}], "id": "1770100020", "name": "USPS COLLECTION BOX - BLUE BOX", "address": {"city": "WILLIAMSPORT", "state": "PA", "street": "1540 NORTHWAY RD", "postcode": "17701"}}},
{"geometry": {"type": "Point", "coordinates": [-77.0006074181, 41.242951337]}, "type": "Feature", "properties": {"collection_times": [{"days": "Mon-Fri", "time": "4:15pm"}, {"days": "Sat", "time": "9:30am"}, {"days": "Sun", "time": "Closed"}], "id": "1770100022", "name": "USPS COLLECTION BOX - BLUE BOX", "address": {"city": "WILLIAMSPORT", "state": "PA", "street": "57 E 4TH ST", "postcode": "17701"}}},
{"geometry": {"type": "Point", "coordinates": [-77.0061779718, 41.2402269825]}, "type": "Feature", "properties": {"collection_times": [{"days": "Mon-Fri", "time": "4:00pm"}, {"days": "Sat", "time": "9:30am"}, {"days": "Sun", "time": "Closed"}], "id": "1770100023", "name": "USPS COLLECTION BOX - BLUE BOX", "address": {"city": "WILLIAMSPORT", "state": "PA", "street": "245 W 4TH ST", "postcode": "17701"}}},
{"geometry": {"type": "Point", "coordinates": [-77.0521099025, 41.2398496186]}, "type": "Feature", "properties": {"collection_times": [{"days": "Mon-Fri", "time": "4:30pm"}, {"days": "Sat", "time": "3:00pm"}, {"days": "Sun", "time": "Closed"}], "id": "1770100024", "name": "USPS COLLECTION BOX - BLUE BOX", "address": {"city": "WILLIAMSPORT", "state": "PA", "street": "1964 W 4TH ST", "postcode": "17701"}}},
{"geometry": {"type": "Point", "coordinates": [-76.9914868044, 41.2293354793]}, "type": "Feature", "properties": {"collection_times": [{"days": "Mon-Fri", "time": "4:30pm"}, {"days": "Sat", "time": "10:30am"}, {"days": "Sun", "time": "Closed"}], "id": "1770100025", "name": "USPS COLLECTION BOX - BLUE BOX", "address": {"city": "WILLIAMSPORT", "state": "PA", "street": "1 E 6TH AVE", "postcode": "17701"}}},
{"geometry": {"type": "Point", "coordinates": [-76.9902529782, 41.2287605613]}, "type": "Feature", "properties": {"collection_times": [{"days": "Mon-Sat", "time": "10:00am"}, {"days": "Sun", "time": "Closed"}], "id": "1770100026", "name": "USPS COLLECTION BOX - BLUE BOX", "address": {"city": "WILLIAMSPORT", "state": "PA", "street": "699 HASTINGS ST", "postcode": "17701"}}},
{"geometry": {"type": "Point", "coordinates": [-76.963709472, 41.2487896901]}, "type": "Feature", "properties": {"collection_times": [{"days": "Mon-Fri", "time": "4:15pm"}, {"days": "Sat", "time": "10:45am"}, {"days": "Sun", "time": "Closed"}], "id": "1770100028", "name": "USPS COLLECTION BOX - BLUE BOX", "address": {"city": "WILLIAMSPORT", "state": "PA", "street": "1915 E 3RD ST", "postcode": "17701"}}},
{"geometry": {"type": "Point", "coordinates": [-76.9946169139, 41.2333539909]}, "type": "Feature", "properties": {"collection_times": [{"days": "Mon-Sat", "time": "9:30am"}, {"days": "Sun", "time": "Closed"}], "id": "1770100030", "name": "USPS COLLECTION BOX - BLUE BOX", "address": {"city": "WILLIAMSPORT", "state": "PA", "street": "309 S MARKET ST", "postcode": "17701"}}},
{"geometry": {"type": "Point", "coordinates": [-77.0081550511, 41.2284320138]}, "type": "Feature", "properties": {"collection_times": [{"days": "Mon-Fri", "time": "4:45pm"}, {"days": "Sat", "time": "3:00pm"}, {"days": "Sun", "time": "Closed"}], "id": "1770100031", "name": "USPS COLLECTION BOX - BLUE BOX", "address": {"city": "WILLIAMSPORT", "state": "PA", "street": "1223 W SOUTHERN AVE", "postcode": "17701"}}},
{"geometry": {"type": "Point", "coordinates": [-77.0023842224, 41.2421197169]}, "type": "Feature", "properties": {"collection_times": [{"days": "Mon-Sat", "time": "9:00am"}, {"days": "Sun", "time": "Closed"}], "id": "1770100034", "name": "USPS COLLECTION BOX - BLUE BOX", "address": {"city": "WILLIAMSPORT", "state": "PA", "street": "10 E 4TH ST", "postcode": "17701"}}},
{"geometry": {"type": "Point", "coordinates": [-77.0021216055, 41.2406067123]}, "type": "Feature", "properties": {"collection_times": [{"days": "Mon-Fri", "time": "4:00pm"}, {"days": "Sat", "time": "8:30am"}, {"days": "Sun", "time": "Closed"}], "id": "1770100035", "name": "USPS COLLECTION BOX - BLUE BOX", "address": {"city": "WILLIAMSPORT", "state": "PA", "street": "48 W 3RD ST", "postcode": "17701"}}},
{"geometry": {"type": "Point", "coordinates": [-77.0048980102, 41.240876427]}, "type": "Feature", "properties": {"collection_times": [{"days": "Mon-Fri", "time": "4:00pm"}, {"days": "Sat", "time": "9:30am"}, {"days": "Sun", "time": "Closed"}], "id": "1770100036", "name": "USPS COLLECTION BOX - BLUE BOX", "address": {"city": "WILLIAMSPORT", "state": "PA", "street": "153 W 4TH ST", "postcode": "17701"}}},
{"geometry": {"type": "Point", "coordinates": [-77.00288698, 41.2432648211]}, "type": "Feature", "properties": {"collection_times": [{"days": "Mon-Fri", "time": "4:00pm"}, {"days": "Sat", "time": "10:00am"}, {"days": "Sun", "time": "Closed"}], "id": "1770100037", "name": "USPS COLLECTION BOX - BLUE BOX", "address": {"city": "WILLIAMSPORT", "state": "PA", "street": "460 MARKET ST", "postcode": "17701"}}},
{"geometry": {"type": "Point", "coordinates": [-77.0528539837, 41.2397407864]}, "type": "Feature", "properties": {"collection_times": [{"days": "Mon-Sat", "time": "10:00am"}, {"days": "Sun", "time": "Closed"}], "id": "1770100038", "name": "USPS COLLECTION BOX - BLUE BOX", "address": {"city": "WILLIAMSPORT", "state": "PA", "street": "2001 W 4TH ST", "postcode": "17701"}}},
{"geometry": {"type": "Point", "coordinates": [-77.0564158732, 41.2391918934]}, "type": "Feature", "properties": {"collection_times": [{"days": "Mon-Sat", "time": "9:00am"}, {"days": "Sun", "time": "Closed"}], "id": "1770100039", "name": "USPS COLLECTION BOX - BLUE BOX", "address": {"city": "WILLIAMSPORT", "state": "PA", "street": "2205 W 4TH ST", "postcode": "17701"}}},
{"geometry": {"type": "Point", "coordinates": [-77.0072887703, 41.2489714152]}, "type": "Feature", "properties": {"collection_times": [{"days": "Mon-Sat", "time": "9:00am"}, {"days": "Sun", "time": "Closed"}], "id": "1770100050", "name": "USPS COLLECTION BOX - BLUE BOX", "address": {"city": "WILLIAMSPORT", "state": "PA", "street": "901 HEPBURN ST", "postcode": "17701"}}},
{"geometry": {"type": "Point", "coordinates": [-77.0036310612, 41.2516188773]}, "type": "Feature", "properties": {"collection_times": [{"days": "Mon-Sat", "time": "12:30pm"}, {"days": "Sun", "time": "Closed"}], "id": "1770100051", "name": "USPS COLLECTION BOX - BLUE BOX", "address": {"city": "WILLIAMSPORT", "state": "PA", "street": "85 ELDRED ST", "postcode": "17701"}}},
{"geometry": {"type": "Point", "coordinates": [-76.9671737645, 41.2534856874]}, "type": "Feature", "properties": {"collection_times": [{"days": "Mon-Sat", "time": "10:00am"}, {"days": "Sun", "time": "Closed"}], "id": "1770100054", "name": "USPS COLLECTION BOX - BLUE BOX", "address": {"city": "WILLIAMSPORT", "state": "PA", "street": "1225 CLAYTON AVE", "postcode": "17701"}}},
{"geometry": {"type": "Point", "coordinates": [-77.0329518821, 41.2430589863]}, "type": "Feature", "properties": {"collection_times": [{"days": "Mon-Sat", "time": "1:00pm"}, {"days": "Sun", "time": "Closed"}], "id": "1770100058", "name": "USPS COLLECTION BOX - BLUE BOX", "address": {"city": "WILLIAMSPORT", "state": "PA", "street": "1307 PARK AVE", "postcode": "17701"}}},
{"geometry": {"type": "Point", "coordinates": [-77.0264491567, 41.2413401469]}, "type": "Feature", "properties": {"collection_times": [{"days": "Mon-Sat", "time": "9:00am"}, {"days": "Sun", "time": "Closed"}], "id": "1770100062", "name": "USPS COLLECTION BOX - BLUE BOX", "address": {"city": "WILLIAMSPORT", "state": "PA", "street": "1061 MEMORIAL AVE", "postcode": "17701"}}},
{"geometry": {"type": "Point", "coordinates": [-76.987320423, 41.2481492587]}, "type": "Feature", "properties": {"collection_times": [{"days": "Mon-Sat", "time": "10:00am"}, {"days": "Sun", "time": "Closed"}], "id": "1770100065", "name": "USPS COLLECTION BOX - BLUE BOX", "address": {"city": "WILLIAMSPORT", "state": "PA", "street": "836 WASHINGTON BLVD", "postcode": "17701"}}},
{"geometry": {"type": "Point", "coordinates": [-77.0363142097, 41.2227502397]}, "type": "Feature", "properties": {"collection_times": [{"days": "Mon-Sat", "time": "9:00am"}, {"days": "Sun", "time": "Closed"}], "id": "1770100068", "name": "USPS COLLECTION BOX - BLUE BOX", "address": {"city": "WILLIAMSPORT", "state": "PA", "street": "2687 EUCLID AVE", "postcode": "17701"}}},
{"geometry": {"type": "Point", "coordinates": [-76.9579250756, 41.2566819417]}, "type": "Feature", "properties": {"collection_times": [{"days": "Mon-Sat", "time": "12:00pm"}, {"days": "Sun", "time": "Closed"}], "id": "1770100072", "name": "USPS COLLECTION BOX - BLUE BOX", "address": {"city": "WILLIAMSPORT", "state": "PA", "street": "2409 LINCOLN DR", "postcode": "17701"}}},
{"geometry": {"type": "Point", "coordinates": [-76.9642704675, 41.2563720065]}, "type": "Feature", "properties": {"collection_times": [{"days": "Mon-Sat", "time": "10:00am"}, {"days": "Sun", "time": "Closed"}], "id": "1770100073", "name": "USPS COLLECTION BOX - BLUE BOX", "address": {"city": "WILLIAMSPORT", "state": "PA", "street": "2072 LINCOLN DR", "postcode": "17701"}}},
{"geometry": {"type": "Point", "coordinates": [-77.0104443879, 41.2418294599]}, "type": "Feature", "properties": {"collection_times": [{"days": "Mon-Sat", "time": "9:00am"}, {"days": "Sun", "time": "Closed"}], "id": "1770100076", "name": "USPS COLLECTION BOX - BLUE BOX", "address": {"city": "WILLIAMSPORT", "state": "PA", "street": "505 CENTER ST", "postcode": "17701"}}},
{"geometry": {"type": "Point", "coordinates": [-76.9811418283, 41.2572036266]}, "type": "Feature", "properties": {"collection_times": [{"days": "Mon-Sat", "time": "9:30am"}, {"days": "Sun", "time": "Closed"}], "id": "1770100078", "name": "USPS COLLECTION BOX - BLUE BOX", "address": {"city": "WILLIAMSPORT", "state": "PA", "street": "1528 WARREN AVE", "postcode": "17701"}}},
{"geometry": {"type": "Point", "coordinates": [-77.0341478536, 41.2410858107]}, "type": "Feature", "properties": {"collection_times": [{"days": "Mon-Sat", "time": "9:00am"}, {"days": "Sun", "time": "Closed"}], "id": "1770100080", "name": "USPS COLLECTION BOX - BLUE BOX", "address": {"city": "WILLIAMSPORT", "state": "PA", "street": "515 CEMETERY ST", "postcode": "17701"}}},
{"geometry": {"type": "Point", "coordinates": [-77.0442102291, 41.2429238261]}, "type": "Feature", "properties": {"collection_times": [{"days": "Mon-Sat", "time": "9:00am"}, {"days": "Sun", "time": "Closed"}], "id": "1770100083", "name": "USPS COLLECTION BOX - BLUE BOX", "address": {"city": "WILLIAMSPORT", "state": "PA", "street": "1700 MEMORIAL AVE", "postcode": "17701"}}},
{"geometry": {"type": "Point", "coordinates": [-76.9956969554, 41.2348291408]}, "type": "Feature", "properties": {"collection_times": [{"days": "Mon-Sat", "time": "9:00am"}, {"days": "Sun", "time": "Closed"}], "id": "1770100084", "name": "USPS COLLECTION BOX - BLUE BOX", "address": {"city": "WILLIAMSPORT", "state": "PA", "street": "202 S MARKET ST", "postcode": "17701"}}},
{"geometry": {"type": "Point", "coordinates": [-76.9854679092, 41.2248816388]}, "type": "Feature", "properties": {"collection_times": [{"days": "Mon-Sat", "time": "9:00am"}, {"days": "Sun", "time": "Closed"}], "id": "1770100088", "name": "USPS COLLECTION BOX - BLUE BOX", "address": {"city": "WILLIAMSPORT", "state": "PA", "street": "950 MAIN ST", "postcode": "17701"}}},
{"geometry": {"type": "Point", "coordinates": [-77.0497286061, 41.2345688898]}, "type": "Feature", "properties": {"collection_times": [{"days": "Mon-Sat", "time": "9:30am"}, {"days": "Sun", "time": "Closed"}], "id": "1770100095", "name": "USPS COLLECTION BOX - BLUE BOX", "address": {"city": "WILLIAMSPORT", "state": "PA", "street": "500 ARCH ST", "postcode": "17701"}}},
{"geometry": {"type": "Point", "coordinates": [-77.0123151629, 41.2399170473]}, "type": "Feature", "properties": {"collection_times": [{"days": "Mon-Sat", "time": "11:00am"}, {"days": "Sun", "time": "Closed"}], "id": "1770100105", "name": "USPS COLLECTION BOX - BLUE BOX", "address": {"city": "WILLIAMSPORT", "state": "PA", "street": "600 W 4TH ST", "postcode": "17701"}}},
{"geometry": {"type": "Point", "coordinates": [-77.0177981777, 41.2397289568]}, "type": "Feature", "properties": {"collection_times": [{"days": "Mon-Sat", "time": "9:00am"}, {"days": "Sun", "time": "Closed"}], "id": "1770100108", "name": "USPS COLLECTION BOX - BLUE BOX", "address": {"city": "WILLIAMSPORT", "state": "PA", "street": "807 W 4TH ST", "postcode": "17701"}}},
{"geometry": {"type": "Point", "coordinates": [-77.0264467907, 41.2374434801]}, "type": "Feature", "properties": {"collection_times": [{"days": "Mon-Sat", "time": "10:30am"}, {"days": "Sun", "time": "Closed"}], "id": "1770100124", "name": "USPS COLLECTION BOX - BLUE BOX", "address": {"city": "WILLIAMSPORT", "state": "PA", "street": "1100 W 3RD ST", "postcode": "17701"}}},
{"geometry": {"type": "Point", "coordinates": [-77.0323745981, 41.2384206042]}, "type": "Feature", "properties": {"collection_times": [{"days": "Mon-Sat", "time": "11:00am"}, {"days": "Sun", "time": "Closed"}], "id": "1770100126", "name": "USPS COLLECTION BOX - BLUE BOX", "address": {"city": "WILLIAMSPORT", "state": "PA", "street": "326 ROSE ST", "postcode": "17701"}}},
{"geometry": {"type": "Point", "coordinates": [-77.0147000082, 41.2488247283]}, "type": "Feature", "properties": {"collection_times": [{"days": "Mon-Sat", "time": "11:00am"}, {"days": "Sun", "time": "Closed"}], "id": "1770100129", "name": "USPS COLLECTION BOX - BLUE BOX", "address": {"city": "WILLIAMSPORT", "state": "PA", "street": "924 WALNUT ST", "postcode": "17701"}}},
{"geometry": {"type": "Point", "coordinates": [-77.0435109738, 41.2546791922]}, "type": "Feature", "properties": {"collection_times": [{"days": "Mon-Sat", "time": "9:00am"}, {"days": "Sun", "time": "Closed"}], "id": "1770100132", "name": "USPS COLLECTION BOX - BLUE BOX", "address": {"city": "WILLIAMSPORT", "state": "PA", "street": "1916 LYCOMING CREEK RD", "postcode": "17701"}}},
{"geometry": {"type": "Point", "coordinates": [-77.0436978813, 41.257136198]}, "type": "Feature", "properties": {"collection_times": [{"days": "Mon-Sat", "time": "10:00am"}, {"days": "Sun", "time": "Closed"}], "id": "1770100135", "name": "USPS COLLECTION BOX - BLUE BOX", "address": {"city": "WILLIAMSPORT", "state": "PA", "street": "1965 LYCOMING CREEK RD", "postcode": "17701"}}},
{"geometry": {"type": "Point", "coordinates": [-77.0070237518, 41.2415984015]}, "type": "Feature", "properties": {"collection_times": [{"days": "Mon-Sat", "time": "9:15am"}, {"days": "Sun", "time": "Closed"}], "id": "1770100137", "name": "USPS COLLECTION BOX - BLUE BOX", "address": {"city": "WILLIAMSPORT", "state": "PA", "street": "439 HEPBURN ST", "postcode": "17701"}}},
{"geometry": {"type": "Point", "coordinates": [-77.0033956523, 41.239980927]}, "type": "Feature", "properties": {"collection_times": [{"days": "Mon-Fri", "time": "4:00pm"}, {"days": "Sat", "time": "9:00am"}, {"days": "Sun", "time": "Closed"}], "id": "1770100139", "name": "USPS COLLECTION BOX - BLUE BOX", "address": {"city": "WILLIAMSPORT", "state": "PA", "street": "135 W 3RD ST", "postcode": "17701"}}},
{"geometry": {"type": "Point", "coordinates": [-77.0057603873, 41.2414986634]}, "type": "Feature", "properties": {"collection_times": [{"days": "Mon-Fri", "time": "4:15pm"}, {"days": "Sat", "time": "9:00am"}, {"days": "Sun", "time": "Closed"}], "id": "1770100140", "name": "USPS COLLECTION BOX - BLUE BOX", "address": {"city": "WILLIAMSPORT", "state": "PA", "street": "442 WILLIAM ST", "postcode": "17701"}}},
{"geometry": {"type": "Point", "coordinates": [-76.9847711464, 41.2577276774]}, "type": "Feature", "properties": {"collection_times": [{"days": "Mon-Sat", "time": "12:30pm"}, {"days": "Sun", "time": "Closed"}], "id": "1770100143", "name": "USPS COLLECTION BOX - BLUE BOX", "address": {"city": "WILLIAMSPORT", "state": "PA", "street": "1548 SHERMAN ST", "postcode": "17701"}}},
{"geometry": {"type": "Point", "coordinates": [-76.9596510128, 41.2521275497]}, "type": "Feature", "properties": {"collection_times": [{"days": "Mon-Sat", "time": "11:00am"}, {"days": "Sun", "time": "Closed"}], "id": "1770100147", "name": "USPS COLLECTION BOX - BLUE BOX", "address": {"city": "WILLIAMSPORT", "state": "PA", "street": "1025 WESTMINSTER DR", "postcode": "17701"}}},
{"geometry": {"type": "Point", "coordinates": [-77.0010072582, 41.2312045545]}, "type": "Feature", "properties": {"collection_times": [{"days": "Mon-Fri", "time": "4:30pm"}, {"days": "Sat", "time": "9:00am"}, {"days": "Sun", "time": "Closed"}], "id": "1770100149", "name": "USPS COLLECTION BOX - BLUE BOX", "address": {"city": "WILLIAMSPORT", "state": "PA", "street": "518 W SOUTHERN AVE", "postcode": "17701"}}},
{"geometry": {"type": "Point", "coordinates": [-77.0027996823, 41.2419910658]}, "type": "Feature", "properties": {"collection_times": [{"days": "Mon-Sat", "time": "9:00am"}, {"days": "Sun", "time": "Closed"}], "id": "1770100151", "name": "USPS COLLECTION BOX - BLUE BOX", "address": {"city": "WILLIAMSPORT", "state": "PA", "street": "24 W 4TH ST", "postcode": "17701"}}},
{"geometry": {"type": "Point", "coordinates": [-77.0031304443, 41.2418359855]}, "type": "Feature", "properties": {"collection_times": [{"days": "Mon-Sat", "time": "9:30am"}, {"days": "Sun", "time": "Closed"}], "id": "1770100152", "name": "USPS COLLECTION BOX - BLUE BOX", "address": {"city": "WILLIAMSPORT", "state": "PA", "street": "50 W 4TH ST", "postcode": "17701"}}},
{"geometry": {"type": "Point", "coordinates": [-77.0012793388, 41.2477931881]}, "type": "Feature", "properties": {"collection_times": [{"days": "Mon-Sat", "time": "12:30pm"}, {"days": "Sun", "time": "Closed"}], "id": "1770100153", "name": "USPS COLLECTION BOX - BLUE BOX", "address": {"city": "WILLIAMSPORT", "state": "PA", "street": "124 BRANDON PL", "postcode": "17701"}}},
{"geometry": {"type": "Point", "coordinates": [-76.9688268456, 41.2497450813]}, "type": "Feature", "properties": {"collection_times": [{"days": "Mon-Fri", "time": "4:00pm"}, {"days": "Sat", "time": "9:30am"}, {"days": "Sun", "time": "Closed"}], "id": "1770100156", "name": "USPS COLLECTION BOX - BLUE BOX", "address": {"city": "WILLIAMSPORT", "state": "PA", "street": "1784 E 3RD ST", "postcode": "17701"}}},
{"geometry": {"type": "Point", "coordinates": [-76.9760557044, 41.2537528751]}, "type": "Feature", "properties": {"collection_times": [{"days": "Mon-Fri", "time": "4:00pm"}, {"days": "Sat", "time": "2:30pm"}, {"days": "Sun", "time": "Closed"}], "id": "1770100157", "name": "USPS COLLECTION BOX - BLUE BOX", "address": {"city": "WILLIAMSPORT", "state": "PA", "street": "1506 SHERIDAN ST", "postcode": "17701"}}},
{"geometry": {"type": "Point", "coordinates": [-77.0015147476, 41.2408941714]}, "type": "Feature", "properties": {"collection_times": [{"days": "Mon-Sat", "time": "9:00am"}, {"days": "Sun", "time": "Closed"}], "id": "1770100158", "name": "USPS COLLECTION BOX - BLUE BOX", "address": {"city": "WILLIAMSPORT", "state": "PA", "street": "18 E 3RD ST", "postcode": "17701"}}},
{"geometry": {"type": "Point", "coordinates": [-77.001504101, 41.2408989032]}, "type": "Feature", "properties": {"collection_times": [{"days": "Mon-Fri", "time": "4:15pm"}, {"days": "Sat", "time": "9:00am"}, {"days": "Sun", "time": "Closed"}], "id": "1770100159", "name": "USPS COLLECTION BOX - BLUE BOX", "address": {"city": "WILLIAMSPORT", "state": "PA", "street": "25 W 3RD ST", "postcode": "17701"}}},
{"geometry": {"type": "Point", "coordinates": [-77.0022493651, 41.2405463814]}, "type": "Feature", "properties": {"collection_times": [{"days": "Mon-Fri", "time": "4:00pm"}, {"days": "Sat", "time": "9:00am"}, {"days": "Sun", "time": "Closed"}], "id": "1770100161", "name": "USPS COLLECTION BOX - BLUE BOX", "address": {"city": "WILLIAMSPORT", "state": "PA", "street": "33 W 3RD ST", "postcode": "17701"}}},
{"geometry": {"type": "Point", "coordinates": [-76.9548919689, 41.2472880646]}, "type": "Feature", "properties": {"collection_times": [{"days": "Mon-Fri", "time": "4:15pm"}, {"days": "Sat", "time": "9:30am"}, {"days": "Sun", "time": "Closed"}], "id": "1770100162", "name": "USPS COLLECTION BOX - BLUE BOX", "address": {"city": "WILLIAMSPORT", "state": "PA", "street": "2450 E 3RD ST", "postcode": "17701"}}},
{"geometry": {"type": "Point", "coordinates": [-76.9961772367, 41.2420806792]}, "type": "Feature", "properties": {"collection_times": [{"days": "Mon-Fri", "time": "4:15pm"}, {"days": "Sat", "time": "11:00am"}, {"days": "Sun", "time": "Closed"}], "id": "1770100163", "name": "USPS COLLECTION BOX - BLUE BOX", "address": {"city": "WILLIAMSPORT", "state": "PA", "street": "201 BASIN ST", "postcode": "17701"}}},
{"geometry": {"type": "Point", "coordinates": [-77.0438161772, 41.2603017961]}, "type": "Feature", "properties": {"collection_times": [{"days": "Mon-Sat", "time": "9:30am"}, {"days": "Sun", "time": "Closed"}], "id": "1770100164", "name": "USPS COLLECTION BOX - BLUE BOX", "address": {"city": "WILLIAMSPORT", "state": "PA", "street": "2062 LYCOMING CREEK RD", "postcode": "17701"}}},
{"geometry": {"type": "Point", "coordinates": [-76.963709472, 41.2487896901]}, "type": "Feature", "properties": {"collection_times": [{"days": "Mon-Fri", "time": "4:15pm"}, {"days": "Sat", "time": "10:45am"}, {"days": "Sun", "time": "Closed"}], "id": "1770100167", "name": "USPS COLLECTION BOX - BLUE BOX", "address": {"city": "WILLIAMSPORT", "state": "PA", "street": "1915 E 3RD ST", "postcode": "17701"}}},
{"geometry": {"type": "Point", "coordinates": [-77.001504101, 41.2408989032]}, "type": "Feature", "properties": {"collection_times": [{"days": "Mon-Fri", "time": "4:15pm"}, {"days": "Sat", "time": "9:00am"}, {"days": "Sun", "time": "Closed"}], "id": "1770100173", "name": "USPS COLLECTION BOX - BLUE BOX", "address": {"city": "WILLIAMSPORT", "state": "PA", "street": "25 W 3RD ST", "postcode": "17701"}}},
{"geometry": {"type": "Point", "coordinates": [-76.9847143644, 41.2606566838]}, "type": "Feature", "properties": {"collection_times": [{"days": "Mon-Fri", "time": "4:00pm"}, {"days": "Sat", "time": "9:00am"}, {"days": "Sun", "time": "Closed"}], "id": "1770100174", "name": "USPS COLLECTION BOX - BLUE BOX", "address": {"city": "WILLIAMSPORT", "state": "PA", "street": "1100 GRAMPIAN BLVD", "postcode": "17701"}}},
{"geometry": {"type": "Point", "coordinates": [-76.990432788, 41.2476429523]}, "type": "Feature", "properties": {"collection_times": [{"days": "Mon-Sat", "time": "9:00am"}, {"days": "Sun", "time": "Closed"}], "id": "1770100177", "name": "USPS COLLECTION BOX - BLUE BOX", "address": {"city": "WILLIAMSPORT", "state": "PA", "street": "705 WASHINGTON BLVD", "postcode": "17701"}}},
{"geometry": {"type": "Point", "coordinates": [-77.0117867954, 41.2563218864]}, "type": "Feature", "properties": {"collection_times": [{"days": "Mon-Fri", "time": "4:15pm"}, {"days": "Sat", "time": "9:00am"}, {"days": "Sun", "time": "Closed"}], "id": "1770100181", "name": "USPS COLLECTION BOX - EXPRESS", "address": {"city": "WILLIAMSPORT", "state": "PA", "street": "25 W 3RD ST", "postcode": "17701"}}},
{"geometry": {"type": "Point", "coordinates": [-76.981346407, 41.258997381]}, "type": "Feature", "properties": {"collection_times": [{"days": "Mon-Sat", "time": "8:45am"}, {"days": "Sun", "time": "Closed"}], "id": "1770100183", "name": "USPS COLLECTION BOX - BLUE BOX", "address": {"city": "WILLIAMSPORT", "state": "PA", "street": "1705 WARREN AVE", "postcode": "17701"}}},
{"geometry": {"type": "Point", "coordinates": [-77.0018270488, 41.2394556933]}, "type": "Feature", "properties": {"collection_times": [{"days": "Mon-Fri", "time": "4:00pm"}, {"days": "Sat", "time": "8:30am"}, {"days": "Sun", "time": "Closed"}], "id": "1770100184", "name": "USPS COLLECTION BOX - BLUE BOX", "address": {"city": "WILLIAMSPORT", "state": "PA", "street": "175 PINE ST", "postcode": "17701"}}},
{"geometry": {"type": "Point", "coordinates": [-76.9688268456, 41.2497450813]}, "type": "Feature", "properties": {"collection_times": [{"days": "Mon-Fri", "time": "4:00pm"}, {"days": "Sat", "time": "9:30am"}, {"days": "Sun", "time": "Closed"}], "id": "1770100186", "name": "USPS COLLECTION BOX - EXPRESS", "address": {"city": "WILLIAMSPORT", "state": "PA", "street": "1784 E 3RD ST", "postcode": "17701"}}},
{"geometry": {"type": "Point", "coordinates": [-77.0117867954, 41.2563218864]}, "type": "Feature", "properties": {"collection_times": [{"days": "Mon-Fri", "time": "4:00pm"}, {"days": "Sat", "time": "10:00am"}, {"days": "Sun", "time": "Closed"}], "id": "1770100187", "name": "USPS COLLECTION BOX - EXPRESS", "address": {"city": "WILLIAMSPORT", "state": "PA", "street": "460 MARKET ST", "postcode": "17701"}}},
{"geometry": {"type": "Point", "coordinates": [-77.0043065307, 41.2423480279]}, "type": "Feature", "properties": {"collection_times": [{"days": "Mon-Fri", "time": "4:00pm"}, {"days": "Sat", "time": "9:30am"}, {"days": "Sun", "time": "Closed"}], "id": "1770100188", "name": "USPS COLLECTION BOX - BLUE BOX", "address": {"city": "WILLIAMSPORT", "state": "PA", "street": "454 PINE ST", "postcode": "17701"}}},
{"geometry": {"type": "Point", "coordinates": [-77.0043065307, 41.2423480279]}, "type": "Feature", "properties": {"collection_times": [{"days": "Mon-Fri", "time": "4:00pm"}, {"days": "Sat", "time": "9:30am"}, {"days": "Sun", "time": "Closed"}], "id": "1770100189", "name": "USPS COLLECTION BOX - BLUE BOX", "address": {"city": "WILLIAMSPORT", "state": "PA", "street": "454 PINE ST", "postcode": "17701"}}},
{"geometry": {"type": "Point", "coordinates": [-77.0117867954, 41.2563218864]}, "type": "Feature", "properties": {"collection_times": [{"days": "Mon-Fri", "time": "4:15pm"}, {"days": "Sat", "time": "11:00am"}, {"days": "Sun", "time": "Closed"}], "id": "1770100191", "name": "USPS COLLECTION BOX - EXPRESS", "address": {"city": "WILLIAMSPORT", "state": "PA", "street": "201 BASIN ST", "postcode": "17701"}}},
{"geometry": {"type": "Point", "coordinates": [-77.0021216055, 41.2406067123]}, "type": "Feature", "properties": {"collection_times": [{"days": "Mon-Fri", "time": "4:00pm"}, {"days": "Sat", "time": "8:30am"}, {"days": "Sun", "time": "Closed"}], "id": "1770100194", "name": "USPS COLLECTION BOX - BLUE BOX", "address": {"city": "WILLIAMSPORT", "state": "PA", "street": "48 W 3RD ST", "postcode": "17701"}}},
{"geometry": {"type": "Point", "coordinates": [-77.0722829018, 41.2265105733]}, "type": "Feature", "properties": {"collection_times": [{"days": "Mon-Fri", "time": "6:00pm"}, {"days": "Sat", "time": "5:30pm"}, {"days": "Sun", "time": "Closed"}], "id": "1770100199", "name": "USPS COLLECTION BOX - BLUE BOX", "address": {"city": "WILLIAMSPORT", "state": "PA", "street": "2901 REACH RD", "postcode": "17701"}}},
{"geometry": {"type": "Point", "coordinates": [-77.0722829018, 41.2265105733]}, "type": "Feature", "properties": {"collection_times": [{"days": "Mon-Fri", "time": "6:00pm"}, {"days": "Sat", "time": "5:30pm"}, {"days": "Sun", "time": "Closed"}], "id": "1770100200", "name": "USPS COLLECTION BOX - BLUE BOX", "address": {"city": "WILLIAMSPORT", "state": "PA", "street": "2901 REACH RD", "postcode": "17701"}}},
{"geometry": {"type": "Point", "coordinates": [-77.0033577977, 41.2378516009]}, "type": "Feature", "properties": {"collection_times": [{"days": "Mon-Sat", "time": "9:00am"}, {"days": "Sun", "time": "Closed"}], "id": "1770100202", "name": "USPS COLLECTION BOX - BLUE BOX", "address": {"city": "WILLIAMSPORT", "state": "PA", "street": "201 WILLIAM ST", "postcode": "17701"}}},
{"geometry": {"type": "Point", "coordinates": [-77.0117867954, 41.2563218864]}, "type": "Feature", "properties": {"collection_times": [{"days": "Mon-Sat", "time": "9:00am"}, {"days": "Sun", "time": "Closed"}], "id": "1770100203", "name": "USPS COLLECTION BOX - EXPRESS", "address": {"city": "WILLIAMSPORT", "state": "PA", "street": "201 WILLIAM ST", "postcode": "17701"}}},
{"geometry": {"type": "Point", "coordinates": [-77.0722829018, 41.2265105733]}, "type": "Feature", "properties": {"collection_times": [{"days": "Mon-Fri", "time": "6:00pm"}, {"days": "Sat", "time": "5:30pm"}, {"days": "Sun", "time": "Closed"}], "id": "1770100204", "name": "USPS COLLECTION BOX - BLUE BOX", "address": {"city": "WILLIAMSPORT", "state": "PA", "street": "2901 REACH RD", "postcode": "17701"}}},
{"geometry": {"type": "Point", "coordinates": [-77.0722829018, 41.2265105733]}, "type": "Feature", "properties": {"collection_times": [{"days": "Mon-Fri", "time": "6:00pm"}, {"days": "Sat", "time": "5:30pm"}, {"days": "Sun", "time": "Closed"}], "id": "1770100205", "name": "USPS COLLECTION BOX - BLUE BOX", "address": {"city": "WILLIAMSPORT", "state": "PA", "street": "2901 REACH RD", "postcode": "17701"}}},
{"geometry": {"type": "Point", "coordinates": [-76.9843405493, 41.2465759233]}, "type": "Feature", "properties": {"collection_times": [{"days": "Mon-Fri", "time": "4:00pm"}, {"days": "Sat", "time": "8:30am"}, {"days": "Sun", "time": "Closed"}], "id": "1770100206", "name": "USPS COLLECTION BOX - BLUE BOX", "address": {"city": "WILLIAMSPORT", "state": "PA", "street": "1000 COMMERCE PARK DR", "postcode": "17701"}}},
{"geometry": {"type": "Point", "coordinates": [-77.0040770367, 41.2436599294]}, "type": "Feature", "properties": {"collection_times": [{"days": "Mon-Sat", "time": "12:30pm"}, {"days": "Sun", "time": "Closed"}], "id": "1770100207", "name": "USPS COLLECTION BOX - BLUE BOX", "address": {"city": "WILLIAMSPORT", "state": "PA", "street": "14 5TH ST", "postcode": "17701"}}},
{"geometry": {"type": "Point", "coordinates": [-77.0436351527, 41.2587999746]}, "type": "Feature", "properties": {"collection_times": [{"days": "Mon-Sat", "time": "9:30am"}, {"days": "Sun", "time": "Closed"}], "id": "1770100208", "name": "USPS COLLECTION BOX - BLUE BOX", "address": {"city": "WILLIAMSPORT", "state": "PA", "street": "2023 LYCOMING CREEK RD", "postcode": "17701"}}},
{"geometry": {"type": "Point", "coordinates": [-77.0069137723, 41.2442230179]}, "type": "Feature", "properties": {"collection_times": [{"days": "Mon-Fri", "time": "6:00pm"}, {"days": "Sat", "time": "2:00pm"}, {"days": "Sun", "time": "Closed"}], "id": "1770100210", "name": "USPS COLLECTION BOX - BLUE BOX", "address": {"city": "WILLIAMSPORT", "state": "PA", "street": "621 HEPBURN ST", "postcode": "17701"}}},
{"geometry": {"type": "Point", "coordinates": [-77.0069137723, 41.2442230179]}, "type": "Feature", "properties": {"collection_times": [{"days": "Mon-Fri", "time": "6:00pm"}, {"days": "Sat", "time": "2:00pm"}, {"days": "Sun", "time": "Closed"}], "id": "1770100211", "name": "USPS COLLECTION BOX - BLUE BOX", "address": {"city": "WILLIAMSPORT", "state": "PA", "street": "621 HEPBURN ST", "postcode": "17701"}}},
{"geometry": {"type": "Point", "coordinates": [-77.0117867954, 41.2563218864]}, "type": "Feature", "properties": {"collection_times": [{"days": "Mon-Fri", "time": "6:00pm"}, {"days": "Sat", "time": "2:00pm"}, {"days": "Sun", "time": "Closed"}], "id": "1770100212", "name": "USPS COLLECTION BOX - EXPRESS", "address": {"city": "WILLIAMSPORT", "state": "PA", "street": "621 HEPBURN ST", "postcode": "17701"}}},
{"geometry": {"type": "Point", "coordinates": [-76.9843405493, 41.2465759233]}, "type": "Feature", "properties": {"collection_times": [{"days": "Mon-Fri", "time": "4:00pm"}, {"days": "Sat", "time": "8:30am"}, {"days": "Sun", "time": "Closed"}], "id": "1770100214", "name": "USPS COLLECTION BOX - BLUE BOX", "address": {"city": "WILLIAMSPORT", "state": "PA", "street": "1000 COMMERCE PARK DR", "postcode": "17701"}}},
{"geometry": {"type": "Point", "coordinates": [-77.0722829018, 41.2265105733]}, "type": "Feature", "properties": {"collection_times": [{"days": "Mon-Fri", "time": "6:00pm"}, {"days": "Sat", "time": "5:30pm"}, {"days": "Sun", "time": "Closed"}], "id": "1770100215", "name": "USPS COLLECTION BOX - PO LOBBY", "address": {"city": "WILLIAMSPORT", "state": "PA", "street": "2901 REACH RD", "postcode": "17701"}}},
{"geometry": {"type": "Point", "coordinates": [-77.0228058709, 41.2335397684]}, "type": "Feature", "properties": {"collection_times": [{"days": "Mon-Sat", "time": "10:00am"}, {"days": "Sun", "time": "Closed"}], "id": "1770100217", "name": "USPS COLLECTION BOX - BLUE BOX", "address": {"city": "WILLIAMSPORT", "state": "PA", "street": "1 COLLEGE AVE", "postcode": "17701"}}},
{"geometry": {"type": "Point", "coordinates": [-77.0069137723, 41.2442230179]}, "type": "Feature", "properties": {"collection_times": [{"days": "Mon-Fri", "time": "6:00pm"}, {"days": "Sat", "time": "2:00pm"}, {"days": "Sun", "time": "Closed"}], "id": "1770100218", "name": "USPS COLLECTION BOX - BLUE BOX", "address": {"city": "WILLIAMSPORT", "state": "PA", "street": "621 HEPBURN ST", "postcode": "17701"}}},
{"geometry": {"type": "Point", "coordinates": [-77.1113737807, 41.2182842767]}, "type": "Feature", "properties": {"collection_times": [{"days": "Mon-Sat", "time": "8:30am"}, {"days": "Sun", "time": "Closed"}], "id": "1770100219", "name": "USPS COLLECTION BOX - BLUE BOX", "address": {"city": "WILLIAMSPORT", "state": "PA", "street": "91 E VILLAGE DR", "postcode": "17701"}}},
{"geometry": {"type": "Point", "coordinates": [-76.9978014394, 41.2472786009]}, "type": "Feature", "properties": {"collection_times": [{"days": "Mon-Sat", "time": "1:30pm"}, {"days": "Sun", "time": "Closed"}], "id": "1770100220", "name": "USPS COLLECTION BOX - BLUE BOX", "address": {"city": "WILLIAMSPORT", "state": "PA", "street": "301 WASHINGTON BLVD", "postcode": "17701"}}},
{"geometry": {"type": "Point", "coordinates": [-77.0200647271, 41.2376741571]}, "type": "Feature", "properties": {"collection_times": [{"days": "Mon-Sat", "time": "9:00am"}, {"days": "Sun", "time": "Closed"}], "id": "1770100221", "name": "USPS COLLECTION BOX - BLUE BOX", "address": {"city": "WILLIAMSPORT", "state": "PA", "street": "900 W 3RD ST", "postcode": "17701"}}},
{"geometry": {"type": "Point", "coordinates": [-76.9841879476, 41.249323937]}, "type": "Feature", "properties": {"collection_times": [{"days": "Mon-Sat", "time": "12:00pm"}, {"days": "Sun", "time": "Closed"}], "id": "1770100222", "name": "USPS COLLECTION BOX - BLUE BOX", "address": {"city": "WILLIAMSPORT", "state": "PA", "street": "1036 WASHINGTON BLVD", "postcode": "17701"}}},
{"geometry": {"type": "Point", "coordinates": [-77.0049252183, 41.2392155526]}, "type": "Feature", "properties": {"collection_times": [{"days": "Mon-Fri", "time": "3:30pm"}, {"days": "Sat-Sun", "time": "Closed"}], "id": "1770100223", "name": "USPS COLLECTION BOX - BLUE BOX", "address": {"city": "WILLIAMSPORT", "state": "PA", "street": "235 W 3RD ST", "postcode": "17701"}}},
{"geometry": {"type": "Point", "coordinates": [-77.0069368871, 41.2445287481]}, "type": "Feature", "properties": {"collection_times": [{"days": "Mon-Fri", "time": "5:00pm"}, {"days": "Sat", "time": "12:30pm"}, {"days": "Sun", "time": "Closed"}], "id": "1770100229", "name": "USPS COLLECTION BOX - PO LOBBY", "address": {"city": "WILLIAMSPORT", "state": "PA", "street": "621 HEPBURN ST", "postcode": "17701"}}},
{"geometry": {"type": "Point", "coordinates": [-77.0523443146, 41.2398773223]}, "type": "Feature", "properties": {"collection_times": [{"days": "Mon-Fri", "time": "5:00pm"}, {"days": "Sat-Sun", "time": "Closed"}], "id": "1770100230", "name": "USPS COLLECTION BOX - PO LOBBY", "address": {"city": "WILLIAMSPORT", "state": "PA", "street": "1966 W 4TH ST", "postcode": "17701"}}},
{"geometry": {"type": "Point", "coordinates": [-77.0081396557, 41.2284892333]}, "type": "Feature", "properties": {"collection_times": [{"days": "Mon-Fri", "time": "5:00pm"}, {"days": "Sat-Sun", "time": "Closed"}], "id": "1770100231", "name": "USPS COLLECTION BOX - PO LOBBY", "address": {"city": "WILLIAMSPORT", "state": "PA", "street": "1223 W SOUTHERN AVE", "postcode": "17701"}}},
{"geometry": {"type": "Point", "coordinates": [-77.0564676375, 41.2274180716]}, "type": "Feature", "properties": {"collection_times": [{"days": "Mon-Fri", "time": "4:15pm"}, {"days": "Sat", "time": "10:45am"}, {"days": "Sun", "time": "Closed"}], "id": "1772000001", "name": "USPS COLLECTION BOX - BLUE BOX", "address": {"city": "ANTES FORT", "state": "PA", "street": "14 THIRD ST", "postcode": "17720"}}},
{"geometry": {"type": "Point", "coordinates": [-77.0564676375, 41.2274180716]}, "type": "Feature", "properties": {"collection_times": [{"days": "Mon-Fri", "time": "4:15pm"}, {"days": "Sat", "time": "10:45am"}, {"days": "Sun", "time": "Closed"}], "id": "1772000002", "name": "USPS COLLECTION BOX - PO LOBBY", "address": {"city": "ANTES FORT", "state": "PA", "street": "14 THIRD ST", "postcode": "17720"}}},
{"geometry": {"type": "Point", "coordinates": [-77.3156767088, 41.1848230994]}, "type": "Feature", "properties": {"collection_times": [{"days": "Mon-Fri", "time": "5:00pm"}, {"days": "Sat", "time": "12:00pm"}, {"days": "Sun", "time": "Closed"}], "id": "1772100001", "name": "USPS COLLECTION BOX - BLUE BOX", "address": {"city": "AVIS", "state": "PA", "street": "14 W CENTRAL AVE", "postcode": "17721"}}},
{"geometry": {"type": "Point", "coordinates": [-77.3156767088, 41.1848230994]}, "type": "Feature", "properties": {"collection_times": [{"days": "Mon-Fri", "time": "5:00pm"}, {"days": "Sat", "time": "12:00pm"}, {"days": "Sun", "time": "Closed"}], "id": "1772100004", "name": "USPS COLLECTION BOX - PO LOBBY", "address": {"city": "AVIS", "state": "PA", "street": "14 W CENTRAL AVE", "postcode": "17721"}}},
{"geometry": {"type": "Point", "coordinates": [-76.8529796684, 41.6561113218]}, "type": "Feature", "properties": {"collection_times": [{"days": "Mon-Fri", "time": "4:30pm"}, {"days": "Sat", "time": "3:30pm"}, {"days": "Sun", "time": "Closed"}], "id": "1772400001", "name": "USPS COLLECTION BOX - BLUE BOX", "address": {"city": "CANTON", "state": "PA", "street": "103 TROY ST", "postcode": "17724"}}},
{"geometry": {"type": "Point", "coordinates": [-76.8513858089, 41.6541443638]}, "type": "Feature", "properties": {"collection_times": [{"days": "Mon-Fri", "time": "3:30pm"}, {"days": "Sat", "time": "3:15pm"}, {"days": "Sun", "time": "Closed"}], "id": "1772400002", "name": "USPS COLLECTION BOX - BLUE BOX", "address": {"city": "CANTON", "state": "PA", "street": "53 W MAIN ST", "postcode": "17724"}}},
{"geometry": {"type": "Point", "coordinates": [-76.848030048, 41.6553430202]}, "type": "Feature", "properties": {"collection_times": [{"days": "Mon-Fri", "time": "3:30pm"}, {"days": "Sat", "time": "3:15pm"}, {"days": "Sun", "time": "Closed"}], "id": "1772400003", "name": "USPS COLLECTION BOX - BLUE BOX", "address": {"city": "CANTON", "state": "PA", "street": "10 E MAIN ST", "postcode": "17724"}}},
{"geometry": {"type": "Point", "coordinates": [-76.8958109515, 41.6714503284]}, "type": "Feature", "properties": {"collection_times": [{"days": "Mon-Fri", "time": "2:00pm"}, {"days": "Sat", "time": "1:30pm"}, {"days": "Sun", "time": "Closed"}], "id": "1772400012", "name": "USPS COLLECTION BOX - BLUE BOX", "address": {"city": "CANTON", "state": "PA", "street": "2758 ROUTE 414", "postcode": "17724"}}},
{"geometry": {"type": "Point", "coordinates": [-76.8958109515, 41.6714503284]}, "type": "Feature", "properties": {"collection_times": [{"days": "Mon-Fri", "time": "12:30pm"}, {"days": "Sat", "time": "12:00pm"}, {"days": "Sun", "time": "Closed"}], "id": "1772400013", "name": "USPS COLLECTION BOX - BLUE BOX", "address": {"city": "CANTON", "state": "PA", "street": "1297 SPRINGBROOK DR", "postcode": "17724"}}},
{"geometry": {"type": "Point", "coordinates": [-76.8529796684, 41.6561113218]}, "type": "Feature", "properties": {"collection_times": [{"days": "Mon-Fri", "time": "4:30pm"}, {"days": "Sat", "time": "3:30pm"}, {"days": "Sun", "time": "Closed"}], "id": "1772400015", "name": "USPS COLLECTION BOX - PO LOBBY", "address": {"city": "CANTON", "state": "PA", "street": "103 TROY ST", "postcode": "17724"}}},
{"geometry": {"type": "Point", "coordinates": [-77.4315660562, 41.1248224161]}, "type": "Feature", "properties": {"collection_times": [{"days": "Mon-Fri", "time": "4:30pm"}, {"days": "Sat", "time": "11:45am"}, {"days": "Sun", "time": "Closed"}], "id": "1772600001", "name": "USPS COLLECTION BOX - BLUE BOX", "address": {"city": "CASTANEA", "state": "PA", "street": "120 LOGAN AVE", "postcode": "17726"}}},
{"geometry": {"type": "Point", "coordinates": [-77.4315660562, 41.1248224161]}, "type": "Feature", "properties": {"collection_times": [{"days": "Mon-Fri", "time": "4:45pm"}, {"days": "Sat", "time": "11:45am"}, {"days": "Sun", "time": "Closed"}], "id": "1772600002", "name": "USPS COLLECTION BOX - PO LOBBY", "address": {"city": "CASTANEA", "state": "PA", "street": "120 LOGAN AVE", "postcode": "17726"}}},
{"geometry": {"type": "Point", "coordinates": [-77.0736208283, 41.3115061749]}, "type": "Feature", "properties": {"collection_times": [{"days": "Mon-Fri", "time": "4:30pm"}, {"days": "Sat", "time": "12:00pm"}, {"days": "Sun", "time": "Closed"}], "id": "1772800001", "name": "USPS COLLECTION BOX - BLUE BOX", "address": {"city": "COGAN STATION", "state": "PA", "street": "4772 LYCOMING CREEK RD", "postcode": "17728"}}},
{"geometry": {"type": "Point", "coordinates": [-77.0736208283, 41.3115061749]}, "type": "Feature", "properties": {"collection_times": [{"days": "Mon-Fri", "time": "4:30pm"}, {"days": "Sat", "time": "12:00pm"}, {"days": "Sun", "time": "Closed"}], "id": "1772800004", "name": "USPS COLLECTION BOX - PO LOBBY", "address": {"city": "COGAN STATION", "state": "PA", "street": "4772 LYCOMING CREEK RD", "postcode": "17728"}}},
{"geometry": {"type": "Point", "coordinates": [-77.8163464641, 41.4825323844]}, "type": "Feature", "properties": {"collection_times": [{"days": "Mon-Sat", "time": "12:30pm"}, {"days": "Sun", "time": "Closed"}], "id": "1772900001", "name": "USPS COLLECTION BOX - BLUE BOX", "address": {"city": "CROSS FORK", "state": "PA", "street": "11 MAIN ST", "postcode": "17729"}}},
{"geometry": {"type": "Point", "coordinates": [-77.8163464641, 41.4825323844]}, "type": "Feature", "properties": {"collection_times": [{"days": "Mon-Sat", "time": "12:30pm"}, {"days": "Sun", "time": "Closed"}], "id": "1772900002", "name": "USPS COLLECTION BOX - PO LOBBY", "address": {"city": "CROSS FORK", "state": "PA", "street": "11 MAIN ST", "postcode": "17729"}}},
{"geometry": {"type": "Point", "coordinates": [-76.8798498526, 41.1080906007]}, "type": "Feature", "properties": {"collection_times": [{"days": "Mon-Fri", "time": "4:00pm"}, {"days": "Sat", "time": "10:00am"}, {"days": "Sun", "time": "Closed"}], "id": "1773000001", "name": "USPS COLLECTION BOX - BLUE BOX", "address": {"city": "DEWART", "state": "PA", "street": "2037 MAIN ST", "postcode": "17730"}}},
{"geometry": {"type": "Point", "coordinates": [-76.8798498526, 41.1080906007]}, "type": "Feature", "properties": {"collection_times": [{"days": "Mon-Fri", "time": "4:00pm"}, {"days": "Sat", "time": "10:00am"}, {"days": "Sun", "time": "Closed"}], "id": "1773000002", "name": "USPS COLLECTION BOX - PO LOBBY", "address": {"city": "DEWART", "state": "PA", "street": "2037 MAIN ST", "postcode": "17730"}}},
{"geometry": {"type": "Point", "coordinates": [-76.5836417516, 41.4112079792]}, "type": "Feature", "properties": {"collection_times": [{"days": "Mon-Fri", "time": "4:15pm"}, {"days": "Sat", "time": "11:00am"}, {"days": "Sun", "time": "Closed"}], "id": "1773100001", "name": "USPS COLLECTION BOX - BLUE BOX", "address": {"city": "EAGLES MERE", "state": "PA", "street": "1 SULLIVAN AVE", "postcode": "17731"}}},
{"geometry": {"type": "Point", "coordinates": [-76.5836417516, 41.4112079792]}, "type": "Feature", "properties": {"collection_times": [{"days": "Mon-Fri", "time": "2:00pm"}, {"days": "Sat", "time": "11:00am"}, {"days": "Sun", "time": "Closed"}], "id": "1773100002", "name": "USPS COLLECTION BOX - PO LOBBY", "address": {"city": "EAGLES MERE", "state": "PA", "street": "1 SULLIVAN AVE", "postcode": "17731"}}},
{"geometry": {"type": "Point", "coordinates": [-76.8620970109, 41.6195339311]}, "type": "Feature", "properties": {"collection_times": [{"days": "Mon-Fri", "time": "4:15pm"}, {"days": "Sat", "time": "11:15am"}, {"days": "Sun", "time": "Closed"}], "id": "1773500001", "name": "USPS COLLECTION BOX - BLUE BOX", "address": {"city": "GROVER", "state": "PA", "street": "44 N WATER ST", "postcode": "17735"}}},
{"geometry": {"type": "Point", "coordinates": [-76.8620970109, 41.6195339311]}, "type": "Feature", "properties": {"collection_times": [{"days": "Mon-Fri", "time": "1:00pm"}, {"days": "Sat", "time": "11:15am"}, {"days": "Sun", "time": "Closed"}], "id": "1773500002", "name": "USPS COLLECTION BOX - PO LOBBY", "address": {"city": "GROVER", "state": "PA", "street": "44 N WATER ST", "postcode": "17735"}}},
{"geometry": {"type": "Point", "coordinates": [-76.7288107663, 41.2366639101]}, "type": "Feature", "properties": {"collection_times": [{"days": "Mon-Sat", "time": "10:30am"}, {"days": "Sun", "time": "Closed"}], "id": "1773700003", "name": "USPS COLLECTION BOX - BLUE BOX", "address": {"city": "HUGHESVILLE", "state": "PA", "street": "295 S MAIN ST", "postcode": "17737"}}},
{"geometry": {"type": "Point", "coordinates": [-76.7252843656, 41.2442573237]}, "type": "Feature", "properties": {"collection_times": [{"days": "Mon-Sat", "time": "10:30am"}, {"days": "Sun", "time": "Closed"}], "id": "1773700009", "name": "USPS COLLECTION BOX - BLUE BOX", "address": {"city": "HUGHESVILLE", "state": "PA", "street": "110 N BROAD ST", "postcode": "17737"}}},
{"geometry": {"type": "Point", "coordinates": [-76.7215450323, 41.2360854432]}, "type": "Feature", "properties": {"collection_times": [{"days": "Mon-Sat", "time": "12:30pm"}, {"days": "Sun", "time": "Closed"}], "id": "1773700010", "name": "USPS COLLECTION BOX - BLUE BOX", "address": {"city": "HUGHESVILLE", "state": "PA", "street": "147 S 5TH ST", "postcode": "17737"}}},
{"geometry": {"type": "Point", "coordinates": [-76.7248431219, 41.2426248403]}, "type": "Feature", "properties": {"collection_times": [{"days": "Mon-Sat", "time": "12:00pm"}, {"days": "Sun", "time": "Closed"}], "id": "1773700011", "name": "USPS COLLECTION BOX - BLUE BOX", "address": {"city": "HUGHESVILLE", "state": "PA", "street": "48 N RAILROAD ST", "postcode": "17737"}}},
{"geometry": {"type": "Point", "coordinates": [-76.7236672607, 41.2418618318]}, "type": "Feature", "properties": {"collection_times": [{"days": "Mon-Fri", "time": "4:30pm"}, {"days": "Sat", "time": "12:00pm"}, {"days": "Sun", "time": "Closed"}], "id": "1773700014", "name": "USPS COLLECTION BOX - BLUE BOX", "address": {"city": "HUGHESVILLE", "state": "PA", "street": "44 N MAIN ST", "postcode": "17737"}}},
{"geometry": {"type": "Point", "coordinates": [-76.7236672607, 41.2418618318]}, "type": "Feature", "properties": {"collection_times": [{"days": "Mon-Fri", "time": "4:30pm"}, {"days": "Sat", "time": "12:00pm"}, {"days": "Sun", "time": "Closed"}], "id": "1773700017", "name": "USPS COLLECTION BOX - PO LOBBY", "address": {"city": "HUGHESVILLE", "state": "PA", "street": "44 N MAIN ST", "postcode": "17737"}}},
{"geometry": {"type": "Point", "coordinates": [-77.2580909165, 41.2010673685]}, "type": "Feature", "properties": {"collection_times": [{"days": "Mon-Sat", "time": "11:30am"}, {"days": "Sun", "time": "Closed"}], "id": "1774000002", "name": "USPS COLLECTION BOX - BLUE BOX", "address": {"city": "JERSEY SHORE", "state": "PA", "street": "223 WILSON ST", "postcode": "17740"}}},
{"geometry": {"type": "Point", "coordinates": [-77.2543130784, 41.1989499953]}, "type": "Feature", "properties": {"collection_times": [{"days": "Mon-Sat", "time": "12:30pm"}, {"days": "Sun", "time": "Closed"}], "id": "1774000004", "name": "USPS COLLECTION BOX - BLUE BOX", "address": {"city": "JERSEY SHORE", "state": "PA", "street": "327 S MAIN ST", "postcode": "17740"}}},
{"geometry": {"type": "Point", "coordinates": [-77.2579589579, 41.2065883614]}, "type": "Feature", "properties": {"collection_times": [{"days": "Mon-Sat", "time": "8:45am"}, {"days": "Sun", "time": "Closed"}], "id": "1774000006", "name": "USPS COLLECTION BOX - BLUE BOX", "address": {"city": "JERSEY SHORE", "state": "PA", "street": "323 N LINCOLN AVE", "postcode": "17740"}}},
{"geometry": {"type": "Point", "coordinates": [-77.269427578, 41.2031134804]}, "type": "Feature", "properties": {"collection_times": [{"days": "Mon-Sat", "time": "11:00am"}, {"days": "Sun", "time": "Closed"}], "id": "1774000009", "name": "USPS COLLECTION BOX - BLUE BOX", "address": {"city": "JERSEY SHORE", "state": "PA", "street": "1108 ALLEGHENY ST", "postcode": "17740"}}},
{"geometry": {"type": "Point", "coordinates": [-77.2739361214, 41.1995877453]}, "type": "Feature", "properties": {"collection_times": [{"days": "Mon-Sat", "time": "11:30am"}, {"days": "Sun", "time": "Closed"}], "id": "1774000012", "name": "USPS COLLECTION BOX - BLUE BOX", "address": {"city": "JERSEY SHORE", "state": "PA", "street": "233 GLOVER ST", "postcode": "17740"}}},
{"geometry": {"type": "Point", "coordinates": [-77.2763149322, 41.2012011663]}, "type": "Feature", "properties": {"collection_times": [{"days": "Mon-Sat", "time": "1:00pm"}, {"days": "Sun", "time": "Closed"}], "id": "1774000013", "name": "USPS COLLECTION BOX - BLUE BOX", "address": {"city": "JERSEY SHORE", "state": "PA", "street": "1440 ALLEGHENY ST", "postcode": "17740"}}},
{"geometry": {"type": "Point", "coordinates": [-77.2682092974, 41.2016743498]}, "type": "Feature", "properties": {"collection_times": [{"days": "Mon-Sat", "time": "1:45pm"}, {"days": "Sun", "time": "Closed"}], "id": "1774000016", "name": "USPS COLLECTION BOX - BLUE BOX", "address": {"city": "JERSEY SHORE", "state": "PA", "street": "1020 THOMPSON ST", "postcode": "17740"}}},
{"geometry": {"type": "Point", "coordinates": [-77.2747096569, 41.2022114132]}, "type": "Feature", "properties": {"collection_times": [{"days": "Mon-Sat", "time": "10:30am"}, {"days": "Sun", "time": "Closed"}], "id": "1774000017", "name": "USPS COLLECTION BOX - BLUE BOX", "address": {"city": "JERSEY SHORE", "state": "PA", "street": "112 BRIDGE ST", "postcode": "17740"}}},
{"geometry": {"type": "Point", "coordinates": [-77.2549743525, 41.2027342811]}, "type": "Feature", "properties": {"collection_times": [{"days": "Mon-Fri", "time": "5:15pm"}, {"days": "Sat", "time": "3:15pm"}, {"days": "Sun", "time": "Closed"}], "id": "1774000019", "name": "USPS COLLECTION BOX - BLUE BOX", "address": {"city": "JERSEY SHORE", "state": "PA", "street": "234 ALLEGHENY ST", "postcode": "17740"}}},
{"geometry": {"type": "Point", "coordinates": [-77.2549743525, 41.2027342811]}, "type": "Feature", "properties": {"collection_times": [{"days": "Mon-Fri", "time": "5:15pm"}, {"days": "Sat", "time": "3:15pm"}, {"days": "Sun", "time": "Closed"}], "id": "1774000027", "name": "USPS COLLECTION BOX - PO LOBBY", "address": {"city": "JERSEY SHORE", "state": "PA", "street": "234 ALLEGHENY ST", "postcode": "17740"}}},
{"geometry": {"type": "Point", "coordinates": [-77.2635874767, 41.2040982328]}, "type": "Feature", "properties": {"collection_times": [{"days": "Mon-Sat", "time": "9:00am"}, {"days": "Sun", "time": "Closed"}], "id": "1774000029", "name": "USPS COLLECTION BOX - BLUE BOX", "address": {"city": "JERSEY SHORE", "state": "PA", "street": "701 ALLEGHENY ST", "postcode": "17740"}}},
{"geometry": {"type": "Point", "coordinates": [-76.5949540419, 41.228571749]}, "type": "Feature", "properties": {"collection_times": [{"days": "Mon-Sat", "time": "1:15pm"}, {"days": "Sun", "time": "Closed"}], "id": "1774200001", "name": "USPS COLLECTION BOX - BLUE BOX", "address": {"city": "LAIRDSVILLE", "state": "PA", "street": "6733 STATE ROUTE 118", "postcode": "17742"}}},
{"geometry": {"type": "Point", "coordinates": [-76.5949540419, 41.228571749]}, "type": "Feature", "properties": {"collection_times": [{"days": "Mon-Fri", "time": "11:00am"}, {"days": "Sat", "time": "1:15pm"}, {"days": "Sun", "time": "Closed"}], "id": "1774200002", "name": "USPS COLLECTION BOX - PO LOBBY", "address": {"city": "LAIRDSVILLE", "state": "PA", "street": "6733 STATE ROUTE 118", "postcode": "17742"}}},
{"geometry": {"type": "Point", "coordinates": [-77.1387628297, 41.2308331054]}, "type": "Feature", "properties": {"collection_times": [{"days": "Mon-Fri", "time": "4:15pm"}, {"days": "Sat", "time": "10:45am"}, {"days": "Sun", "time": "Closed"}], "id": "1774400001", "name": "USPS COLLECTION BOX - BLUE BOX", "address": {"city": "LINDEN", "state": "PA", "street": "224 FRONT ST", "postcode": "17744"}}},
{"geometry": {"type": "Point", "coordinates": [-77.1387628297, 41.2308331054]}, "type": "Feature", "properties": {"collection_times": [{"days": "Mon-Fri", "time": "4:15pm"}, {"days": "Sat", "time": "10:45am"}, {"days": "Sun", "time": "Closed"}], "id": "1774400002", "name": "USPS COLLECTION BOX - PO LOBBY", "address": {"city": "LINDEN", "state": "PA", "street": "224 FRONT ST", "postcode": "17744"}}},
{"geometry": {"type": "Point", "coordinates": [-77.4608919238, 41.1407170132]}, "type": "Feature", "properties": {"collection_times": [{"days": "Mon-Sat", "time": "12:30pm"}, {"days": "Sun", "time": "Closed"}], "id": "1774500002", "name": "USPS COLLECTION BOX - BLUE BOX", "address": {"city": "LOCK HAVEN", "state": "PA", "street": "401 N FAIRVIEW ST", "postcode": "17745"}}},
{"geometry": {"type": "Point", "coordinates": [-77.4554962761, 41.1355316425]}, "type": "Feature", "properties": {"collection_times": [{"days": "Mon-Sat", "time": "9:00am"}, {"days": "Sun", "time": "Closed"}], "id": "1774500007", "name": "USPS COLLECTION BOX - BLUE BOX", "address": {"city": "LOCK HAVEN", "state": "PA", "street": "50 N JONES ST", "postcode": "17745"}}},
{"geometry": {"type": "Point", "coordinates": [-77.4206536703, 41.1429416202]}, "type": "Feature", "properties": {"collection_times": [{"days": "Mon-Sat", "time": "1:00pm"}, {"days": "Sun", "time": "Closed"}], "id": "1774500012", "name": "USPS COLLECTION BOX - BLUE BOX", "address": {"city": "LOCK HAVEN", "state": "PA", "street": "41 CHURCH ST", "postcode": "17745"}}},
{"geometry": {"type": "Point", "coordinates": [-77.44441695, 41.1340126459]}, "type": "Feature", "properties": {"collection_times": [{"days": "Mon-Sat", "time": "2:00pm"}, {"days": "Sun", "time": "Closed"}], "id": "1774500013", "name": "USPS COLLECTION BOX - BLUE BOX", "address": {"city": "LOCK HAVEN", "state": "PA", "street": "8 N GROVE ST", "postcode": "17745"}}},
{"geometry": {"type": "Point", "coordinates": [-77.4447872945, 41.1381859046]}, "type": "Feature", "properties": {"collection_times": [{"days": "Mon-Sat", "time": "9:00am"}, {"days": "Sun", "time": "Closed"}], "id": "1774500016", "name": "USPS COLLECTION BOX - BLUE BOX", "address": {"city": "LOCK HAVEN", "state": "PA", "street": "146 E WATER ST", "postcode": "17745"}}},
{"geometry": {"type": "Point", "coordinates": [-77.4424836955, 41.1379535647]}, "type": "Feature", "properties": {"collection_times": [{"days": "Mon-Sat", "time": "9:00am"}, {"days": "Sun", "time": "Closed"}], "id": "1774500017", "name": "USPS COLLECTION BOX - BLUE BOX", "address": {"city": "LOCK HAVEN", "state": "PA", "street": "230 E WATER ST", "postcode": "17745"}}},
{"geometry": {"type": "Point", "coordinates": [-77.46108011, 41.1271810579]}, "type": "Feature", "properties": {"collection_times": [{"days": "Mon-Sat", "time": "10:45am"}, {"days": "Sun", "time": "Closed"}], "id": "1774500018", "name": "USPS COLLECTION BOX - BLUE BOX", "address": {"city": "LOCK HAVEN", "state": "PA", "street": "369 LINDEN CIR", "postcode": "17745"}}},
{"geometry": {"type": "Point", "coordinates": [-77.4703308491, 41.132770539]}, "type": "Feature", "properties": {"collection_times": [{"days": "Mon-Sat", "time": "10:00am"}, {"days": "Sun", "time": "Closed"}], "id": "1774500020", "name": "USPS COLLECTION BOX - BLUE BOX", "address": {"city": "LOCK HAVEN", "state": "PA", "street": "24 CREE DR", "postcode": "17745"}}},
{"geometry": {"type": "Point", "coordinates": [-77.4587070943, 41.1336459286]}, "type": "Feature", "properties": {"collection_times": [{"days": "Mon-Sat", "time": "12:00pm"}, {"days": "Sun", "time": "Closed"}], "id": "1774500022", "name": "USPS COLLECTION BOX - BLUE BOX", "address": {"city": "LOCK HAVEN", "state": "PA", "street": "32 N SUMMIT ST", "postcode": "17745"}}},
{"geometry": {"type": "Point", "coordinates": [-77.4475528267, 41.1374244522]}, "type": "Feature", "properties": {"collection_times": [{"days": "Mon-Fri", "time": "5:00pm"}, {"days": "Sat", "time": "4:00pm"}, {"days": "Sun", "time": "Closed"}], "id": "1774500038", "name": "USPS COLLECTION BOX - BLUE BOX", "address": {"city": "LOCK HAVEN", "state": "PA", "street": "15 W MAIN ST", "postcode": "17745"}}},
{"geometry": {"type": "Point", "coordinates": [-77.4475528266, 41.1374244518]}, "type": "Feature", "properties": {"collection_times": [{"days": "Mon-Fri", "time": "5:00pm"}, {"days": "Sat", "time": "4:00pm"}, {"days": "Sun", "time": "Closed"}], "id": "1774500039", "name": "USPS COLLECTION BOX - BLUE BOX", "address": {"city": "LOCK HAVEN", "state": "PA", "street": "15 W MAIN ST", "postcode": "17745"}}},
{"geometry": {"type": "Point", "coordinates": [-77.4475528267, 41.1374244522]}, "type": "Feature", "properties": {"collection_times": [{"days": "Mon-Fri", "time": "5:00pm"}, {"days": "Sat", "time": "4:00pm"}, {"days": "Sun", "time": "Closed"}], "id": "1774500044", "name": "USPS COLLECTION BOX - BLUE BOX", "address": {"city": "LOCK HAVEN", "state": "PA", "street": "15 W MAIN ST", "postcode": "17745"}}},
{"geometry": {"type": "Point", "coordinates": [-77.4324901472, 41.1209683593]}, "type": "Feature", "properties": {"collection_times": [{"days": "Mon-Sat", "time": "2:00pm"}, {"days": "Sun", "time": "Closed"}], "id": "1774500047", "name": "USPS COLLECTION BOX - BLUE BOX", "address": {"city": "LOCK HAVEN", "state": "PA", "street": "JARRETT AVE", "postcode": "17745"}}},
{"geometry": {"type": "Point", "coordinates": [-77.4475528266, 41.1374244518]}, "type": "Feature", "properties": {"collection_times": [{"days": "Mon-Fri", "time": "5:30pm"}, {"days": "Sat", "time": "4:00pm"}, {"days": "Sun", "time": "Closed"}], "id": "1774500048", "name": "USPS COLLECTION BOX - PO LOBBY", "address": {"city": "LOCK HAVEN", "state": "PA", "street": "15 W MAIN ST", "postcode": "17745"}}},
{"geometry": {"type": "Point", "coordinates": [-77.4435723173, 41.1369700433]}, "type": "Feature", "properties": {"collection_times": [{"days": "Mon-Sat", "time": "11:00am"}, {"days": "Sun", "time": "Closed"}], "id": "1774500050", "name": "USPS COLLECTION BOX - BLUE BOX", "address": {"city": "LOCK HAVEN", "state": "PA", "street": "201 E MAIN ST", "postcode": "17745"}}},
{"geometry": {"type": "Point", "coordinates": [-77.4425676552, 41.1359832566]}, "type": "Feature", "properties": {"collection_times": [{"days": "Mon-Sat", "time": "2:30pm"}, {"days": "Sun", "time": "Closed"}], "id": "1774500051", "name": "USPS COLLECTION BOX - BLUE BOX", "address": {"city": "LOCK HAVEN", "state": "PA", "street": "221 N JAY ST", "postcode": "17745"}}},
{"geometry": {"type": "Point", "coordinates": [-77.3099322601, 41.033487159]}, "type": "Feature", "properties": {"collection_times": [{"days": "Mon-Fri", "time": "4:00pm"}, {"days": "Sat", "time": "11:00am"}, {"days": "Sun", "time": "Closed"}], "id": "1774700002", "name": "USPS COLLECTION BOX - BLUE BOX", "address": {"city": "LOGANTON", "state": "PA", "street": "83 W MAIN ST", "postcode": "17747"}}},
{"geometry": {"type": "Point", "coordinates": [-77.3099322601, 41.033487159]}, "type": "Feature", "properties": {"collection_times": [{"days": "Mon-Fri", "time": "4:00pm"}, {"days": "Sat", "time": "11:00am"}, {"days": "Sun", "time": "Closed"}], "id": "1774700003", "name": "USPS COLLECTION BOX - PO LOBBY", "address": {"city": "LOGANTON", "state": "PA", "street": "83 W MAIN ST", "postcode": "17747"}}},
{"geometry": {"type": "Point", "coordinates": [-77.448128338, 41.1374298112]}, "type": "Feature", "properties": {"collection_times": [{"days": "Mon-Fri", "time": "4:45pm"}, {"days": "Sat", "time": "10:45am"}, {"days": "Sun", "time": "Closed"}], "id": "1774800001", "name": "USPS COLLECTION BOX - BLUE BOX", "address": {"city": "MC ELHATTAN", "state": "PA", "street": "529 MC ELHATTAN DR", "postcode": "17748"}}},
{"geometry": {"type": "Point", "coordinates": [-77.448128338, 41.1374298112]}, "type": "Feature", "properties": {"collection_times": [{"days": "Mon-Fri", "time": "4:45pm"}, {"days": "Sat", "time": "10:45am"}, {"days": "Sun", "time": "Closed"}], "id": "1774800002", "name": "USPS COLLECTION BOX - PO LOBBY", "address": {"city": "MC ELHATTAN", "state": "PA", "street": "529 MC ELHATTAN DR", "postcode": "17748"}}},
{"geometry": {"type": "Point", "coordinates": [-76.8185881291, 41.0737899538]}, "type": "Feature", "properties": {"collection_times": [{"days": "Mon-Fri", "time": "4:30pm"}, {"days": "Sat", "time": "9:45am"}, {"days": "Sun", "time": "Closed"}], "id": "1774900001", "name": "USPS COLLECTION BOX - BLUE BOX", "address": {"city": "MC EWENSVILLE", "state": "PA", "street": "8 POTASH ST", "postcode": "17749"}}},
{"geometry": {"type": "Point", "coordinates": [-76.8185881291, 41.0737899538]}, "type": "Feature", "properties": {"collection_times": [{"days": "Mon-Fri", "time": "4:30pm"}, {"days": "Sat", "time": "9:45am"}, {"days": "Sun", "time": "Closed"}], "id": "1774900002", "name": "USPS COLLECTION BOX - PO LOBBY", "address": {"city": "MC EWENSVILLE", "state": "PA", "street": "8 POTASH ST", "postcode": "17749"}}},
{"geometry": {"type": "Point", "coordinates": [-77.4447468697, 41.0561822203]}, "type": "Feature", "properties": {"collection_times": [{"days": "Mon-Fri", "time": "4:30pm"}, {"days": "Sat", "time": "9:45am"}, {"days": "Sun", "time": "Closed"}], "id": "1775000001", "name": "USPS COLLECTION BOX - BLUE BOX", "address": {"city": "MACKEYVILLE", "state": "PA", "street": "191 MACKEYVILLE RD", "postcode": "17750"}}},
{"geometry": {"type": "Point", "coordinates": [-77.4447468697, 41.0561822203]}, "type": "Feature", "properties": {"collection_times": [{"days": "Mon-Fri", "time": "12:30pm"}, {"days": "Sat", "time": "9:45am"}, {"days": "Sun", "time": "Closed"}], "id": "1775000002", "name": "USPS COLLECTION BOX - PO LOBBY", "address": {"city": "MACKEYVILLE", "state": "PA", "street": "191 MACKEYVILLE RD", "postcode": "17750"}}},
{"geometry": {"type": "Point", "coordinates": [-77.4768873931, 41.1162979943]}, "type": "Feature", "properties": {"collection_times": [{"days": "Mon-Sat", "time": "10:00am"}, {"days": "Sun", "time": "Closed"}], "id": "1775100001", "name": "USPS COLLECTION BOX - BLUE BOX", "address": {"city": "MILL HALL", "state": "PA", "street": "2 MILLBROOK PLZ", "postcode": "17751"}}},
{"geometry": {"type": "Point", "coordinates": [-77.4883910836, 41.1036732973]}, "type": "Feature", "properties": {"collection_times": [{"days": "Mon-Sat", "time": "9:00am"}, {"days": "Sun", "time": "Closed"}], "id": "1775100004", "name": "USPS COLLECTION BOX - BLUE BOX", "address": {"city": "MILL HALL", "state": "PA", "street": "115 S CHESTNUT ST", "postcode": "17751"}}},
{"geometry": {"type": "Point", "coordinates": [-77.4849806129, 41.1059575911]}, "type": "Feature", "properties": {"collection_times": [{"days": "Mon-Fri", "time": "5:00pm"}, {"days": "Sat", "time": "11:45am"}, {"days": "Sun", "time": "Closed"}], "id": "1775100009", "name": "USPS COLLECTION BOX - BLUE BOX", "address": {"city": "MILL HALL", "state": "PA", "street": "15 PENNSYLVANIA AVE", "postcode": "17751"}}},
{"geometry": {"type": "Point", "coordinates": [-77.4849806129, 41.1059575911]}, "type": "Feature", "properties": {"collection_times": [{"days": "Mon-Fri", "time": "5:00pm"}, {"days": "Sat", "time": "11:45am"}, {"days": "Sun", "time": "Closed"}], "id": "1775100011", "name": "USPS COLLECTION BOX - BLUE BOX", "address": {"city": "MILL HALL", "state": "PA", "street": "15 PENNSYLVANIA AVE", "postcode": "17751"}}},
{"geometry": {"type": "Point", "coordinates": [-77.486591803, 41.1010802513]}, "type": "Feature", "properties": {"collection_times": [{"days": "Mon-Sat", "time": "12:00pm"}, {"days": "Sun", "time": "Closed"}], "id": "1775100013", "name": "USPS COLLECTION BOX - BLUE BOX", "address": {"city": "MILL HALL", "state": "PA", "street": "22 E ARCH ST", "postcode": "17751"}}},
{"geometry": {"type": "Point", "coordinates": [-77.4849806129, 41.1059575911]}, "type": "Feature", "properties": {"collection_times": [{"days": "Mon-Fri", "time": "5:00pm"}, {"days": "Sat", "time": "11:45am"}, {"days": "Sun", "time": "Closed"}], "id": "1775100014", "name": "USPS COLLECTION BOX - PO LOBBY", "address": {"city": "MILL HALL", "state": "PA", "street": "15 PENNSYLVANIA AVE", "postcode": "17751"}}},
{"geometry": {"type": "Point", "coordinates": [-77.4790800136, 41.1153550171]}, "type": "Feature", "properties": {"collection_times": [{"days": "Mon-Sat", "time": "10:00am"}, {"days": "Sun", "time": "Closed"}], "id": "1775100016", "name": "USPS COLLECTION BOX - BLUE BOX", "address": {"city": "MILL HALL", "state": "PA", "street": "167 HOGAN BLVD", "postcode": "17751"}}},
{"geometry": {"type": "Point", "coordinates": [-77.521694217, 41.028099198]}, "type": "Feature", "properties": {"collection_times": [{"days": "Mon-Sat", "time": "10:15am"}, {"days": "Sun", "time": "Closed"}], "id": "1775100017", "name": "USPS COLLECTION BOX - BLUE BOX", "address": {"city": "MILL HALL", "state": "PA", "street": "5603 NITTANY VALLEY DR", "postcode": "17751"}}},
{"geometry": {"type": "Point", "coordinates": [-77.5218297847, 41.0278148708]}, "type": "Feature", "properties": {"collection_times": [{"days": "Mon-Sat", "time": "10:15am"}, {"days": "Sun", "time": "Closed"}], "id": "1775100018", "name": "USPS COLLECTION BOX - BLUE BOX", "address": {"city": "MILL HALL", "state": "PA", "street": "5600 NITTANY VALLEY DR", "postcode": "17751"}}},
{"geometry": {"type": "Point", "coordinates": [-76.8769811085, 41.1706879227]}, "type": "Feature", "properties": {"collection_times": [{"days": "Mon-Sat", "time": "2:00pm"}, {"days": "Sun", "time": "Closed"}], "id": "1775200001", "name": "USPS COLLECTION BOX - BLUE BOX", "address": {"city": "MONTGOMERY", "state": "PA", "street": "11 N MAIN ST", "postcode": "17752"}}},
{"geometry": {"type": "Point", "coordinates": [-76.8761435735, 41.1791496282]}, "type": "Feature", "properties": {"collection_times": [{"days": "Mon-Sat", "time": "11:30am"}, {"days": "Sun", "time": "Closed"}], "id": "1775200002", "name": "USPS COLLECTION BOX - BLUE BOX", "address": {"city": "MONTGOMERY", "state": "PA", "street": "2190 STATE ROUTE 54", "postcode": "17752"}}},
{"geometry": {"type": "Point", "coordinates": [-76.8723864958, 41.1754824554]}, "type": "Feature", "properties": {"collection_times": [{"days": "Mon-Sat", "time": "10:30am"}, {"days": "Sun", "time": "Closed"}], "id": "1775200003", "name": "USPS COLLECTION BOX - BLUE BOX", "address": {"city": "MONTGOMERY", "state": "PA", "street": "129 PENN ST", "postcode": "17752"}}},
{"geometry": {"type": "Point", "coordinates": [-76.8555920274, 41.1814824233]}, "type": "Feature", "properties": {"collection_times": [{"days": "Mon-Sat", "time": "10:00am"}, {"days": "Sun", "time": "Closed"}], "id": "1775200008", "name": "USPS COLLECTION BOX - BLUE BOX", "address": {"city": "MONTGOMERY", "state": "PA", "street": "65 SHERWOOD DR", "postcode": "17752"}}},
{"geometry": {"type": "Point", "coordinates": [-76.8757117935, 41.169268372]}, "type": "Feature", "properties": {"collection_times": [{"days": "Mon-Fri", "time": "4:30pm"}, {"days": "Sat", "time": "11:30am"}, {"days": "Sun", "time": "Closed"}], "id": "1775200009", "name": "USPS COLLECTION BOX - BLUE BOX", "address": {"city": "MONTGOMERY", "state": "PA", "street": "1 HENRY HAND DR", "postcode": "17752"}}},
{"geometry": {"type": "Point", "coordinates": [-76.8757117935, 41.169268372]}, "type": "Feature", "properties": {"collection_times": [{"days": "Mon-Fri", "time": "4:30pm"}, {"days": "Sat", "time": "11:30am"}, {"days": "Sun", "time": "Closed"}], "id": "1775200010", "name": "USPS COLLECTION BOX - BLUE BOX", "address": {"city": "MONTGOMERY", "state": "PA", "street": "1 HENRY HAND DR", "postcode": "17752"}}},
{"geometry": {"type": "Point", "coordinates": [-76.8757117935, 41.169268372]}, "type": "Feature", "properties": {"collection_times": [{"days": "Mon-Fri", "time": "4:30pm"}, {"days": "Sat", "time": "11:30am"}, {"days": "Sun", "time": "Closed"}], "id": "1775200012", "name": "USPS COLLECTION BOX - PO LOBBY", "address": {"city": "MONTGOMERY", "state": "PA", "street": "1 HENRY HAND DR", "postcode": "17752"}}},
{"geometry": {"type": "Point", "coordinates": [-76.9146178024, 41.2534604247]}, "type": "Feature", "properties": {"collection_times": [{"days": "Mon-Sat", "time": "12:00pm"}, {"days": "Sun", "time": "Closed"}], "id": "1775400007", "name": "USPS COLLECTION BOX - BLUE BOX", "address": {"city": "MONTOURSVILLE", "state": "PA", "street": "899 SPRUCE ST", "postcode": "17754"}}},
{"geometry": {"type": "Point", "coordinates": [-76.9243325899, 41.2493073755]}, "type": "Feature", "properties": {"collection_times": [{"days": "Mon-Sat", "time": "12:30pm"}, {"days": "Sun", "time": "Closed"}], "id": "1775400010", "name": "USPS COLLECTION BOX - BLUE BOX", "address": {"city": "MONTOURSVILLE", "state": "PA", "street": "400 BROAD ST", "postcode": "17754"}}},
{"geometry": {"type": "Point", "coordinates": [-76.9124071588, 41.245981891]}, "type": "Feature", "properties": {"collection_times": [{"days": "Mon-Sat", "time": "10:00am"}, {"days": "Sun", "time": "Closed"}], "id": "1775400011", "name": "USPS COLLECTION BOX - BLUE BOX", "address": {"city": "MONTOURSVILLE", "state": "PA", "street": "942 PLAZA DR", "postcode": "17754"}}},
{"geometry": {"type": "Point", "coordinates": [-76.9081686386, 41.2496007494]}, "type": "Feature", "properties": {"collection_times": [{"days": "Mon-Sat", "time": "9:00am"}, {"days": "Sun", "time": "Closed"}], "id": "1775400012", "name": "USPS COLLECTION BOX - BLUE BOX", "address": {"city": "MONTOURSVILLE", "state": "PA", "street": "1098 MULBERRY ST", "postcode": "17754"}}},
{"geometry": {"type": "Point", "coordinates": [-76.915510082, 41.2481634542]}, "type": "Feature", "properties": {"collection_times": [{"days": "Mon-Fri", "time": "12:30pm"}, {"days": "Sat", "time": "10:30am"}, {"days": "Sun", "time": "Closed"}], "id": "1775400013", "name": "USPS COLLECTION BOX - BLUE BOX", "address": {"city": "MONTOURSVILLE", "state": "PA", "street": "780 BROAD ST", "postcode": "17754"}}},
{"geometry": {"type": "Point", "coordinates": [-76.9262430686, 41.2495475162]}, "type": "Feature", "properties": {"collection_times": [{"days": "Mon-Fri", "time": "4:30pm"}, {"days": "Sat", "time": "12:30pm"}, {"days": "Sun", "time": "Closed"}], "id": "1775400014", "name": "USPS COLLECTION BOX - BLUE BOX", "address": {"city": "MONTOURSVILLE", "state": "PA", "street": "335 BROAD ST", "postcode": "17754"}}},
{"geometry": {"type": "Point", "coordinates": [-76.9262430686, 41.2495475162]}, "type": "Feature", "properties": {"collection_times": [{"days": "Mon-Fri", "time": "4:30pm"}, {"days": "Sat", "time": "12:30pm"}, {"days": "Sun", "time": "Closed"}], "id": "1775400015", "name": "USPS COLLECTION BOX - BLUE BOX", "address": {"city": "MONTOURSVILLE", "state": "PA", "street": "335 BROAD ST", "postcode": "17754"}}},
{"geometry": {"type": "Point", "coordinates": [-76.9211386007, 41.2460376769]}, "type": "Feature", "properties": {"collection_times": [{"days": "Mon-Fri", "time": "12:30pm"}, {"days": "Sat", "time": "9:00am"}, {"days": "Sun", "time": "Closed"}], "id": "1775400016", "name": "USPS COLLECTION BOX - BLUE BOX", "address": {"city": "MONTOURSVILLE", "state": "PA", "street": "700 AIRPORT RD", "postcode": "17754"}}},
{"geometry": {"type": "Point", "coordinates": [-76.9262430686, 41.2495475162]}, "type": "Feature", "properties": {"collection_times": [{"days": "Mon-Fri", "time": "4:30pm"}, {"days": "Sat", "time": "12:30pm"}, {"days": "Sun", "time": "Closed"}], "id": "1775400018", "name": "USPS COLLECTION BOX - PO LOBBY", "address": {"city": "MONTOURSVILLE", "state": "PA", "street": "335 BROAD ST", "postcode": "17754"}}},
{"geometry": {"type": "Point", "coordinates": [-76.9162766394, 41.2603834203]}, "type": "Feature", "properties": {"collection_times": [{"days": "Mon-Sat", "time": "12:30pm"}, {"days": "Sun", "time": "Closed"}], "id": "1775400022", "name": "USPS COLLECTION BOX - BLUE BOX", "address": {"city": "MONTOURSVILLE", "state": "PA", "street": "999 N LOYALSOCK AVE", "postcode": "17754"}}},
{"geometry": {"type": "Point", "coordinates": [-76.7546797849, 41.2135713772]}, "type": "Feature", "properties": {"collection_times": [{"days": "Mon-Sat", "time": "12:45pm"}, {"days": "Sun", "time": "Closed"}], "id": "1775600001", "name": "USPS COLLECTION BOX - BLUE BOX", "address": {"city": "MUNCY", "state": "PA", "street": "2185 STATE ROUTE 442", "postcode": "17756"}}},
{"geometry": {"type": "Point", "coordinates": [-76.8110061249, 41.2375336474]}, "type": "Feature", "properties": {"collection_times": [{"days": "Mon-Sat", "time": "11:00am"}, {"days": "Sun", "time": "Closed"}], "id": "1775600002", "name": "USPS COLLECTION BOX - BLUE BOX", "address": {"city": "MUNCY", "state": "PA", "street": "24 LYCOMING MALL", "postcode": "17756"}}},
{"geometry": {"type": "Point", "coordinates": [-76.7861334088, 41.2037433451]}, "type": "Feature", "properties": {"collection_times": [{"days": "Mon-Fri", "time": "4:00pm"}, {"days": "Sat", "time": "12:00pm"}, {"days": "Sun", "time": "Closed"}], "id": "1775600007", "name": "USPS COLLECTION BOX - BLUE BOX", "address": {"city": "MUNCY", "state": "PA", "street": "101 S MAIN ST", "postcode": "17756"}}},
{"geometry": {"type": "Point", "coordinates": [-76.786307013, 41.205537947]}, "type": "Feature", "properties": {"collection_times": [{"days": "Mon-Fri", "time": "2:00pm"}, {"days": "Sat", "time": "11:00am"}, {"days": "Sun", "time": "Closed"}], "id": "1775600010", "name": "USPS COLLECTION BOX - BLUE BOX", "address": {"city": "MUNCY", "state": "PA", "street": "2 N MAIN ST", "postcode": "17756"}}},
{"geometry": {"type": "Point", "coordinates": [-76.7794567884, 41.2075110694]}, "type": "Feature", "properties": {"collection_times": [{"days": "Mon-Sat", "time": "1:00pm"}, {"days": "Sun", "time": "Closed"}], "id": "1775600015", "name": "USPS COLLECTION BOX - BLUE BOX", "address": {"city": "MUNCY", "state": "PA", "street": "158 E WATER ST", "postcode": "17756"}}},
{"geometry": {"type": "Point", "coordinates": [-76.7847588105, 41.2050635273]}, "type": "Feature", "properties": {"collection_times": [{"days": "Mon-Sat", "time": "2:00pm"}, {"days": "Sun", "time": "Closed"}], "id": "1775600018", "name": "USPS COLLECTION BOX - BLUE BOX", "address": {"city": "MUNCY", "state": "PA", "street": "8 S WASHINGTON ST", "postcode": "17756"}}},
{"geometry": {"type": "Point", "coordinates": [-76.7861334088, 41.2037433451]}, "type": "Feature", "properties": {"collection_times": [{"days": "Mon-Fri", "time": "4:00pm"}, {"days": "Sat", "time": "12:00pm"}, {"days": "Sun", "time": "Closed"}], "id": "1775600020", "name": "USPS COLLECTION BOX - BLUE BOX", "address": {"city": "MUNCY", "state": "PA", "street": "101 S MAIN ST", "postcode": "17756"}}},
{"geometry": {"type": "Point", "coordinates": [-76.7861334088, 41.2037433451]}, "type": "Feature", "properties": {"collection_times": [{"days": "Mon-Fri", "time": "4:00pm"}, {"days": "Sat", "time": "12:00pm"}, {"days": "Sun", "time": "Closed"}], "id": "1775600024", "name": "USPS COLLECTION BOX - PO LOBBY", "address": {"city": "MUNCY", "state": "PA", "street": "101 S MAIN ST", "postcode": "17756"}}},
{"geometry": {"type": "Point", "coordinates": [-76.7611126438, 41.210867124]}, "type": "Feature", "properties": {"collection_times": [{"days": "Mon-Sat", "time": "9:30am"}, {"days": "Sun", "time": "Closed"}], "id": "1775600025", "name": "USPS COLLECTION BOX - BLUE BOX", "address": {"city": "MUNCY", "state": "PA", "street": "1272 E PENN ST", "postcode": "17756"}}},
{"geometry": {"type": "Point", "coordinates": [-76.5530584943, 41.3540932465]}, "type": "Feature", "properties": {"collection_times": [{"days": "Mon-Fri", "time": "4:00pm"}, {"days": "Sat", "time": "10:00am"}, {"days": "Sun", "time": "Closed"}], "id": "1775800001", "name": "USPS COLLECTION BOX - BLUE BOX", "address": {"city": "MUNCY VALLEY", "state": "PA", "street": "17 BENDERS RD", "postcode": "17758"}}},
{"geometry": {"type": "Point", "coordinates": [-76.5530584943, 41.3540932465]}, "type": "Feature", "properties": {"collection_times": [{"days": "Mon-Fri", "time": "12:00pm"}, {"days": "Sat", "time": "10:00am"}, {"days": "Sun", "time": "Closed"}], "id": "1775800002", "name": "USPS COLLECTION BOX - PO LOBBY", "address": {"city": "MUNCY VALLEY", "state": "PA", "street": "17 BENDERS RD", "postcode": "17758"}}},
{"geometry": {"type": "Point", "coordinates": [-77.7028708284, 41.3452253024]}, "type": "Feature", "properties": {"collection_times": [{"days": "Mon-Fri", "time": "4:45pm"}, {"days": "Sat", "time": "10:30am"}, {"days": "Sun", "time": "Closed"}], "id": "1776000001", "name": "USPS COLLECTION BOX - BLUE BOX", "address": {"city": "NORTH BEND", "state": "PA", "street": "232 MAIN ST", "postcode": "17760"}}},
{"geometry": {"type": "Point", "coordinates": [-77.7028708284, 41.3452253024]}, "type": "Feature", "properties": {"collection_times": [{"days": "Mon-Fri", "time": "4:45pm"}, {"days": "Sat", "time": "10:30am"}, {"days": "Sun", "time": "Closed"}], "id": "1776000002", "name": "USPS COLLECTION BOX - PO LOBBY", "address": {"city": "NORTH BEND", "state": "PA", "street": "232 MAIN ST", "postcode": "17760"}}},
{"geometry": {"type": "Point", "coordinates": [-76.713595822, 41.2800566897]}, "type": "Feature", "properties": {"collection_times": [{"days": "Mon-Fri", "time": "4:30pm"}, {"days": "Sat", "time": "10:15am"}, {"days": "Sun", "time": "Closed"}], "id": "1776200001", "name": "USPS COLLECTION BOX - BLUE BOX", "address": {"city": "PICTURE ROCKS", "state": "PA", "street": "21 LAUREL RUN RD", "postcode": "17762"}}},
{"geometry": {"type": "Point", "coordinates": [-76.713595822, 41.2800566897]}, "type": "Feature", "properties": {"collection_times": [{"days": "Mon-Fri", "time": "4:30pm"}, {"days": "Sat", "time": "10:15am"}, {"days": "Sun", "time": "Closed"}], "id": "1776200002", "name": "USPS COLLECTION BOX - PO LOBBY", "address": {"city": "PICTURE ROCKS", "state": "PA", "street": "21 LAUREL RUN RD", "postcode": "17762"}}},
{"geometry": {"type": "Point", "coordinates": [-76.9547902344, 41.5052925978]}, "type": "Feature", "properties": {"collection_times": [{"days": "Mon-Fri", "time": "4:45pm"}, {"days": "Sat", "time": "10:45am"}, {"days": "Sun", "time": "Closed"}], "id": "1776300001", "name": "USPS COLLECTION BOX - BLUE BOX", "address": {"city": "RALSTON", "state": "PA", "street": "10975 ROUTE 14", "postcode": "17763"}}},
{"geometry": {"type": "Point", "coordinates": [-76.9806875814, 41.4757713467]}, "type": "Feature", "properties": {"collection_times": [{"days": "Mon-Fri", "time": "4:45pm"}, {"days": "Sat", "time": "10:45am"}, {"days": "Sun", "time": "Closed"}], "id": "1776300002", "name": "USPS COLLECTION BOX - PO LOBBY", "address": {"city": "RALSTON", "state": "PA", "street": "10975 ROUTE 14", "postcode": "17763"}}},
{"geometry": {"type": "Point", "coordinates": [-77.7474625735, 41.3272134586]}, "type": "Feature", "properties": {"collection_times": [{"days": "Mon-Fri", "time": "2:30pm"}, {"days": "Sat", "time": "12:00pm"}, {"days": "Sun", "time": "Closed"}], "id": "1776400003", "name": "USPS COLLECTION BOX - BLUE BOX", "address": {"city": "RENOVO", "state": "PA", "street": "1101 HURON AVE", "postcode": "17764"}}},
{"geometry": {"type": "Point", "coordinates": [-77.7453369817, 41.3247389113]}, "type": "Feature", "properties": {"collection_times": [{"days": "Mon-Fri", "time": "2:30pm"}, {"days": "Sat", "time": "12:00pm"}, {"days": "Sun", "time": "Closed"}], "id": "1776400004", "name": "USPS COLLECTION BOX - BLUE BOX", "address": {"city": "RENOVO", "state": "PA", "street": "416 4TH ST", "postcode": "17764"}}},
{"geometry": {"type": "Point", "coordinates": [-77.7485510061, 41.3229660683]}, "type": "Feature", "properties": {"collection_times": [{"days": "Mon-Fri", "time": "1:00pm"}, {"days": "Sat", "time": "12:00pm"}, {"days": "Sun", "time": "Closed"}], "id": "1776400005", "name": "USPS COLLECTION BOX - BLUE BOX", "address": {"city": "RENOVO", "state": "PA", "street": "167 PENNSYLVANIA AVE", "postcode": "17764"}}},
{"geometry": {"type": "Point", "coordinates": [-77.7562311059, 41.3255680617]}, "type": "Feature", "properties": {"collection_times": [{"days": "Mon-Fri", "time": "5:00pm"}, {"days": "Sat", "time": "3:00pm"}, {"days": "Sun", "time": "Closed"}], "id": "1776400006", "name": "USPS COLLECTION BOX - BLUE BOX", "address": {"city": "RENOVO", "state": "PA", "street": "365 HURON AVE", "postcode": "17764"}}},
{"geometry": {"type": "Point", "coordinates": [-77.7300885275, 41.3318648987]}, "type": "Feature", "properties": {"collection_times": [{"days": "Mon-Sat", "time": "9:30am"}, {"days": "Sun", "time": "Closed"}], "id": "1776400007", "name": "USPS COLLECTION BOX - BLUE BOX", "address": {"city": "RENOVO", "state": "PA", "street": "2151 DELAWARE AVE", "postcode": "17764"}}},
{"geometry": {"type": "Point", "coordinates": [-77.7562311059, 41.3255680617]}, "type": "Feature", "properties": {"collection_times": [{"days": "Mon-Fri", "time": "5:00pm"}, {"days": "Sat", "time": "3:00pm"}, {"days": "Sun", "time": "Closed"}], "id": "1776400012", "name": "USPS COLLECTION BOX - PO LOBBY", "address": {"city": "RENOVO", "state": "PA", "street": "365 HURON AVE", "postcode": "17764"}}},
{"geometry": {"type": "Point", "coordinates": [-77.7509529058, 41.3263939159]}, "type": "Feature", "properties": {"collection_times": [{"days": "Mon-Fri", "time": "2:30pm"}, {"days": "Sat", "time": "12:00pm"}, {"days": "Sun", "time": "Closed"}], "id": "1776400013", "name": "USPS COLLECTION BOX - BLUE BOX", "address": {"city": "RENOVO", "state": "PA", "street": "211 8TH ST", "postcode": "17764"}}},
{"geometry": {"type": "Point", "coordinates": [-76.9541589875, 41.5838223309]}, "type": "Feature", "properties": {"collection_times": [{"days": "Mon-Fri", "time": "4:30pm"}, {"days": "Sat", "time": "10:15am"}, {"days": "Sun", "time": "Closed"}], "id": "1776500001", "name": "USPS COLLECTION BOX - BLUE BOX", "address": {"city": "ROARING BRANCH", "state": "PA", "street": "986 ROUTE 14", "postcode": "17765"}}},
{"geometry": {"type": "Point", "coordinates": [-76.9541589875, 41.5838223309]}, "type": "Feature", "properties": {"collection_times": [{"days": "Mon-Fri", "time": "4:45pm"}, {"days": "Sat", "time": "10:15am"}, {"days": "Sun", "time": "Closed"}], "id": "1776500002", "name": "USPS COLLECTION BOX - PO LOBBY", "address": {"city": "ROARING BRANCH", "state": "PA", "street": "986 ROUTE 14", "postcode": "17765"}}},
{"geometry": {"type": "Point", "coordinates": [-76.7393984006, 41.5465508737]}, "type": "Feature", "properties": {"collection_times": [{"days": "Mon-Sat", "time": "11:00am"}, {"days": "Sun", "time": "Closed"}], "id": "1776800001", "name": "USPS COLLECTION BOX - BLUE BOX", "address": {"city": "SHUNK", "state": "PA", "street": "9922 ROUTE 154 STE 2", "postcode": "17768"}}},
{"geometry": {"type": "Point", "coordinates": [-76.7393984006, 41.5465508737]}, "type": "Feature", "properties": {"collection_times": [{"days": "Mon-Sat", "time": "11:30am"}, {"days": "Sun", "time": "Closed"}], "id": "1776800002", "name": "USPS COLLECTION BOX - PO LOBBY", "address": {"city": "SHUNK", "state": "PA", "street": "9922 ROUTE 154 STE 2", "postcode": "17768"}}},
{"geometry": {"type": "Point", "coordinates": [-77.0574970976, 41.3848094102]}, "type": "Feature", "properties": {"collection_times": [{"days": "Mon-Fri", "time": "4:00pm"}, {"days": "Sat", "time": "10:00am"}, {"days": "Sun", "time": "Closed"}], "id": "1777100001", "name": "USPS COLLECTION BOX - BLUE BOX", "address": {"city": "TROUT RUN", "state": "PA", "street": "67 MAIN ST", "postcode": "17771"}}},
{"geometry": {"type": "Point", "coordinates": [-77.0574970976, 41.3848094102]}, "type": "Feature", "properties": {"collection_times": [{"days": "Mon-Fri", "time": "4:00pm"}, {"days": "Sat", "time": "10:00am"}, {"days": "Sun", "time": "Closed"}], "id": "1777100003", "name": "USPS COLLECTION BOX - PO LOBBY", "address": {"city": "TROUT RUN", "state": "PA", "street": "67 MAIN ST", "postcode": "17771"}}},
{"geometry": {"type": "Point", "coordinates": [-76.7674166321, 41.1070506452]}, "type": "Feature", "properties": {"collection_times": [{"days": "Mon-Fri", "time": "3:45pm"}, {"days": "Sat", "time": "11:00am"}, {"days": "Sun", "time": "Closed"}], "id": "1777200002", "name": "USPS COLLECTION BOX - BLUE BOX", "address": {"city": "TURBOTVILLE", "state": "PA", "street": "4745 STATE ROUTE 54", "postcode": "17772"}}},
{"geometry": {"type": "Point", "coordinates": [-76.7674166321, 41.1070506452]}, "type": "Feature", "properties": {"collection_times": [{"days": "Mon-Fri", "time": "3:45pm"}, {"days": "Sat", "time": "11:00am"}, {"days": "Sun", "time": "Closed"}], "id": "1777200005", "name": "USPS COLLECTION BOX - PO LOBBY", "address": {"city": "TURBOTVILLE", "state": "PA", "street": "4745 STATE ROUTE 54", "postcode": "17772"}}},
{"geometry": {"type": "Point", "coordinates": [-76.5118625791, 41.2341301945]}, "type": "Feature", "properties": {"collection_times": [{"days": "Mon-Fri", "time": "4:15pm"}, {"days": "Sat", "time": "10:45am"}, {"days": "Sun", "time": "Closed"}], "id": "1777400001", "name": "USPS COLLECTION BOX - BLUE BOX", "address": {"city": "UNITYVILLE", "state": "PA", "street": "215 TALMAR RD", "postcode": "17774"}}},
{"geometry": {"type": "Point", "coordinates": [-76.5118625791, 41.2341301945]}, "type": "Feature", "properties": {"collection_times": [{"days": "Mon-Fri", "time": "11:30am"}, {"days": "Sat", "time": "10:45am"}, {"days": "Sun", "time": "Closed"}], "id": "1777400004", "name": "USPS COLLECTION BOX - PO LOBBY", "address": {"city": "UNITYVILLE", "state": "PA", "street": "215 TALMAR RD", "postcode": "17774"}}},
{"geometry": {"type": "Point", "coordinates": [-76.5259536614, 41.2498100454]}, "type": "Feature", "properties": {"collection_times": [{"days": "Mon-Sat", "time": "12:00pm"}, {"days": "Sun", "time": "Closed"}], "id": "1777400005", "name": "USPS COLLECTION BOX - BLUE BOX", "address": {"city": "UNITYVILLE", "state": "PA", "street": "11831 STATE ROUTE 118", "postcode": "17774"}}},
{"geometry": {"type": "Point", "coordinates": [-77.3248487862, 41.4078235839]}, "type": "Feature", "properties": {"collection_times": [{"days": "Mon-Fri", "time": "1:15pm"}, {"days": "Sat", "time": "11:00am"}, {"days": "Sun", "time": "Closed"}], "id": "1777600001", "name": "USPS COLLECTION BOX - BLUE BOX", "address": {"city": "WATERVILLE", "state": "PA", "street": "10702 STATE ROUTE 44", "postcode": "17776"}}},
{"geometry": {"type": "Point", "coordinates": [-77.3248487862, 41.4078235839]}, "type": "Feature", "properties": {"collection_times": [{"days": "Mon-Fri", "time": "1:15pm"}, {"days": "Sat", "time": "11:00am"}, {"days": "Sun", "time": "Closed"}], "id": "1777600003", "name": "USPS COLLECTION BOX - PO LOBBY", "address": {"city": "WATERVILLE", "state": "PA", "street": "10702 STATE ROUTE 44", "postcode": "17776"}}},
{"geometry": {"type": "Point", "coordinates": [-76.8621196532, 41.0830367693]}, "type": "Feature", "properties": {"collection_times": [{"days": "Mon-Sat", "time": "12:00pm"}, {"days": "Sun", "time": "Closed"}], "id": "1777700008", "name": "USPS COLLECTION BOX - BLUE BOX", "address": {"city": "WATSONTOWN", "state": "PA", "street": "216 MAIN ST", "postcode": "17777"}}},
{"geometry": {"type": "Point", "coordinates": [-76.8632587845, 41.0841071561]}, "type": "Feature", "properties": {"collection_times": [{"days": "Mon-Fri", "time": "4:30pm"}, {"days": "Sat", "time": "2:15pm"}, {"days": "Sun", "time": "Closed"}], "id": "1777700009", "name": "USPS COLLECTION BOX - BLUE BOX", "address": {"city": "WATSONTOWN", "state": "PA", "street": "316 MAIN ST", "postcode": "17777"}}},
{"geometry": {"type": "Point", "coordinates": [-76.8632587845, 41.0841071561]}, "type": "Feature", "properties": {"collection_times": [{"days": "Mon-Fri", "time": "4:30pm"}, {"days": "Sat", "time": "3:00pm"}, {"days": "Sun", "time": "Closed"}], "id": "1777700015", "name": "USPS COLLECTION BOX - PO LOBBY", "address": {"city": "WATSONTOWN", "state": "PA", "street": "316 MAIN ST", "postcode": "17777"}}},
{"geometry": {"type": "Point", "coordinates": [-76.8632587845, 41.0841071561]}, "type": "Feature", "properties": {"collection_times": [{"days": "Mon-Fri", "time": "4:30pm"}, {"days": "Sat", "time": "2:15pm"}, {"days": "Sun", "time": "Closed"}], "id": "1777700016", "name": "USPS COLLECTION BOX - BLUE BOX", "address": {"city": "WATSONTOWN", "state": "PA", "street": "316 MAIN ST", "postcode": "17777"}}},
{"geometry": {"type": "Point", "coordinates": [-77.9601309498, 41.3036914942]}, "type": "Feature", "properties": {"collection_times": [{"days": "Mon-Fri", "time": "4:00pm"}, {"days": "Sat", "time": "11:45am"}, {"days": "Sun", "time": "Closed"}], "id": "1777800002", "name": "USPS COLLECTION BOX - PO LOBBY", "address": {"city": "WESTPORT", "state": "PA", "street": "56 SCHOOL LN", "postcode": "17778"}}},
{"geometry": {"type": "Point", "coordinates": [-77.3757372862, 41.1942389028]}, "type": "Feature", "properties": {"collection_times": [{"days": "Mon-Fri", "time": "5:00pm"}, {"days": "Sat", "time": "11:00am"}, {"days": "Sun", "time": "Closed"}], "id": "1777900001", "name": "USPS COLLECTION BOX - BLUE BOX", "address": {"city": "WOOLRICH", "state": "PA", "street": "1039 PARK AVE", "postcode": "17779"}}},
{"geometry": {"type": "Point", "coordinates": [-77.3757372862, 41.1942389028]}, "type": "Feature", "properties": {"collection_times": [{"days": "Mon-Fri", "time": "5:00pm"}, {"days": "Sat", "time": "11:00am"}, {"days": "Sun", "time": "Closed"}], "id": "1777900003", "name": "USPS COLLECTION BOX - PO LOBBY", "address": {"city": "WOOLRICH", "state": "PA", "street": "1039 PARK AVE", "postcode": "17779"}}}
]}
