{"type": "FeatureCollection", "features": [
{"geometry": {"type": "Point", "coordinates": [-76.7975424756, 40.861040385]}, "type": "Feature", "properties": {"collection_times": [{"days": "Mon-Sat", "time": "9:00am"}, {"days": "Sun", "time": "Closed"}], "id": "1780100019", "name": "USPS COLLECTION BOX - BLUE BOX", "address": {"city": "SUNBURY", "state": "PA", "street": "130 S FRONT ST", "postcode": "17801"}}},
{"geometry": {"type": "Point", "coordinates": [-76.7860501974, 40.8597362513]}, "type": "Feature", "properties": {"collection_times": [{"days": "Mon-Fri", "time": "2:00pm"}, {"days": "Sat", "time": "10:00am"}, {"days": "Sun", "time": "Closed"}], "id": "1780100023", "name": "USPS COLLECTION BOX - BLUE BOX", "address": {"city": "SUNBURY", "state": "PA", "street": "900 MARKET ST", "postcode": "17801"}}},
{"geometry": {"type": "Point", "coordinates": [-76.7794257691, 40.8615708686]}, "type": "Feature", "properties": {"collection_times": [{"days": "Mon-Sat", "time": "9:00am"}, {"days": "Sun", "time": "Closed"}], "id": "1780100039", "name": "USPS COLLECTION BOX - BLUE BOX", "address": {"city": "SUNBURY", "state": "PA", "street": "300 N 11TH ST", "postcode": "17801"}}},
{"geometry": {"type": "Point", "coordinates": [-76.7892563522, 40.8605629094]}, "type": "Feature", "properties": {"collection_times": [{"days": "Mon-Fri", "time": "2:00pm"}, {"days": "Sat", "time": "10:00am"}, {"days": "Sun", "time": "Closed"}], "id": "1780100045", "name": "USPS COLLECTION BOX - BLUE BOX", "address": {"city": "SUNBURY", "state": "PA", "street": "503 MARKET ST", "postcode": "17801"}}},
{"geometry": {"type": "Point", "coordinates": [-76.791838754, 40.863939329]}, "type": "Feature", "properties": {"collection_times": [{"days": "Mon-Fri", "time": "5:30pm"}, {"days": "Sat", "time": "5:00pm"}, {"days": "Sun", "time": "Closed"}], "id": "1780100051", "name": "USPS COLLECTION BOX - BLUE BOX", "address": {"city": "SUNBURY", "state": "PA", "street": "135 N 3RD ST", "postcode": "17801"}}},
{"geometry": {"type": "Point", "coordinates": [-76.7948898181, 40.8621503814]}, "type": "Feature", "properties": {"collection_times": [{"days": "Mon-Fri", "time": "3:00pm"}, {"days": "Sat", "time": "10:00am"}, {"days": "Sun", "time": "Closed"}], "id": "1780100058", "name": "USPS COLLECTION BOX - BLUE BOX", "address": {"city": "SUNBURY", "state": "PA", "street": "201 MARKET ST", "postcode": "17801"}}},
{"geometry": {"type": "Point", "coordinates": [-76.7913800507, 40.8642669581]}, "type": "Feature", "properties": {"collection_times": [{"days": "Mon-Fri", "time": "5:30pm"}, {"days": "Sat", "time": "5:00pm"}, {"days": "Sun", "time": "Closed"}], "id": "1780100060", "name": "USPS COLLECTION BOX - PO LOBBY", "address": {"city": "SUNBURY", "state": "PA", "street": "135 N 3RD ST", "postcode": "17801"}}},
{"geometry": {"type": "Point", "coordinates": [-76.7923806116, 40.8551807517]}, "type": "Feature", "properties": {"collection_times": [{"days": "Mon-Fri", "time": "3:00pm"}, {"days": "Sat", "time": "10:00am"}, {"days": "Sun", "time": "Closed"}], "id": "1780100062", "name": "USPS COLLECTION BOX - BLUE BOX", "address": {"city": "SUNBURY", "state": "PA", "street": "399 S 5TH ST", "postcode": "17801"}}},
{"geometry": {"type": "Point", "coordinates": [-76.8991675039, 41.1081649925]}, "type": "Feature", "properties": {"collection_times": [{"days": "Mon-Fri", "time": "3:00pm"}, {"days": "Sat", "time": "11:30am"}, {"days": "Sun", "time": "Closed"}], "id": "1781000001", "name": "USPS COLLECTION BOX - BLUE BOX", "address": {"city": "ALLENWOOD", "state": "PA", "street": "16945 US ROUTE 15", "postcode": "17810"}}},
{"geometry": {"type": "Point", "coordinates": [-76.8991675039, 41.1081649925]}, "type": "Feature", "properties": {"collection_times": [{"days": "Mon-Fri", "time": "3:00pm"}, {"days": "Sat", "time": "11:30am"}, {"days": "Sun", "time": "Closed"}], "id": "1781000002", "name": "USPS COLLECTION BOX - PO LOBBY", "address": {"city": "ALLENWOOD", "state": "PA", "street": "16945 US ROUTE 15", "postcode": "17810"}}},
{"geometry": {"type": "Point", "coordinates": [-76.8991675039, 41.1081649925]}, "type": "Feature", "properties": {"collection_times": [{"days": "Mon-Fri", "time": "3:00pm"}, {"days": "Sat", "time": "11:30am"}, {"days": "Sun", "time": "Closed"}], "id": "1781000003", "name": "USPS COLLECTION BOX - BLUE BOX", "address": {"city": "ALLENWOOD", "state": "PA", "street": "16945 US ROUTE 15", "postcode": "17810"}}},
{"geometry": {"type": "Point", "coordinates": [-77.2465601475, 40.7667995705]}, "type": "Feature", "properties": {"collection_times": [{"days": "Mon-Fri", "time": "4:15pm"}, {"days": "Sat", "time": "11:45am"}, {"days": "Sun", "time": "Closed"}], "id": "1781200001", "name": "USPS COLLECTION BOX - BLUE BOX", "address": {"city": "BEAVER SPRINGS", "state": "PA", "street": "85 PINE ST", "postcode": "17812"}}},
{"geometry": {"type": "Point", "coordinates": [-77.2465601475, 40.7667995705]}, "type": "Feature", "properties": {"collection_times": [{"days": "Mon-Fri", "time": "4:15pm"}, {"days": "Sat", "time": "11:30am"}, {"days": "Sun", "time": "Closed"}], "id": "1781200002", "name": "USPS COLLECTION BOX - PO LOBBY", "address": {"city": "BEAVER SPRINGS", "state": "PA", "street": "85 PINE ST", "postcode": "17812"}}},
{"geometry": {"type": "Point", "coordinates": [-77.1682906393, 40.7539225364]}, "type": "Feature", "properties": {"collection_times": [{"days": "Mon-Fri", "time": "4:00pm"}, {"days": "Sat", "time": "10:45am"}, {"days": "Sun", "time": "Closed"}], "id": "1781300001", "name": "USPS COLLECTION BOX - BLUE BOX", "address": {"city": "BEAVERTOWN", "state": "PA", "street": "212 S SASSAFRAS ST", "postcode": "17813"}}},
{"geometry": {"type": "Point", "coordinates": [-77.1682906393, 40.7539225364]}, "type": "Feature", "properties": {"collection_times": [{"days": "Mon-Fri", "time": "4:00pm"}, {"days": "Sat", "time": "10:45am"}, {"days": "Sun", "time": "Closed"}], "id": "1781300002", "name": "USPS COLLECTION BOX - PO LOBBY", "address": {"city": "BEAVERTOWN", "state": "PA", "street": "212 S SASSAFRAS ST", "postcode": "17813"}}},
{"geometry": {"type": "Point", "coordinates": [-76.3847082987, 41.1966699692]}, "type": "Feature", "properties": {"collection_times": [{"days": "Mon-Fri", "time": "3:45pm"}, {"days": "Sat", "time": "10:45am"}, {"days": "Sun", "time": "Closed"}], "id": "1781400001", "name": "USPS COLLECTION BOX - BLUE BOX", "address": {"city": "BENTON", "state": "PA", "street": "250 THIRD ST", "postcode": "17814"}}},
{"geometry": {"type": "Point", "coordinates": [-76.3847082987, 41.1966699692]}, "type": "Feature", "properties": {"collection_times": [{"days": "Mon-Fri", "time": "3:45pm"}, {"days": "Sat", "time": "10:45am"}, {"days": "Sun", "time": "Closed"}], "id": "1781400002", "name": "USPS COLLECTION BOX - PO LOBBY", "address": {"city": "BENTON", "state": "PA", "street": "250 THIRD ST", "postcode": "17814"}}},
{"geometry": {"type": "Point", "coordinates": [-76.4232754937, 41.0020450691]}, "type": "Feature", "properties": {"collection_times": [{"days": "Mon-Sat", "time": "1:00pm"}, {"days": "Sun", "time": "Closed"}], "id": "1781500005", "name": "USPS COLLECTION BOX - BLUE BOX", "address": {"city": "BLOOMSBURG", "state": "PA", "street": "16 SHERWOOD DR", "postcode": "17815"}}},
{"geometry": {"type": "Point", "coordinates": [-76.4424993955, 41.0030187316]}, "type": "Feature", "properties": {"collection_times": [{"days": "Mon-Sat", "time": "1:00pm"}, {"days": "Sun", "time": "Closed"}], "id": "1781500007", "name": "USPS COLLECTION BOX - BLUE BOX", "address": {"city": "BLOOMSBURG", "state": "PA", "street": "725 COLUMBIA BLVD", "postcode": "17815"}}},
{"geometry": {"type": "Point", "coordinates": [-76.4507709825, 41.0050137956]}, "type": "Feature", "properties": {"collection_times": [{"days": "Mon-Sat", "time": "10:00am"}, {"days": "Sun", "time": "Closed"}], "id": "1781500009", "name": "USPS COLLECTION BOX - BLUE BOX", "address": {"city": "BLOOMSBURG", "state": "PA", "street": "400 E 2ND ST", "postcode": "17815"}}},
{"geometry": {"type": "Point", "coordinates": [-76.4138744915, 41.0111307305]}, "type": "Feature", "properties": {"collection_times": [{"days": "Mon-Sat", "time": "1:00pm"}, {"days": "Sun", "time": "Closed"}], "id": "1781500014", "name": "USPS COLLECTION BOX - BLUE BOX", "address": {"city": "BLOOMSBURG", "state": "PA", "street": "2411 COLUMBIA BLVD", "postcode": "17815"}}},
{"geometry": {"type": "Point", "coordinates": [-76.4536296703, 41.0043890214]}, "type": "Feature", "properties": {"collection_times": [{"days": "Mon-Sat", "time": "1:00pm"}, {"days": "Sun", "time": "Closed"}], "id": "1781500029", "name": "USPS COLLECTION BOX - BLUE BOX", "address": {"city": "BLOOMSBURG", "state": "PA", "street": "204 EAST ST", "postcode": "17815"}}},
{"geometry": {"type": "Point", "coordinates": [-76.456096129, 41.0003287589]}, "type": "Feature", "properties": {"collection_times": [{"days": "Mon-Sat", "time": "1:00pm"}, {"days": "Sun", "time": "Closed"}], "id": "1781500034", "name": "USPS COLLECTION BOX - BLUE BOX", "address": {"city": "BLOOMSBURG", "state": "PA", "street": "401 MARKET ST", "postcode": "17815"}}},
{"geometry": {"type": "Point", "coordinates": [-76.4502195446, 41.0099495126]}, "type": "Feature", "properties": {"collection_times": [{"days": "Mon-Sat", "time": "1:00pm"}, {"days": "Sun", "time": "Closed"}], "id": "1781500035", "name": "USPS COLLECTION BOX - BLUE BOX", "address": {"city": "BLOOMSBURG", "state": "PA", "street": "549 FAIR ST", "postcode": "17815"}}},
{"geometry": {"type": "Point", "coordinates": [-76.4577299924, 41.0020145534]}, "type": "Feature", "properties": {"collection_times": [{"days": "Mon-Sat", "time": "5:00pm"}, {"days": "Sun", "time": "Closed"}], "id": "1781500036", "name": "USPS COLLECTION BOX - BLUE BOX", "address": {"city": "BLOOMSBURG", "state": "PA", "street": "230 MARKET ST", "postcode": "17815"}}},
{"geometry": {"type": "Point", "coordinates": [-76.4577299924, 41.0020145534]}, "type": "Feature", "properties": {"collection_times": [{"days": "Mon-Sat", "time": "5:00pm"}, {"days": "Sun", "time": "Closed"}], "id": "1781500037", "name": "USPS COLLECTION BOX - BLUE BOX", "address": {"city": "BLOOMSBURG", "state": "PA", "street": "230 MARKET ST", "postcode": "17815"}}},
{"geometry": {"type": "Point", "coordinates": [-76.4577299924, 41.0020145534]}, "type": "Feature", "properties": {"collection_times": [{"days": "Mon-Sat", "time": "5:00pm"}, {"days": "Sun", "time": "Closed"}], "id": "1781500040", "name": "USPS COLLECTION BOX - BLUE BOX", "address": {"city": "BLOOMSBURG", "state": "PA", "street": "230 MARKET ST", "postcode": "17815"}}},
{"geometry": {"type": "Point", "coordinates": [-76.4577299924, 41.0020145534]}, "type": "Feature", "properties": {"collection_times": [{"days": "Mon-Sat", "time": "5:00pm"}, {"days": "Sun", "time": "Closed"}], "id": "1781500041", "name": "USPS COLLECTION BOX - PO LOBBY", "address": {"city": "BLOOMSBURG", "state": "PA", "street": "230 MARKET ST", "postcode": "17815"}}},
{"geometry": {"type": "Point", "coordinates": [-76.4563615383, 41.0030989057]}, "type": "Feature", "properties": {"collection_times": [{"days": "Mon-Sat", "time": "1:00pm"}, {"days": "Sun", "time": "Closed"}], "id": "1781500042", "name": "USPS COLLECTION BOX - BLUE BOX", "address": {"city": "BLOOMSBURG", "state": "PA", "street": "2 E MAIN ST", "postcode": "17815"}}},
{"geometry": {"type": "Point", "coordinates": [-76.4577299924, 41.0020145534]}, "type": "Feature", "properties": {"collection_times": [{"days": "Mon-Sat", "time": "5:00pm"}, {"days": "Sun", "time": "Closed"}], "id": "1781500045", "name": "USPS COLLECTION BOX - BLUE BOX", "address": {"city": "BLOOMSBURG", "state": "PA", "street": "230 MARKET ST", "postcode": "17815"}}},
{"geometry": {"type": "Point", "coordinates": [-76.448557337, 40.9967725399]}, "type": "Feature", "properties": {"collection_times": [{"days": "Mon-Fri", "time": "1:30pm"}, {"days": "Sat", "time": "1:00pm"}, {"days": "Sun", "time": "Closed"}], "id": "1781500049", "name": "USPS COLLECTION BOX - BLUE BOX", "address": {"city": "BLOOMSBURG", "state": "PA", "street": "150 E 9TH ST", "postcode": "17815"}}},
{"geometry": {"type": "Point", "coordinates": [-76.4033270371, 41.0285349348]}, "type": "Feature", "properties": {"collection_times": [{"days": "Mon-Sat", "time": "10:30am"}, {"days": "Sun", "time": "Closed"}], "id": "1781500051", "name": "USPS COLLECTION BOX - BLUE BOX", "address": {"city": "BLOOMSBURG", "state": "PA", "street": "700 SAWMILL RD", "postcode": "17815"}}},
{"geometry": {"type": "Point", "coordinates": [-76.464139112, 40.9533250912]}, "type": "Feature", "properties": {"collection_times": [{"days": "Mon-Sat", "time": "10:30am"}, {"days": "Sun", "time": "Closed"}], "id": "1782000001", "name": "USPS COLLECTION BOX - BLUE BOX", "address": {"city": "CATAWISSA", "state": "PA", "street": "131 MAIN ST", "postcode": "17820"}}},
{"geometry": {"type": "Point", "coordinates": [-76.4615134785, 40.9530037209]}, "type": "Feature", "properties": {"collection_times": [{"days": "Mon-Fri", "time": "4:30pm"}, {"days": "Sat", "time": "11:30am"}, {"days": "Sun", "time": "Closed"}], "id": "1782000003", "name": "USPS COLLECTION BOX - BLUE BOX", "address": {"city": "CATAWISSA", "state": "PA", "street": "121 N 3RD ST", "postcode": "17820"}}},
{"geometry": {"type": "Point", "coordinates": [-76.4615134785, 40.9530037209]}, "type": "Feature", "properties": {"collection_times": [{"days": "Mon-Fri", "time": "4:30pm"}, {"days": "Sat", "time": "11:30am"}, {"days": "Sun", "time": "Closed"}], "id": "1782000005", "name": "USPS COLLECTION BOX - PO LOBBY", "address": {"city": "CATAWISSA", "state": "PA", "street": "121 N 3RD ST", "postcode": "17820"}}},
{"geometry": {"type": "Point", "coordinates": [-76.6193198472, 40.9597127782]}, "type": "Feature", "properties": {"collection_times": [{"days": "Mon-Sat", "time": "9:00am"}, {"days": "Sun", "time": "Closed"}], "id": "1782100004", "name": "USPS COLLECTION BOX - BLUE BOX", "address": {"city": "DANVILLE", "state": "PA", "street": "29 MILL ST", "postcode": "17821"}}},
{"geometry": {"type": "Point", "coordinates": [-76.6170211441, 40.9630478674]}, "type": "Feature", "properties": {"collection_times": [{"days": "Mon-Sat", "time": "9:30am"}, {"days": "Sun", "time": "Closed"}], "id": "1782100010", "name": "USPS COLLECTION BOX - BLUE BOX", "address": {"city": "DANVILLE", "state": "PA", "street": "306 MILL ST", "postcode": "17821"}}},
{"geometry": {"type": "Point", "coordinates": [-76.6164888125, 40.9638723898]}, "type": "Feature", "properties": {"collection_times": [{"days": "Mon-Sat", "time": "9:30am"}, {"days": "Sun", "time": "Closed"}], "id": "1782100011", "name": "USPS COLLECTION BOX - BLUE BOX", "address": {"city": "DANVILLE", "state": "PA", "street": "342 MILL ST", "postcode": "17821"}}},
{"geometry": {"type": "Point", "coordinates": [-76.5932211927, 40.9675596729]}, "type": "Feature", "properties": {"collection_times": [{"days": "Mon-Sat", "time": "9:30am"}, {"days": "Sun", "time": "Closed"}], "id": "1782100020", "name": "USPS COLLECTION BOX - BLUE BOX", "address": {"city": "DANVILLE", "state": "PA", "street": "205 MAPLE ST", "postcode": "17821"}}},
{"geometry": {"type": "Point", "coordinates": [-76.5516541979, 41.0073441563]}, "type": "Feature", "properties": {"collection_times": [{"days": "Mon-Sat", "time": "9:30am"}, {"days": "Sun", "time": "Closed"}], "id": "1782100023", "name": "USPS COLLECTION BOX - BLUE BOX", "address": {"city": "DANVILLE", "state": "PA", "street": "100 N ACADEMY AVE", "postcode": "17821"}}},
{"geometry": {"type": "Point", "coordinates": [-76.6033467184, 40.9668355605]}, "type": "Feature", "properties": {"collection_times": [{"days": "Mon-Sat", "time": "10:00am"}, {"days": "Sun", "time": "Closed"}], "id": "1782100024", "name": "USPS COLLECTION BOX - BLUE BOX", "address": {"city": "DANVILLE", "state": "PA", "street": "100 N ACADEMY AVE", "postcode": "17821"}}},
{"geometry": {"type": "Point", "coordinates": [-76.6033467184, 40.9668355605]}, "type": "Feature", "properties": {"collection_times": [{"days": "Mon-Sat", "time": "9:30am"}, {"days": "Sun", "time": "Closed"}], "id": "1782100025", "name": "USPS COLLECTION BOX - BLUE BOX", "address": {"city": "DANVILLE", "state": "PA", "street": "100 N ACADEMY AVE", "postcode": "17821"}}},
{"geometry": {"type": "Point", "coordinates": [-76.6182818938, 40.9611882881]}, "type": "Feature", "properties": {"collection_times": [{"days": "Mon-Fri", "time": "5:00pm"}, {"days": "Sat", "time": "3:00pm"}, {"days": "Sun", "time": "Closed"}], "id": "1782100027", "name": "USPS COLLECTION BOX - BLUE BOX", "address": {"city": "DANVILLE", "state": "PA", "street": "4 W MAHONING ST", "postcode": "17821"}}},
{"geometry": {"type": "Point", "coordinates": [-76.6181508699, 40.9613550531]}, "type": "Feature", "properties": {"collection_times": [{"days": "Mon-Fri", "time": "5:00pm"}, {"days": "Sat", "time": "3:00pm"}, {"days": "Sun", "time": "Closed"}], "id": "1782100029", "name": "USPS COLLECTION BOX - BLUE BOX", "address": {"city": "DANVILLE", "state": "PA", "street": "201 MILL ST", "postcode": "17821"}}},
{"geometry": {"type": "Point", "coordinates": [-76.616419018, 40.9667457971]}, "type": "Feature", "properties": {"collection_times": [{"days": "Mon-Sat", "time": "9:30am"}, {"days": "Sun", "time": "Closed"}], "id": "1782100030", "name": "USPS COLLECTION BOX - BLUE BOX", "address": {"city": "DANVILLE", "state": "PA", "street": "600 CONTINENTAL BLVD", "postcode": "17821"}}},
{"geometry": {"type": "Point", "coordinates": [-76.6188854615, 40.9649186326]}, "type": "Feature", "properties": {"collection_times": [{"days": "Mon-Sat", "time": "9:30am"}, {"days": "Sun", "time": "Closed"}], "id": "1782100031", "name": "USPS COLLECTION BOX - BLUE BOX", "address": {"city": "DANVILLE", "state": "PA", "street": "115 NORTHUMBERLAND ST", "postcode": "17821"}}},
{"geometry": {"type": "Point", "coordinates": [-76.6141891403, 40.9612615994]}, "type": "Feature", "properties": {"collection_times": [{"days": "Mon-Sat", "time": "9:00am"}, {"days": "Sun", "time": "Closed"}], "id": "1782100033", "name": "USPS COLLECTION BOX - BLUE BOX", "address": {"city": "DANVILLE", "state": "PA", "street": "328 CHURCH ST", "postcode": "17821"}}},
{"geometry": {"type": "Point", "coordinates": [-76.6181528173, 40.9612243807]}, "type": "Feature", "properties": {"collection_times": [{"days": "Mon-Fri", "time": "5:00pm"}, {"days": "Sat", "time": "3:00pm"}, {"days": "Sun", "time": "Closed"}], "id": "1782100034", "name": "USPS COLLECTION BOX - PO LOBBY", "address": {"city": "DANVILLE", "state": "PA", "street": "200 MILL ST", "postcode": "17821"}}},
{"geometry": {"type": "Point", "coordinates": [-76.7369565075, 40.7185926957]}, "type": "Feature", "properties": {"collection_times": [{"days": "Mon-Fri", "time": "4:15pm"}, {"days": "Sat", "time": "9:00am"}, {"days": "Sun", "time": "Closed"}], "id": "1782300001", "name": "USPS COLLECTION BOX - BLUE BOX", "address": {"city": "DORNSIFE", "state": "PA", "street": "123 CREEK RD", "postcode": "17823"}}},
{"geometry": {"type": "Point", "coordinates": [-76.7369565075, 40.7185926957]}, "type": "Feature", "properties": {"collection_times": [{"days": "Mon-Fri", "time": "4:15pm"}, {"days": "Sat", "time": "9:00am"}, {"days": "Sun", "time": "Closed"}], "id": "1782300003", "name": "USPS COLLECTION BOX - PO LOBBY", "address": {"city": "DORNSIFE", "state": "PA", "street": "123 CREEK RD", "postcode": "17823"}}},
{"geometry": {"type": "Point", "coordinates": [-76.5514156352, 40.8636232789]}, "type": "Feature", "properties": {"collection_times": [{"days": "Mon-Fri", "time": "4:00pm"}, {"days": "Sat", "time": "10:00am"}, {"days": "Sun", "time": "Closed"}], "id": "1782400003", "name": "USPS COLLECTION BOX - BLUE BOX", "address": {"city": "ELYSBURG", "state": "PA", "street": "5 E ROOSEVELT AVE", "postcode": "17824"}}},
{"geometry": {"type": "Point", "coordinates": [-76.5514156352, 40.8636232789]}, "type": "Feature", "properties": {"collection_times": [{"days": "Mon-Fri", "time": "4:00pm"}, {"days": "Sat", "time": "10:00am"}, {"days": "Sun", "time": "Closed"}], "id": "1782400004", "name": "USPS COLLECTION BOX - PO LOBBY", "address": {"city": "ELYSBURG", "state": "PA", "street": "5 E ROOSEVELT AVE", "postcode": "17824"}}},
{"geometry": {"type": "Point", "coordinates": [-76.9419137835, 40.7618562104]}, "type": "Feature", "properties": {"collection_times": [{"days": "Mon-Fri", "time": "4:15pm"}, {"days": "Sat", "time": "10:00am"}, {"days": "Sun", "time": "Closed"}], "id": "1782700001", "name": "USPS COLLECTION BOX - BLUE BOX", "address": {"city": "FREEBURG", "state": "PA", "street": "12 E MARKET ST", "postcode": "17827"}}},
{"geometry": {"type": "Point", "coordinates": [-76.9419137835, 40.7618562104]}, "type": "Feature", "properties": {"collection_times": [{"days": "Mon-Fri", "time": "4:15pm"}, {"days": "Sat", "time": "10:00am"}, {"days": "Sun", "time": "Closed"}], "id": "1782700002", "name": "USPS COLLECTION BOX - PO LOBBY", "address": {"city": "FREEBURG", "state": "PA", "street": "12 E MARKET ST", "postcode": "17827"}}},
{"geometry": {"type": "Point", "coordinates": [-77.152986138, 40.9014249394]}, "type": "Feature", "properties": {"collection_times": [{"days": "Mon-Fri", "time": "4:30pm"}, {"days": "Sat", "time": "11:00am"}, {"days": "Sun", "time": "Closed"}], "id": "1782900001", "name": "USPS COLLECTION BOX - BLUE BOX", "address": {"city": "HARTLETON", "state": "PA", "street": "109 COLD RUN RD", "postcode": "17829"}}},
{"geometry": {"type": "Point", "coordinates": [-77.152986138, 40.9014249394]}, "type": "Feature", "properties": {"collection_times": [{"days": "Mon-Fri", "time": "10:45am"}, {"days": "Sat", "time": "11:00am"}, {"days": "Sun", "time": "Closed"}], "id": "1782900002", "name": "USPS COLLECTION BOX - PO LOBBY", "address": {"city": "HARTLETON", "state": "PA", "street": "109 COLD RUN RD", "postcode": "17829"}}},
{"geometry": {"type": "Point", "coordinates": [-76.7758455481, 40.6656112619]}, "type": "Feature", "properties": {"collection_times": [{"days": "Mon-Fri", "time": "4:00pm"}, {"days": "Sat", "time": "10:30am"}, {"days": "Sun", "time": "Closed"}], "id": "1783000001", "name": "USPS COLLECTION BOX - BLUE BOX", "address": {"city": "HERNDON", "state": "PA", "street": "127 N MAIN ST", "postcode": "17830"}}},
{"geometry": {"type": "Point", "coordinates": [-76.7758455481, 40.6656112619]}, "type": "Feature", "properties": {"collection_times": [{"days": "Mon-Fri", "time": "4:00pm"}, {"days": "Sat", "time": "10:30am"}, {"days": "Sun", "time": "Closed"}], "id": "1783000002", "name": "USPS COLLECTION BOX - PO LOBBY", "address": {"city": "HERNDON", "state": "PA", "street": "127 N MAIN ST", "postcode": "17830"}}},
{"geometry": {"type": "Point", "coordinates": [-76.836871106, 40.8341064189]}, "type": "Feature", "properties": {"collection_times": [{"days": "Mon-Fri", "time": "4:00pm"}, {"days": "Sat", "time": "11:00am"}, {"days": "Sun", "time": "Closed"}], "id": "1783100001", "name": "USPS COLLECTION BOX - BLUE BOX", "address": {"city": "HUMMELS WHARF", "state": "PA", "street": "1245 N SUSQUEHANNA TRL", "postcode": "17831"}}},
{"geometry": {"type": "Point", "coordinates": [-76.836871106, 40.8341064189]}, "type": "Feature", "properties": {"collection_times": [{"days": "Mon-Fri", "time": "4:00pm"}, {"days": "Sat", "time": "11:00am"}, {"days": "Sun", "time": "Closed"}], "id": "1783100002", "name": "USPS COLLECTION BOX - PO LOBBY", "address": {"city": "HUMMELS WHARF", "state": "PA", "street": "1245 N SUSQUEHANNA TRL", "postcode": "17831"}}},
{"geometry": {"type": "Point", "coordinates": [-76.4660237235, 40.8052338136]}, "type": "Feature", "properties": {"collection_times": [{"days": "Mon-Fri", "time": "3:30pm"}, {"days": "Sat", "time": "11:00am"}, {"days": "Sun", "time": "Closed"}], "id": "1783200001", "name": "USPS COLLECTION BOX - BLUE BOX", "address": {"city": "MARION HEIGHTS", "state": "PA", "street": "226 NORTH ST", "postcode": "17832"}}},
{"geometry": {"type": "Point", "coordinates": [-76.4660237235, 40.8052338136]}, "type": "Feature", "properties": {"collection_times": [{"days": "Mon-Fri", "time": "3:30pm"}, {"days": "Sat", "time": "11:00am"}, {"days": "Sun", "time": "Closed"}], "id": "1783200002", "name": "USPS COLLECTION BOX - PO LOBBY", "address": {"city": "MARION HEIGHTS", "state": "PA", "street": "226 NORTH ST", "postcode": "17832"}}},
{"geometry": {"type": "Point", "coordinates": [-76.9669613406, 40.8026514904]}, "type": "Feature", "properties": {"collection_times": [{"days": "Mon-Fri", "time": "4:30pm"}, {"days": "Sat", "time": "12:00pm"}, {"days": "Sun", "time": "Closed"}], "id": "1783300001", "name": "USPS COLLECTION BOX - BLUE BOX", "address": {"city": "KREAMER", "state": "PA", "street": "515 KREAMER AVE", "postcode": "17833"}}},
{"geometry": {"type": "Point", "coordinates": [-76.9669613406, 40.8026514904]}, "type": "Feature", "properties": {"collection_times": [{"days": "Mon-Fri", "time": "4:30pm"}, {"days": "Sat", "time": "12:00pm"}, {"days": "Sun", "time": "Closed"}], "id": "1783300002", "name": "USPS COLLECTION BOX - PO LOBBY", "address": {"city": "KREAMER", "state": "PA", "street": "515 KREAMER AVE", "postcode": "17833"}}},
{"geometry": {"type": "Point", "coordinates": [-76.4725358594, 40.7936399964]}, "type": "Feature", "properties": {"collection_times": [{"days": "Mon-Fri", "time": "4:30pm"}, {"days": "Sat", "time": "11:30am"}, {"days": "Sun", "time": "Closed"}], "id": "1783400013", "name": "USPS COLLECTION BOX - BLUE BOX", "address": {"city": "KULPMONT", "state": "PA", "street": "901 CHESTNUT ST", "postcode": "17834"}}},
{"geometry": {"type": "Point", "coordinates": [-76.4672213603, 40.7973798577]}, "type": "Feature", "properties": {"collection_times": [{"days": "Mon-Sat", "time": "10:00am"}, {"days": "Sun", "time": "Closed"}], "id": "1783400014", "name": "USPS COLLECTION BOX - BLUE BOX", "address": {"city": "KULPMONT", "state": "PA", "street": "301 N 6TH ST", "postcode": "17834"}}},
{"geometry": {"type": "Point", "coordinates": [-76.4552376612, 40.7864930422]}, "type": "Feature", "properties": {"collection_times": [{"days": "Mon-Sat", "time": "11:30am"}, {"days": "Sun", "time": "Closed"}], "id": "1783400016", "name": "USPS COLLECTION BOX - BLUE BOX", "address": {"city": "KULPMONT", "state": "PA", "street": "101 NEVADA DR", "postcode": "17834"}}},
{"geometry": {"type": "Point", "coordinates": [-76.4698044511, 40.7940269193]}, "type": "Feature", "properties": {"collection_times": [{"days": "Mon-Sat", "time": "11:45am"}, {"days": "Sun", "time": "Closed"}], "id": "1783400017", "name": "USPS COLLECTION BOX - BLUE BOX", "address": {"city": "KULPMONT", "state": "PA", "street": "760 CHESTNUT ST", "postcode": "17834"}}},
{"geometry": {"type": "Point", "coordinates": [-76.4725358594, 40.7936399964]}, "type": "Feature", "properties": {"collection_times": [{"days": "Mon-Fri", "time": "4:30pm"}, {"days": "Sat", "time": "11:30am"}, {"days": "Sun", "time": "Closed"}], "id": "1783400021", "name": "USPS COLLECTION BOX - PO LOBBY", "address": {"city": "KULPMONT", "state": "PA", "street": "901 CHESTNUT ST", "postcode": "17834"}}},
{"geometry": {"type": "Point", "coordinates": [-77.1907062471, 40.9733021474]}, "type": "Feature", "properties": {"collection_times": [{"days": "Mon-Fri", "time": "4:30pm"}, {"days": "Sat", "time": "10:30am"}, {"days": "Sun", "time": "Closed"}], "id": "1783500001", "name": "USPS COLLECTION BOX - BLUE BOX", "address": {"city": "LAURELTON", "state": "PA", "street": "2495 LAUREL RD", "postcode": "17835"}}},
{"geometry": {"type": "Point", "coordinates": [-77.1907062471, 40.9733021474]}, "type": "Feature", "properties": {"collection_times": [{"days": "Mon-Fri", "time": "12:30pm"}, {"days": "Sat", "time": "10:45am"}, {"days": "Sun", "time": "Closed"}], "id": "1783500002", "name": "USPS COLLECTION BOX - PO LOBBY", "address": {"city": "LAURELTON", "state": "PA", "street": "2495 LAUREL RD", "postcode": "17835"}}},
{"geometry": {"type": "Point", "coordinates": [-76.8874242702, 40.9809081819]}, "type": "Feature", "properties": {"collection_times": [{"days": "Mon-Sat", "time": "10:00am"}, {"days": "Sun", "time": "Closed"}], "id": "1783700011", "name": "USPS COLLECTION BOX - BLUE BOX", "address": {"city": "LEWISBURG", "state": "PA", "street": "3 HOSPITAL DR", "postcode": "17837"}}},
{"geometry": {"type": "Point", "coordinates": [-76.8850772796, 40.9642592174]}, "type": "Feature", "properties": {"collection_times": [{"days": "Mon-Fri", "time": "4:30pm"}, {"days": "Sat", "time": "3:00pm"}, {"days": "Sun", "time": "Closed"}], "id": "1783700015", "name": "USPS COLLECTION BOX - BLUE BOX", "address": {"city": "LEWISBURG", "state": "PA", "street": "301 MARKET ST", "postcode": "17837"}}},
{"geometry": {"type": "Point", "coordinates": [-76.8850772796, 40.9642592174]}, "type": "Feature", "properties": {"collection_times": [{"days": "Mon-Fri", "time": "4:30pm"}, {"days": "Sat", "time": "3:00pm"}, {"days": "Sun", "time": "Closed"}], "id": "1783700016", "name": "USPS COLLECTION BOX - BLUE BOX", "address": {"city": "LEWISBURG", "state": "PA", "street": "301 MARKET ST", "postcode": "17837"}}},
{"geometry": {"type": "Point", "coordinates": [-76.8837606463, 40.9650009327]}, "type": "Feature", "properties": {"collection_times": [{"days": "Mon-Sat", "time": "3:00pm"}, {"days": "Sun", "time": "Closed"}], "id": "1783700017", "name": "USPS COLLECTION BOX - BLUE BOX", "address": {"city": "LEWISBURG", "state": "PA", "street": "200 MARKET ST", "postcode": "17837"}}},
{"geometry": {"type": "Point", "coordinates": [-76.8861454916, 40.9636499935]}, "type": "Feature", "properties": {"collection_times": [{"days": "Mon-Sat", "time": "3:00pm"}, {"days": "Sun", "time": "Closed"}], "id": "1783700018", "name": "USPS COLLECTION BOX - BLUE BOX", "address": {"city": "LEWISBURG", "state": "PA", "street": "400 MARKET ST", "postcode": "17837"}}},
{"geometry": {"type": "Point", "coordinates": [-76.8869510866, 40.9631933714]}, "type": "Feature", "properties": {"collection_times": [{"days": "Mon-Sat", "time": "3:00pm"}, {"days": "Sun", "time": "Closed"}], "id": "1783700019", "name": "USPS COLLECTION BOX - BLUE BOX", "address": {"city": "LEWISBURG", "state": "PA", "street": "434 MARKET ST", "postcode": "17837"}}},
{"geometry": {"type": "Point", "coordinates": [-76.9210909792, 40.9633154495]}, "type": "Feature", "properties": {"collection_times": [{"days": "Mon-Fri", "time": "3:30pm"}, {"days": "Sat", "time": "9:00am"}, {"days": "Sun", "time": "Closed"}], "id": "1783700023", "name": "USPS COLLECTION BOX - BLUE BOX", "address": {"city": "LEWISBURG", "state": "PA", "street": "1 DENT DR", "postcode": "17837"}}},
{"geometry": {"type": "Point", "coordinates": [-76.9210909792, 40.9633154495]}, "type": "Feature", "properties": {"collection_times": [{"days": "Mon-Fri", "time": "3:30pm"}, {"days": "Sat", "time": "9:00am"}, {"days": "Sun", "time": "Closed"}], "id": "1783700025", "name": "USPS COLLECTION BOX - BLUE BOX", "address": {"city": "LEWISBURG", "state": "PA", "street": "900 MOORE AVE", "postcode": "17837"}}},
{"geometry": {"type": "Point", "coordinates": [-76.8895677919, 40.9742694162]}, "type": "Feature", "properties": {"collection_times": [{"days": "Mon-Sat", "time": "9:30am"}, {"days": "Sun", "time": "Closed"}], "id": "1783700030", "name": "USPS COLLECTION BOX - BLUE BOX", "address": {"city": "LEWISBURG", "state": "PA", "street": "6901 WESTBRANCH HWY", "postcode": "17837"}}},
{"geometry": {"type": "Point", "coordinates": [-76.8850772796, 40.9642592174]}, "type": "Feature", "properties": {"collection_times": [{"days": "Mon-Fri", "time": "4:30pm"}, {"days": "Sat", "time": "1:30pm"}, {"days": "Sun", "time": "Closed"}], "id": "1783700032", "name": "USPS COLLECTION BOX - PO LOBBY", "address": {"city": "LEWISBURG", "state": "PA", "street": "301 MARKET ST", "postcode": "17837"}}},
{"geometry": {"type": "Point", "coordinates": [-76.8850772796, 40.9642592174]}, "type": "Feature", "properties": {"collection_times": [{"days": "Mon-Fri", "time": "4:30pm"}, {"days": "Sat", "time": "3:00pm"}, {"days": "Sun", "time": "Closed"}], "id": "1783700035", "name": "USPS COLLECTION BOX - BLUE BOX", "address": {"city": "LEWISBURG", "state": "PA", "street": "301 MARKET ST", "postcode": "17837"}}},
{"geometry": {"type": "Point", "coordinates": [-76.8850772796, 40.9642592174]}, "type": "Feature", "properties": {"collection_times": [{"days": "Mon-Fri", "time": "4:30pm"}, {"days": "Sat", "time": "3:00pm"}, {"days": "Sun", "time": "Closed"}], "id": "1783700036", "name": "USPS COLLECTION BOX - BLUE BOX", "address": {"city": "LEWISBURG", "state": "PA", "street": "301 MARKET ST", "postcode": "17837"}}},
{"geometry": {"type": "Point", "coordinates": [-77.3707276998, 40.7083732428]}, "type": "Feature", "properties": {"collection_times": [{"days": "Mon-Fri", "time": "4:00pm"}, {"days": "Sat", "time": "11:45am"}, {"days": "Sun", "time": "Closed"}], "id": "1784100001", "name": "USPS COLLECTION BOX - BLUE BOX", "address": {"city": "MCCLURE", "state": "PA", "street": "1 BROWN ST", "postcode": "17841"}}},
{"geometry": {"type": "Point", "coordinates": [-77.3707276998, 40.7083732428]}, "type": "Feature", "properties": {"collection_times": [{"days": "Mon-Fri", "time": "4:00pm"}, {"days": "Sat", "time": "11:45am"}, {"days": "Sun", "time": "Closed"}], "id": "1784100002", "name": "USPS COLLECTION BOX - PO LOBBY", "address": {"city": "MCCLURE", "state": "PA", "street": "1 BROWN ST", "postcode": "17841"}}},
{"geometry": {"type": "Point", "coordinates": [-77.0431705098, 40.7883889313]}, "type": "Feature", "properties": {"collection_times": [{"days": "Mon-Sat", "time": "12:00pm"}, {"days": "Sun", "time": "Closed"}], "id": "1784200005", "name": "USPS COLLECTION BOX - BLUE BOX", "address": {"city": "MIDDLEBURG", "state": "PA", "street": "227 E MAIN ST", "postcode": "17842"}}},
{"geometry": {"type": "Point", "coordinates": [-77.046142775, 40.7921030192]}, "type": "Feature", "properties": {"collection_times": [{"days": "Mon-Fri", "time": "4:30pm"}, {"days": "Sat", "time": "12:00pm"}, {"days": "Sun", "time": "Closed"}], "id": "1784200006", "name": "USPS COLLECTION BOX - BLUE BOX", "address": {"city": "MIDDLEBURG", "state": "PA", "street": "9 N MAIN ST", "postcode": "17842"}}},
{"geometry": {"type": "Point", "coordinates": [-77.046142775, 40.7921030192]}, "type": "Feature", "properties": {"collection_times": [{"days": "Mon-Fri", "time": "4:30pm"}, {"days": "Sat", "time": "12:00pm"}, {"days": "Sun", "time": "Closed"}], "id": "1784200008", "name": "USPS COLLECTION BOX - BLUE BOX", "address": {"city": "MIDDLEBURG", "state": "PA", "street": "9 N MAIN ST REAR", "postcode": "17842"}}},
{"geometry": {"type": "Point", "coordinates": [-77.046142775, 40.7921030192]}, "type": "Feature", "properties": {"collection_times": [{"days": "Mon-Fri", "time": "4:30pm"}, {"days": "Sat", "time": "12:00pm"}, {"days": "Sun", "time": "Closed"}], "id": "1784200010", "name": "USPS COLLECTION BOX - PO LOBBY", "address": {"city": "MIDDLEBURG", "state": "PA", "street": "9 N MAIN ST", "postcode": "17842"}}},
{"geometry": {"type": "Point", "coordinates": [-77.0362846744, 40.9217118795]}, "type": "Feature", "properties": {"collection_times": [{"days": "Mon-Sat", "time": "9:00am"}, {"days": "Sun", "time": "Closed"}], "id": "1784400003", "name": "USPS COLLECTION BOX - BLUE BOX", "address": {"city": "MIFFLINBURG", "state": "PA", "street": "36 E CHESTNUT ST", "postcode": "17844"}}},
{"geometry": {"type": "Point", "coordinates": [-77.0481327945, 40.9181096223]}, "type": "Feature", "properties": {"collection_times": [{"days": "Mon-Fri", "time": "5:00pm"}, {"days": "Sat", "time": "3:45pm"}, {"days": "Sun", "time": "Closed"}], "id": "1784400007", "name": "USPS COLLECTION BOX - BLUE BOX", "address": {"city": "MIFFLINBURG", "state": "PA", "street": "10 N 4TH ST", "postcode": "17844"}}},
{"geometry": {"type": "Point", "coordinates": [-77.0481327945, 40.9181096223]}, "type": "Feature", "properties": {"collection_times": [{"days": "Mon-Fri", "time": "5:00pm"}, {"days": "Sat", "time": "3:45pm"}, {"days": "Sun", "time": "Closed"}], "id": "1784400008", "name": "USPS COLLECTION BOX - BLUE BOX", "address": {"city": "MIFFLINBURG", "state": "PA", "street": "10 N 4TH ST", "postcode": "17844"}}},
{"geometry": {"type": "Point", "coordinates": [-77.0303245302, 40.9236435043]}, "type": "Feature", "properties": {"collection_times": [{"days": "Mon-Sat", "time": "12:00pm"}, {"days": "Sun", "time": "Closed"}], "id": "1784400009", "name": "USPS COLLECTION BOX - BLUE BOX", "address": {"city": "MIFFLINBURG", "state": "PA", "street": "250 E CHESTNUT ST", "postcode": "17844"}}},
{"geometry": {"type": "Point", "coordinates": [-77.0481327945, 40.9181096223]}, "type": "Feature", "properties": {"collection_times": [{"days": "Mon-Fri", "time": "5:00pm"}, {"days": "Sat", "time": "3:45pm"}, {"days": "Sun", "time": "Closed"}], "id": "1784400011", "name": "USPS COLLECTION BOX - PO LOBBY", "address": {"city": "MIFFLINBURG", "state": "PA", "street": "10 N 4TH ST", "postcode": "17844"}}},
{"geometry": {"type": "Point", "coordinates": [-77.1405467318, 40.8862111338]}, "type": "Feature", "properties": {"collection_times": [{"days": "Mon-Fri", "time": "4:00pm"}, {"days": "Sat", "time": "11:00am"}, {"days": "Sun", "time": "Closed"}], "id": "1784500001", "name": "USPS COLLECTION BOX - BLUE BOX", "address": {"city": "MILLMONT", "state": "PA", "street": "1295 MILLMONT RD", "postcode": "17845"}}},
{"geometry": {"type": "Point", "coordinates": [-77.1405467318, 40.8862111338]}, "type": "Feature", "properties": {"collection_times": [{"days": "Mon-Fri", "time": "4:00pm"}, {"days": "Sat", "time": "11:00am"}, {"days": "Sun", "time": "Closed"}], "id": "1784500002", "name": "USPS COLLECTION BOX - PO LOBBY", "address": {"city": "MILLMONT", "state": "PA", "street": "1295 MILLMONT RD", "postcode": "17845"}}},
{"geometry": {"type": "Point", "coordinates": [-76.5302413486, 41.1205288284]}, "type": "Feature", "properties": {"collection_times": [{"days": "Mon-Fri", "time": "4:30pm"}, {"days": "Sat", "time": "12:00pm"}, {"days": "Sun", "time": "Closed"}], "id": "1784600001", "name": "USPS COLLECTION BOX - BLUE BOX", "address": {"city": "MILLVILLE", "state": "PA", "street": "10 E MAIN ST", "postcode": "17846"}}},
{"geometry": {"type": "Point", "coordinates": [-76.5302413486, 41.1205288284]}, "type": "Feature", "properties": {"collection_times": [{"days": "Mon-Fri", "time": "4:30pm"}, {"days": "Sat", "time": "12:00pm"}, {"days": "Sun", "time": "Closed"}], "id": "1784600003", "name": "USPS COLLECTION BOX - PO LOBBY", "address": {"city": "MILLVILLE", "state": "PA", "street": "10 E MAIN ST", "postcode": "17846"}}},
{"geometry": {"type": "Point", "coordinates": [-76.8557067744, 41.0190337664]}, "type": "Feature", "properties": {"collection_times": [{"days": "Mon-Sat", "time": "2:00pm"}, {"days": "Sun", "time": "Closed"}], "id": "1784700002", "name": "USPS COLLECTION BOX - BLUE BOX", "address": {"city": "MILTON", "state": "PA", "street": "57 S FRONT ST", "postcode": "17847"}}},
{"geometry": {"type": "Point", "coordinates": [-76.8559753061, 41.0158729]}, "type": "Feature", "properties": {"collection_times": [{"days": "Mon-Sat", "time": "2:00pm"}, {"days": "Sun", "time": "Closed"}], "id": "1784700003", "name": "USPS COLLECTION BOX - BLUE BOX", "address": {"city": "MILTON", "state": "PA", "street": "37 MAHONING ST", "postcode": "17847"}}},
{"geometry": {"type": "Point", "coordinates": [-76.8446804139, 41.0114805734]}, "type": "Feature", "properties": {"collection_times": [{"days": "Mon-Sat", "time": "10:00am"}, {"days": "Sun", "time": "Closed"}], "id": "1784700010", "name": "USPS COLLECTION BOX - BLUE BOX", "address": {"city": "MILTON", "state": "PA", "street": "555 MAHONING ST", "postcode": "17847"}}},
{"geometry": {"type": "Point", "coordinates": [-76.84343949, 41.0206402246]}, "type": "Feature", "properties": {"collection_times": [{"days": "Mon-Sat", "time": "2:00pm"}, {"days": "Sun", "time": "Closed"}], "id": "1784700012", "name": "USPS COLLECTION BOX - BLUE BOX", "address": {"city": "MILTON", "state": "PA", "street": "560 BROADWAY ST", "postcode": "17847"}}},
{"geometry": {"type": "Point", "coordinates": [-76.8411303541, 41.0192052954]}, "type": "Feature", "properties": {"collection_times": [{"days": "Mon-Sat", "time": "2:00pm"}, {"days": "Sun", "time": "Closed"}], "id": "1784700016", "name": "USPS COLLECTION BOX - BLUE BOX", "address": {"city": "MILTON", "state": "PA", "street": "700 HEPBURN ST", "postcode": "17847"}}},
{"geometry": {"type": "Point", "coordinates": [-76.855170894, 41.020947794]}, "type": "Feature", "properties": {"collection_times": [{"days": "Mon-Fri", "time": "4:30pm"}, {"days": "Sat", "time": "3:15pm"}, {"days": "Sun", "time": "Closed"}], "id": "1784700019", "name": "USPS COLLECTION BOX - BLUE BOX", "address": {"city": "MILTON", "state": "PA", "street": "29 N FRONT ST", "postcode": "17847"}}},
{"geometry": {"type": "Point", "coordinates": [-76.855170894, 41.020947794]}, "type": "Feature", "properties": {"collection_times": [{"days": "Mon-Fri", "time": "4:30pm"}, {"days": "Sat", "time": "3:15pm"}, {"days": "Sun", "time": "Closed"}], "id": "1784700020", "name": "USPS COLLECTION BOX - BLUE BOX", "address": {"city": "MILTON", "state": "PA", "street": "29 N FRONT ST", "postcode": "17847"}}},
{"geometry": {"type": "Point", "coordinates": [-76.8481701429, 41.0196938575]}, "type": "Feature", "properties": {"collection_times": [{"days": "Mon-Sat", "time": "2:00pm"}, {"days": "Sun", "time": "Closed"}], "id": "1784700023", "name": "USPS COLLECTION BOX - BLUE BOX", "address": {"city": "MILTON", "state": "PA", "street": "32 S TURBOT AVE", "postcode": "17847"}}},
{"geometry": {"type": "Point", "coordinates": [-76.855170894, 41.020947794]}, "type": "Feature", "properties": {"collection_times": [{"days": "Mon-Fri", "time": "4:30pm"}, {"days": "Sat", "time": "3:15pm"}, {"days": "Sun", "time": "Closed"}], "id": "1784700027", "name": "USPS COLLECTION BOX - PO LOBBY", "address": {"city": "MILTON", "state": "PA", "street": "29 N FRONT ST", "postcode": "17847"}}},
{"geometry": {"type": "Point", "coordinates": [-76.8575947769, 40.9661980871]}, "type": "Feature", "properties": {"collection_times": [{"days": "Mon-Fri", "time": "4:00pm"}, {"days": "Sat", "time": "11:30am"}, {"days": "Sun", "time": "Closed"}], "id": "1785000001", "name": "USPS COLLECTION BOX - BLUE BOX", "address": {"city": "MONTANDON", "state": "PA", "street": "97 MAIN ST", "postcode": "17850"}}},
{"geometry": {"type": "Point", "coordinates": [-76.8575947769, 40.9661980871]}, "type": "Feature", "properties": {"collection_times": [{"days": "Mon-Fri", "time": "4:00pm"}, {"days": "Sat", "time": "11:30am"}, {"days": "Sun", "time": "Closed"}], "id": "1785000002", "name": "USPS COLLECTION BOX - PO LOBBY", "address": {"city": "MONTANDON", "state": "PA", "street": "97 MAIN ST", "postcode": "17850"}}},
{"geometry": {"type": "Point", "coordinates": [-76.4384289987, 40.7952394241]}, "type": "Feature", "properties": {"collection_times": [{"days": "Mon-Sat", "time": "8:45am"}, {"days": "Sun", "time": "Closed"}], "id": "1785100002", "name": "USPS COLLECTION BOX - BLUE BOX", "address": {"city": "MOUNT CARMEL", "state": "PA", "street": "292 COLONIAL AVE", "postcode": "17851"}}},
{"geometry": {"type": "Point", "coordinates": [-76.4280097876, 40.7987232043]}, "type": "Feature", "properties": {"collection_times": [{"days": "Mon-Sat", "time": "10:45am"}, {"days": "Sun", "time": "Closed"}], "id": "1785100004", "name": "USPS COLLECTION BOX - BLUE BOX", "address": {"city": "MOUNT CARMEL", "state": "PA", "street": "254 W SAYLOR ST", "postcode": "17851"}}},
{"geometry": {"type": "Point", "coordinates": [-76.4144174378, 40.7977579214]}, "type": "Feature", "properties": {"collection_times": [{"days": "Mon-Sat", "time": "2:00pm"}, {"days": "Sun", "time": "Closed"}], "id": "1785100006", "name": "USPS COLLECTION BOX - BLUE BOX", "address": {"city": "MOUNT CARMEL", "state": "PA", "street": "50 W 2ND ST", "postcode": "17851"}}},
{"geometry": {"type": "Point", "coordinates": [-76.4180764186, 40.7982679544]}, "type": "Feature", "properties": {"collection_times": [{"days": "Mon-Sat", "time": "10:30am"}, {"days": "Sun", "time": "Closed"}], "id": "1785100009", "name": "USPS COLLECTION BOX - BLUE BOX", "address": {"city": "MOUNT CARMEL", "state": "PA", "street": "400 WEST AVE", "postcode": "17851"}}},
{"geometry": {"type": "Point", "coordinates": [-76.4097693616, 40.7959507782]}, "type": "Feature", "properties": {"collection_times": [{"days": "Mon-Sat", "time": "2:00pm"}, {"days": "Sun", "time": "Closed"}], "id": "1785100014", "name": "USPS COLLECTION BOX - BLUE BOX", "address": {"city": "MOUNT CARMEL", "state": "PA", "street": "150 S MARKET ST", "postcode": "17851"}}},
{"geometry": {"type": "Point", "coordinates": [-76.4078104198, 40.794221815]}, "type": "Feature", "properties": {"collection_times": [{"days": "Mon-Sat", "time": "10:00am"}, {"days": "Sun", "time": "Closed"}], "id": "1785100015", "name": "USPS COLLECTION BOX - BLUE BOX", "address": {"city": "MOUNT CARMEL", "state": "PA", "street": "350 S CHESTNUT ST", "postcode": "17851"}}},
{"geometry": {"type": "Point", "coordinates": [-76.4130895073, 40.7963240752]}, "type": "Feature", "properties": {"collection_times": [{"days": "Mon-Sat", "time": "12:30pm"}, {"days": "Sun", "time": "Closed"}], "id": "1785100019", "name": "USPS COLLECTION BOX - BLUE BOX", "address": {"city": "MOUNT CARMEL", "state": "PA", "street": "50 S OAK ST", "postcode": "17851"}}},
{"geometry": {"type": "Point", "coordinates": [-76.4183221879, 40.7948253693]}, "type": "Feature", "properties": {"collection_times": [{"days": "Mon-Sat", "time": "11:00am"}, {"days": "Sun", "time": "Closed"}], "id": "1785100026", "name": "USPS COLLECTION BOX - BLUE BOX", "address": {"city": "MOUNT CARMEL", "state": "PA", "street": "400 W 4TH ST", "postcode": "17851"}}},
{"geometry": {"type": "Point", "coordinates": [-76.4162690316, 40.7976022757]}, "type": "Feature", "properties": {"collection_times": [{"days": "Mon-Sat", "time": "8:45am"}, {"days": "Sun", "time": "Closed"}], "id": "1785100028", "name": "USPS COLLECTION BOX - BLUE BOX", "address": {"city": "MOUNT CARMEL", "state": "PA", "street": "315 S HICKORY ST", "postcode": "17851"}}},
{"geometry": {"type": "Point", "coordinates": [-76.4117850701, 40.7969296727]}, "type": "Feature", "properties": {"collection_times": [{"days": "Mon-Fri", "time": "4:30pm"}, {"days": "Sat", "time": "2:30pm"}, {"days": "Sun", "time": "Closed"}], "id": "1785100029", "name": "USPS COLLECTION BOX - BLUE BOX", "address": {"city": "MOUNT CARMEL", "state": "PA", "street": "1 S HICKORY ST", "postcode": "17851"}}},
{"geometry": {"type": "Point", "coordinates": [-76.4117850701, 40.7969296727]}, "type": "Feature", "properties": {"collection_times": [{"days": "Mon-Fri", "time": "4:30pm"}, {"days": "Sat", "time": "2:30pm"}, {"days": "Sun", "time": "Closed"}], "id": "1785100037", "name": "USPS COLLECTION BOX - BLUE BOX", "address": {"city": "MOUNT CARMEL", "state": "PA", "street": "1 S HICKORY ST", "postcode": "17851"}}},
{"geometry": {"type": "Point", "coordinates": [-76.4117850701, 40.7969296727]}, "type": "Feature", "properties": {"collection_times": [{"days": "Mon-Fri", "time": "4:30pm"}, {"days": "Sat", "time": "2:30pm"}, {"days": "Sun", "time": "Closed"}], "id": "1785100044", "name": "USPS COLLECTION BOX - PO LOBBY", "address": {"city": "MOUNT CARMEL", "state": "PA", "street": "1 S HICKORY ST", "postcode": "17851"}}},
{"geometry": {"type": "Point", "coordinates": [-77.0073212632, 40.6989158834]}, "type": "Feature", "properties": {"collection_times": [{"days": "Mon-Fri", "time": "4:00pm"}, {"days": "Sat", "time": "10:30am"}, {"days": "Sun", "time": "Closed"}], "id": "1785300001", "name": "USPS COLLECTION BOX - BLUE BOX", "address": {"city": "MT PLEASANT M", "state": "PA", "street": "9116 ROUTE 35", "postcode": "17853"}}},
{"geometry": {"type": "Point", "coordinates": [-77.0073212632, 40.6989158834]}, "type": "Feature", "properties": {"collection_times": [{"days": "Mon-Fri", "time": "4:00pm"}, {"days": "Sat", "time": "10:30am"}, {"days": "Sun", "time": "Closed"}], "id": "1785300002", "name": "USPS COLLECTION BOX - PO LOBBY", "address": {"city": "MT PLEASANT M", "state": "PA", "street": "9116 ROUTE 35", "postcode": "17853"}}},
{"geometry": {"type": "Point", "coordinates": [-76.9866070435, 40.8781446371]}, "type": "Feature", "properties": {"collection_times": [{"days": "Mon-Fri", "time": "4:30pm"}, {"days": "Sat", "time": "11:30am"}, {"days": "Sun", "time": "Closed"}], "id": "1785500001", "name": "USPS COLLECTION BOX - BLUE BOX", "address": {"city": "NEW BERLIN", "state": "PA", "street": "220 VINE ST", "postcode": "17855"}}},
{"geometry": {"type": "Point", "coordinates": [-76.9866070435, 40.8781446371]}, "type": "Feature", "properties": {"collection_times": [{"days": "Mon-Fri", "time": "3:30pm"}, {"days": "Sat", "time": "11:30am"}, {"days": "Sun", "time": "Closed"}], "id": "1785500002", "name": "USPS COLLECTION BOX - PO LOBBY", "address": {"city": "NEW BERLIN", "state": "PA", "street": "220 VINE ST", "postcode": "17855"}}},
{"geometry": {"type": "Point", "coordinates": [-76.9866070435, 40.8781446371]}, "type": "Feature", "properties": {"collection_times": [{"days": "Mon-Fri", "time": "4:30pm"}, {"days": "Sat", "time": "11:30am"}, {"days": "Sun", "time": "Closed"}], "id": "1785500006", "name": "USPS COLLECTION BOX - BLUE BOX", "address": {"city": "NEW BERLIN", "state": "PA", "street": "220 VINE ST", "postcode": "17855"}}},
{"geometry": {"type": "Point", "coordinates": [-76.801308124, 40.8955886206]}, "type": "Feature", "properties": {"collection_times": [{"days": "Mon-Sat", "time": "11:30am"}, {"days": "Sun", "time": "Closed"}], "id": "1785700012", "name": "USPS COLLECTION BOX - BLUE BOX", "address": {"city": "NORTHUMBERLAND", "state": "PA", "street": "395 6TH ST", "postcode": "17857"}}},
{"geometry": {"type": "Point", "coordinates": [-76.7951953772, 40.8899600797]}, "type": "Feature", "properties": {"collection_times": [{"days": "Mon-Sat", "time": "1:00pm"}, {"days": "Sun", "time": "Closed"}], "id": "1785700016", "name": "USPS COLLECTION BOX - BLUE BOX", "address": {"city": "NORTHUMBERLAND", "state": "PA", "street": "147 KING ST", "postcode": "17857"}}},
{"geometry": {"type": "Point", "coordinates": [-76.7948464172, 40.887944483]}, "type": "Feature", "properties": {"collection_times": [{"days": "Mon-Fri", "time": "5:00pm"}, {"days": "Sat", "time": "12:00pm"}, {"days": "Sun", "time": "Closed"}], "id": "1785700017", "name": "USPS COLLECTION BOX - BLUE BOX", "address": {"city": "NORTHUMBERLAND", "state": "PA", "street": "75 QUEEN ST", "postcode": "17857"}}},
{"geometry": {"type": "Point", "coordinates": [-76.7905492353, 40.8933525857]}, "type": "Feature", "properties": {"collection_times": [{"days": "Mon-Sat", "time": "1:00pm"}, {"days": "Sun", "time": "Closed"}], "id": "1785700019", "name": "USPS COLLECTION BOX - BLUE BOX", "address": {"city": "NORTHUMBERLAND", "state": "PA", "street": "600 FRONT ST", "postcode": "17857"}}},
{"geometry": {"type": "Point", "coordinates": [-76.7948464172, 40.887944483]}, "type": "Feature", "properties": {"collection_times": [{"days": "Mon-Fri", "time": "5:00pm"}, {"days": "Sat", "time": "12:00pm"}, {"days": "Sun", "time": "Closed"}], "id": "1785700023", "name": "USPS COLLECTION BOX - PO LOBBY", "address": {"city": "NORTHUMBERLAND", "state": "PA", "street": "75 QUEEN ST", "postcode": "17857"}}},
{"geometry": {"type": "Point", "coordinates": [-76.7948464172, 40.887944483]}, "type": "Feature", "properties": {"collection_times": [{"days": "Mon-Fri", "time": "5:00pm"}, {"days": "Sat", "time": "12:00pm"}, {"days": "Sun", "time": "Closed"}], "id": "1785700025", "name": "USPS COLLECTION BOX - BLUE BOX", "address": {"city": "NORTHUMBERLAND", "state": "PA", "street": "75 QUEEN ST", "postcode": "17857"}}},
{"geometry": {"type": "Point", "coordinates": [-76.4024106009, 40.8819134559]}, "type": "Feature", "properties": {"collection_times": [{"days": "Mon-Fri", "time": "3:30pm"}, {"days": "Sat", "time": "11:00am"}, {"days": "Sun", "time": "Closed"}], "id": "1785800001", "name": "USPS COLLECTION BOX - BLUE BOX", "address": {"city": "NUMIDIA", "state": "PA", "street": "1114 NUMIDIA DR", "postcode": "17858"}}},
{"geometry": {"type": "Point", "coordinates": [-76.4024106009, 40.8819134559]}, "type": "Feature", "properties": {"collection_times": [{"days": "Mon-Fri", "time": "3:30pm"}, {"days": "Sat", "time": "11:00am"}, {"days": "Sun", "time": "Closed"}], "id": "1785800002", "name": "USPS COLLECTION BOX - PO LOBBY", "address": {"city": "NUMIDIA", "state": "PA", "street": "1114 NUMIDIA DR", "postcode": "17858"}}},
{"geometry": {"type": "Point", "coordinates": [-76.4149025254, 41.0794577961]}, "type": "Feature", "properties": {"collection_times": [{"days": "Mon-Fri", "time": "3:15pm"}, {"days": "Sat", "time": "11:30am"}, {"days": "Sun", "time": "Closed"}], "id": "1785900001", "name": "USPS COLLECTION BOX - BLUE BOX", "address": {"city": "ORANGEVILLE", "state": "PA", "street": "410 MILL ST", "postcode": "17859"}}},
{"geometry": {"type": "Point", "coordinates": [-76.4149025254, 41.0794577961]}, "type": "Feature", "properties": {"collection_times": [{"days": "Mon-Fri", "time": "3:15pm"}, {"days": "Sat", "time": "11:30am"}, {"days": "Sun", "time": "Closed"}], "id": "1785900002", "name": "USPS COLLECTION BOX - PO LOBBY", "address": {"city": "ORANGEVILLE", "state": "PA", "street": "410 MILL ST", "postcode": "17859"}}},
{"geometry": {"type": "Point", "coordinates": [-76.640387905, 40.8355541988]}, "type": "Feature", "properties": {"collection_times": [{"days": "Mon-Fri", "time": "3:30pm"}, {"days": "Sat", "time": "10:00am"}, {"days": "Sun", "time": "Closed"}], "id": "1786000001", "name": "USPS COLLECTION BOX - BLUE BOX", "address": {"city": "PAXINOS", "state": "PA", "street": "5317 STATE ROUTE 61", "postcode": "17860"}}},
{"geometry": {"type": "Point", "coordinates": [-76.640387905, 40.8355541988]}, "type": "Feature", "properties": {"collection_times": [{"days": "Mon-Fri", "time": "3:30pm"}, {"days": "Sat", "time": "10:00am"}, {"days": "Sun", "time": "Closed"}], "id": "1786000002", "name": "USPS COLLECTION BOX - PO LOBBY", "address": {"city": "PAXINOS", "state": "PA", "street": "5317 STATE ROUTE 61", "postcode": "17860"}}},
{"geometry": {"type": "Point", "coordinates": [-77.0843420187, 40.7702975432]}, "type": "Feature", "properties": {"collection_times": [{"days": "Mon-Fri", "time": "4:15pm"}, {"days": "Sat", "time": "10:45am"}, {"days": "Sun", "time": "Closed"}], "id": "1786100001", "name": "USPS COLLECTION BOX - BLUE BOX", "address": {"city": "PAXTONVILLE", "state": "PA", "street": "1072 PAXTON ST", "postcode": "17861"}}},
{"geometry": {"type": "Point", "coordinates": [-77.0843420187, 40.7702975432]}, "type": "Feature", "properties": {"collection_times": [{"days": "Mon-Fri", "time": "4:15pm"}, {"days": "Sat", "time": "10:45am"}, {"days": "Sun", "time": "Closed"}], "id": "1786100002", "name": "USPS COLLECTION BOX - PO LOBBY", "address": {"city": "PAXTONVILLE", "state": "PA", "street": "1072 PAXTON ST", "postcode": "17861"}}},
{"geometry": {"type": "Point", "coordinates": [-77.0563880736, 40.8600883144]}, "type": "Feature", "properties": {"collection_times": [{"days": "Mon-Fri", "time": "4:15pm"}, {"days": "Sat", "time": "11:00am"}, {"days": "Sun", "time": "Closed"}], "id": "1786200001", "name": "USPS COLLECTION BOX - BLUE BOX", "address": {"city": "PENNS CREEK", "state": "PA", "street": "106 RASPBERRY ST", "postcode": "17862"}}},
{"geometry": {"type": "Point", "coordinates": [-77.0563880736, 40.8600883144]}, "type": "Feature", "properties": {"collection_times": [{"days": "Mon-Fri", "time": "12:00pm"}, {"days": "Sat", "time": "11:15am"}, {"days": "Sun", "time": "Closed"}], "id": "1786200002", "name": "USPS COLLECTION BOX - PO LOBBY", "address": {"city": "PENNS CREEK", "state": "PA", "street": "106 RASPBERRY ST", "postcode": "17862"}}},
{"geometry": {"type": "Point", "coordinates": [-76.9112037363, 40.703584583]}, "type": "Feature", "properties": {"collection_times": [{"days": "Mon-Fri", "time": "3:00pm"}, {"days": "Sat", "time": "10:30am"}, {"days": "Sun", "time": "Closed"}], "id": "1786400001", "name": "USPS COLLECTION BOX - BLUE BOX", "address": {"city": "PORT TREVORTON", "state": "PA", "street": "3934 S SUSQUEHANNA TRL STE 10", "postcode": "17864"}}},
{"geometry": {"type": "Point", "coordinates": [-76.9112037363, 40.703584583]}, "type": "Feature", "properties": {"collection_times": [{"days": "Mon-Fri", "time": "3:00pm"}, {"days": "Sat", "time": "10:30am"}, {"days": "Sun", "time": "Closed"}], "id": "1786400002", "name": "USPS COLLECTION BOX - PO LOBBY", "address": {"city": "PORT TREVORTON", "state": "PA", "street": "3934 S SUSQUEHANNA TRL STE 10", "postcode": "17864"}}},
{"geometry": {"type": "Point", "coordinates": [-76.7904711091, 40.9918931193]}, "type": "Feature", "properties": {"collection_times": [{"days": "Mon-Fri", "time": "4:30pm"}, {"days": "Sat", "time": "11:45am"}, {"days": "Sun", "time": "Closed"}], "id": "1786500001", "name": "USPS COLLECTION BOX - BLUE BOX", "address": {"city": "POTTS GROVE", "state": "PA", "street": "4365 STATE ROUTE 642", "postcode": "17865"}}},
{"geometry": {"type": "Point", "coordinates": [-76.7904711091, 40.9918931193]}, "type": "Feature", "properties": {"collection_times": [{"days": "Mon-Fri", "time": "4:30pm"}, {"days": "Sat", "time": "11:45am"}, {"days": "Sun", "time": "Closed"}], "id": "1786500002", "name": "USPS COLLECTION BOX - PO LOBBY", "address": {"city": "POTTS GROVE", "state": "PA", "street": "4365 STATE ROUTE 642", "postcode": "17865"}}},
{"geometry": {"type": "Point", "coordinates": [-76.5661310281, 40.7874591438]}, "type": "Feature", "properties": {"collection_times": [{"days": "Mon-Sat", "time": "9:15am"}, {"days": "Sun", "time": "Closed"}], "id": "1786600015", "name": "USPS COLLECTION BOX - BLUE BOX", "address": {"city": "SHAMOKIN", "state": "PA", "street": "863 W CHESTNUT ST", "postcode": "17866"}}},
{"geometry": {"type": "Point", "coordinates": [-76.5713218346, 40.8040008023]}, "type": "Feature", "properties": {"collection_times": [{"days": "Mon-Sat", "time": "10:30am"}, {"days": "Sun", "time": "Closed"}], "id": "1786600021", "name": "USPS COLLECTION BOX - BLUE BOX", "address": {"city": "SHAMOKIN", "state": "PA", "street": "709 CENTER ST", "postcode": "17866"}}},
{"geometry": {"type": "Point", "coordinates": [-76.5217992424, 40.798511492]}, "type": "Feature", "properties": {"collection_times": [{"days": "Mon-Sat", "time": "9:45am"}, {"days": "Sun", "time": "Closed"}], "id": "1786600026", "name": "USPS COLLECTION BOX - BLUE BOX", "address": {"city": "SHAMOKIN", "state": "PA", "street": "11 ANTHRA PLAZA CTR", "postcode": "17866"}}},
{"geometry": {"type": "Point", "coordinates": [-76.5673847295, 40.788550419]}, "type": "Feature", "properties": {"collection_times": [{"days": "Mon-Sat", "time": "11:00am"}, {"days": "Sun", "time": "Closed"}], "id": "1786600027", "name": "USPS COLLECTION BOX - BLUE BOX", "address": {"city": "SHAMOKIN", "state": "PA", "street": "941 W ARCH ST", "postcode": "17866"}}},
{"geometry": {"type": "Point", "coordinates": [-76.5217992424, 40.798511492]}, "type": "Feature", "properties": {"collection_times": [{"days": "Mon-Sat", "time": "9:30am"}, {"days": "Sun", "time": "Closed"}], "id": "1786600028", "name": "USPS COLLECTION BOX - BLUE BOX", "address": {"city": "SHAMOKIN", "state": "PA", "street": "9300 STATE ROUTE 61", "postcode": "17866"}}},
{"geometry": {"type": "Point", "coordinates": [-76.5217992424, 40.798511492]}, "type": "Feature", "properties": {"collection_times": [{"days": "Mon-Sat", "time": "9:45am"}, {"days": "Sun", "time": "Closed"}], "id": "1786600029", "name": "USPS COLLECTION BOX - BLUE BOX", "address": {"city": "SHAMOKIN", "state": "PA", "street": "103 TREVORTON RD", "postcode": "17866"}}},
{"geometry": {"type": "Point", "coordinates": [-76.6333607024, 40.9623379494]}, "type": "Feature", "properties": {"collection_times": [{"days": "Mon-Fri", "time": "4:30pm"}, {"days": "Sat", "time": "11:30am"}, {"days": "Sun", "time": "Closed"}], "id": "1786800001", "name": "USPS COLLECTION BOX - BLUE BOX", "address": {"city": "RIVERSIDE", "state": "PA", "street": "390 DEWART ST", "postcode": "17868"}}},
{"geometry": {"type": "Point", "coordinates": [-76.6333607024, 40.9623379494]}, "type": "Feature", "properties": {"collection_times": [{"days": "Mon-Fri", "time": "4:30pm"}, {"days": "Sat", "time": "11:30am"}, {"days": "Sun", "time": "Closed"}], "id": "1786800002", "name": "USPS COLLECTION BOX - PO LOBBY", "address": {"city": "RIVERSIDE", "state": "PA", "street": "390 DEWART ST", "postcode": "17868"}}},
{"geometry": {"type": "Point", "coordinates": [-76.8617746139, 40.7996463133]}, "type": "Feature", "properties": {"collection_times": [{"days": "Mon-Sat", "time": "9:15am"}, {"days": "Sun", "time": "Closed"}], "id": "1787000003", "name": "USPS COLLECTION BOX - BLUE BOX", "address": {"city": "SELINSGROVE", "state": "PA", "street": "29 N MARKET ST", "postcode": "17870"}}},
{"geometry": {"type": "Point", "coordinates": [-76.8971294399, 40.8373600166]}, "type": "Feature", "properties": {"collection_times": [{"days": "Mon-Sat", "time": "9:00am"}, {"days": "Sun", "time": "Closed"}], "id": "1787000015", "name": "USPS COLLECTION BOX - BLUE BOX", "address": {"city": "SELINSGROVE", "state": "PA", "street": "119 ROUTE 204", "postcode": "17870"}}},
{"geometry": {"type": "Point", "coordinates": [-76.8665547301, 40.8084438277]}, "type": "Feature", "properties": {"collection_times": [{"days": "Mon-Sat", "time": "10:30am"}, {"days": "Sun", "time": "Closed"}], "id": "1787000017", "name": "USPS COLLECTION BOX - BLUE BOX", "address": {"city": "SELINSGROVE", "state": "PA", "street": "700 N BROAD ST", "postcode": "17870"}}},
{"geometry": {"type": "Point", "coordinates": [-76.8622723093, 40.7984063944]}, "type": "Feature", "properties": {"collection_times": [{"days": "Mon-Fri", "time": "5:00pm"}, {"days": "Sat", "time": "3:30pm"}, {"days": "Sun", "time": "Closed"}], "id": "1787000022", "name": "USPS COLLECTION BOX - BLUE BOX", "address": {"city": "SELINSGROVE", "state": "PA", "street": "100 S MARKET ST", "postcode": "17870"}}},
{"geometry": {"type": "Point", "coordinates": [-76.8622723093, 40.7984063944]}, "type": "Feature", "properties": {"collection_times": [{"days": "Mon-Fri", "time": "5:00pm"}, {"days": "Sat", "time": "3:30pm"}, {"days": "Sun", "time": "Closed"}], "id": "1787000025", "name": "USPS COLLECTION BOX - BLUE BOX", "address": {"city": "SELINSGROVE", "state": "PA", "street": "100 S MARKET ST", "postcode": "17870"}}},
{"geometry": {"type": "Point", "coordinates": [-76.8396833507, 40.8288916663]}, "type": "Feature", "properties": {"collection_times": [{"days": "Mon-Sat", "time": "9:00am"}, {"days": "Sun", "time": "Closed"}], "id": "1787000027", "name": "USPS COLLECTION BOX - BLUE BOX", "address": {"city": "SELINSGROVE", "state": "PA", "street": "21 COUNTRYSIDE VLG", "postcode": "17870"}}},
{"geometry": {"type": "Point", "coordinates": [-76.8971294399, 40.8373600166]}, "type": "Feature", "properties": {"collection_times": [{"days": "Mon-Sat", "time": "8:45am"}, {"days": "Sun", "time": "Closed"}], "id": "1787000029", "name": "USPS COLLECTION BOX - BLUE BOX", "address": {"city": "SELINSGROVE", "state": "PA", "street": "1 SUSQUEHANNA VALLEY MALL DR STE A1", "postcode": "17870"}}},
{"geometry": {"type": "Point", "coordinates": [-76.8749177103, 40.8080046799]}, "type": "Feature", "properties": {"collection_times": [{"days": "Mon-Sat", "time": "11:30am"}, {"days": "Sun", "time": "Closed"}], "id": "1787000032", "name": "USPS COLLECTION BOX - BLUE BOX", "address": {"city": "SELINSGROVE", "state": "PA", "street": "901 US HIGHWAY 522", "postcode": "17870"}}},
{"geometry": {"type": "Point", "coordinates": [-76.8622723093, 40.7984063944]}, "type": "Feature", "properties": {"collection_times": [{"days": "Mon-Fri", "time": "5:00pm"}, {"days": "Sat", "time": "3:30pm"}, {"days": "Sun", "time": "Closed"}], "id": "1787000038", "name": "USPS COLLECTION BOX - PO LOBBY", "address": {"city": "SELINSGROVE", "state": "PA", "street": "100 S MARKET ST", "postcode": "17870"}}},
{"geometry": {"type": "Point", "coordinates": [-76.5557376604, 40.7889051948]}, "type": "Feature", "properties": {"collection_times": [{"days": "Mon-Sat", "time": "12:30pm"}, {"days": "Sun", "time": "Closed"}], "id": "1787200018", "name": "USPS COLLECTION BOX - BLUE BOX", "address": {"city": "SHAMOKIN", "state": "PA", "street": "2 E ARCH ST", "postcode": "17872"}}},
{"geometry": {"type": "Point", "coordinates": [-76.5631345112, 40.7852473939]}, "type": "Feature", "properties": {"collection_times": [{"days": "Mon-Sat", "time": "1:30pm"}, {"days": "Sun", "time": "Closed"}], "id": "1787200026", "name": "USPS COLLECTION BOX - BLUE BOX", "address": {"city": "SHAMOKIN", "state": "PA", "street": "634 W PINE ST", "postcode": "17872"}}},
{"geometry": {"type": "Point", "coordinates": [-76.5602795765, 40.7853589516]}, "type": "Feature", "properties": {"collection_times": [{"days": "Mon-Sat", "time": "11:00am"}, {"days": "Sun", "time": "Closed"}], "id": "1787200027", "name": "USPS COLLECTION BOX - BLUE BOX", "address": {"city": "SHAMOKIN", "state": "PA", "street": "300 W PINE ST", "postcode": "17872"}}},
{"geometry": {"type": "Point", "coordinates": [-76.5571155141, 40.7912015596]}, "type": "Feature", "properties": {"collection_times": [{"days": "Mon-Sat", "time": "10:45am"}, {"days": "Sun", "time": "Closed"}], "id": "1787200032", "name": "USPS COLLECTION BOX - BLUE BOX", "address": {"city": "SHAMOKIN", "state": "PA", "street": "1 W INDEPENDENCE ST", "postcode": "17872"}}},
{"geometry": {"type": "Point", "coordinates": [-76.558116065, 40.7907205025]}, "type": "Feature", "properties": {"collection_times": [{"days": "Mon-Sat", "time": "10:45am"}, {"days": "Sun", "time": "Closed"}], "id": "1787200033", "name": "USPS COLLECTION BOX - BLUE BOX", "address": {"city": "SHAMOKIN", "state": "PA", "street": "117 W INDEPENDENCE ST", "postcode": "17872"}}},
{"geometry": {"type": "Point", "coordinates": [-76.5612285063, 40.7899077636]}, "type": "Feature", "properties": {"collection_times": [{"days": "Mon-Sat", "time": "10:00am"}, {"days": "Sun", "time": "Closed"}], "id": "1787200034", "name": "USPS COLLECTION BOX - BLUE BOX", "address": {"city": "SHAMOKIN", "state": "PA", "street": "339 W WALNUT ST", "postcode": "17872"}}},
{"geometry": {"type": "Point", "coordinates": [-76.5640815658, 40.7895071006]}, "type": "Feature", "properties": {"collection_times": [{"days": "Mon-Fri", "time": "2:30pm"}, {"days": "Sat", "time": "11:00am"}, {"days": "Sun", "time": "Closed"}], "id": "1787200035", "name": "USPS COLLECTION BOX - BLUE BOX", "address": {"city": "SHAMOKIN", "state": "PA", "street": "521 N 2ND ST", "postcode": "17872"}}},
{"geometry": {"type": "Point", "coordinates": [-76.5588251912, 40.7874805046]}, "type": "Feature", "properties": {"collection_times": [{"days": "Mon-Fri", "time": "2:30pm"}, {"days": "Sat", "time": "1:00pm"}, {"days": "Sun", "time": "Closed"}], "id": "1787200036", "name": "USPS COLLECTION BOX - BLUE BOX", "address": {"city": "SHAMOKIN", "state": "PA", "street": "10 S MARKET ST", "postcode": "17872"}}},
{"geometry": {"type": "Point", "coordinates": [-76.5552438533, 40.7919581682]}, "type": "Feature", "properties": {"collection_times": [{"days": "Mon-Fri", "time": "5:15pm"}, {"days": "Sat", "time": "4:00pm"}, {"days": "Sun", "time": "Closed"}], "id": "1787200038", "name": "USPS COLLECTION BOX - BLUE BOX", "address": {"city": "SHAMOKIN", "state": "PA", "street": "201 E INDEPENDENCE ST", "postcode": "17872"}}},
{"geometry": {"type": "Point", "coordinates": [-76.5646162094, 40.7866615519]}, "type": "Feature", "properties": {"collection_times": [{"days": "Mon-Fri", "time": "5:15pm"}, {"days": "Sat", "time": "4:00pm"}, {"days": "Sun", "time": "Closed"}], "id": "1787200039", "name": "USPS COLLECTION BOX - EXPRESS", "address": {"city": "SHAMOKIN", "state": "PA", "street": "201 E INDEPENDENCE ST", "postcode": "17872"}}},
{"geometry": {"type": "Point", "coordinates": [-76.5587879291, 40.7869301582]}, "type": "Feature", "properties": {"collection_times": [{"days": "Mon-Fri", "time": "2:30pm"}, {"days": "Sat", "time": "10:00am"}, {"days": "Sun", "time": "Closed"}], "id": "1787200043", "name": "USPS COLLECTION BOX - BLUE BOX", "address": {"city": "SHAMOKIN", "state": "PA", "street": "52 S MARKET ST", "postcode": "17872"}}},
{"geometry": {"type": "Point", "coordinates": [-76.5552438533, 40.7919581682]}, "type": "Feature", "properties": {"collection_times": [{"days": "Mon-Fri", "time": "5:15pm"}, {"days": "Sat", "time": "4:00pm"}, {"days": "Sun", "time": "Closed"}], "id": "1787200044", "name": "USPS COLLECTION BOX - PO LOBBY", "address": {"city": "SHAMOKIN", "state": "PA", "street": "201 E INDEPENDENCE ST", "postcode": "17872"}}},
{"geometry": {"type": "Point", "coordinates": [-76.8255332416, 40.8588323405]}, "type": "Feature", "properties": {"collection_times": [{"days": "Mon-Fri", "time": "4:00pm"}, {"days": "Sat", "time": "11:00am"}, {"days": "Sun", "time": "Closed"}], "id": "1787600002", "name": "USPS COLLECTION BOX - BLUE BOX", "address": {"city": "SHAMOKIN DAM", "state": "PA", "street": "3054 N SUSQUEHANNA TRL", "postcode": "17876"}}},
{"geometry": {"type": "Point", "coordinates": [-76.8255332416, 40.8588323405]}, "type": "Feature", "properties": {"collection_times": [{"days": "Mon-Fri", "time": "4:00pm"}, {"days": "Sat", "time": "11:00am"}, {"days": "Sun", "time": "Closed"}], "id": "1787600003", "name": "USPS COLLECTION BOX - PO LOBBY", "address": {"city": "SHAMOKIN DAM", "state": "PA", "street": "3054 N SUSQUEHANNA TRL", "postcode": "17876"}}},
{"geometry": {"type": "Point", "coordinates": [-77.1265833779, 40.8918783791]}, "type": "Feature", "properties": {"collection_times": [{"days": "Mon-Fri", "time": "4:00pm"}, {"days": "Sat", "time": "11:30am"}, {"days": "Sun", "time": "Closed"}], "id": "1788000001", "name": "USPS COLLECTION BOX - BLUE BOX", "address": {"city": "SWENGEL", "state": "PA", "street": "1501 ORCHARD RD", "postcode": "17880"}}},
{"geometry": {"type": "Point", "coordinates": [-77.1265833779, 40.8918783791]}, "type": "Feature", "properties": {"collection_times": [{"days": "Mon-Fri", "time": "4:00pm"}, {"days": "Sat", "time": "11:30am"}, {"days": "Sun", "time": "Closed"}], "id": "1788000002", "name": "USPS COLLECTION BOX - PO LOBBY", "address": {"city": "SWENGEL", "state": "PA", "street": "1501 ORCHARD RD", "postcode": "17880"}}},
{"geometry": {"type": "Point", "coordinates": [-76.6707796582, 40.7814099372]}, "type": "Feature", "properties": {"collection_times": [{"days": "Mon-Sat", "time": "9:30am"}, {"days": "Sun", "time": "Closed"}], "id": "1788100001", "name": "USPS COLLECTION BOX - BLUE BOX", "address": {"city": "TREVORTON", "state": "PA", "street": "331 W SHAMOKIN ST", "postcode": "17881"}}},
{"geometry": {"type": "Point", "coordinates": [-76.6775900847, 40.7802462962]}, "type": "Feature", "properties": {"collection_times": [{"days": "Mon-Fri", "time": "4:00pm"}, {"days": "Sat", "time": "2:00pm"}, {"days": "Sun", "time": "Closed"}], "id": "1788100005", "name": "USPS COLLECTION BOX - BLUE BOX", "address": {"city": "TREVORTON", "state": "PA", "street": "801 W SHAMOKIN ST", "postcode": "17881"}}},
{"geometry": {"type": "Point", "coordinates": [-76.6775900847, 40.7802462962]}, "type": "Feature", "properties": {"collection_times": [{"days": "Mon-Fri", "time": "4:00pm"}, {"days": "Sat", "time": "10:00am"}, {"days": "Sun", "time": "Closed"}], "id": "1788100007", "name": "USPS COLLECTION BOX - PO LOBBY", "address": {"city": "TREVORTON", "state": "PA", "street": "801 W SHAMOKIN ST", "postcode": "17881"}}},
{"geometry": {"type": "Point", "coordinates": [-77.2055479707, 40.8032638179]}, "type": "Feature", "properties": {"collection_times": [{"days": "Mon-Fri", "time": "4:15pm"}, {"days": "Sat", "time": "11:45am"}, {"days": "Sun", "time": "Closed"}], "id": "1788200001", "name": "USPS COLLECTION BOX - BLUE BOX", "address": {"city": "TROXELVILLE", "state": "PA", "street": "8891 ROUTE 235", "postcode": "17882"}}},
{"geometry": {"type": "Point", "coordinates": [-76.6759004264, 41.0513828085]}, "type": "Feature", "properties": {"collection_times": [{"days": "Mon-Fri", "time": "4:00pm"}, {"days": "Sat", "time": "11:00am"}, {"days": "Sun", "time": "Closed"}], "id": "1788400001", "name": "USPS COLLECTION BOX - BLUE BOX", "address": {"city": "WASHINGTONVILLE", "state": "PA", "street": "19 WATER ST", "postcode": "17884"}}},
{"geometry": {"type": "Point", "coordinates": [-76.6759004264, 41.0513828085]}, "type": "Feature", "properties": {"collection_times": [{"days": "Mon-Fri", "time": "4:00pm"}, {"days": "Sat", "time": "11:00am"}, {"days": "Sun", "time": "Closed"}], "id": "1788400002", "name": "USPS COLLECTION BOX - PO LOBBY", "address": {"city": "WASHINGTONVILLE", "state": "PA", "street": "19 WATER ST", "postcode": "17884"}}},
{"geometry": {"type": "Point", "coordinates": [-77.2960659805, 40.8582100366]}, "type": "Feature", "properties": {"collection_times": [{"days": "Mon-Fri", "time": "3:45pm"}, {"days": "Sat", "time": "11:45am"}, {"days": "Sun", "time": "Closed"}], "id": "1788500000", "name": "USPS COLLECTION BOX - BLUE BOX", "address": {"city": "WEIKERT", "state": "PA", "street": "5580 WEIKERT RD", "postcode": "17885"}}},
{"geometry": {"type": "Point", "coordinates": [-77.2960659805, 40.8582100366]}, "type": "Feature", "properties": {"collection_times": [{"days": "Mon-Fri", "time": "3:45pm"}, {"days": "Sat", "time": "11:45am"}, {"days": "Sun", "time": "Closed"}], "id": "1788500001", "name": "USPS COLLECTION BOX - PO LOBBY", "address": {"city": "WEIKERT", "state": "PA", "street": "5540 WEIKERT RD", "postcode": "17885"}}},
{"geometry": {"type": "Point", "coordinates": [-76.8726988243, 41.01826338]}, "type": "Feature", "properties": {"collection_times": [{"days": "Mon-Fri", "time": "4:15pm"}, {"days": "Sat", "time": "11:45am"}, {"days": "Sun", "time": "Closed"}], "id": "1788600001", "name": "USPS COLLECTION BOX - BLUE BOX", "address": {"city": "WEST MILTON", "state": "PA", "street": "505 BROAD ST", "postcode": "17886"}}},
{"geometry": {"type": "Point", "coordinates": [-76.8701895046, 41.0191185456]}, "type": "Feature", "properties": {"collection_times": [{"days": "Mon-Fri", "time": "4:15pm"}, {"days": "Sat", "time": "11:45am"}, {"days": "Sun", "time": "Closed"}], "id": "1788600002", "name": "USPS COLLECTION BOX - BLUE BOX", "address": {"city": "WEST MILTON", "state": "PA", "street": "505 BROAD ST", "postcode": "17886"}}},
{"geometry": {"type": "Point", "coordinates": [-76.8701895046, 41.0191185456]}, "type": "Feature", "properties": {"collection_times": [{"days": "Mon-Fri", "time": "4:15pm"}, {"days": "Sat", "time": "11:45am"}, {"days": "Sun", "time": "Closed"}], "id": "1788600003", "name": "USPS COLLECTION BOX - PO LOBBY", "address": {"city": "WEST MILTON", "state": "PA", "street": "505 BROAD ST", "postcode": "17886"}}},
{"geometry": {"type": "Point", "coordinates": [-76.878413439, 41.0754651145]}, "type": "Feature", "properties": {"collection_times": [{"days": "Mon-Fri", "time": "4:30pm"}, {"days": "Sat", "time": "11:00am"}, {"days": "Sun", "time": "Closed"}], "id": "1788700001", "name": "USPS COLLECTION BOX - BLUE BOX", "address": {"city": "WHITE DEER", "state": "PA", "street": "601 WHITE DEER PIKE", "postcode": "17887"}}},
{"geometry": {"type": "Point", "coordinates": [-76.878413439, 41.0754651145]}, "type": "Feature", "properties": {"collection_times": [{"days": "Mon-Fri", "time": "4:30pm"}, {"days": "Sat", "time": "11:00am"}, {"days": "Sun", "time": "Closed"}], "id": "1788700002", "name": "USPS COLLECTION BOX - PO LOBBY", "address": {"city": "WHITE DEER", "state": "PA", "street": "601 WHITE DEER PIKE", "postcode": "17887"}}},
{"geometry": {"type": "Point", "coordinates": [-76.3893285323, 40.8123906428]}, "type": "Feature", "properties": {"collection_times": [{"days": "Mon-Fri", "time": "4:00pm"}, {"days": "Sat", "time": "11:15am"}, {"days": "Sun", "time": "Closed"}], "id": "1788800001", "name": "USPS COLLECTION BOX - BLUE BOX", "address": {"city": "WILBURTON", "state": "PA", "street": "300 SMITH ST", "postcode": "17888"}}},
{"geometry": {"type": "Point", "coordinates": [-76.3893285323, 40.8123906428]}, "type": "Feature", "properties": {"collection_times": [{"days": "Mon-Fri", "time": "4:00pm"}, {"days": "Sat", "time": "11:15am"}, {"days": "Sun", "time": "Closed"}], "id": "1788800002", "name": "USPS COLLECTION BOX - PO LOBBY", "address": {"city": "WILBURTON", "state": "PA", "street": "300 SMITH ST", "postcode": "17888"}}},
{"geometry": {"type": "Point", "coordinates": [-76.856931137, 40.9034220038]}, "type": "Feature", "properties": {"collection_times": [{"days": "Mon-Fri", "time": "4:45pm"}, {"days": "Sat", "time": "11:00am"}, {"days": "Sun", "time": "Closed"}], "id": "1788900001", "name": "USPS COLLECTION BOX - BLUE BOX", "address": {"city": "WINFIELD", "state": "PA", "street": "477 PARK RD", "postcode": "17889"}}},
{"geometry": {"type": "Point", "coordinates": [-76.856931137, 40.9034220038]}, "type": "Feature", "properties": {"collection_times": [{"days": "Mon-Fri", "time": "4:45pm"}, {"days": "Sat", "time": "11:00am"}, {"days": "Sun", "time": "Closed"}], "id": "1788900002", "name": "USPS COLLECTION BOX - PO LOBBY", "address": {"city": "WINFIELD", "state": "PA", "street": "477 PARK RD", "postcode": "17889"}}}
]}
