{"type": "FeatureCollection", "features": [
{"geometry": {"type": "Point", "coordinates": [-76.1972360408, 40.6883788704]}, "type": "Feature", "properties": {"collection_times": [{"days": "Mon-Fri", "time": "5:00pm"}, {"days": "Sat", "time": "4:00pm"}, {"days": "Sun", "time": "Closed"}], "id": "1790100000", "name": "USPS COLLECTION BOX - BLUE BOX", "address": {"city": "POTTSVILLE", "state": "PA", "street": "450 N CENTRE ST", "postcode": "17901"}}},
{"geometry": {"type": "Point", "coordinates": [-76.1972360408, 40.6883788704]}, "type": "Feature", "properties": {"collection_times": [{"days": "Mon-Fri", "time": "5:00pm"}, {"days": "Sat", "time": "4:00pm"}, {"days": "Sun", "time": "Closed"}], "id": "1790100001", "name": "USPS COLLECTION BOX - BLUE BOX", "address": {"city": "POTTSVILLE", "state": "PA", "street": "450 N CENTRE ST", "postcode": "17901"}}},
{"geometry": {"type": "Point", "coordinates": [-76.1956273141, 40.6857712872]}, "type": "Feature", "properties": {"collection_times": [{"days": "Mon-Fri", "time": "2:45pm"}, {"days": "Sat", "time": "9:00am"}, {"days": "Sun", "time": "Closed"}], "id": "1790100015", "name": "USPS COLLECTION BOX - BLUE BOX", "address": {"city": "POTTSVILLE", "state": "PA", "street": "101 N CENTRE ST", "postcode": "17901"}}},
{"geometry": {"type": "Point", "coordinates": [-76.1955222182, 40.6857374439]}, "type": "Feature", "properties": {"collection_times": [{"days": "Mon-Fri", "time": "2:45pm"}, {"days": "Sat", "time": "9:00am"}, {"days": "Sun", "time": "Closed"}], "id": "1790100018", "name": "USPS COLLECTION BOX - BLUE BOX", "address": {"city": "POTTSVILLE", "state": "PA", "street": "26 S CENTRE ST", "postcode": "17901"}}},
{"geometry": {"type": "Point", "coordinates": [-76.1955222182, 40.6857374439]}, "type": "Feature", "properties": {"collection_times": [{"days": "Mon-Fri", "time": "2:45pm"}, {"days": "Sat", "time": "9:00am"}, {"days": "Sun", "time": "Closed"}], "id": "1790100020", "name": "USPS COLLECTION BOX - BLUE BOX", "address": {"city": "POTTSVILLE", "state": "PA", "street": "26 S CENTRE ST", "postcode": "17901"}}},
{"geometry": {"type": "Point", "coordinates": [-76.1929954197, 40.6822905852]}, "type": "Feature", "properties": {"collection_times": [{"days": "Mon-Fri", "time": "2:45pm"}, {"days": "Sat", "time": "9:00am"}, {"days": "Sun", "time": "Closed"}], "id": "1790100023", "name": "USPS COLLECTION BOX - BLUE BOX", "address": {"city": "POTTSVILLE", "state": "PA", "street": "340 S CENTRE ST", "postcode": "17901"}}},
{"geometry": {"type": "Point", "coordinates": [-76.1926282266, 40.6849236656]}, "type": "Feature", "properties": {"collection_times": [{"days": "Mon-Fri", "time": "9:00am"}, {"days": "Sat", "time": "8:30am"}, {"days": "Sun", "time": "Closed"}], "id": "1790100032", "name": "USPS COLLECTION BOX - BLUE BOX", "address": {"city": "POTTSVILLE", "state": "PA", "street": "106 S CLAUDE A LORD BLVD", "postcode": "17901"}}},
{"geometry": {"type": "Point", "coordinates": [-76.2698798518, 40.661414263]}, "type": "Feature", "properties": {"collection_times": [{"days": "Mon-Sat", "time": "9:00am"}, {"days": "Sun", "time": "Closed"}], "id": "1790100035", "name": "USPS COLLECTION BOX - BLUE BOX", "address": {"city": "POTTSVILLE", "state": "PA", "street": "1544 ROUTE 61 HWY S STE 6144", "postcode": "17901"}}},
{"geometry": {"type": "Point", "coordinates": [-76.1887456312, 40.683740273]}, "type": "Feature", "properties": {"collection_times": [{"days": "Mon-Sat", "time": "9:30am"}, {"days": "Sun", "time": "Closed"}], "id": "1790100043", "name": "USPS COLLECTION BOX - BLUE BOX", "address": {"city": "POTTSVILLE", "state": "PA", "street": "420 S JACKSON ST", "postcode": "17901"}}},
{"geometry": {"type": "Point", "coordinates": [-76.2169175612, 40.6777946293]}, "type": "Feature", "properties": {"collection_times": [{"days": "Mon-Fri", "time": "12:00pm"}, {"days": "Sat", "time": "11:00am"}, {"days": "Sun", "time": "Closed"}], "id": "1790100059", "name": "USPS COLLECTION BOX - BLUE BOX", "address": {"city": "POTTSVILLE", "state": "PA", "street": "1824 W MARKET ST", "postcode": "17901"}}},
{"geometry": {"type": "Point", "coordinates": [-76.2247852205, 40.6754266052]}, "type": "Feature", "properties": {"collection_times": [{"days": "Mon-Fri", "time": "2:30pm"}, {"days": "Sat", "time": "10:00am"}, {"days": "Sun", "time": "Closed"}], "id": "1790100061", "name": "USPS COLLECTION BOX - BLUE BOX", "address": {"city": "POTTSVILLE", "state": "PA", "street": "2169 W MARKET ST", "postcode": "17901"}}},
{"geometry": {"type": "Point", "coordinates": [-76.1998944345, 40.683831697]}, "type": "Feature", "properties": {"collection_times": [{"days": "Mon-Fri", "time": "2:30pm"}, {"days": "Sat", "time": "9:00am"}, {"days": "Sun", "time": "Closed"}], "id": "1790100064", "name": "USPS COLLECTION BOX - BLUE BOX", "address": {"city": "POTTSVILLE", "state": "PA", "street": "602 W MARKET ST", "postcode": "17901"}}},
{"geometry": {"type": "Point", "coordinates": [-76.2040302361, 40.6819057325]}, "type": "Feature", "properties": {"collection_times": [{"days": "Mon-Fri", "time": "2:45pm"}, {"days": "Sat", "time": "9:00am"}, {"days": "Sun", "time": "Closed"}], "id": "1790100065", "name": "USPS COLLECTION BOX - BLUE BOX", "address": {"city": "POTTSVILLE", "state": "PA", "street": "1128 W MARKET ST", "postcode": "17901"}}},
{"geometry": {"type": "Point", "coordinates": [-76.1953858929, 40.6854626108]}, "type": "Feature", "properties": {"collection_times": [{"days": "Mon-Fri", "time": "9:30am"}, {"days": "Sat", "time": "8:30am"}, {"days": "Sun", "time": "Closed"}], "id": "1790100069", "name": "USPS COLLECTION BOX - BLUE BOX", "address": {"city": "POTTSVILLE", "state": "PA", "street": "NORWEGIAN PLZ", "postcode": "17901"}}},
{"geometry": {"type": "Point", "coordinates": [-76.1937572434, 40.685820251]}, "type": "Feature", "properties": {"collection_times": [{"days": "Mon-Fri", "time": "9:30am"}, {"days": "Sat", "time": "8:30am"}, {"days": "Sun", "time": "Closed"}], "id": "1790100071", "name": "USPS COLLECTION BOX - BLUE BOX", "address": {"city": "POTTSVILLE", "state": "PA", "street": "200 E NORWEGIAN ST", "postcode": "17901"}}},
{"geometry": {"type": "Point", "coordinates": [-76.2001653321, 40.682764668]}, "type": "Feature", "properties": {"collection_times": [{"days": "Mon-Sat", "time": "12:00pm"}, {"days": "Sun", "time": "Closed"}], "id": "1790100075", "name": "USPS COLLECTION BOX - BLUE BOX", "address": {"city": "POTTSVILLE", "state": "PA", "street": "700 E NORWEGIAN ST", "postcode": "17901"}}},
{"geometry": {"type": "Point", "coordinates": [-76.2116887922, 40.6837501425]}, "type": "Feature", "properties": {"collection_times": [{"days": "Mon-Fri", "time": "2:45pm"}, {"days": "Sat", "time": "10:00am"}, {"days": "Sun", "time": "Closed"}], "id": "1790100077", "name": "USPS COLLECTION BOX - BLUE BOX", "address": {"city": "POTTSVILLE", "state": "PA", "street": "W NORWEGIAN ST", "postcode": "17901"}}},
{"geometry": {"type": "Point", "coordinates": [-76.2116887922, 40.6837501425]}, "type": "Feature", "properties": {"collection_times": [{"days": "Mon-Fri", "time": "2:45pm"}, {"days": "Sat", "time": "10:00am"}, {"days": "Sun", "time": "Closed"}], "id": "1790100079", "name": "USPS COLLECTION BOX - BLUE BOX", "address": {"city": "POTTSVILLE", "state": "PA", "street": "W NORWEGIAN ST", "postcode": "17901"}}},
{"geometry": {"type": "Point", "coordinates": [-76.1986736209, 40.6810895981]}, "type": "Feature", "properties": {"collection_times": [{"days": "Mon-Sat", "time": "12:00pm"}, {"days": "Sun", "time": "Closed"}], "id": "1790100091", "name": "USPS COLLECTION BOX - BLUE BOX", "address": {"city": "POTTSVILLE", "state": "PA", "street": "700 SCHUYLKILL MANOR RD", "postcode": "17901"}}},
{"geometry": {"type": "Point", "coordinates": [-76.2304034053, 40.6961811539]}, "type": "Feature", "properties": {"collection_times": [{"days": "Mon-Fri", "time": "3:30pm"}, {"days": "Sat", "time": "11:00am"}, {"days": "Sun", "time": "Closed"}], "id": "1790100093", "name": "USPS COLLECTION BOX - BLUE BOX", "address": {"city": "POTTSVILLE", "state": "PA", "street": "541 SELTZER RD", "postcode": "17901"}}},
{"geometry": {"type": "Point", "coordinates": [-76.2350178735, 40.6736524834]}, "type": "Feature", "properties": {"collection_times": [{"days": "Mon-Fri", "time": "11:00am"}, {"days": "Sat", "time": "9:30am"}, {"days": "Sun", "time": "Closed"}], "id": "1790100096", "name": "USPS COLLECTION BOX - BLUE BOX", "address": {"city": "POTTSVILLE", "state": "PA", "street": "7 WESTWOOD CTR", "postcode": "17901"}}},
{"geometry": {"type": "Point", "coordinates": [-76.1984181018, 40.686454317]}, "type": "Feature", "properties": {"collection_times": [{"days": "Mon-Sat", "time": "9:00am"}, {"days": "Sun", "time": "Closed"}], "id": "1790100102", "name": "USPS COLLECTION BOX - BLUE BOX", "address": {"city": "POTTSVILLE", "state": "PA", "street": "300 N 3RD ST", "postcode": "17901"}}},
{"geometry": {"type": "Point", "coordinates": [-76.1972360408, 40.6883788704]}, "type": "Feature", "properties": {"collection_times": [{"days": "Mon-Fri", "time": "5:00pm"}, {"days": "Sat", "time": "4:00pm"}, {"days": "Sun", "time": "Closed"}], "id": "1790100103", "name": "USPS COLLECTION BOX - PO LOBBY", "address": {"city": "POTTSVILLE", "state": "PA", "street": "450 N CENTRE ST", "postcode": "17901"}}},
{"geometry": {"type": "Point", "coordinates": [-76.3375556047, 40.8169992396]}, "type": "Feature", "properties": {"collection_times": [{"days": "Mon-Fri", "time": "4:00pm"}, {"days": "Sat", "time": "11:45am"}, {"days": "Sun", "time": "Closed"}], "id": "1792000001", "name": "USPS COLLECTION BOX - BLUE BOX", "address": {"city": "ARISTES", "state": "PA", "street": "90 S LEIBY ST", "postcode": "17920"}}},
{"geometry": {"type": "Point", "coordinates": [-76.3375556047, 40.8169992396]}, "type": "Feature", "properties": {"collection_times": [{"days": "Mon-Fri", "time": "12:30pm"}, {"days": "Sat", "time": "11:45am"}, {"days": "Sun", "time": "Closed"}], "id": "1792000002", "name": "USPS COLLECTION BOX - PO LOBBY", "address": {"city": "ARISTES", "state": "PA", "street": "90 S LEIBY ST", "postcode": "17920"}}},
{"geometry": {"type": "Point", "coordinates": [-76.3393392714, 40.7828879489]}, "type": "Feature", "properties": {"collection_times": [{"days": "Mon-Sat", "time": "10:00am"}, {"days": "Sun", "time": "Closed"}], "id": "1792100010", "name": "USPS COLLECTION BOX - BLUE BOX", "address": {"city": "ASHLAND", "state": "PA", "street": "500 W CENTER ST", "postcode": "17921"}}},
{"geometry": {"type": "Point", "coordinates": [-76.3423725892, 40.782462286]}, "type": "Feature", "properties": {"collection_times": [{"days": "Mon-Sat", "time": "11:30am"}, {"days": "Sun", "time": "Closed"}], "id": "1792100012", "name": "USPS COLLECTION BOX - BLUE BOX", "address": {"city": "ASHLAND", "state": "PA", "street": "819 W CENTER ST", "postcode": "17921"}}},
{"geometry": {"type": "Point", "coordinates": [-78.3329084509, 40.8721030924]}, "type": "Feature", "properties": {"collection_times": [{"days": "Mon-Fri", "time": "4:30pm"}, {"days": "Sat", "time": "3:30pm"}, {"days": "Sun", "time": "Closed"}], "id": "1792100017", "name": "USPS COLLECTION BOX - BLUE BOX", "address": {"city": "ASHLAND", "state": "PA", "street": "901 RACE ST", "postcode": "17921"}}},
{"geometry": {"type": "Point", "coordinates": [-78.3329084509, 40.8721030924]}, "type": "Feature", "properties": {"collection_times": [{"days": "Mon-Fri", "time": "4:30pm"}, {"days": "Sat", "time": "3:30pm"}, {"days": "Sun", "time": "Closed"}], "id": "1792100019", "name": "USPS COLLECTION BOX - PO LOBBY", "address": {"city": "ASHLAND", "state": "PA", "street": "901 RACE ST", "postcode": "17921"}}},
{"geometry": {"type": "Point", "coordinates": [-76.1978895156, 40.5756958561]}, "type": "Feature", "properties": {"collection_times": [{"days": "Mon-Sat", "time": "10:30am"}, {"days": "Sun", "time": "Closed"}], "id": "1792200003", "name": "USPS COLLECTION BOX - BLUE BOX", "address": {"city": "AUBURN", "state": "PA", "street": "2 NAVAJO DR", "postcode": "17922"}}},
{"geometry": {"type": "Point", "coordinates": [-76.0970373355, 40.597202429]}, "type": "Feature", "properties": {"collection_times": [{"days": "Mon-Fri", "time": "4:30pm"}, {"days": "Sat", "time": "11:00am"}, {"days": "Sun", "time": "Closed"}], "id": "1792200004", "name": "USPS COLLECTION BOX - BLUE BOX", "address": {"city": "AUBURN", "state": "PA", "street": "425 MARKET ST", "postcode": "17922"}}},
{"geometry": {"type": "Point", "coordinates": [-76.0970373355, 40.597202429]}, "type": "Feature", "properties": {"collection_times": [{"days": "Mon-Fri", "time": "4:30pm"}, {"days": "Sat", "time": "11:00am"}, {"days": "Sun", "time": "Closed"}], "id": "1792200006", "name": "USPS COLLECTION BOX - PO LOBBY", "address": {"city": "AUBURN", "state": "PA", "street": "425 MARKET ST", "postcode": "17922"}}},
{"geometry": {"type": "Point", "coordinates": [-76.3295414561, 40.6475147232]}, "type": "Feature", "properties": {"collection_times": [{"days": "Mon-Fri", "time": "4:30pm"}, {"days": "Sat", "time": "11:30am"}, {"days": "Sun", "time": "Closed"}], "id": "1792300001", "name": "USPS COLLECTION BOX - BLUE BOX", "address": {"city": "BRANCHDALE", "state": "PA", "street": "105 S STATE RD", "postcode": "17923"}}},
{"geometry": {"type": "Point", "coordinates": [-76.3295414561, 40.6475147232]}, "type": "Feature", "properties": {"collection_times": [{"days": "Mon-Fri", "time": "1:30pm"}, {"days": "Sat", "time": "11:30am"}, {"days": "Sun", "time": "Closed"}], "id": "1792300002", "name": "USPS COLLECTION BOX - PO LOBBY", "address": {"city": "BRANCHDALE", "state": "PA", "street": "105 S STATE RD", "postcode": "17923"}}},
{"geometry": {"type": "Point", "coordinates": [-76.1937193887, 40.6335713194]}, "type": "Feature", "properties": {"collection_times": [{"days": "Mon-Fri", "time": "4:45pm"}, {"days": "Sat", "time": "11:30am"}, {"days": "Sun", "time": "Closed"}], "id": "1792900009", "name": "USPS COLLECTION BOX - BLUE BOX", "address": {"city": "CRESSONA", "state": "PA", "street": "17 N SILLYMAN ST", "postcode": "17929"}}},
{"geometry": {"type": "Point", "coordinates": [-76.2052673704, 40.625960588]}, "type": "Feature", "properties": {"collection_times": [{"days": "Mon-Fri", "time": "10:45am"}, {"days": "Sat-Sun", "time": "Closed"}], "id": "1792900013", "name": "USPS COLLECTION BOX - BLUE BOX", "address": {"city": "CRESSONA", "state": "PA", "street": "250 CHESTNUT ST", "postcode": "17929"}}},
{"geometry": {"type": "Point", "coordinates": [-76.1937193887, 40.6335713194]}, "type": "Feature", "properties": {"collection_times": [{"days": "Mon-Fri", "time": "4:30pm"}, {"days": "Sat", "time": "11:30am"}, {"days": "Sun", "time": "Closed"}], "id": "1792900018", "name": "USPS COLLECTION BOX - PO LOBBY", "address": {"city": "CRESSONA", "state": "PA", "street": "17 N SILLYMAN ST", "postcode": "17929"}}},
{"geometry": {"type": "Point", "coordinates": [-76.1381404277, 40.7109924348]}, "type": "Feature", "properties": {"collection_times": [{"days": "Mon-Fri", "time": "4:45pm"}, {"days": "Sat", "time": "11:15am"}, {"days": "Sun", "time": "Closed"}], "id": "1793000001", "name": "USPS COLLECTION BOX - BLUE BOX", "address": {"city": "CUMBOLA", "state": "PA", "street": "119 COAL ST", "postcode": "17930"}}},
{"geometry": {"type": "Point", "coordinates": [-76.1381404277, 40.7109924348]}, "type": "Feature", "properties": {"collection_times": [{"days": "Mon-Fri", "time": "4:45pm"}, {"days": "Sat", "time": "11:15am"}, {"days": "Sun", "time": "Closed"}], "id": "1793000002", "name": "USPS COLLECTION BOX - PO LOBBY", "address": {"city": "CUMBOLA", "state": "PA", "street": "119 COAL ST", "postcode": "17930"}}},
{"geometry": {"type": "Point", "coordinates": [-76.2353647521, 40.7791643279]}, "type": "Feature", "properties": {"collection_times": [{"days": "Mon-Sat", "time": "9:00am"}, {"days": "Sun", "time": "Closed"}], "id": "1793100000", "name": "USPS COLLECTION BOX - BLUE BOX", "address": {"city": "FRACKVILLE", "state": "PA", "street": "301 S 3RD ST", "postcode": "17931"}}},
{"geometry": {"type": "Point", "coordinates": [-76.2326882042, 40.7823339264]}, "type": "Feature", "properties": {"collection_times": [{"days": "Mon-Sat", "time": "10:00am"}, {"days": "Sun", "time": "Closed"}], "id": "1793100002", "name": "USPS COLLECTION BOX - BLUE BOX", "address": {"city": "FRACKVILLE", "state": "PA", "street": "817 SCHUYLKILL MALL", "postcode": "17931"}}},
{"geometry": {"type": "Point", "coordinates": [-76.2337199632, 40.7845251641]}, "type": "Feature", "properties": {"collection_times": [{"days": "Mon-Sat", "time": "10:00am"}, {"days": "Sun", "time": "Closed"}], "id": "1793100009", "name": "USPS COLLECTION BOX - BLUE BOX", "address": {"city": "FRACKVILLE", "state": "PA", "street": "1 N NICE ST", "postcode": "17931"}}},
{"geometry": {"type": "Point", "coordinates": [-76.2291620223, 40.7811797561]}, "type": "Feature", "properties": {"collection_times": [{"days": "Mon-Sat", "time": "10:30am"}, {"days": "Sun", "time": "Closed"}], "id": "1793100016", "name": "USPS COLLECTION BOX - BLUE BOX", "address": {"city": "FRACKVILLE", "state": "PA", "street": "255 S LEHIGH AVE", "postcode": "17931"}}},
{"geometry": {"type": "Point", "coordinates": [-76.2302597652, 40.7836624891]}, "type": "Feature", "properties": {"collection_times": [{"days": "Mon-Fri", "time": "4:45pm"}, {"days": "Sat", "time": "3:00pm"}, {"days": "Sun", "time": "Closed"}], "id": "1793100018", "name": "USPS COLLECTION BOX - BLUE BOX", "address": {"city": "FRACKVILLE", "state": "PA", "street": "109 S LEHIGH AVE", "postcode": "17931"}}},
{"geometry": {"type": "Point", "coordinates": [-76.2311117471, 40.7850192938]}, "type": "Feature", "properties": {"collection_times": [{"days": "Mon-Fri", "time": "3:00pm"}, {"days": "Sat", "time": "9:45am"}, {"days": "Sun", "time": "Closed"}], "id": "1793100019", "name": "USPS COLLECTION BOX - BLUE BOX", "address": {"city": "FRACKVILLE", "state": "PA", "street": "2 S LEHIGH AVE", "postcode": "17931"}}},
{"geometry": {"type": "Point", "coordinates": [-76.2302597652, 40.7836624891]}, "type": "Feature", "properties": {"collection_times": [{"days": "Mon-Fri", "time": "4:45pm"}, {"days": "Sat", "time": "3:00pm"}, {"days": "Sun", "time": "Closed"}], "id": "1793100022", "name": "USPS COLLECTION BOX - PO LOBBY", "address": {"city": "FRACKVILLE", "state": "PA", "street": "109 S LEHIGH AVE", "postcode": "17931"}}},
{"geometry": {"type": "Point", "coordinates": [-76.2422134907, 40.6026271095]}, "type": "Feature", "properties": {"collection_times": [{"days": "Mon-Fri", "time": "3:30pm"}, {"days": "Sat", "time": "10:45am"}, {"days": "Sun", "time": "Closed"}], "id": "1793300001", "name": "USPS COLLECTION BOX - BLUE BOX", "address": {"city": "FRIEDENSBURG", "state": "PA", "street": "1305 LONG RUN RD", "postcode": "17933"}}},
{"geometry": {"type": "Point", "coordinates": [-76.2422134907, 40.6026271095]}, "type": "Feature", "properties": {"collection_times": [{"days": "Mon-Fri", "time": "4:00pm"}, {"days": "Sat", "time": "10:45am"}, {"days": "Sun", "time": "Closed"}], "id": "1793300003", "name": "USPS COLLECTION BOX - PO LOBBY", "address": {"city": "FRIEDENSBURG", "state": "PA", "street": "1305 LONG RUN RD", "postcode": "17933"}}},
{"geometry": {"type": "Point", "coordinates": [-76.2834326307, 40.7915767825]}, "type": "Feature", "properties": {"collection_times": [{"days": "Mon-Sat", "time": "9:30am"}, {"days": "Sun", "time": "Closed"}], "id": "1793500001", "name": "USPS COLLECTION BOX - BLUE BOX", "address": {"city": "GIRARDVILLE", "state": "PA", "street": "101 E MAIN ST", "postcode": "17935"}}},
{"geometry": {"type": "Point", "coordinates": [-76.2883870581, 40.7914323787]}, "type": "Feature", "properties": {"collection_times": [{"days": "Mon-Fri", "time": "4:30pm"}, {"days": "Sat", "time": "2:30pm"}, {"days": "Sun", "time": "Closed"}], "id": "1793500003", "name": "USPS COLLECTION BOX - BLUE BOX", "address": {"city": "GIRARDVILLE", "state": "PA", "street": "210 W MAIN ST", "postcode": "17935"}}},
{"geometry": {"type": "Point", "coordinates": [-76.283760695, 40.7944686916]}, "type": "Feature", "properties": {"collection_times": [{"days": "Mon-Fri", "time": "1:00pm"}, {"days": "Sat", "time": "11:00am"}, {"days": "Sun", "time": "Closed"}], "id": "1793500005", "name": "USPS COLLECTION BOX - BLUE BOX", "address": {"city": "GIRARDVILLE", "state": "PA", "street": "259 N 2ND ST", "postcode": "17935"}}},
{"geometry": {"type": "Point", "coordinates": [-76.2931648341, 40.7911733935]}, "type": "Feature", "properties": {"collection_times": [{"days": "Mon-Sat", "time": "10:00am"}, {"days": "Sun", "time": "Closed"}], "id": "1793500006", "name": "USPS COLLECTION BOX - BLUE BOX", "address": {"city": "GIRARDVILLE", "state": "PA", "street": "398 W MAIN ST", "postcode": "17935"}}},
{"geometry": {"type": "Point", "coordinates": [-76.2725100307, 40.800515454]}, "type": "Feature", "properties": {"collection_times": [{"days": "Mon-Fri", "time": "1:00pm"}, {"days": "Sat", "time": "11:00am"}, {"days": "Sun", "time": "Closed"}], "id": "1793500008", "name": "USPS COLLECTION BOX - BLUE BOX", "address": {"city": "GIRARDVILLE", "state": "PA", "street": "9 CONNERTON ST", "postcode": "17935"}}},
{"geometry": {"type": "Point", "coordinates": [-76.2851798611, 40.7933725142]}, "type": "Feature", "properties": {"collection_times": [{"days": "Mon-Fri", "time": "12:00pm"}, {"days": "Sat", "time": "11:00am"}, {"days": "Sun", "time": "Closed"}], "id": "1793500009", "name": "USPS COLLECTION BOX - BLUE BOX", "address": {"city": "GIRARDVILLE", "state": "PA", "street": "208 N LINE ST", "postcode": "17935"}}},
{"geometry": {"type": "Point", "coordinates": [-76.2835994279, 40.793031822]}, "type": "Feature", "properties": {"collection_times": [{"days": "Mon-Sat", "time": "10:15am"}, {"days": "Sun", "time": "Closed"}], "id": "1793500013", "name": "USPS COLLECTION BOX - BLUE BOX", "address": {"city": "GIRARDVILLE", "state": "PA", "street": "146 N 2ND ST", "postcode": "17935"}}},
{"geometry": {"type": "Point", "coordinates": [-76.29018384, 40.7912475675]}, "type": "Feature", "properties": {"collection_times": [{"days": "Mon-Sat", "time": "9:45am"}, {"days": "Sun", "time": "Closed"}], "id": "1793500014", "name": "USPS COLLECTION BOX - BLUE BOX", "address": {"city": "GIRARDVILLE", "state": "PA", "street": "301 W MAIN ST", "postcode": "17935"}}},
{"geometry": {"type": "Point", "coordinates": [-76.2883870581, 40.7914323787]}, "type": "Feature", "properties": {"collection_times": [{"days": "Mon-Fri", "time": "4:30pm"}, {"days": "Sat", "time": "2:30pm"}, {"days": "Sun", "time": "Closed"}], "id": "1793500016", "name": "USPS COLLECTION BOX - PO LOBBY", "address": {"city": "GIRARDVILLE", "state": "PA", "street": "210 W MAIN ST", "postcode": "17935"}}},
{"geometry": {"type": "Point", "coordinates": [-76.3389277321, 40.7496989485]}, "type": "Feature", "properties": {"collection_times": [{"days": "Mon-Fri", "time": "4:00pm"}, {"days": "Sat", "time": "11:45am"}, {"days": "Sun", "time": "Closed"}], "id": "1793600001", "name": "USPS COLLECTION BOX - BLUE BOX", "address": {"city": "GORDON", "state": "PA", "street": "130 E BIDDLE ST", "postcode": "17936"}}},
{"geometry": {"type": "Point", "coordinates": [-76.3389277321, 40.7496989485]}, "type": "Feature", "properties": {"collection_times": [{"days": "Mon-Fri", "time": "12:30pm"}, {"days": "Sat", "time": "11:45am"}, {"days": "Sun", "time": "Closed"}], "id": "1793600003", "name": "USPS COLLECTION BOX - PO LOBBY", "address": {"city": "GORDON", "state": "PA", "street": "130 E BIDDLE ST", "postcode": "17936"}}},
{"geometry": {"type": "Point", "coordinates": [-76.4914043886, 40.6570481907]}, "type": "Feature", "properties": {"collection_times": [{"days": "Mon-Fri", "time": "4:15pm"}, {"days": "Sat", "time": "11:00am"}, {"days": "Sun", "time": "Closed"}], "id": "1793800001", "name": "USPS COLLECTION BOX - BLUE BOX", "address": {"city": "HEGINS", "state": "PA", "street": "15 POST OFFICE RD", "postcode": "17938"}}},
{"geometry": {"type": "Point", "coordinates": [-76.516346144, 40.6498700713]}, "type": "Feature", "properties": {"collection_times": [{"days": "Mon-Sat", "time": "8:45am"}, {"days": "Sun", "time": "Closed"}], "id": "1793800002", "name": "USPS COLLECTION BOX - BLUE BOX", "address": {"city": "HEGINS", "state": "PA", "street": "22 FOREST DR", "postcode": "17938"}}},
{"geometry": {"type": "Point", "coordinates": [-76.4914043886, 40.6570481907]}, "type": "Feature", "properties": {"collection_times": [{"days": "Mon-Fri", "time": "4:30pm"}, {"days": "Sat", "time": "11:15am"}, {"days": "Sun", "time": "Closed"}], "id": "1793800003", "name": "USPS COLLECTION BOX - PO LOBBY", "address": {"city": "HEGINS", "state": "PA", "street": "15 POST OFFICE RD", "postcode": "17938"}}},
{"geometry": {"type": "Point", "coordinates": [-76.6114791924, 40.6711963678]}, "type": "Feature", "properties": {"collection_times": [{"days": "Mon-Fri", "time": "12:00pm"}, {"days": "Sat", "time": "10:45am"}, {"days": "Sun", "time": "Closed"}], "id": "1794100001", "name": "USPS COLLECTION BOX - BLUE BOX", "address": {"city": "KLINGERSTOWN", "state": "PA", "street": "89 MAIN ST", "postcode": "17941"}}},
{"geometry": {"type": "Point", "coordinates": [-76.3829260321, 40.7637093631]}, "type": "Feature", "properties": {"collection_times": [{"days": "Mon-Fri", "time": "3:30pm"}, {"days": "Sat", "time": "11:00am"}, {"days": "Sun", "time": "Closed"}], "id": "1794300001", "name": "USPS COLLECTION BOX - BLUE BOX", "address": {"city": "LAVELLE", "state": "PA", "street": "337 MAIN ST", "postcode": "17943"}}},
{"geometry": {"type": "Point", "coordinates": [-76.3829260321, 40.7637093631]}, "type": "Feature", "properties": {"collection_times": [{"days": "Mon-Fri", "time": "3:30pm"}, {"days": "Sat", "time": "11:00am"}, {"days": "Sun", "time": "Closed"}], "id": "1794300003", "name": "USPS COLLECTION BOX - PO LOBBY", "address": {"city": "LAVELLE", "state": "PA", "street": "337 MAIN ST", "postcode": "17943"}}},
{"geometry": {"type": "Point", "coordinates": [-76.279210147, 40.6734241587]}, "type": "Feature", "properties": {"collection_times": [{"days": "Mon-Fri", "time": "4:30pm"}, {"days": "Sat", "time": "11:15am"}, {"days": "Sun", "time": "Closed"}], "id": "1794400001", "name": "USPS COLLECTION BOX - BLUE BOX", "address": {"city": "LLEWELLYN", "state": "PA", "street": "9 SILVERTON RD", "postcode": "17944"}}},
{"geometry": {"type": "Point", "coordinates": [-76.279210147, 40.6734241587]}, "type": "Feature", "properties": {"collection_times": [{"days": "Mon-Fri", "time": "12:00pm"}, {"days": "Sat", "time": "11:15am"}, {"days": "Sun", "time": "Closed"}], "id": "1794400002", "name": "USPS COLLECTION BOX - PO LOBBY", "address": {"city": "LLEWELLYN", "state": "PA", "street": "9 SILVERTON RD", "postcode": "17944"}}},
{"geometry": {"type": "Point", "coordinates": [-76.3714432477, 40.7768601492]}, "type": "Feature", "properties": {"collection_times": [{"days": "Mon-Fri", "time": "3:45pm"}, {"days": "Sat", "time": "11:00am"}, {"days": "Sun", "time": "Closed"}], "id": "1794500001", "name": "USPS COLLECTION BOX - BLUE BOX", "address": {"city": "LOCUSTDALE", "state": "PA", "street": "3115 MAIN ST", "postcode": "17945"}}},
{"geometry": {"type": "Point", "coordinates": [-76.3714432477, 40.7768601492]}, "type": "Feature", "properties": {"collection_times": [{"days": "Mon-Fri", "time": "3:45pm"}, {"days": "Sat", "time": "11:00am"}, {"days": "Sun", "time": "Closed"}], "id": "1794500002", "name": "USPS COLLECTION BOX - PO LOBBY", "address": {"city": "LOCUSTDALE", "state": "PA", "street": "3115 MAIN ST", "postcode": "17945"}}},
{"geometry": {"type": "Point", "coordinates": [-76.2679745791, 40.8041108057]}, "type": "Feature", "properties": {"collection_times": [{"days": "Mon-Fri", "time": "4:00pm"}, {"days": "Sat", "time": "10:30am"}, {"days": "Sun", "time": "Closed"}], "id": "1794600001", "name": "USPS COLLECTION BOX - BLUE BOX", "address": {"city": "LOST CREEK", "state": "PA", "street": "43 CONVENT RD", "postcode": "17946"}}},
{"geometry": {"type": "Point", "coordinates": [-76.2679745791, 40.8041108057]}, "type": "Feature", "properties": {"collection_times": [{"days": "Mon-Fri", "time": "12:00pm"}, {"days": "Sat", "time": "10:30am"}, {"days": "Sun", "time": "Closed"}], "id": "1794600002", "name": "USPS COLLECTION BOX - PO LOBBY", "address": {"city": "LOST CREEK", "state": "PA", "street": "43 CONVENT RD", "postcode": "17946"}}},
{"geometry": {"type": "Point", "coordinates": [-76.1375883369, 40.8134788519]}, "type": "Feature", "properties": {"collection_times": [{"days": "Mon-Sat", "time": "9:30am"}, {"days": "Sun", "time": "Closed"}], "id": "1794800000", "name": "USPS COLLECTION BOX - BLUE BOX", "address": {"city": "MAHANOY CITY", "state": "PA", "street": "400 E CENTRE ST", "postcode": "17948"}}},
{"geometry": {"type": "Point", "coordinates": [-76.1421494756, 40.8127067955]}, "type": "Feature", "properties": {"collection_times": [{"days": "Mon-Sat", "time": "10:00am"}, {"days": "Sun", "time": "Closed"}], "id": "1794800020", "name": "USPS COLLECTION BOX - BLUE BOX", "address": {"city": "MAHANOY CITY", "state": "PA", "street": "10 W CENTRE ST", "postcode": "17948"}}},
{"geometry": {"type": "Point", "coordinates": [-76.1483364301, 40.8114303995]}, "type": "Feature", "properties": {"collection_times": [{"days": "Mon-Sat", "time": "12:00pm"}, {"days": "Sun", "time": "Closed"}], "id": "1794800023", "name": "USPS COLLECTION BOX - BLUE BOX", "address": {"city": "MAHANOY CITY", "state": "PA", "street": "638 W CENTRE ST", "postcode": "17948"}}},
{"geometry": {"type": "Point", "coordinates": [-76.1424487642, 40.8115474957]}, "type": "Feature", "properties": {"collection_times": [{"days": "Mon-Fri", "time": "4:30pm"}, {"days": "Sat", "time": "3:00pm"}, {"days": "Sun", "time": "Closed"}], "id": "1794800028", "name": "USPS COLLECTION BOX - BLUE BOX", "address": {"city": "MAHANOY CITY", "state": "PA", "street": "39 E PINE ST", "postcode": "17948"}}},
{"geometry": {"type": "Point", "coordinates": [-76.1424487642, 40.8115474957]}, "type": "Feature", "properties": {"collection_times": [{"days": "Mon-Fri", "time": "4:30pm"}, {"days": "Sat", "time": "3:00pm"}, {"days": "Sun", "time": "Closed"}], "id": "1794800029", "name": "USPS COLLECTION BOX - PO LOBBY", "address": {"city": "MAHANOY CITY", "state": "PA", "street": "39 E PINE ST", "postcode": "17948"}}},
{"geometry": {"type": "Point", "coordinates": [-76.2438790663, 40.6790910369]}, "type": "Feature", "properties": {"collection_times": [{"days": "Mon-Fri", "time": "4:00pm"}, {"days": "Sat", "time": "10:45am"}, {"days": "Sun", "time": "Closed"}], "id": "1795100002", "name": "USPS COLLECTION BOX - BLUE BOX", "address": {"city": "MAR LIN", "state": "PA", "street": "401 BEECHWOOD AVE", "postcode": "17951"}}},
{"geometry": {"type": "Point", "coordinates": [-76.2438790663, 40.6790910369]}, "type": "Feature", "properties": {"collection_times": [{"days": "Mon-Fri", "time": "4:00pm"}, {"days": "Sat", "time": "10:45am"}, {"days": "Sun", "time": "Closed"}], "id": "1795100003", "name": "USPS COLLECTION BOX - PO LOBBY", "address": {"city": "MAR LIN", "state": "PA", "street": "401 BEECHWOOD AVE", "postcode": "17951"}}},
{"geometry": {"type": "Point", "coordinates": [-76.0562832954, 40.7602071281]}, "type": "Feature", "properties": {"collection_times": [{"days": "Mon-Fri", "time": "4:00pm"}, {"days": "Sat", "time": "11:45am"}, {"days": "Sun", "time": "Closed"}], "id": "1795200002", "name": "USPS COLLECTION BOX - BLUE BOX", "address": {"city": "MARY D", "state": "PA", "street": "15 MAIN ST", "postcode": "17952"}}},
{"geometry": {"type": "Point", "coordinates": [-76.0562832954, 40.7602071281]}, "type": "Feature", "properties": {"collection_times": [{"days": "Mon-Fri", "time": "4:00pm"}, {"days": "Sat", "time": "11:45am"}, {"days": "Sun", "time": "Closed"}], "id": "1795200003", "name": "USPS COLLECTION BOX - PO LOBBY", "address": {"city": "MARY D", "state": "PA", "street": "15 MAIN ST", "postcode": "17952"}}},
{"geometry": {"type": "Point", "coordinates": [-76.0853919834, 40.7287245302]}, "type": "Feature", "properties": {"collection_times": [{"days": "Mon-Fri", "time": "4:15pm"}, {"days": "Sat", "time": "11:45am"}, {"days": "Sun", "time": "Closed"}], "id": "1795300001", "name": "USPS COLLECTION BOX - BLUE BOX", "address": {"city": "MIDDLEPORT", "state": "PA", "street": "32 MAIN ST", "postcode": "17953"}}},
{"geometry": {"type": "Point", "coordinates": [-76.0853919834, 40.7287245302]}, "type": "Feature", "properties": {"collection_times": [{"days": "Mon-Fri", "time": "4:15pm"}, {"days": "Sat", "time": "11:45am"}, {"days": "Sun", "time": "Closed"}], "id": "1795300003", "name": "USPS COLLECTION BOX - PO LOBBY", "address": {"city": "MIDDLEPORT", "state": "PA", "street": "32 MAIN ST", "postcode": "17953"}}},
{"geometry": {"type": "Point", "coordinates": [-76.2593049997, 40.6906715657]}, "type": "Feature", "properties": {"collection_times": [{"days": "Mon-Fri", "time": "12:30pm"}, {"days": "Sat", "time": "11:15am"}, {"days": "Sun", "time": "Closed"}], "id": "1795400001", "name": "USPS COLLECTION BOX - BLUE BOX", "address": {"city": "MINERSVILLE", "state": "PA", "street": "100 SUNBURY ST", "postcode": "17954"}}},
{"geometry": {"type": "Point", "coordinates": [-76.261976121, 40.6912807896]}, "type": "Feature", "properties": {"collection_times": [{"days": "Mon-Fri", "time": "12:30pm"}, {"days": "Sat", "time": "11:15am"}, {"days": "Sun", "time": "Closed"}], "id": "1795400002", "name": "USPS COLLECTION BOX - BLUE BOX", "address": {"city": "MINERSVILLE", "state": "PA", "street": "251 SUNBURY ST", "postcode": "17954"}}},
{"geometry": {"type": "Point", "coordinates": [-76.262224697, 40.6926159335]}, "type": "Feature", "properties": {"collection_times": [{"days": "Mon-Sat", "time": "11:00am"}, {"days": "Sun", "time": "Closed"}], "id": "1795400008", "name": "USPS COLLECTION BOX - BLUE BOX", "address": {"city": "MINERSVILLE", "state": "PA", "street": "331 NORTH ST", "postcode": "17954"}}},
{"geometry": {"type": "Point", "coordinates": [-76.2622613791, 40.686520817]}, "type": "Feature", "properties": {"collection_times": [{"days": "Mon-Sat", "time": "8:30am"}, {"days": "Sun", "time": "Closed"}], "id": "1795400010", "name": "USPS COLLECTION BOX - BLUE BOX", "address": {"city": "MINERSVILLE", "state": "PA", "street": "430 PINE HILL ST", "postcode": "17954"}}},
{"geometry": {"type": "Point", "coordinates": [-76.2639244544, 40.6917622539]}, "type": "Feature", "properties": {"collection_times": [{"days": "Mon-Fri", "time": "4:00pm"}, {"days": "Sat", "time": "11:30am"}, {"days": "Sun", "time": "Closed"}], "id": "1795400032", "name": "USPS COLLECTION BOX - BLUE BOX", "address": {"city": "MINERSVILLE", "state": "PA", "street": "407 SUNBURY ST", "postcode": "17954"}}},
{"geometry": {"type": "Point", "coordinates": [-76.2639244544, 40.6917622539]}, "type": "Feature", "properties": {"collection_times": [{"days": "Mon-Fri", "time": "4:00pm"}, {"days": "Sat", "time": "11:30am"}, {"days": "Sun", "time": "Closed"}], "id": "1795400036", "name": "USPS COLLECTION BOX - PO LOBBY", "address": {"city": "MINERSVILLE", "state": "PA", "street": "407 SUNBURY ST", "postcode": "17954"}}},
{"geometry": {"type": "Point", "coordinates": [-76.5205987117, 40.591923759]}, "type": "Feature", "properties": {"collection_times": [{"days": "Mon-Fri", "time": "1:00pm"}, {"days": "Sat", "time": "10:45am"}, {"days": "Sun", "time": "Closed"}], "id": "1795700001", "name": "USPS COLLECTION BOX - BLUE BOX", "address": {"city": "MUIR", "state": "PA", "street": "212 W WICONISCO ST", "postcode": "17957"}}},
{"geometry": {"type": "Point", "coordinates": [-76.5205987117, 40.591923759]}, "type": "Feature", "properties": {"collection_times": [{"days": "Mon-Fri", "time": "1:00pm"}, {"days": "Sat", "time": "10:45am"}, {"days": "Sun", "time": "Closed"}], "id": "1795700002", "name": "USPS COLLECTION BOX - PO LOBBY", "address": {"city": "MUIR", "state": "PA", "street": "212 W WICONISCO ST", "postcode": "17957"}}},
{"geometry": {"type": "Point", "coordinates": [-76.1171429061, 40.7185255175]}, "type": "Feature", "properties": {"collection_times": [{"days": "Mon-Fri", "time": "12:30pm"}, {"days": "Sat-Sun", "time": "Closed"}], "id": "1795900018", "name": "USPS COLLECTION BOX - PO LOBBY", "address": {"city": "NEW PHILA", "state": "PA", "street": "121 VALLEY ST", "postcode": "17959"}}},
{"geometry": {"type": "Point", "coordinates": [-75.9993719138, 40.6861743855]}, "type": "Feature", "properties": {"collection_times": [{"days": "Mon-Fri", "time": "4:00pm"}, {"days": "Sat", "time": "10:00am"}, {"days": "Sun", "time": "Closed"}], "id": "1796000002", "name": "USPS COLLECTION BOX - BLUE BOX", "address": {"city": "NEW RINGGOLD", "state": "PA", "street": "27 N RAILROAD ST", "postcode": "17960"}}},
{"geometry": {"type": "Point", "coordinates": [-75.9993719138, 40.6861743855]}, "type": "Feature", "properties": {"collection_times": [{"days": "Mon-Fri", "time": "4:00pm"}, {"days": "Sat", "time": "10:00am"}, {"days": "Sun", "time": "Closed"}], "id": "1796000003", "name": "USPS COLLECTION BOX - PO LOBBY", "address": {"city": "NEW RINGGOLD", "state": "PA", "street": "27 N RAILROAD ST", "postcode": "17960"}}},
{"geometry": {"type": "Point", "coordinates": [-76.1018567103, 40.6551165511]}, "type": "Feature", "properties": {"collection_times": [{"days": "Mon-Fri", "time": "2:45pm"}, {"days": "Sat", "time": "2:30pm"}, {"days": "Sun", "time": "Closed"}], "id": "1796100001", "name": "USPS COLLECTION BOX - BLUE BOX", "address": {"city": "ORWIGSBURG", "state": "PA", "street": "131 W MARKET ST", "postcode": "17961"}}},
{"geometry": {"type": "Point", "coordinates": [-76.0998318558, 40.6545329445]}, "type": "Feature", "properties": {"collection_times": [{"days": "Mon-Fri", "time": "2:45pm"}, {"days": "Sat", "time": "2:30pm"}, {"days": "Sun", "time": "Closed"}], "id": "1796100002", "name": "USPS COLLECTION BOX - BLUE BOX", "address": {"city": "ORWIGSBURG", "state": "PA", "street": "200 E MARKET ST", "postcode": "17961"}}},
{"geometry": {"type": "Point", "coordinates": [-76.1093200451, 40.6553034618]}, "type": "Feature", "properties": {"collection_times": [{"days": "Mon-Fri", "time": "4:30pm"}, {"days": "Sat", "time": "3:00pm"}, {"days": "Sun", "time": "Closed"}], "id": "1796100008", "name": "USPS COLLECTION BOX - BLUE BOX", "address": {"city": "ORWIGSBURG", "state": "PA", "street": "700 W MARKET ST", "postcode": "17961"}}},
{"geometry": {"type": "Point", "coordinates": [-76.0767212573, 40.6434398322]}, "type": "Feature", "properties": {"collection_times": [{"days": "Mon-Sat", "time": "9:00am"}, {"days": "Sun", "time": "Closed"}], "id": "1796100010", "name": "USPS COLLECTION BOX - BLUE BOX", "address": {"city": "ORWIGSBURG", "state": "PA", "street": "2002 VILLAGE RD", "postcode": "17961"}}},
{"geometry": {"type": "Point", "coordinates": [-76.10341431, 40.6522801487]}, "type": "Feature", "properties": {"collection_times": [{"days": "Mon-Sat", "time": "1:00pm"}, {"days": "Sun", "time": "Closed"}], "id": "1796100011", "name": "USPS COLLECTION BOX - BLUE BOX", "address": {"city": "ORWIGSBURG", "state": "PA", "street": "329 S LIBERTY ST", "postcode": "17961"}}},
{"geometry": {"type": "Point", "coordinates": [-76.1086817239, 40.6555176868]}, "type": "Feature", "properties": {"collection_times": [{"days": "Mon-Fri", "time": "4:30pm"}, {"days": "Sat", "time": "3:00pm"}, {"days": "Sun", "time": "Closed"}], "id": "1796100014", "name": "USPS COLLECTION BOX - PO LOBBY", "address": {"city": "ORWIGSBURG", "state": "PA", "street": "700 W MARKET ST", "postcode": "17961"}}},
{"geometry": {"type": "Point", "coordinates": [-76.3851827422, 40.5491231229]}, "type": "Feature", "properties": {"collection_times": [{"days": "Mon-Fri", "time": "4:00pm"}, {"days": "Sat", "time": "3:30pm"}, {"days": "Sun", "time": "Closed"}], "id": "1796300003", "name": "USPS COLLECTION BOX - BLUE BOX", "address": {"city": "PINE GROVE", "state": "PA", "street": "103 SNYDER AVE", "postcode": "17963"}}},
{"geometry": {"type": "Point", "coordinates": [-76.383494594, 40.5532837553]}, "type": "Feature", "properties": {"collection_times": [{"days": "Mon-Sat", "time": "9:30am"}, {"days": "Sun", "time": "Closed"}], "id": "1796300004", "name": "USPS COLLECTION BOX - BLUE BOX", "address": {"city": "PINE GROVE", "state": "PA", "street": "29 E POTTSVILLE ST", "postcode": "17963"}}},
{"geometry": {"type": "Point", "coordinates": [-76.3852667173, 40.5509052192]}, "type": "Feature", "properties": {"collection_times": [{"days": "Mon-Sat", "time": "9:00am"}, {"days": "Sun", "time": "Closed"}], "id": "1796300008", "name": "USPS COLLECTION BOX - BLUE BOX", "address": {"city": "PINE GROVE", "state": "PA", "street": "55 S TULPEHOCKEN ST", "postcode": "17963"}}},
{"geometry": {"type": "Point", "coordinates": [-76.3851827422, 40.5491231229]}, "type": "Feature", "properties": {"collection_times": [{"days": "Mon-Fri", "time": "4:00pm"}, {"days": "Sat", "time": "3:30pm"}, {"days": "Sun", "time": "Closed"}], "id": "1796300009", "name": "USPS COLLECTION BOX - PO LOBBY", "address": {"city": "PINE GROVE", "state": "PA", "street": "103 SNYDER AVE", "postcode": "17963"}}},
{"geometry": {"type": "Point", "coordinates": [-76.3851827422, 40.5491231229]}, "type": "Feature", "properties": {"collection_times": [{"days": "Mon-Fri", "time": "4:00pm"}, {"days": "Sat", "time": "3:30pm"}, {"days": "Sun", "time": "Closed"}], "id": "1796300010", "name": "USPS COLLECTION BOX - BLUE BOX", "address": {"city": "PINE GROVE", "state": "PA", "street": "103 SNYDER AVE", "postcode": "17963"}}},
{"geometry": {"type": "Point", "coordinates": [-76.5329135364, 40.714315071]}, "type": "Feature", "properties": {"collection_times": [{"days": "Mon-Fri", "time": "3:30pm"}, {"days": "Sat", "time": "10:00am"}, {"days": "Sun", "time": "Closed"}], "id": "1796400002", "name": "USPS COLLECTION BOX - BLUE BOX", "address": {"city": "PITMAN", "state": "PA", "street": "175 MAIN RD", "postcode": "17964"}}},
{"geometry": {"type": "Point", "coordinates": [-76.5329135364, 40.714315071]}, "type": "Feature", "properties": {"collection_times": [{"days": "Mon-Fri", "time": "3:30pm"}, {"days": "Sat", "time": "10:00am"}, {"days": "Sun", "time": "Closed"}], "id": "1796400003", "name": "USPS COLLECTION BOX - PO LOBBY", "address": {"city": "PITMAN", "state": "PA", "street": "175 MAIN RD", "postcode": "17964"}}},
{"geometry": {"type": "Point", "coordinates": [-76.163672231, 40.6985772805]}, "type": "Feature", "properties": {"collection_times": [{"days": "Mon-Sat", "time": "9:00am"}, {"days": "Sun", "time": "Closed"}], "id": "1796500019", "name": "USPS COLLECTION BOX - BLUE BOX", "address": {"city": "PORT CARBON", "state": "PA", "street": "358 COAL ST", "postcode": "17965"}}},
{"geometry": {"type": "Point", "coordinates": [-76.1655510413, 40.7027059605]}, "type": "Feature", "properties": {"collection_times": [{"days": "Mon-Fri", "time": "1:00pm"}, {"days": "Sat", "time": "9:00am"}, {"days": "Sun", "time": "Closed"}], "id": "1796500022", "name": "USPS COLLECTION BOX - BLUE BOX", "address": {"city": "PORT CARBON", "state": "PA", "street": "398 5TH ST", "postcode": "17965"}}},
{"geometry": {"type": "Point", "coordinates": [-76.1677627005, 40.6944737052]}, "type": "Feature", "properties": {"collection_times": [{"days": "Mon-Fri", "time": "3:45pm"}, {"days": "Sat", "time": "9:00am"}, {"days": "Sun", "time": "Closed"}], "id": "1796500023", "name": "USPS COLLECTION BOX - BLUE BOX", "address": {"city": "PORT CARBON", "state": "PA", "street": "73 WASHINGTON ST", "postcode": "17965"}}},
{"geometry": {"type": "Point", "coordinates": [-76.1677627005, 40.6944737052]}, "type": "Feature", "properties": {"collection_times": [{"days": "Mon-Fri", "time": "3:45pm"}, {"days": "Sat", "time": "9:00am"}, {"days": "Sun", "time": "Closed"}], "id": "1796500026", "name": "USPS COLLECTION BOX - PO LOBBY", "address": {"city": "PORT CARBON", "state": "PA", "street": "73 WASHINGTON ST", "postcode": "17965"}}},
{"geometry": {"type": "Point", "coordinates": [-76.2293292268, 40.853832598]}, "type": "Feature", "properties": {"collection_times": [{"days": "Mon-Fri", "time": "4:15pm"}, {"days": "Sat", "time": "11:00am"}, {"days": "Sun", "time": "Closed"}], "id": "1796700001", "name": "USPS COLLECTION BOX - BLUE BOX", "address": {"city": "RINGTOWN", "state": "PA", "street": "10 S MARKET ST", "postcode": "17967"}}},
{"geometry": {"type": "Point", "coordinates": [-76.2293292268, 40.853832598]}, "type": "Feature", "properties": {"collection_times": [{"days": "Mon-Fri", "time": "4:15pm"}, {"days": "Sat", "time": "11:00am"}, {"days": "Sun", "time": "Closed"}], "id": "1796700003", "name": "USPS COLLECTION BOX - PO LOBBY", "address": {"city": "RINGTOWN", "state": "PA", "street": "10 S MARKET ST", "postcode": "17967"}}},
{"geometry": {"type": "Point", "coordinates": [-76.5988462716, 40.6329027905]}, "type": "Feature", "properties": {"collection_times": [{"days": "Mon-Fri", "time": "4:00pm"}, {"days": "Sat", "time": "10:45am"}, {"days": "Sun", "time": "Closed"}], "id": "1796800001", "name": "USPS COLLECTION BOX - BLUE BOX", "address": {"city": "SACRAMENTO", "state": "PA", "street": "2263 E MAIN ST", "postcode": "17968"}}},
{"geometry": {"type": "Point", "coordinates": [-76.5988462716, 40.6329027905]}, "type": "Feature", "properties": {"collection_times": [{"days": "Mon-Fri", "time": "4:00pm"}, {"days": "Sat", "time": "10:45am"}, {"days": "Sun", "time": "Closed"}], "id": "1796800002", "name": "USPS COLLECTION BOX - PO LOBBY", "address": {"city": "SACRAMENTO", "state": "PA", "street": "2263 E MAIN ST", "postcode": "17968"}}},
{"geometry": {"type": "Point", "coordinates": [-76.1918731136, 40.7188364034]}, "type": "Feature", "properties": {"collection_times": [{"days": "Mon-Fri", "time": "4:15pm"}, {"days": "Sat", "time": "10:45am"}, {"days": "Sun", "time": "Closed"}], "id": "1797000005", "name": "USPS COLLECTION BOX - BLUE BOX", "address": {"city": "SAINT CLAIR", "state": "PA", "street": "10 W CARROLL ST", "postcode": "17970"}}},
{"geometry": {"type": "Point", "coordinates": [-76.1918731136, 40.7188364034]}, "type": "Feature", "properties": {"collection_times": [{"days": "Mon-Fri", "time": "4:15pm"}, {"days": "Sat", "time": "10:45am"}, {"days": "Sun", "time": "Closed"}], "id": "1797000011", "name": "USPS COLLECTION BOX - PO LOBBY", "address": {"city": "SAINT CLAIR", "state": "PA", "street": "10 W CARROLL ST", "postcode": "17970"}}},
{"geometry": {"type": "Point", "coordinates": [-76.1920679774, 40.7290097171]}, "type": "Feature", "properties": {"collection_times": [{"days": "Mon-Fri", "time": "10:00am"}, {"days": "Sat", "time": "8:30am"}, {"days": "Sun", "time": "Closed"}], "id": "1797000013", "name": "USPS COLLECTION BOX - BLUE BOX", "address": {"city": "SAINT CLAIR", "state": "PA", "street": "500 TERRY RICH BLVD", "postcode": "17970"}}},
{"geometry": {"type": "Point", "coordinates": [-76.1657317626, 40.6322747964]}, "type": "Feature", "properties": {"collection_times": [{"days": "Mon-Sat", "time": "10:00am"}, {"days": "Sun", "time": "Closed"}], "id": "1797200029", "name": "USPS COLLECTION BOX - BLUE BOX", "address": {"city": "SCHUYKL HAVN", "state": "PA", "street": "101 AVENUE C", "postcode": "17972"}}},
{"geometry": {"type": "Point", "coordinates": [-76.168343736, 40.6265693853]}, "type": "Feature", "properties": {"collection_times": [{"days": "Mon-Sat", "time": "9:00am"}, {"days": "Sun", "time": "Closed"}], "id": "1797200032", "name": "USPS COLLECTION BOX - BLUE BOX", "address": {"city": "SCHUYKL HAVN", "state": "PA", "street": "415 SAINT JOHN ST", "postcode": "17972"}}},
{"geometry": {"type": "Point", "coordinates": [-76.1722593302, 40.626090287]}, "type": "Feature", "properties": {"collection_times": [{"days": "Mon-Sat", "time": "12:00pm"}, {"days": "Sun", "time": "Closed"}], "id": "1797200034", "name": "USPS COLLECTION BOX - BLUE BOX", "address": {"city": "SCHUYKL HAVN", "state": "PA", "street": "100 W COLUMBIA ST", "postcode": "17972"}}},
{"geometry": {"type": "Point", "coordinates": [-76.1741745407, 40.6271939877]}, "type": "Feature", "properties": {"collection_times": [{"days": "Mon-Sat", "time": "8:45am"}, {"days": "Sun", "time": "Closed"}], "id": "1797200036", "name": "USPS COLLECTION BOX - BLUE BOX", "address": {"city": "SCHUYKL HAVN", "state": "PA", "street": "131 W MAIN ST", "postcode": "17972"}}},
{"geometry": {"type": "Point", "coordinates": [-76.1707628649, 40.6391166045]}, "type": "Feature", "properties": {"collection_times": [{"days": "Mon-Sat", "time": "9:30am"}, {"days": "Sun", "time": "Closed"}], "id": "1797200038", "name": "USPS COLLECTION BOX - BLUE BOX", "address": {"city": "SCHUYKL HAVN", "state": "PA", "street": "199 UNIVERSITY DR", "postcode": "17972"}}},
{"geometry": {"type": "Point", "coordinates": [-76.2276339381, 40.6077978433]}, "type": "Feature", "properties": {"collection_times": [{"days": "Mon-Sat", "time": "10:00am"}, {"days": "Sun", "time": "Closed"}], "id": "1797200040", "name": "USPS COLLECTION BOX - BLUE BOX", "address": {"city": "SCHUYKL HAVN", "state": "PA", "street": "1450 LONG RUN RD", "postcode": "17972"}}},
{"geometry": {"type": "Point", "coordinates": [-76.1729608248, 40.6290902709]}, "type": "Feature", "properties": {"collection_times": [{"days": "Mon-Fri", "time": "4:45pm"}, {"days": "Sat", "time": "3:00pm"}, {"days": "Sun", "time": "Closed"}], "id": "1797200041", "name": "USPS COLLECTION BOX - BLUE BOX", "address": {"city": "SCHUYKL HAVN", "state": "PA", "street": "2 W MAIN ST", "postcode": "17972"}}},
{"geometry": {"type": "Point", "coordinates": [-76.1729608248, 40.6290902709]}, "type": "Feature", "properties": {"collection_times": [{"days": "Mon-Fri", "time": "4:45pm"}, {"days": "Sat", "time": "3:00pm"}, {"days": "Sun", "time": "Closed"}], "id": "1797200043", "name": "USPS COLLECTION BOX - BLUE BOX", "address": {"city": "SCHUYKL HAVN", "state": "PA", "street": "2 W MAIN ST", "postcode": "17972"}}},
{"geometry": {"type": "Point", "coordinates": [-76.1729608248, 40.6290902709]}, "type": "Feature", "properties": {"collection_times": [{"days": "Mon-Fri", "time": "4:45pm"}, {"days": "Sat", "time": "12:00pm"}, {"days": "Sun", "time": "Closed"}], "id": "1797200046", "name": "USPS COLLECTION BOX - PO LOBBY", "address": {"city": "SCHUYKL HAVN", "state": "PA", "street": "2 W MAIN ST", "postcode": "17972"}}},
{"geometry": {"type": "Point", "coordinates": [-76.2000852814, 40.8219051352]}, "type": "Feature", "properties": {"collection_times": [{"days": "Mon-Fri", "time": "5:00pm"}, {"days": "Sat", "time": "3:00pm"}, {"days": "Sun", "time": "Closed"}], "id": "1797600046", "name": "USPS COLLECTION BOX - BLUE BOX", "address": {"city": "SHENANDOAH", "state": "PA", "street": "119 N WHITE ST", "postcode": "17976"}}},
{"geometry": {"type": "Point", "coordinates": [-76.2027453656, 40.8232954612]}, "type": "Feature", "properties": {"collection_times": [{"days": "Mon-Sat", "time": "9:00am"}, {"days": "Sun", "time": "Closed"}], "id": "1797600052", "name": "USPS COLLECTION BOX - BLUE BOX", "address": {"city": "SHENANDOAH", "state": "PA", "street": "15 W WASHINGTON ST", "postcode": "17976"}}},
{"geometry": {"type": "Point", "coordinates": [-76.2011826769, 40.8202765499]}, "type": "Feature", "properties": {"collection_times": [{"days": "Mon-Sat", "time": "2:00pm"}, {"days": "Sun", "time": "Closed"}], "id": "1797600058", "name": "USPS COLLECTION BOX - BLUE BOX", "address": {"city": "SHENANDOAH", "state": "PA", "street": "2 S MAIN ST", "postcode": "17976"}}},
{"geometry": {"type": "Point", "coordinates": [-76.2014212355, 40.8215150662]}, "type": "Feature", "properties": {"collection_times": [{"days": "Mon-Sat", "time": "2:00pm"}, {"days": "Sun", "time": "Closed"}], "id": "1797600060", "name": "USPS COLLECTION BOX - BLUE BOX", "address": {"city": "SHENANDOAH", "state": "PA", "street": "101 N MAIN ST", "postcode": "17976"}}},
{"geometry": {"type": "Point", "coordinates": [-76.2083352248, 40.8193612386]}, "type": "Feature", "properties": {"collection_times": [{"days": "Mon-Sat", "time": "2:00pm"}, {"days": "Sun", "time": "Closed"}], "id": "1797600066", "name": "USPS COLLECTION BOX - BLUE BOX", "address": {"city": "SHENANDOAH", "state": "PA", "street": "600 W CENTRE ST", "postcode": "17976"}}},
{"geometry": {"type": "Point", "coordinates": [-76.2000852814, 40.8219051352]}, "type": "Feature", "properties": {"collection_times": [{"days": "Mon-Fri", "time": "5:00pm"}, {"days": "Sat", "time": "3:00pm"}, {"days": "Sun", "time": "Closed"}], "id": "1797600067", "name": "USPS COLLECTION BOX - PO LOBBY", "address": {"city": "SHENANDOAH", "state": "PA", "street": "119 N WHITE ST", "postcode": "17976"}}},
{"geometry": {"type": "Point", "coordinates": [-76.6208136285, 40.6264635949]}, "type": "Feature", "properties": {"collection_times": [{"days": "Mon-Fri", "time": "3:30pm"}, {"days": "Sat", "time": "10:30am"}, {"days": "Sun", "time": "Closed"}], "id": "1797800001", "name": "USPS COLLECTION BOX - BLUE BOX", "address": {"city": "SPRING GLEN", "state": "PA", "street": "2636 W MAIN ST", "postcode": "17978"}}},
{"geometry": {"type": "Point", "coordinates": [-76.6208136285, 40.6264635949]}, "type": "Feature", "properties": {"collection_times": [{"days": "Mon-Fri", "time": "12:00pm"}, {"days": "Sat", "time": "10:30am"}, {"days": "Sun", "time": "Closed"}], "id": "1797800002", "name": "USPS COLLECTION BOX - PO LOBBY", "address": {"city": "SPRING GLEN", "state": "PA", "street": "2636 W MAIN ST", "postcode": "17978"}}},
{"geometry": {"type": "Point", "coordinates": [-76.2046530131, 40.5638158617]}, "type": "Feature", "properties": {"collection_times": [{"days": "Mon-Fri", "time": "4:00pm"}, {"days": "Sat", "time": "10:30am"}, {"days": "Sun", "time": "Closed"}], "id": "1797900001", "name": "USPS COLLECTION BOX - BLUE BOX", "address": {"city": "SUMMIT STATION", "state": "PA", "street": "5 SPRING RD", "postcode": "17979"}}},
{"geometry": {"type": "Point", "coordinates": [-76.2046530131, 40.5638158617]}, "type": "Feature", "properties": {"collection_times": [{"days": "Mon-Fri", "time": "2:00pm"}, {"days": "Sat", "time": "10:30am"}, {"days": "Sun", "time": "Closed"}], "id": "1797900003", "name": "USPS COLLECTION BOX - PO LOBBY", "address": {"city": "SUMMIT STATION", "state": "PA", "street": "5 SPRING RD", "postcode": "17979"}}},
{"geometry": {"type": "Point", "coordinates": [-76.5486532136, 40.5898160333]}, "type": "Feature", "properties": {"collection_times": [{"days": "Mon-Sat", "time": "12:00pm"}, {"days": "Sun", "time": "Closed"}], "id": "1798000004", "name": "USPS COLLECTION BOX - BLUE BOX", "address": {"city": "TOWER CITY", "state": "PA", "street": "730 W GRAND AVE", "postcode": "17980"}}},
{"geometry": {"type": "Point", "coordinates": [-76.5365119501, 40.5834170513]}, "type": "Feature", "properties": {"collection_times": [{"days": "Mon-Sat", "time": "12:30pm"}, {"days": "Sun", "time": "Closed"}], "id": "1798000009", "name": "USPS COLLECTION BOX - BLUE BOX", "address": {"city": "TOWER CITY", "state": "PA", "street": "103 DIETRICH AVE", "postcode": "17980"}}},
{"geometry": {"type": "Point", "coordinates": [-76.5325139627, 40.5922010718]}, "type": "Feature", "properties": {"collection_times": [{"days": "Mon-Sat", "time": "10:15am"}, {"days": "Sun", "time": "Closed"}], "id": "1798000012", "name": "USPS COLLECTION BOX - BLUE BOX", "address": {"city": "TOWER CITY", "state": "PA", "street": "1900 E GRAND AVE", "postcode": "17980"}}},
{"geometry": {"type": "Point", "coordinates": [-76.5408776244, 40.590976516]}, "type": "Feature", "properties": {"collection_times": [{"days": "Mon-Fri", "time": "9:15am"}, {"days": "Sat", "time": "9:00am"}, {"days": "Sun", "time": "Closed"}], "id": "1798000014", "name": "USPS COLLECTION BOX - BLUE BOX", "address": {"city": "TOWER CITY", "state": "PA", "street": "1300 E GRAND AVE", "postcode": "17980"}}},
{"geometry": {"type": "Point", "coordinates": [-76.5457667938, 40.5902513622]}, "type": "Feature", "properties": {"collection_times": [{"days": "Mon-Sat", "time": "1:00pm"}, {"days": "Sun", "time": "Closed"}], "id": "1798000016", "name": "USPS COLLECTION BOX - BLUE BOX", "address": {"city": "TOWER CITY", "state": "PA", "street": "947 E GRAND AVE", "postcode": "17980"}}},
{"geometry": {"type": "Point", "coordinates": [-76.5570948088, 40.5885277909]}, "type": "Feature", "properties": {"collection_times": [{"days": "Mon-Sat", "time": "12:45pm"}, {"days": "Sun", "time": "Closed"}], "id": "1798000019", "name": "USPS COLLECTION BOX - BLUE BOX", "address": {"city": "TOWER CITY", "state": "PA", "street": "201 E GRAND AVE", "postcode": "17980"}}},
{"geometry": {"type": "Point", "coordinates": [-76.5508432692, 40.5891607154]}, "type": "Feature", "properties": {"collection_times": [{"days": "Mon-Fri", "time": "4:30pm"}, {"days": "Sat", "time": "2:45pm"}, {"days": "Sun", "time": "Closed"}], "id": "1798000024", "name": "USPS COLLECTION BOX - BLUE BOX", "address": {"city": "TOWER CITY", "state": "PA", "street": "7 S 6TH ST", "postcode": "17980"}}},
{"geometry": {"type": "Point", "coordinates": [-76.5508432692, 40.5891607154]}, "type": "Feature", "properties": {"collection_times": [{"days": "Mon-Fri", "time": "4:30pm"}, {"days": "Sat", "time": "2:45pm"}, {"days": "Sun", "time": "Closed"}], "id": "1798000025", "name": "USPS COLLECTION BOX - BLUE BOX", "address": {"city": "TOWER CITY", "state": "PA", "street": "7 S 6TH ST", "postcode": "17980"}}},
{"geometry": {"type": "Point", "coordinates": [-76.5517524765, 40.5893017738]}, "type": "Feature", "properties": {"collection_times": [{"days": "Mon-Fri", "time": "4:30pm"}, {"days": "Sat", "time": "2:45pm"}, {"days": "Sun", "time": "Closed"}], "id": "1798000026", "name": "USPS COLLECTION BOX - PO LOBBY", "address": {"city": "TOWER CITY", "state": "PA", "street": "544 E GRAND AVE", "postcode": "17980"}}},
{"geometry": {"type": "Point", "coordinates": [-76.5517524765, 40.5893017738]}, "type": "Feature", "properties": {"collection_times": [{"days": "Mon-Fri", "time": "4:30pm"}, {"days": "Sat", "time": "2:45pm"}, {"days": "Sun", "time": "Closed"}], "id": "1798000027", "name": "USPS COLLECTION BOX - BLUE BOX", "address": {"city": "TOWER CITY", "state": "PA", "street": "544 E GRAND AVE", "postcode": "17980"}}},
{"geometry": {"type": "Point", "coordinates": [-76.3892698685, 40.6285202422]}, "type": "Feature", "properties": {"collection_times": [{"days": "Mon-Fri", "time": "4:30pm"}, {"days": "Sat", "time": "11:45am"}, {"days": "Sun", "time": "Closed"}], "id": "1798100011", "name": "USPS COLLECTION BOX - BLUE BOX", "address": {"city": "TREMONT", "state": "PA", "street": "11 W MAIN ST", "postcode": "17981"}}},
{"geometry": {"type": "Point", "coordinates": [-76.3892698685, 40.6285202422]}, "type": "Feature", "properties": {"collection_times": [{"days": "Mon-Fri", "time": "4:30pm"}, {"days": "Sat", "time": "11:45am"}, {"days": "Sun", "time": "Closed"}], "id": "1798100036", "name": "USPS COLLECTION BOX - PO LOBBY", "address": {"city": "TREMONT", "state": "PA", "street": "11 W MAIN ST", "postcode": "17981"}}},
{"geometry": {"type": "Point", "coordinates": [-76.0379892676, 40.7698443128]}, "type": "Feature", "properties": {"collection_times": [{"days": "Mon-Fri", "time": "4:00pm"}, {"days": "Sat", "time": "11:30am"}, {"days": "Sun", "time": "Closed"}], "id": "1798200001", "name": "USPS COLLECTION BOX - BLUE BOX", "address": {"city": "TUSCARORA", "state": "PA", "street": "505 STRAWBERRY ST", "postcode": "17982"}}},
{"geometry": {"type": "Point", "coordinates": [-76.0379892676, 40.7698443128]}, "type": "Feature", "properties": {"collection_times": [{"days": "Mon-Fri", "time": "12:00pm"}, {"days": "Sat", "time": "11:30am"}, {"days": "Sun", "time": "Closed"}], "id": "1798200002", "name": "USPS COLLECTION BOX - PO LOBBY", "address": {"city": "TUSCARORA", "state": "PA", "street": "505 STRAWBERRY ST", "postcode": "17982"}}},
{"geometry": {"type": "Point", "coordinates": [-76.5401219664, 40.6458215509]}, "type": "Feature", "properties": {"collection_times": [{"days": "Mon-Fri", "time": "4:00pm"}, {"days": "Sat", "time": "11:00am"}, {"days": "Sun", "time": "Closed"}], "id": "1798300001", "name": "USPS COLLECTION BOX - BLUE BOX", "address": {"city": "VALLEY VIEW", "state": "PA", "street": "1124 W MAIN ST", "postcode": "17983"}}},
{"geometry": {"type": "Point", "coordinates": [-76.5401219664, 40.6458215509]}, "type": "Feature", "properties": {"collection_times": [{"days": "Mon-Fri", "time": "4:00pm"}, {"days": "Sat", "time": "11:00am"}, {"days": "Sun", "time": "Closed"}], "id": "1798300002", "name": "USPS COLLECTION BOX - PO LOBBY", "address": {"city": "VALLEY VIEW", "state": "PA", "street": "1124 W MAIN ST", "postcode": "17983"}}},
{"geometry": {"type": "Point", "coordinates": [-76.2338686349, 40.9278469725]}, "type": "Feature", "properties": {"collection_times": [{"days": "Mon-Sat", "time": "10:00am"}, {"days": "Sun", "time": "Closed"}], "id": "1798500003", "name": "USPS COLLECTION BOX - BLUE BOX", "address": {"city": "ZION GROVE", "state": "PA", "street": "3024 COVE MT DR", "postcode": "17985"}}},
{"geometry": {"type": "Point", "coordinates": [-76.2258561731, 40.8933421177]}, "type": "Feature", "properties": {"collection_times": [{"days": "Mon-Fri", "time": "4:00pm"}, {"days": "Sat", "time": "10:30am"}, {"days": "Sun", "time": "Closed"}], "id": "1798500004", "name": "USPS COLLECTION BOX - BLUE BOX", "address": {"city": "ZION GROVE", "state": "PA", "street": "731 RINGTOWN RD", "postcode": "17985"}}}
]}
