{"type": "FeatureCollection", "features": [
{"geometry": {"type": "Point", "coordinates": [-75.3793801127, 40.6728728941]}, "type": "Feature", "properties": {"collection_times": [{"days": "Mon-Fri", "time": "8:00pm"}, {"days": "Sat", "time": "7:00pm"}, {"days": "Sun", "time": "Closed"}], "id": "1800200001", "name": "USPS COLLECTION BOX - BLUE BOX", "address": {"city": "LEHIGH VALLEY", "state": "PA", "street": "17 S COMMERCE WAY", "postcode": "18002"}}},
{"geometry": {"type": "Point", "coordinates": [-75.3793801127, 40.6728728941]}, "type": "Feature", "properties": {"collection_times": [{"days": "Mon-Fri", "time": "8:00pm"}, {"days": "Sat", "time": "7:00pm"}, {"days": "Sun", "time": "Closed"}], "id": "1800200002", "name": "USPS COLLECTION BOX - BLUE BOX", "address": {"city": "LEHIGH VALLEY", "state": "PA", "street": "17 S COMMERCE WAY", "postcode": "18002"}}},
{"geometry": {"type": "Point", "coordinates": [-75.3738891771, 40.6745039249]}, "type": "Feature", "properties": {"collection_times": [{"days": "Mon-Fri", "time": "8:00pm"}, {"days": "Sat", "time": "7:00pm"}, {"days": "Sun", "time": "Closed"}], "id": "1800200004", "name": "USPS COLLECTION BOX - EXPRESS", "address": {"city": "LEHIGH VALLEY", "state": "PA", "street": "17 S COMMERCE WAY", "postcode": "18002"}}},
{"geometry": {"type": "Point", "coordinates": [-75.3793801127, 40.6728728941]}, "type": "Feature", "properties": {"collection_times": [{"days": "Mon-Fri", "time": "8:00pm"}, {"days": "Sat", "time": "7:00pm"}, {"days": "Sun", "time": "Closed"}], "id": "1800200006", "name": "USPS COLLECTION BOX - PO LOBBY", "address": {"city": "LEHIGH VALLEY", "state": "PA", "street": "17 S COMMERCE WAY", "postcode": "18002"}}},
{"geometry": {"type": "Point", "coordinates": [-75.3793801127, 40.6728728941]}, "type": "Feature", "properties": {"collection_times": [{"days": "Mon-Fri", "time": "8:00pm"}, {"days": "Sat", "time": "7:00pm"}, {"days": "Sun", "time": "Closed"}], "id": "1800200007", "name": "USPS COLLECTION BOX - APC", "address": {"city": "LEHIGH VALLEY", "state": "PA", "street": "17 S COMMERCE WAY", "postcode": "18002"}}},
{"geometry": {"type": "Point", "coordinates": [-75.6024540218, 40.509364177]}, "type": "Feature", "properties": {"collection_times": [{"days": "Mon-Fri", "time": "4:45pm"}, {"days": "Sat", "time": "11:30am"}, {"days": "Sun", "time": "Closed"}], "id": "1801100001", "name": "USPS COLLECTION BOX - BLUE BOX", "address": {"city": "ALBURTIS", "state": "PA", "street": "302 S MAIN ST", "postcode": "18011"}}},
{"geometry": {"type": "Point", "coordinates": [-75.6024540218, 40.509364177]}, "type": "Feature", "properties": {"collection_times": [{"days": "Mon-Fri", "time": "4:45pm"}, {"days": "Sat", "time": "11:30am"}, {"days": "Sun", "time": "Closed"}], "id": "1801100002", "name": "USPS COLLECTION BOX - PO LOBBY", "address": {"city": "ALBURTIS", "state": "PA", "street": "302 S MAIN ST", "postcode": "18011"}}},
{"geometry": {"type": "Point", "coordinates": [-75.6096140616, 40.8018560199]}, "type": "Feature", "properties": {"collection_times": [{"days": "Mon-Fri", "time": "1:00pm"}, {"days": "Sat", "time": "10:45am"}, {"days": "Sun", "time": "Closed"}], "id": "1801200001", "name": "USPS COLLECTION BOX - BLUE BOX", "address": {"city": "AQUASHICOLA", "state": "PA", "street": "100 LITTLE GAP RD", "postcode": "18012"}}},
{"geometry": {"type": "Point", "coordinates": [-75.6096140616, 40.8018560199]}, "type": "Feature", "properties": {"collection_times": [{"days": "Mon-Fri", "time": "1:00pm"}, {"days": "Sat", "time": "10:45am"}, {"days": "Sun", "time": "Closed"}], "id": "1801200002", "name": "USPS COLLECTION BOX - PO LOBBY", "address": {"city": "AQUASHICOLA", "state": "PA", "street": "100 LITTLE GAP RD", "postcode": "18012"}}},
{"geometry": {"type": "Point", "coordinates": [-75.2075177871, 40.8690437777]}, "type": "Feature", "properties": {"collection_times": [{"days": "Mon-Sat", "time": "2:30pm"}, {"days": "Sun", "time": "Closed"}], "id": "1801300004", "name": "USPS COLLECTION BOX - BLUE BOX", "address": {"city": "BANGOR", "state": "PA", "street": "456 S MAIN ST", "postcode": "18013"}}},
{"geometry": {"type": "Point", "coordinates": [-75.2045685378, 40.8658408549]}, "type": "Feature", "properties": {"collection_times": [{"days": "Mon-Sat", "time": "3:00pm"}, {"days": "Sun", "time": "Closed"}], "id": "1801300029", "name": "USPS COLLECTION BOX - BLUE BOX", "address": {"city": "BANGOR", "state": "PA", "street": "304 BROADWAY", "postcode": "18013"}}},
{"geometry": {"type": "Point", "coordinates": [-75.1821093241, 40.8570115817]}, "type": "Feature", "properties": {"collection_times": [{"days": "Mon-Fri", "time": "5:15pm"}, {"days": "Sat", "time": "4:00pm"}, {"days": "Sun", "time": "Closed"}], "id": "1801300038", "name": "USPS COLLECTION BOX - BLUE BOX", "address": {"city": "BANGOR", "state": "PA", "street": "212 S 1ST ST", "postcode": "18013"}}},
{"geometry": {"type": "Point", "coordinates": [-75.1821093241, 40.8570115817]}, "type": "Feature", "properties": {"collection_times": [{"days": "Mon-Fri", "time": "5:15pm"}, {"days": "Sat", "time": "4:00pm"}, {"days": "Sun", "time": "Closed"}], "id": "1801300041", "name": "USPS COLLECTION BOX - PO LOBBY", "address": {"city": "BANGOR", "state": "PA", "street": "212 S 1ST ST", "postcode": "18013"}}},
{"geometry": {"type": "Point", "coordinates": [-75.3846109455, 40.7232609023]}, "type": "Feature", "properties": {"collection_times": [{"days": "Mon-Sat", "time": "12:00pm"}, {"days": "Sun", "time": "Closed"}], "id": "1801400002", "name": "USPS COLLECTION BOX - BLUE BOX", "address": {"city": "BATH", "state": "PA", "street": "429 E MAIN ST", "postcode": "18014"}}},
{"geometry": {"type": "Point", "coordinates": [-75.3942176329, 40.7290122746]}, "type": "Feature", "properties": {"collection_times": [{"days": "Mon-Fri", "time": "5:00pm"}, {"days": "Sat", "time": "2:00pm"}, {"days": "Sun", "time": "Closed"}], "id": "1801400005", "name": "USPS COLLECTION BOX - BLUE BOX", "address": {"city": "BATH", "state": "PA", "street": "175 N CHESTNUT ST", "postcode": "18014"}}},
{"geometry": {"type": "Point", "coordinates": [-75.3708921703, 40.7721939998]}, "type": "Feature", "properties": {"collection_times": [{"days": "Mon-Sat", "time": "12:00pm"}, {"days": "Sun", "time": "Closed"}], "id": "1801400008", "name": "USPS COLLECTION BOX - BLUE BOX", "address": {"city": "BATH", "state": "PA", "street": "121 HICKORY HILLS DR", "postcode": "18014"}}},
{"geometry": {"type": "Point", "coordinates": [-75.3942703141, 40.7292409902]}, "type": "Feature", "properties": {"collection_times": [{"days": "Mon-Fri", "time": "5:00pm"}, {"days": "Sat", "time": "12:00pm"}, {"days": "Sun", "time": "Closed"}], "id": "1801400009", "name": "USPS COLLECTION BOX - PO LOBBY", "address": {"city": "BATH", "state": "PA", "street": "175 N CHESTNUT ST", "postcode": "18014"}}},
{"geometry": {"type": "Point", "coordinates": [-75.3843721955, 40.7181790958]}, "type": "Feature", "properties": {"collection_times": [{"days": "Mon-Sat", "time": "10:00am"}, {"days": "Sun", "time": "Closed"}], "id": "1801400011", "name": "USPS COLLECTION BOX - BLUE BOX", "address": {"city": "BATH", "state": "PA", "street": "63A GREENBRIAR DR N", "postcode": "18014"}}},
{"geometry": {"type": "Point", "coordinates": [-75.3812182191, 40.6103900556]}, "type": "Feature", "properties": {"collection_times": [{"days": "Mon-Fri", "time": "5:00pm"}, {"days": "Sat", "time": "1:00pm"}, {"days": "Sun", "time": "Closed"}], "id": "1801500016", "name": "USPS COLLECTION BOX - BLUE BOX", "address": {"city": "FOUNTAIN HILL", "state": "PA", "street": "131 W 4TH ST", "postcode": "18015"}}},
{"geometry": {"type": "Point", "coordinates": [-75.3922138227, 40.6090154573]}, "type": "Feature", "properties": {"collection_times": [{"days": "Mon-Fri", "time": "4:30pm"}, {"days": "Sat", "time": "10:30am"}, {"days": "Sun", "time": "Closed"}], "id": "1801500024", "name": "USPS COLLECTION BOX - BLUE BOX", "address": {"city": "FOUNTAIN HILL", "state": "PA", "street": "801 OSTRUM ST", "postcode": "18015"}}},
{"geometry": {"type": "Point", "coordinates": [-75.3920855885, 40.6090571122]}, "type": "Feature", "properties": {"collection_times": [{"days": "Mon-Fri", "time": "4:30pm"}, {"days": "Sat", "time": "10:30am"}, {"days": "Sun", "time": "Closed"}], "id": "1801500025", "name": "USPS COLLECTION BOX - BLUE BOX", "address": {"city": "FOUNTAIN HILL", "state": "PA", "street": "701 OSTRUM ST", "postcode": "18015"}}},
{"geometry": {"type": "Point", "coordinates": [-75.392806632, 40.6024704975]}, "type": "Feature", "properties": {"collection_times": [{"days": "Mon-Sat", "time": "10:30am"}, {"days": "Sun", "time": "Closed"}], "id": "1801500027", "name": "USPS COLLECTION BOX - BLUE BOX", "address": {"city": "FOUNTAIN HILL", "state": "PA", "street": "1053 BROADWAY", "postcode": "18015"}}},
{"geometry": {"type": "Point", "coordinates": [-75.3961139915, 40.6020211422]}, "type": "Feature", "properties": {"collection_times": [{"days": "Mon-Sat", "time": "1:30pm"}, {"days": "Sun", "time": "Closed"}], "id": "1801500031", "name": "USPS COLLECTION BOX - BLUE BOX", "address": {"city": "FOUNTAIN HILL", "state": "PA", "street": "731 N BERGEN ST", "postcode": "18015"}}},
{"geometry": {"type": "Point", "coordinates": [-75.3660262074, 40.6107689191]}, "type": "Feature", "properties": {"collection_times": [{"days": "Mon-Sat", "time": "11:00am"}, {"days": "Sun", "time": "Closed"}], "id": "1801500034", "name": "USPS COLLECTION BOX - BLUE BOX", "address": {"city": "FOUNTAIN HILL", "state": "PA", "street": "401 HAYES ST", "postcode": "18015"}}},
{"geometry": {"type": "Point", "coordinates": [-75.3783614203, 40.6104472936]}, "type": "Feature", "properties": {"collection_times": [{"days": "Mon-Sat", "time": "2:00pm"}, {"days": "Sun", "time": "Closed"}], "id": "1801500040", "name": "USPS COLLECTION BOX - BLUE BOX", "address": {"city": "FOUNTAIN HILL", "state": "PA", "street": "401 S NEW ST", "postcode": "18015"}}},
{"geometry": {"type": "Point", "coordinates": [-75.3809591511, 40.6103971533]}, "type": "Feature", "properties": {"collection_times": [{"days": "Mon-Fri", "time": "5:00pm"}, {"days": "Sat", "time": "1:00pm"}, {"days": "Sun", "time": "Closed"}], "id": "1801500047", "name": "USPS COLLECTION BOX - BLUE BOX", "address": {"city": "FOUNTAIN HILL", "state": "PA", "street": "130 W 4TH ST", "postcode": "18015"}}},
{"geometry": {"type": "Point", "coordinates": [-75.3788870324, 40.6071581132]}, "type": "Feature", "properties": {"collection_times": [{"days": "Mon-Fri", "time": "4:00pm"}, {"days": "Sat", "time": "10:00am"}, {"days": "Sun", "time": "Closed"}], "id": "1801500056", "name": "USPS COLLECTION BOX - BLUE BOX", "address": {"city": "FOUNTAIN HILL", "state": "PA", "street": "27 MEMORIAL DR W", "postcode": "18015"}}},
{"geometry": {"type": "Point", "coordinates": [-75.3780994874, 40.6022812435]}, "type": "Feature", "properties": {"collection_times": [{"days": "Mon-Fri", "time": "5:00pm"}, {"days": "Sat", "time": "1:00pm"}, {"days": "Sun", "time": "Closed"}], "id": "1801500058", "name": "USPS COLLECTION BOX - EXPRESS", "address": {"city": "FOUNTAIN HILL", "state": "PA", "street": "131 W 4TH ST", "postcode": "18015"}}},
{"geometry": {"type": "Point", "coordinates": [-75.3812182191, 40.6103900556]}, "type": "Feature", "properties": {"collection_times": [{"days": "Mon-Fri", "time": "5:00pm"}, {"days": "Sat", "time": "12:30pm"}, {"days": "Sun", "time": "Closed"}], "id": "1801500063", "name": "USPS COLLECTION BOX - PO LOBBY", "address": {"city": "FOUNTAIN HILL", "state": "PA", "street": "131 W 4TH ST", "postcode": "18015"}}},
{"geometry": {"type": "Point", "coordinates": [-75.363866729, 40.6210523642]}, "type": "Feature", "properties": {"collection_times": [{"days": "Mon-Fri", "time": "5:00pm"}, {"days": "Sat", "time": "12:30pm"}, {"days": "Sun", "time": "Closed"}], "id": "1801600001", "name": "USPS COLLECTION BOX - APC", "address": {"city": "BETHLEHEM", "state": "PA", "street": "535 WOOD ST", "postcode": "18016"}}},
{"geometry": {"type": "Point", "coordinates": [-75.363866729, 40.6210523642]}, "type": "Feature", "properties": {"collection_times": [{"days": "Mon-Fri", "time": "5:00pm"}, {"days": "Sat", "time": "12:30pm"}, {"days": "Sun", "time": "Closed"}], "id": "1801600002", "name": "USPS COLLECTION BOX - PO LOBBY", "address": {"city": "BETHLEHEM", "state": "PA", "street": "535 WOOD ST", "postcode": "18016"}}},
{"geometry": {"type": "Point", "coordinates": [-75.3538031451, 40.6411327932]}, "type": "Feature", "properties": {"collection_times": [{"days": "Mon-Sat", "time": "10:00am"}, {"days": "Sun", "time": "Closed"}], "id": "1801700002", "name": "USPS COLLECTION BOX - BLUE BOX", "address": {"city": "BETHLEHEM", "state": "PA", "street": "2207 EASTON AVE", "postcode": "18017"}}},
{"geometry": {"type": "Point", "coordinates": [-75.3546036906, 40.6584578333]}, "type": "Feature", "properties": {"collection_times": [{"days": "Mon-Sat", "time": "12:30pm"}, {"days": "Sun", "time": "Closed"}], "id": "1801700006", "name": "USPS COLLECTION BOX - BLUE BOX", "address": {"city": "BETHLEHEM", "state": "PA", "street": "1300 JOHNSTON DR", "postcode": "18017"}}},
{"geometry": {"type": "Point", "coordinates": [-75.4287790843, 40.6521449582]}, "type": "Feature", "properties": {"collection_times": [{"days": "Mon-Fri", "time": "5:00pm"}, {"days": "Sat", "time": "10:30am"}, {"days": "Sun", "time": "Closed"}], "id": "1801700012", "name": "USPS COLLECTION BOX - BLUE BOX", "address": {"city": "BETHLEHEM", "state": "PA", "street": "2300 CITY LINE RD", "postcode": "18017"}}},
{"geometry": {"type": "Point", "coordinates": [-75.3600005381, 40.6468765159]}, "type": "Feature", "properties": {"collection_times": [{"days": "Mon-Sat", "time": "11:30am"}, {"days": "Sun", "time": "Closed"}], "id": "1801700016", "name": "USPS COLLECTION BOX - BLUE BOX", "address": {"city": "BETHLEHEM", "state": "PA", "street": "901 NORTH BLVD", "postcode": "18017"}}},
{"geometry": {"type": "Point", "coordinates": [-75.416882066, 40.655350777]}, "type": "Feature", "properties": {"collection_times": [{"days": "Mon-Fri", "time": "5:00pm"}, {"days": "Sat", "time": "12:00pm"}, {"days": "Sun", "time": "Closed"}], "id": "1801700017", "name": "USPS COLLECTION BOX - BLUE BOX", "address": {"city": "BETHLEHEM", "state": "PA", "street": "2005 CITY LINE RD", "postcode": "18017"}}},
{"geometry": {"type": "Point", "coordinates": [-75.4167862463, 40.6509229615]}, "type": "Feature", "properties": {"collection_times": [{"days": "Mon-Fri", "time": "4:00pm"}, {"days": "Sat", "time": "9:30am"}, {"days": "Sun", "time": "Closed"}], "id": "1801700025", "name": "USPS COLLECTION BOX - BLUE BOX", "address": {"city": "BETHLEHEM", "state": "PA", "street": "2012 INDUSTRIAL DR", "postcode": "18017"}}},
{"geometry": {"type": "Point", "coordinates": [-75.4188216577, 40.6583723841]}, "type": "Feature", "properties": {"collection_times": [{"days": "Mon-Fri", "time": "4:30pm"}, {"days": "Sat", "time": "9:30am"}, {"days": "Sun", "time": "Closed"}], "id": "1801700032", "name": "USPS COLLECTION BOX - BLUE BOX", "address": {"city": "BETHLEHEM", "state": "PA", "street": "2545 SCHOENERSVILLE RD", "postcode": "18017"}}},
{"geometry": {"type": "Point", "coordinates": [-75.3651186728, 40.6413245485]}, "type": "Feature", "properties": {"collection_times": [{"days": "Mon-Sat", "time": "11:00am"}, {"days": "Sun", "time": "Closed"}], "id": "1801700034", "name": "USPS COLLECTION BOX - BLUE BOX", "address": {"city": "BETHLEHEM", "state": "PA", "street": "2121 LINDEN ST", "postcode": "18017"}}},
{"geometry": {"type": "Point", "coordinates": [-75.356496717, 40.6557066008]}, "type": "Feature", "properties": {"collection_times": [{"days": "Mon-Sat", "time": "10:00am"}, {"days": "Sun", "time": "Closed"}], "id": "1801700035", "name": "USPS COLLECTION BOX - BLUE BOX", "address": {"city": "BETHLEHEM", "state": "PA", "street": "2953 LINDEN ST", "postcode": "18017"}}},
{"geometry": {"type": "Point", "coordinates": [-75.3984868031, 40.6637639639]}, "type": "Feature", "properties": {"collection_times": [{"days": "Mon-Sat", "time": "12:00pm"}, {"days": "Sun", "time": "Closed"}], "id": "1801700037", "name": "USPS COLLECTION BOX - BLUE BOX", "address": {"city": "BETHLEHEM", "state": "PA", "street": "3519 JACKSONVILLE RD", "postcode": "18017"}}},
{"geometry": {"type": "Point", "coordinates": [-75.4285176504, 40.649585035]}, "type": "Feature", "properties": {"collection_times": [{"days": "Mon-Fri", "time": "4:30pm"}, {"days": "Sat", "time": "1:30pm"}, {"days": "Sun", "time": "Closed"}], "id": "1801700043", "name": "USPS COLLECTION BOX - BLUE BOX", "address": {"city": "BETHLEHEM", "state": "PA", "street": "2340 AVENUE A", "postcode": "18017"}}},
{"geometry": {"type": "Point", "coordinates": [-75.4182320162, 40.6578005491]}, "type": "Feature", "properties": {"collection_times": [{"days": "Mon-Fri", "time": "4:30pm"}, {"days": "Sat", "time": "10:30am"}, {"days": "Sun", "time": "Closed"}], "id": "1801700044", "name": "USPS COLLECTION BOX - BLUE BOX", "address": {"city": "BETHLEHEM", "state": "PA", "street": "2597 SCHOENERSVILLE RD", "postcode": "18017"}}},
{"geometry": {"type": "Point", "coordinates": [-75.4020017443, 40.641907676]}, "type": "Feature", "properties": {"collection_times": [{"days": "Mon-Fri", "time": "4:30pm"}, {"days": "Sat", "time": "1:30pm"}, {"days": "Sun", "time": "Closed"}], "id": "1801700052", "name": "USPS COLLECTION BOX - BLUE BOX", "address": {"city": "BETHLEHEM", "state": "PA", "street": "2269 SCHOENERSVILLE RD", "postcode": "18017"}}},
{"geometry": {"type": "Point", "coordinates": [-75.3480159958, 40.6394227942]}, "type": "Feature", "properties": {"collection_times": [{"days": "Mon-Fri", "time": "4:30pm"}, {"days": "Sat", "time": "11:00am"}, {"days": "Sun", "time": "Closed"}], "id": "1801700060", "name": "USPS COLLECTION BOX - BLUE BOX", "address": {"city": "BETHLEHEM", "state": "PA", "street": "1880 STEFKO BLVD", "postcode": "18017"}}},
{"geometry": {"type": "Point", "coordinates": [-75.3648379737, 40.6342055227]}, "type": "Feature", "properties": {"collection_times": [{"days": "Mon-Sat", "time": "10:30am"}, {"days": "Sun", "time": "Closed"}], "id": "1801700062", "name": "USPS COLLECTION BOX - BLUE BOX", "address": {"city": "BETHLEHEM", "state": "PA", "street": "528 E WASHINGTON AVE", "postcode": "18017"}}},
{"geometry": {"type": "Point", "coordinates": [-75.4126257797, 40.6537951859]}, "type": "Feature", "properties": {"collection_times": [{"days": "Mon-Fri", "time": "5:00pm"}, {"days": "Sat", "time": "11:00am"}, {"days": "Sun", "time": "Closed"}], "id": "1801700063", "name": "USPS COLLECTION BOX - BLUE BOX", "address": {"city": "BETHLEHEM", "state": "PA", "street": "1655 VALLEY CENTER PKWY", "postcode": "18017"}}},
{"geometry": {"type": "Point", "coordinates": [-75.3826104083, 40.6618658323]}, "type": "Feature", "properties": {"collection_times": [{"days": "Mon-Fri", "time": "4:30pm"}, {"days": "Sat", "time": "11:00am"}, {"days": "Sun", "time": "Closed"}], "id": "1801700068", "name": "USPS COLLECTION BOX - BLUE BOX", "address": {"city": "BETHLEHEM", "state": "PA", "street": "3400 BATH PIKE", "postcode": "18017"}}},
{"geometry": {"type": "Point", "coordinates": [-75.3567987574, 40.6544940654]}, "type": "Feature", "properties": {"collection_times": [{"days": "Mon-Fri", "time": "4:30pm"}, {"days": "Sat", "time": "10:30am"}, {"days": "Sun", "time": "Closed"}], "id": "1801700073", "name": "USPS COLLECTION BOX - BLUE BOX", "address": {"city": "BETHLEHEM", "state": "PA", "street": "1107 BUTZTOWN RD", "postcode": "18017"}}},
{"geometry": {"type": "Point", "coordinates": [-75.3890860792, 40.6734666105]}, "type": "Feature", "properties": {"collection_times": [{"days": "Mon-Sat", "time": "9:30am"}, {"days": "Sun", "time": "Closed"}], "id": "1801700076", "name": "USPS COLLECTION BOX - BLUE BOX", "address": {"city": "BETHLEHEM", "state": "PA", "street": "5580 CRAWFORD DR", "postcode": "18017"}}},
{"geometry": {"type": "Point", "coordinates": [-75.3674265543, 40.6329312023]}, "type": "Feature", "properties": {"collection_times": [{"days": "Mon-Sat", "time": "11:30am"}, {"days": "Sun", "time": "Closed"}], "id": "1801700077", "name": "USPS COLLECTION BOX - BLUE BOX", "address": {"city": "BETHLEHEM", "state": "PA", "street": "1500 EASTON AVE", "postcode": "18017"}}},
{"geometry": {"type": "Point", "coordinates": [-75.4042718618, 40.6439194303]}, "type": "Feature", "properties": {"collection_times": [{"days": "Mon-Fri", "time": "4:30pm"}, {"days": "Sat", "time": "1:00pm"}, {"days": "Sun", "time": "Closed"}], "id": "1801700081", "name": "USPS COLLECTION BOX - BLUE BOX", "address": {"city": "BETHLEHEM", "state": "PA", "street": "2369 SCHOENERSVILLE RD", "postcode": "18017"}}},
{"geometry": {"type": "Point", "coordinates": [-75.421581962, 40.6532569396]}, "type": "Feature", "properties": {"collection_times": [{"days": "Mon-Fri", "time": "5:00pm"}, {"days": "Sat", "time": "12:00pm"}, {"days": "Sun", "time": "Closed"}], "id": "1801700083", "name": "USPS COLLECTION BOX - BLUE BOX", "address": {"city": "BETHLEHEM", "state": "PA", "street": "2115 CITY LINE RD", "postcode": "18017"}}},
{"geometry": {"type": "Point", "coordinates": [-75.4182320162, 40.6578005491]}, "type": "Feature", "properties": {"collection_times": [{"days": "Mon-Fri", "time": "4:30pm"}, {"days": "Sat", "time": "10:30am"}, {"days": "Sun", "time": "Closed"}], "id": "1801700087", "name": "USPS COLLECTION BOX - BLUE BOX", "address": {"city": "BETHLEHEM", "state": "PA", "street": "2597 SCHOENERSVILLE RD", "postcode": "18017"}}},
{"geometry": {"type": "Point", "coordinates": [-75.3840809798, 40.6652036422]}, "type": "Feature", "properties": {"collection_times": [{"days": "Mon-Fri", "time": "5:00pm"}, {"days": "Sat", "time": "9:30am"}, {"days": "Sun", "time": "Closed"}], "id": "1801700088", "name": "USPS COLLECTION BOX - BLUE BOX", "address": {"city": "BETHLEHEM", "state": "PA", "street": "100 GATEWAY DR", "postcode": "18017"}}},
{"geometry": {"type": "Point", "coordinates": [-75.3823014737, 40.6684422164]}, "type": "Feature", "properties": {"collection_times": [{"days": "Mon-Fri", "time": "4:30pm"}, {"days": "Sat", "time": "9:30am"}, {"days": "Sun", "time": "Closed"}], "id": "1801700089", "name": "USPS COLLECTION BOX - BLUE BOX", "address": {"city": "BETHLEHEM", "state": "PA", "street": "3833 ADLER PL", "postcode": "18017"}}},
{"geometry": {"type": "Point", "coordinates": [-75.3777764242, 40.6310202208]}, "type": "Feature", "properties": {"collection_times": [{"days": "Mon-Fri", "time": "5:00pm"}, {"days": "Sat", "time": "11:00am"}, {"days": "Sun", "time": "Closed"}], "id": "1801700090", "name": "USPS COLLECTION BOX - BLUE BOX", "address": {"city": "BETHLEHEM", "state": "PA", "street": "3500 HIGH POINT BLVD", "postcode": "18017"}}},
{"geometry": {"type": "Point", "coordinates": [-75.4180991344, 40.6267228581]}, "type": "Feature", "properties": {"collection_times": [{"days": "Mon-Fri", "time": "5:00pm"}, {"days": "Sat", "time": "10:00am"}, {"days": "Sun", "time": "Closed"}], "id": "1801800001", "name": "USPS COLLECTION BOX - BLUE BOX", "address": {"city": "BETHLEHEM", "state": "PA", "street": "2114 W UNION BLVD", "postcode": "18018"}}},
{"geometry": {"type": "Point", "coordinates": [-75.3821054384, 40.6195295965]}, "type": "Feature", "properties": {"collection_times": [{"days": "Mon-Fri", "time": "5:00pm"}, {"days": "Sat", "time": "11:00am"}, {"days": "Sun", "time": "Closed"}], "id": "1801800003", "name": "USPS COLLECTION BOX - BLUE BOX", "address": {"city": "BETHLEHEM", "state": "PA", "street": "420 MAIN ST", "postcode": "18018"}}},
{"geometry": {"type": "Point", "coordinates": [-75.3820187343, 40.6206908184]}, "type": "Feature", "properties": {"collection_times": [{"days": "Mon-Sat", "time": "11:00am"}, {"days": "Sun", "time": "Closed"}], "id": "1801800006", "name": "USPS COLLECTION BOX - BLUE BOX", "address": {"city": "BETHLEHEM", "state": "PA", "street": "98 W MARKET ST", "postcode": "18018"}}},
{"geometry": {"type": "Point", "coordinates": [-75.4132936573, 40.6407013632]}, "type": "Feature", "properties": {"collection_times": [{"days": "Mon-Sat", "time": "12:00pm"}, {"days": "Sun", "time": "Closed"}], "id": "1801800035", "name": "USPS COLLECTION BOX - BLUE BOX", "address": {"city": "BETHLEHEM", "state": "PA", "street": "1832 CATASAUQUA RD", "postcode": "18018"}}},
{"geometry": {"type": "Point", "coordinates": [-75.3784150313, 40.6209252158]}, "type": "Feature", "properties": {"collection_times": [{"days": "Mon-Sat", "time": "10:30am"}, {"days": "Sun", "time": "Closed"}], "id": "1801800038", "name": "USPS COLLECTION BOX - BLUE BOX", "address": {"city": "BETHLEHEM", "state": "PA", "street": "510 N NEW ST", "postcode": "18018"}}},
{"geometry": {"type": "Point", "coordinates": [-75.3782327345, 40.6268771306]}, "type": "Feature", "properties": {"collection_times": [{"days": "Mon-Sat", "time": "10:30am"}, {"days": "Sun", "time": "Closed"}], "id": "1801800040", "name": "USPS COLLECTION BOX - BLUE BOX", "address": {"city": "BETHLEHEM", "state": "PA", "street": "2 E ETTWEIN ST", "postcode": "18018"}}},
{"geometry": {"type": "Point", "coordinates": [-75.4265977086, 40.6427012493]}, "type": "Feature", "properties": {"collection_times": [{"days": "Mon-Fri", "time": "5:00pm"}, {"days": "Sat", "time": "11:00am"}, {"days": "Sun", "time": "Closed"}], "id": "1801800042", "name": "USPS COLLECTION BOX - BLUE BOX", "address": {"city": "BETHLEHEM", "state": "PA", "street": "2404 CATASAUQUA RD", "postcode": "18018"}}},
{"geometry": {"type": "Point", "coordinates": [-75.4176273302, 40.6416308189]}, "type": "Feature", "properties": {"collection_times": [{"days": "Mon-Sat", "time": "2:30pm"}, {"days": "Sun", "time": "Closed"}], "id": "1801800043", "name": "USPS COLLECTION BOX - BLUE BOX", "address": {"city": "BETHLEHEM", "state": "PA", "street": "2004 CATASAUQUA RD", "postcode": "18018"}}},
{"geometry": {"type": "Point", "coordinates": [-75.4233324302, 40.6425483283]}, "type": "Feature", "properties": {"collection_times": [{"days": "Mon-Sat", "time": "10:30am"}, {"days": "Sun", "time": "Closed"}], "id": "1801800045", "name": "USPS COLLECTION BOX - BLUE BOX", "address": {"city": "BETHLEHEM", "state": "PA", "street": "2232 CATASAUQUA RD", "postcode": "18018"}}},
{"geometry": {"type": "Point", "coordinates": [-75.4009598487, 40.6209539952]}, "type": "Feature", "properties": {"collection_times": [{"days": "Mon-Sat", "time": "3:00pm"}, {"days": "Sun", "time": "Closed"}], "id": "1801800050", "name": "USPS COLLECTION BOX - BLUE BOX", "address": {"city": "BETHLEHEM", "state": "PA", "street": "1331 W MARKET ST", "postcode": "18018"}}},
{"geometry": {"type": "Point", "coordinates": [-75.4046165554, 40.6226239578]}, "type": "Feature", "properties": {"collection_times": [{"days": "Mon-Sat", "time": "9:30am"}, {"days": "Sun", "time": "Closed"}], "id": "1801800051", "name": "USPS COLLECTION BOX - BLUE BOX", "address": {"city": "BETHLEHEM", "state": "PA", "street": "1601 W BROAD ST", "postcode": "18018"}}},
{"geometry": {"type": "Point", "coordinates": [-75.3798495356, 40.6223391241]}, "type": "Feature", "properties": {"collection_times": [{"days": "Mon-Fri", "time": "5:00pm"}, {"days": "Sat", "time": "11:30am"}, {"days": "Sun", "time": "Closed"}], "id": "1801800054", "name": "USPS COLLECTION BOX - BLUE BOX", "address": {"city": "BETHLEHEM", "state": "PA", "street": "44 E BROAD ST", "postcode": "18018"}}},
{"geometry": {"type": "Point", "coordinates": [-75.3661709811, 40.6220386525]}, "type": "Feature", "properties": {"collection_times": [{"days": "Mon-Sat", "time": "3:30pm"}, {"days": "Sun", "time": "Closed"}], "id": "1801800056", "name": "USPS COLLECTION BOX - BLUE BOX", "address": {"city": "BETHLEHEM", "state": "PA", "street": "520 E BROAD ST", "postcode": "18018"}}},
{"geometry": {"type": "Point", "coordinates": [-75.367672156, 40.6220682265]}, "type": "Feature", "properties": {"collection_times": [{"days": "Mon-Sat", "time": "3:30pm"}, {"days": "Sun", "time": "Closed"}], "id": "1801800058", "name": "USPS COLLECTION BOX - BLUE BOX", "address": {"city": "BETHLEHEM", "state": "PA", "street": "430 E BROAD ST", "postcode": "18018"}}},
{"geometry": {"type": "Point", "coordinates": [-75.3814843849, 40.6223734299]}, "type": "Feature", "properties": {"collection_times": [{"days": "Mon-Fri", "time": "4:30pm"}, {"days": "Sat", "time": "10:00am"}, {"days": "Sun", "time": "Closed"}], "id": "1801800059", "name": "USPS COLLECTION BOX - BLUE BOX", "address": {"city": "BETHLEHEM", "state": "PA", "street": "99 W BROAD ST", "postcode": "18018"}}},
{"geometry": {"type": "Point", "coordinates": [-78.7291588329, 40.8614021925]}, "type": "Feature", "properties": {"collection_times": [{"days": "Mon-Fri", "time": "5:00pm"}, {"days": "Sat", "time": "11:00am"}, {"days": "Sun", "time": "Closed"}], "id": "1801800062", "name": "USPS COLLECTION BOX - BLUE BOX", "address": {"city": "BETHLEHEM", "state": "PA", "street": "N NEW ST", "postcode": "18018"}}},
{"geometry": {"type": "Point", "coordinates": [-75.3991555276, 40.6204075349]}, "type": "Feature", "properties": {"collection_times": [{"days": "Mon-Sat", "time": "3:00pm"}, {"days": "Sun", "time": "Closed"}], "id": "1801800063", "name": "USPS COLLECTION BOX - BLUE BOX", "address": {"city": "BETHLEHEM", "state": "PA", "street": "1201 PROSPECT AVE", "postcode": "18018"}}},
{"geometry": {"type": "Point", "coordinates": [-75.3882615568, 40.6224491393]}, "type": "Feature", "properties": {"collection_times": [{"days": "Mon-Sat", "time": "9:30am"}, {"days": "Sun", "time": "Closed"}], "id": "1801800064", "name": "USPS COLLECTION BOX - BLUE BOX", "address": {"city": "BETHLEHEM", "state": "PA", "street": "402 W BROAD ST", "postcode": "18018"}}},
{"geometry": {"type": "Point", "coordinates": [-75.3867103901, 40.6225729728]}, "type": "Feature", "properties": {"collection_times": [{"days": "Mon-Sat", "time": "11:00am"}, {"days": "Sun", "time": "Closed"}], "id": "1801800069", "name": "USPS COLLECTION BOX - BLUE BOX", "address": {"city": "BETHLEHEM", "state": "PA", "street": "604 2ND AVE", "postcode": "18018"}}},
{"geometry": {"type": "Point", "coordinates": [-75.395328939, 40.6226099247]}, "type": "Feature", "properties": {"collection_times": [{"days": "Mon-Sat", "time": "11:00am"}, {"days": "Sun", "time": "Closed"}], "id": "1801800074", "name": "USPS COLLECTION BOX - BLUE BOX", "address": {"city": "BETHLEHEM", "state": "PA", "street": "926 W BROAD ST", "postcode": "18018"}}},
{"geometry": {"type": "Point", "coordinates": [-75.396611006, 40.6225213533]}, "type": "Feature", "properties": {"collection_times": [{"days": "Mon-Sat", "time": "10:00am"}, {"days": "Sun", "time": "Closed"}], "id": "1801800075", "name": "USPS COLLECTION BOX - BLUE BOX", "address": {"city": "BETHLEHEM", "state": "PA", "street": "1027 W BROAD ST", "postcode": "18018"}}},
{"geometry": {"type": "Point", "coordinates": [-75.391196478, 40.6224869939]}, "type": "Feature", "properties": {"collection_times": [{"days": "Mon-Sat", "time": "12:00pm"}, {"days": "Sun", "time": "Closed"}], "id": "1801800078", "name": "USPS COLLECTION BOX - BLUE BOX", "address": {"city": "BETHLEHEM", "state": "PA", "street": "602 W BROAD ST", "postcode": "18018"}}},
{"geometry": {"type": "Point", "coordinates": [-75.3926361391, 40.625253935]}, "type": "Feature", "properties": {"collection_times": [{"days": "Mon-Fri", "time": "4:30pm"}, {"days": "Sat", "time": "9:00am"}, {"days": "Sun", "time": "Closed"}], "id": "1801800080", "name": "USPS COLLECTION BOX - BLUE BOX", "address": {"city": "BETHLEHEM", "state": "PA", "street": "701 W UNION BLVD", "postcode": "18018"}}},
{"geometry": {"type": "Point", "coordinates": [-75.3922801685, 40.6220794048]}, "type": "Feature", "properties": {"collection_times": [{"days": "Mon-Fri", "time": "4:00pm"}, {"days": "Sat", "time": "12:00pm"}, {"days": "Sun", "time": "Closed"}], "id": "1801800081", "name": "USPS COLLECTION BOX - BLUE BOX", "address": {"city": "BETHLEHEM", "state": "PA", "street": "550 6TH AVE", "postcode": "18018"}}},
{"geometry": {"type": "Point", "coordinates": [-75.3702924101, 40.6295244168]}, "type": "Feature", "properties": {"collection_times": [{"days": "Mon-Sat", "time": "10:00am"}, {"days": "Sun", "time": "Closed"}], "id": "1801800093", "name": "USPS COLLECTION BOX - BLUE BOX", "address": {"city": "BETHLEHEM", "state": "PA", "street": "1124 LINDEN ST", "postcode": "18018"}}},
{"geometry": {"type": "Point", "coordinates": [-75.369275308, 40.6333535788]}, "type": "Feature", "properties": {"collection_times": [{"days": "Mon-Sat", "time": "1:00pm"}, {"days": "Sun", "time": "Closed"}], "id": "1801800094", "name": "USPS COLLECTION BOX - BLUE BOX", "address": {"city": "BETHLEHEM", "state": "PA", "street": "1501 LINDEN ST", "postcode": "18018"}}},
{"geometry": {"type": "Point", "coordinates": [-75.3705523939, 40.6244300865]}, "type": "Feature", "properties": {"collection_times": [{"days": "Mon-Sat", "time": "12:30pm"}, {"days": "Sun", "time": "Closed"}], "id": "1801800095", "name": "USPS COLLECTION BOX - BLUE BOX", "address": {"city": "BETHLEHEM", "state": "PA", "street": "747 LINDEN ST", "postcode": "18018"}}},
{"geometry": {"type": "Point", "coordinates": [-75.4198531726, 40.6263744493]}, "type": "Feature", "properties": {"collection_times": [{"days": "Mon-Fri", "time": "5:00pm"}, {"days": "Sat", "time": "10:00am"}, {"days": "Sun", "time": "Closed"}], "id": "1801800097", "name": "USPS COLLECTION BOX - BLUE BOX", "address": {"city": "BETHLEHEM", "state": "PA", "street": "2168 W UNION BLVD", "postcode": "18018"}}},
{"geometry": {"type": "Point", "coordinates": [-75.3751934091, 40.6284739493]}, "type": "Feature", "properties": {"collection_times": [{"days": "Mon-Fri", "time": "3:00pm"}, {"days": "Sat", "time": "1:30pm"}, {"days": "Sun", "time": "Closed"}], "id": "1801800104", "name": "USPS COLLECTION BOX - BLUE BOX", "address": {"city": "BETHLEHEM", "state": "PA", "street": "1021 CENTER ST", "postcode": "18018"}}},
{"geometry": {"type": "Point", "coordinates": [-75.3765869348, 40.6308883685]}, "type": "Feature", "properties": {"collection_times": [{"days": "Mon-Sat", "time": "10:00am"}, {"days": "Sun", "time": "Closed"}], "id": "1801800114", "name": "USPS COLLECTION BOX - BLUE BOX", "address": {"city": "BETHLEHEM", "state": "PA", "street": "35 E ELIZABETH AVE", "postcode": "18018"}}},
{"geometry": {"type": "Point", "coordinates": [-75.3765869348, 40.6308883685]}, "type": "Feature", "properties": {"collection_times": [{"days": "Mon-Sat", "time": "10:00am"}, {"days": "Sun", "time": "Closed"}], "id": "1801800115", "name": "USPS COLLECTION BOX - BLUE BOX", "address": {"city": "BETHLEHEM", "state": "PA", "street": "35 E ELIZABETH AVE", "postcode": "18018"}}},
{"geometry": {"type": "Point", "coordinates": [-75.3756393847, 40.6308197569]}, "type": "Feature", "properties": {"collection_times": [{"days": "Mon-Fri", "time": "4:30pm"}, {"days": "Sat", "time": "10:00am"}, {"days": "Sun", "time": "Closed"}], "id": "1801800116", "name": "USPS COLLECTION BOX - BLUE BOX", "address": {"city": "BETHLEHEM", "state": "PA", "street": "65 E ELIZABETH AVE", "postcode": "18018"}}},
{"geometry": {"type": "Point", "coordinates": [-75.378972963, 40.6187192696]}, "type": "Feature", "properties": {"collection_times": [{"days": "Mon-Fri", "time": "5:00pm"}, {"days": "Sat", "time": "2:00pm"}, {"days": "Sun", "time": "Closed"}], "id": "1801800119", "name": "USPS COLLECTION BOX - BLUE BOX", "address": {"city": "BETHLEHEM", "state": "PA", "street": "10 E CHURCH ST", "postcode": "18018"}}},
{"geometry": {"type": "Point", "coordinates": [-75.363866729, 40.6210523642]}, "type": "Feature", "properties": {"collection_times": [{"days": "Mon-Fri", "time": "5:00pm"}, {"days": "Sat", "time": "3:00pm"}, {"days": "Sun", "time": "Closed"}], "id": "1801800125", "name": "USPS COLLECTION BOX - BLUE BOX", "address": {"city": "BETHLEHEM", "state": "PA", "street": "535 WOOD ST", "postcode": "18018"}}},
{"geometry": {"type": "Point", "coordinates": [-75.3741672575, 40.6261135986]}, "type": "Feature", "properties": {"collection_times": [{"days": "Mon-Fri", "time": "5:00pm"}, {"days": "Sat", "time": "3:00pm"}, {"days": "Sun", "time": "Closed"}], "id": "1801800127", "name": "USPS COLLECTION BOX - EXPRESS", "address": {"city": "BETHLEHEM", "state": "PA", "street": "535 WOOD ST", "postcode": "18018"}}},
{"geometry": {"type": "Point", "coordinates": [-75.3741672575, 40.6261135986]}, "type": "Feature", "properties": {"collection_times": [{"days": "Mon-Fri", "time": "5:00pm"}, {"days": "Sat", "time": "10:00am"}, {"days": "Sun", "time": "Closed"}], "id": "1801800131", "name": "USPS COLLECTION BOX - EXPRESS", "address": {"city": "BETHLEHEM", "state": "PA", "street": "2114 W UNION BLVD", "postcode": "18018"}}},
{"geometry": {"type": "Point", "coordinates": [-78.7291588329, 40.8614021925]}, "type": "Feature", "properties": {"collection_times": [{"days": "Mon-Fri", "time": "5:00pm"}, {"days": "Sat", "time": "11:00am"}, {"days": "Sun", "time": "Closed"}], "id": "1801800134", "name": "USPS COLLECTION BOX - BLUE BOX", "address": {"city": "BETHLEHEM", "state": "PA", "street": "N NEW ST", "postcode": "18018"}}},
{"geometry": {"type": "Point", "coordinates": [-75.4180991344, 40.6267228581]}, "type": "Feature", "properties": {"collection_times": [{"days": "Mon-Fri", "time": "5:00pm"}, {"days": "Sat", "time": "12:30pm"}, {"days": "Sun", "time": "Closed"}], "id": "1801800139", "name": "USPS COLLECTION BOX - PO LOBBY", "address": {"city": "BETHLEHEM", "state": "PA", "street": "2114 W UNION BLVD", "postcode": "18018"}}},
{"geometry": {"type": "Point", "coordinates": [-75.325214662, 40.644471438]}, "type": "Feature", "properties": {"collection_times": [{"days": "Mon-Sat", "time": "10:30am"}, {"days": "Sun", "time": "Closed"}], "id": "1802000002", "name": "USPS COLLECTION BOX - BLUE BOX", "address": {"city": "BETHLEHEM", "state": "PA", "street": "3650 LINDEN ST", "postcode": "18020"}}},
{"geometry": {"type": "Point", "coordinates": [-75.3448097629, 40.6749704726]}, "type": "Feature", "properties": {"collection_times": [{"days": "Mon-Sat", "time": "9:30am"}, {"days": "Sun", "time": "Closed"}], "id": "1802000003", "name": "USPS COLLECTION BOX - BLUE BOX", "address": {"city": "BETHLEHEM", "state": "PA", "street": "3843 NAZARETH PIKE", "postcode": "18020"}}},
{"geometry": {"type": "Point", "coordinates": [-75.3191578259, 40.6445811185]}, "type": "Feature", "properties": {"collection_times": [{"days": "Mon-Fri", "time": "4:30pm"}, {"days": "Sat", "time": "10:30am"}, {"days": "Sun", "time": "Closed"}], "id": "1802000004", "name": "USPS COLLECTION BOX - BLUE BOX", "address": {"city": "BETHLEHEM", "state": "PA", "street": "3926 LINDEN ST", "postcode": "18020"}}},
{"geometry": {"type": "Point", "coordinates": [-75.3395133332, 40.6768374554]}, "type": "Feature", "properties": {"collection_times": [{"days": "Mon-Sat", "time": "10:30am"}, {"days": "Sun", "time": "Closed"}], "id": "1802000005", "name": "USPS COLLECTION BOX - BLUE BOX", "address": {"city": "BETHLEHEM", "state": "PA", "street": "3191 HIGHFIELD DR", "postcode": "18020"}}},
{"geometry": {"type": "Point", "coordinates": [-75.3329857384, 40.6514744482]}, "type": "Feature", "properties": {"collection_times": [{"days": "Mon-Sat", "time": "10:30am"}, {"days": "Sun", "time": "Closed"}], "id": "1802000007", "name": "USPS COLLECTION BOX - BLUE BOX", "address": {"city": "BETHLEHEM", "state": "PA", "street": "2499 WILLOW PARK RD", "postcode": "18020"}}},
{"geometry": {"type": "Point", "coordinates": [-75.3357381788, 40.6529103326]}, "type": "Feature", "properties": {"collection_times": [{"days": "Mon-Fri", "time": "5:00pm"}, {"days": "Sat", "time": "10:00am"}, {"days": "Sun", "time": "Closed"}], "id": "1802000010", "name": "USPS COLLECTION BOX - BLUE BOX", "address": {"city": "BETHLEHEM", "state": "PA", "street": "3232 EASTON AVE", "postcode": "18020"}}},
{"geometry": {"type": "Point", "coordinates": [-75.3267675925, 40.6605521122]}, "type": "Feature", "properties": {"collection_times": [{"days": "Mon-Fri", "time": "5:00pm"}, {"days": "Sat", "time": "10:00am"}, {"days": "Sun", "time": "Closed"}], "id": "1802000011", "name": "USPS COLLECTION BOX - EXPRESS", "address": {"city": "BETHLEHEM", "state": "PA", "street": "3232 EASTON AVE", "postcode": "18020"}}},
{"geometry": {"type": "Point", "coordinates": [-75.3129730052, 40.6684733254]}, "type": "Feature", "properties": {"collection_times": [{"days": "Mon-Sat", "time": "10:00am"}, {"days": "Sun", "time": "Closed"}], "id": "1802000014", "name": "USPS COLLECTION BOX - BLUE BOX", "address": {"city": "BETHLEHEM", "state": "PA", "street": "4010 REEVE DR", "postcode": "18020"}}},
{"geometry": {"type": "Point", "coordinates": [-75.335666737, 40.652929411]}, "type": "Feature", "properties": {"collection_times": [{"days": "Mon-Fri", "time": "5:00pm"}, {"days": "Sat", "time": "12:30pm"}, {"days": "Sun", "time": "Closed"}], "id": "1802000015", "name": "USPS COLLECTION BOX - PO LOBBY", "address": {"city": "BETHLEHEM", "state": "PA", "street": "3232 EASTON AVE", "postcode": "18020"}}},
{"geometry": {"type": "Point", "coordinates": [-75.2954745864, 40.6654125212]}, "type": "Feature", "properties": {"collection_times": [{"days": "Mon-Fri", "time": "5:00pm"}, {"days": "Sat", "time": "9:30am"}, {"days": "Sun", "time": "Closed"}], "id": "1802000016", "name": "USPS COLLECTION BOX - BLUE BOX", "address": {"city": "BETHLEHEM", "state": "PA", "street": "3131 EMRICK BLVD", "postcode": "18020"}}},
{"geometry": {"type": "Point", "coordinates": [-75.6649818042, 40.7995393203]}, "type": "Feature", "properties": {"collection_times": [{"days": "Mon-Fri", "time": "4:15pm"}, {"days": "Sat", "time": "11:00am"}, {"days": "Sun", "time": "Closed"}], "id": "1803000001", "name": "USPS COLLECTION BOX - BLUE BOX", "address": {"city": "BOWMANSTOWN", "state": "PA", "street": "600 RAILROAD ST", "postcode": "18030"}}},
{"geometry": {"type": "Point", "coordinates": [-75.6649818042, 40.7995393203]}, "type": "Feature", "properties": {"collection_times": [{"days": "Mon-Fri", "time": "4:15pm"}, {"days": "Sat", "time": "11:00am"}, {"days": "Sun", "time": "Closed"}], "id": "1803000002", "name": "USPS COLLECTION BOX - PO LOBBY", "address": {"city": "BOWMANSTOWN", "state": "PA", "street": "600 RAILROAD ST", "postcode": "18030"}}},
{"geometry": {"type": "Point", "coordinates": [-75.6301540755, 40.5367241459]}, "type": "Feature", "properties": {"collection_times": [{"days": "Mon-Fri", "time": "4:30pm"}, {"days": "Sat", "time": "11:30am"}, {"days": "Sun", "time": "Closed"}], "id": "1803100002", "name": "USPS COLLECTION BOX - BLUE BOX", "address": {"city": "BREINIGSVILLE", "state": "PA", "street": "8922 BREINIGSVILLE RD", "postcode": "18031"}}},
{"geometry": {"type": "Point", "coordinates": [-75.6301540755, 40.5367241459]}, "type": "Feature", "properties": {"collection_times": [{"days": "Mon-Fri", "time": "4:30pm"}, {"days": "Sat", "time": "11:30am"}, {"days": "Sun", "time": "Closed"}], "id": "1803100004", "name": "USPS COLLECTION BOX - PO LOBBY", "address": {"city": "BREINIGSVILLE", "state": "PA", "street": "8922 BREINIGSVILLE RD", "postcode": "18031"}}},
{"geometry": {"type": "Point", "coordinates": [-75.4602722298, 40.6603608792]}, "type": "Feature", "properties": {"collection_times": [{"days": "Mon-Sat", "time": "12:00pm"}, {"days": "Sun", "time": "Closed"}], "id": "1803200001", "name": "USPS COLLECTION BOX - BLUE BOX", "address": {"city": "CATASAUQUA", "state": "PA", "street": "900 WALNUT ST", "postcode": "18032"}}},
{"geometry": {"type": "Point", "coordinates": [-75.4558925038, 40.6505515124]}, "type": "Feature", "properties": {"collection_times": [{"days": "Mon-Sat", "time": "1:00pm"}, {"days": "Sun", "time": "Closed"}], "id": "1803200002", "name": "USPS COLLECTION BOX - BLUE BOX", "address": {"city": "CATASAUQUA", "state": "PA", "street": "801 BETHLEHEM RD", "postcode": "18032"}}},
{"geometry": {"type": "Point", "coordinates": [-75.4809480936, 40.6656337103]}, "type": "Feature", "properties": {"collection_times": [{"days": "Mon-Sat", "time": "10:30am"}, {"days": "Sun", "time": "Closed"}], "id": "1803200010", "name": "USPS COLLECTION BOX - BLUE BOX", "address": {"city": "CATASAUQUA", "state": "PA", "street": "1600 MAIN ST", "postcode": "18032"}}},
{"geometry": {"type": "Point", "coordinates": [-75.4723060594, 40.6633120908]}, "type": "Feature", "properties": {"collection_times": [{"days": "Mon-Sat", "time": "1:30pm"}, {"days": "Sun", "time": "Closed"}], "id": "1803200011", "name": "USPS COLLECTION BOX - BLUE BOX", "address": {"city": "CATASAUQUA", "state": "PA", "street": "1104 HOWERTOWN RD", "postcode": "18032"}}},
{"geometry": {"type": "Point", "coordinates": [-75.4737267932, 40.6543819336]}, "type": "Feature", "properties": {"collection_times": [{"days": "Mon-Fri", "time": "4:30pm"}, {"days": "Sat", "time": "3:00pm"}, {"days": "Sun", "time": "Closed"}], "id": "1803200022", "name": "USPS COLLECTION BOX - BLUE BOX", "address": {"city": "CATASAUQUA", "state": "PA", "street": "501 2ND ST", "postcode": "18032"}}},
{"geometry": {"type": "Point", "coordinates": [-75.4733169966, 40.6543218908]}, "type": "Feature", "properties": {"collection_times": [{"days": "Mon-Fri", "time": "4:30pm"}, {"days": "Sat", "time": "3:00pm"}, {"days": "Sun", "time": "Closed"}], "id": "1803200025", "name": "USPS COLLECTION BOX - BLUE BOX", "address": {"city": "CATASAUQUA", "state": "PA", "street": "205 BRIDGE ST", "postcode": "18032"}}},
{"geometry": {"type": "Point", "coordinates": [-75.4733169966, 40.6543218908]}, "type": "Feature", "properties": {"collection_times": [{"days": "Mon-Fri", "time": "4:30pm"}, {"days": "Sat", "time": "3:00pm"}, {"days": "Sun", "time": "Closed"}], "id": "1803200026", "name": "USPS COLLECTION BOX - PO LOBBY", "address": {"city": "CATASAUQUA", "state": "PA", "street": "205 BRIDGE ST", "postcode": "18032"}}},
{"geometry": {"type": "Point", "coordinates": [-75.3955355715, 40.5356861969]}, "type": "Feature", "properties": {"collection_times": [{"days": "Mon-Fri", "time": "4:30pm"}, {"days": "Sat", "time": "11:30am"}, {"days": "Sun", "time": "Closed"}], "id": "1803400001", "name": "USPS COLLECTION BOX - BLUE BOX", "address": {"city": "CENTER VALLEY", "state": "PA", "street": "5800 ROUTE 378", "postcode": "18034"}}},
{"geometry": {"type": "Point", "coordinates": [-75.3955355715, 40.5356861969]}, "type": "Feature", "properties": {"collection_times": [{"days": "Mon-Fri", "time": "4:30pm"}, {"days": "Sat", "time": "11:30am"}, {"days": "Sun", "time": "Closed"}], "id": "1803400004", "name": "USPS COLLECTION BOX - PO LOBBY", "address": {"city": "CENTER VALLEY", "state": "PA", "street": "5800 ROUTE 378", "postcode": "18034"}}},
{"geometry": {"type": "Point", "coordinates": [-75.53716741, 40.7557694104]}, "type": "Feature", "properties": {"collection_times": [{"days": "Mon-Fri", "time": "4:30pm"}, {"days": "Sat", "time": "11:30am"}, {"days": "Sun", "time": "Closed"}], "id": "1803500001", "name": "USPS COLLECTION BOX - BLUE BOX", "address": {"city": "CHERRYVILLE", "state": "PA", "street": "680 BLUE MOUNTAIN DR", "postcode": "18035"}}},
{"geometry": {"type": "Point", "coordinates": [-75.5365734325, 40.7580125731]}, "type": "Feature", "properties": {"collection_times": [{"days": "Mon-Fri", "time": "4:30pm"}, {"days": "Sat", "time": "11:30am"}, {"days": "Sun", "time": "Closed"}], "id": "1803500003", "name": "USPS COLLECTION BOX - PO LOBBY", "address": {"city": "CHERRYVILLE", "state": "PA", "street": "680 BLUE MOUNTAIN DR", "postcode": "18035"}}},
{"geometry": {"type": "Point", "coordinates": [-75.3873679828, 40.5095963178]}, "type": "Feature", "properties": {"collection_times": [{"days": "Mon-Fri", "time": "5:00pm"}, {"days": "Sat", "time": "12:00pm"}, {"days": "Sun", "time": "Closed"}], "id": "1803600001", "name": "USPS COLLECTION BOX - BLUE BOX", "address": {"city": "COOPERSBURG", "state": "PA", "street": "400 E STATION AVE", "postcode": "18036"}}},
{"geometry": {"type": "Point", "coordinates": [-75.3840473893, 40.5159019046]}, "type": "Feature", "properties": {"collection_times": [{"days": "Mon-Sat", "time": "9:00am"}, {"days": "Sun", "time": "Closed"}], "id": "1803600007", "name": "USPS COLLECTION BOX - BLUE BOX", "address": {"city": "COOPERSBURG", "state": "PA", "street": "216 E FAIRMOUNT ST STE 214", "postcode": "18036"}}},
{"geometry": {"type": "Point", "coordinates": [-75.3860403602, 40.5180348274]}, "type": "Feature", "properties": {"collection_times": [{"days": "Mon-Sat", "time": "9:00am"}, {"days": "Sun", "time": "Closed"}], "id": "1803600008", "name": "USPS COLLECTION BOX - BLUE BOX", "address": {"city": "COOPERSBURG", "state": "PA", "street": "7001 N ROUTE 309", "postcode": "18036"}}},
{"geometry": {"type": "Point", "coordinates": [-75.3873679828, 40.5095963178]}, "type": "Feature", "properties": {"collection_times": [{"days": "Mon-Fri", "time": "5:00pm"}, {"days": "Sat", "time": "12:00pm"}, {"days": "Sun", "time": "Closed"}], "id": "1803600017", "name": "USPS COLLECTION BOX - BLUE BOX", "address": {"city": "COOPERSBURG", "state": "PA", "street": "400 E STATION AVE", "postcode": "18036"}}},
{"geometry": {"type": "Point", "coordinates": [-75.4063159532, 40.5078121339]}, "type": "Feature", "properties": {"collection_times": [{"days": "Mon-Fri", "time": "5:00pm"}, {"days": "Sat", "time": "12:00pm"}, {"days": "Sun", "time": "Closed"}], "id": "1803600018", "name": "USPS COLLECTION BOX - EXPRESS", "address": {"city": "COOPERSBURG", "state": "PA", "street": "400 E STATION AVE", "postcode": "18036"}}},
{"geometry": {"type": "Point", "coordinates": [-75.3873679828, 40.5095963178]}, "type": "Feature", "properties": {"collection_times": [{"days": "Mon-Fri", "time": "5:00pm"}, {"days": "Sat", "time": "12:00pm"}, {"days": "Sun", "time": "Closed"}], "id": "1803600019", "name": "USPS COLLECTION BOX - BLUE BOX", "address": {"city": "COOPERSBURG", "state": "PA", "street": "400 E STATION AVE", "postcode": "18036"}}},
{"geometry": {"type": "Point", "coordinates": [-75.3860565261, 40.5106738901]}, "type": "Feature", "properties": {"collection_times": [{"days": "Mon-Sat", "time": "9:00am"}, {"days": "Sun", "time": "Closed"}], "id": "1803600020", "name": "USPS COLLECTION BOX - BLUE BOX", "address": {"city": "COOPERSBURG", "state": "PA", "street": "331 E STATE ST", "postcode": "18036"}}},
{"geometry": {"type": "Point", "coordinates": [-75.3873679828, 40.5095963178]}, "type": "Feature", "properties": {"collection_times": [{"days": "Mon-Fri", "time": "5:00pm"}, {"days": "Sat", "time": "12:00pm"}, {"days": "Sun", "time": "Closed"}], "id": "1803600021", "name": "USPS COLLECTION BOX - PO LOBBY", "address": {"city": "COOPERSBURG", "state": "PA", "street": "400 E STATION AVE", "postcode": "18036"}}},
{"geometry": {"type": "Point", "coordinates": [-75.4900812009, 40.6717737963]}, "type": "Feature", "properties": {"collection_times": [{"days": "Mon-Sat", "time": "11:00am"}, {"days": "Sun", "time": "Closed"}], "id": "1803700007", "name": "USPS COLLECTION BOX - BLUE BOX", "address": {"city": "COPLAY", "state": "PA", "street": "52 N 2ND ST", "postcode": "18037"}}},
{"geometry": {"type": "Point", "coordinates": [-75.495956958, 40.6676488184]}, "type": "Feature", "properties": {"collection_times": [{"days": "Mon-Sat", "time": "9:30am"}, {"days": "Sun", "time": "Closed"}], "id": "1803700008", "name": "USPS COLLECTION BOX - BLUE BOX", "address": {"city": "COPLAY", "state": "PA", "street": "46 S 8TH ST", "postcode": "18037"}}},
{"geometry": {"type": "Point", "coordinates": [-75.4954056992, 40.6717666985]}, "type": "Feature", "properties": {"collection_times": [{"days": "Mon-Sat", "time": "9:45am"}, {"days": "Sun", "time": "Closed"}], "id": "1803700009", "name": "USPS COLLECTION BOX - BLUE BOX", "address": {"city": "COPLAY", "state": "PA", "street": "40 S 5TH ST", "postcode": "18037"}}},
{"geometry": {"type": "Point", "coordinates": [-75.5682132746, 40.6790892145]}, "type": "Feature", "properties": {"collection_times": [{"days": "Mon-Sat", "time": "12:00pm"}, {"days": "Sun", "time": "Closed"}], "id": "1803700010", "name": "USPS COLLECTION BOX - BLUE BOX", "address": {"city": "COPLAY", "state": "PA", "street": "2626 OLD POST RD", "postcode": "18037"}}},
{"geometry": {"type": "Point", "coordinates": [-75.5006178164, 40.669187848]}, "type": "Feature", "properties": {"collection_times": [{"days": "Mon-Fri", "time": "4:00pm"}, {"days": "Sat", "time": "3:00pm"}, {"days": "Sun", "time": "Closed"}], "id": "1803700011", "name": "USPS COLLECTION BOX - PO LOBBY", "address": {"city": "COPLAY", "state": "PA", "street": "918 CHESTNUT ST", "postcode": "18037"}}},
{"geometry": {"type": "Point", "coordinates": [-75.5006178164, 40.669187848]}, "type": "Feature", "properties": {"collection_times": [{"days": "Mon-Fri", "time": "5:00pm"}, {"days": "Sat", "time": "3:00pm"}, {"days": "Sun", "time": "Closed"}], "id": "1803700013", "name": "USPS COLLECTION BOX - BLUE BOX", "address": {"city": "COPLAY", "state": "PA", "street": "918 CHESTNUT ST", "postcode": "18037"}}},
{"geometry": {"type": "Point", "coordinates": [-75.5294913626, 40.7948302919]}, "type": "Feature", "properties": {"collection_times": [{"days": "Mon-Fri", "time": "4:30pm"}, {"days": "Sat", "time": "12:00pm"}, {"days": "Sun", "time": "Closed"}], "id": "1803800001", "name": "USPS COLLECTION BOX - BLUE BOX", "address": {"city": "DANIELSVILLE", "state": "PA", "street": "3937 MT VIEW DR", "postcode": "18038"}}},
{"geometry": {"type": "Point", "coordinates": [-75.5294913626, 40.7948302919]}, "type": "Feature", "properties": {"collection_times": [{"days": "Mon-Fri", "time": "4:30pm"}, {"days": "Sat", "time": "12:00pm"}, {"days": "Sun", "time": "Closed"}], "id": "1803800002", "name": "USPS COLLECTION BOX - PO LOBBY", "address": {"city": "DANIELSVILLE", "state": "PA", "street": "3937 MOUNTAINVIEW DR", "postcode": "18038"}}},
{"geometry": {"type": "Point", "coordinates": [-75.2245799024, 40.5746469223]}, "type": "Feature", "properties": {"collection_times": [{"days": "Mon-Fri", "time": "4:15pm"}, {"days": "Sat", "time": "11:15am"}, {"days": "Sun", "time": "Closed"}], "id": "1803900001", "name": "USPS COLLECTION BOX - BLUE BOX", "address": {"city": "DURHAM", "state": "PA", "street": "955 DURHAM RD", "postcode": "18039"}}},
{"geometry": {"type": "Point", "coordinates": [-75.2245799024, 40.5746469223]}, "type": "Feature", "properties": {"collection_times": [{"days": "Mon-Fri", "time": "4:15pm"}, {"days": "Sat", "time": "11:15am"}, {"days": "Sun", "time": "Closed"}], "id": "1803900003", "name": "USPS COLLECTION BOX - PO LOBBY", "address": {"city": "DURHAM", "state": "PA", "street": "955 DURHAM RD", "postcode": "18039"}}},
{"geometry": {"type": "Point", "coordinates": [-75.2181260326, 40.7121576494]}, "type": "Feature", "properties": {"collection_times": [{"days": "Mon-Fri", "time": "4:30pm"}, {"days": "Sat", "time": "10:00am"}, {"days": "Sun", "time": "Closed"}], "id": "1804000001", "name": "USPS COLLECTION BOX - BLUE BOX", "address": {"city": "EASTON", "state": "PA", "street": "1508 SULLIVAN TRL", "postcode": "18040"}}},
{"geometry": {"type": "Point", "coordinates": [-75.2204149202, 40.7157661453]}, "type": "Feature", "properties": {"collection_times": [{"days": "Mon-Fri", "time": "4:30pm"}, {"days": "Sat", "time": "10:00am"}, {"days": "Sun", "time": "Closed"}], "id": "1804000002", "name": "USPS COLLECTION BOX - BLUE BOX", "address": {"city": "EASTON", "state": "PA", "street": "1700 SULLIVAN TRL", "postcode": "18040"}}},
{"geometry": {"type": "Point", "coordinates": [-75.2242053716, 40.706901305]}, "type": "Feature", "properties": {"collection_times": [{"days": "Mon-Sat", "time": "10:00am"}, {"days": "Sun", "time": "Closed"}], "id": "1804000003", "name": "USPS COLLECTION BOX - BLUE BOX", "address": {"city": "EASTON", "state": "PA", "street": "1300 GEORGE ST", "postcode": "18040"}}},
{"geometry": {"type": "Point", "coordinates": [-75.5024146754, 40.4077306977]}, "type": "Feature", "properties": {"collection_times": [{"days": "Mon-Fri", "time": "5:00pm"}, {"days": "Sat", "time": "12:00pm"}, {"days": "Sun", "time": "Closed"}], "id": "1804100005", "name": "USPS COLLECTION BOX - BLUE BOX", "address": {"city": "EAST GREENVILLE", "state": "PA", "street": "100 E 4TH ST", "postcode": "18041"}}},
{"geometry": {"type": "Point", "coordinates": [-75.502727548, 40.4068058219]}, "type": "Feature", "properties": {"collection_times": [{"days": "Mon-Fri", "time": "5:00pm"}, {"days": "Sat", "time": "12:00pm"}, {"days": "Sun", "time": "Closed"}], "id": "1804100011", "name": "USPS COLLECTION BOX - BLUE BOX", "address": {"city": "EAST GREENVILLE", "state": "PA", "street": "357 MAIN ST", "postcode": "18041"}}},
{"geometry": {"type": "Point", "coordinates": [-75.502727548, 40.4068058219]}, "type": "Feature", "properties": {"collection_times": [{"days": "Mon-Fri", "time": "5:00pm"}, {"days": "Sat", "time": "12:00pm"}, {"days": "Sun", "time": "Closed"}], "id": "1804100015", "name": "USPS COLLECTION BOX - PO LOBBY", "address": {"city": "EAST GREENVILLE", "state": "PA", "street": "357 MAIN ST", "postcode": "18041"}}},
{"geometry": {"type": "Point", "coordinates": [-75.2071519585, 40.6898853863]}, "type": "Feature", "properties": {"collection_times": [{"days": "Mon-Fri", "time": "5:30pm"}, {"days": "Sat", "time": "2:45pm"}, {"days": "Sun", "time": "Closed"}], "id": "1804200002", "name": "USPS COLLECTION BOX - BLUE BOX", "address": {"city": "EASTON", "state": "PA", "street": "201 FERRY ST", "postcode": "18042"}}},
{"geometry": {"type": "Point", "coordinates": [-75.2072830307, 40.6913162784]}, "type": "Feature", "properties": {"collection_times": [{"days": "Mon-Fri", "time": "3:00pm"}, {"days": "Sat", "time": "10:00am"}, {"days": "Sun", "time": "Closed"}], "id": "1804200003", "name": "USPS COLLECTION BOX - BLUE BOX", "address": {"city": "EASTON", "state": "PA", "street": "201 NORTHAMPTON ST", "postcode": "18042"}}},
{"geometry": {"type": "Point", "coordinates": [-75.2073605091, 40.6932658014]}, "type": "Feature", "properties": {"collection_times": [{"days": "Mon-Fri", "time": "3:00pm"}, {"days": "Sat", "time": "10:00am"}, {"days": "Sun", "time": "Closed"}], "id": "1804200004", "name": "USPS COLLECTION BOX - BLUE BOX", "address": {"city": "EASTON", "state": "PA", "street": "200 SPRING GARDEN ST", "postcode": "18042"}}},
{"geometry": {"type": "Point", "coordinates": [-75.2090534996, 40.6907924623]}, "type": "Feature", "properties": {"collection_times": [{"days": "Mon-Fri", "time": "3:00pm"}, {"days": "Sat", "time": "10:00am"}, {"days": "Sun", "time": "Closed"}], "id": "1804200007", "name": "USPS COLLECTION BOX - BLUE BOX", "address": {"city": "EASTON", "state": "PA", "street": "6 S 3RD ST", "postcode": "18042"}}},
{"geometry": {"type": "Point", "coordinates": [-75.2092893291, 40.6931108271]}, "type": "Feature", "properties": {"collection_times": [{"days": "Mon-Fri", "time": "3:00pm"}, {"days": "Sat", "time": "10:00am"}, {"days": "Sun", "time": "Closed"}], "id": "1804200009", "name": "USPS COLLECTION BOX - BLUE BOX", "address": {"city": "EASTON", "state": "PA", "street": "66 N 3RD ST", "postcode": "18042"}}},
{"geometry": {"type": "Point", "coordinates": [-75.210466766, 40.6896001344]}, "type": "Feature", "properties": {"collection_times": [{"days": "Mon-Fri", "time": "3:00pm"}, {"days": "Sat", "time": "10:00am"}, {"days": "Sun", "time": "Closed"}], "id": "1804200011", "name": "USPS COLLECTION BOX - BLUE BOX", "address": {"city": "EASTON", "state": "PA", "street": "360 FERRY ST", "postcode": "18042"}}},
{"geometry": {"type": "Point", "coordinates": [-75.2112187352, 40.6911281879]}, "type": "Feature", "properties": {"collection_times": [{"days": "Mon-Fri", "time": "3:00pm"}, {"days": "Sat", "time": "10:00am"}, {"days": "Sun", "time": "Closed"}], "id": "1804200012", "name": "USPS COLLECTION BOX - BLUE BOX", "address": {"city": "EASTON", "state": "PA", "street": "400 NORTHAMPTON ST", "postcode": "18042"}}},
{"geometry": {"type": "Point", "coordinates": [-75.2109419228, 40.6931569625]}, "type": "Feature", "properties": {"collection_times": [{"days": "Mon-Fri", "time": "3:00pm"}, {"days": "Sat", "time": "10:00am"}, {"days": "Sun", "time": "Closed"}], "id": "1804200013", "name": "USPS COLLECTION BOX - BLUE BOX", "address": {"city": "EASTON", "state": "PA", "street": "355 SPRING GARDEN ST", "postcode": "18042"}}},
{"geometry": {"type": "Point", "coordinates": [-75.2209568534, 40.6876845943]}, "type": "Feature", "properties": {"collection_times": [{"days": "Mon-Sat", "time": "10:00am"}, {"days": "Sun", "time": "Closed"}], "id": "1804200022", "name": "USPS COLLECTION BOX - BLUE BOX", "address": {"city": "EASTON", "state": "PA", "street": "900 LEHIGH ST", "postcode": "18042"}}},
{"geometry": {"type": "Point", "coordinates": [-75.2213058263, 40.6906561873]}, "type": "Feature", "properties": {"collection_times": [{"days": "Mon-Fri", "time": "3:00pm"}, {"days": "Sat", "time": "10:00am"}, {"days": "Sun", "time": "Closed"}], "id": "1804200023", "name": "USPS COLLECTION BOX - BLUE BOX", "address": {"city": "EASTON", "state": "PA", "street": "901 NORTHAMPTON ST", "postcode": "18042"}}},
{"geometry": {"type": "Point", "coordinates": [-75.2225171762, 40.6890828518]}, "type": "Feature", "properties": {"collection_times": [{"days": "Mon-Sat", "time": "10:00am"}, {"days": "Sun", "time": "Closed"}], "id": "1804200026", "name": "USPS COLLECTION BOX - BLUE BOX", "address": {"city": "EASTON", "state": "PA", "street": "1005 FERRY ST", "postcode": "18042"}}},
{"geometry": {"type": "Point", "coordinates": [-75.224225369, 40.687522529]}, "type": "Feature", "properties": {"collection_times": [{"days": "Mon-Sat", "time": "10:00am"}, {"days": "Sun", "time": "Closed"}], "id": "1804200030", "name": "USPS COLLECTION BOX - BLUE BOX", "address": {"city": "EASTON", "state": "PA", "street": "1101 LEHIGH ST", "postcode": "18042"}}},
{"geometry": {"type": "Point", "coordinates": [-75.2244007306, 40.6904476549]}, "type": "Feature", "properties": {"collection_times": [{"days": "Mon-Fri", "time": "3:00pm"}, {"days": "Sat", "time": "10:00am"}, {"days": "Sun", "time": "Closed"}], "id": "1804200031", "name": "USPS COLLECTION BOX - BLUE BOX", "address": {"city": "EASTON", "state": "PA", "street": "1100 NORTHAMPTON ST", "postcode": "18042"}}},
{"geometry": {"type": "Point", "coordinates": [-75.231022343, 40.6863385108]}, "type": "Feature", "properties": {"collection_times": [{"days": "Mon-Fri", "time": "10:00am"}, {"days": "Sat-Sun", "time": "Closed"}], "id": "1804200042", "name": "USPS COLLECTION BOX - BLUE BOX", "address": {"city": "EASTON", "state": "PA", "street": "1450 WASHINGTON ST", "postcode": "18042"}}},
{"geometry": {"type": "Point", "coordinates": [-75.2339883293, 40.6885375078]}, "type": "Feature", "properties": {"collection_times": [{"days": "Mon-Sat", "time": "10:00am"}, {"days": "Sun", "time": "Closed"}], "id": "1804200043", "name": "USPS COLLECTION BOX - BLUE BOX", "address": {"city": "EASTON", "state": "PA", "street": "1600 FERRY ST", "postcode": "18042"}}},
{"geometry": {"type": "Point", "coordinates": [-75.2357982565, 40.6897736999]}, "type": "Feature", "properties": {"collection_times": [{"days": "Mon-Fri", "time": "3:00pm"}, {"days": "Sat", "time": "10:00am"}, {"days": "Sun", "time": "Closed"}], "id": "1804200046", "name": "USPS COLLECTION BOX - BLUE BOX", "address": {"city": "EASTON", "state": "PA", "street": "1701 NORTHAMPTON ST", "postcode": "18042"}}},
{"geometry": {"type": "Point", "coordinates": [-75.2353422847, 40.6862241365]}, "type": "Feature", "properties": {"collection_times": [{"days": "Mon-Fri", "time": "3:00pm"}, {"days": "Sat", "time": "10:00am"}, {"days": "Sun", "time": "Closed"}], "id": "1804200049", "name": "USPS COLLECTION BOX - BLUE BOX", "address": {"city": "EASTON", "state": "PA", "street": "1733 WASHINGTON BLVD", "postcode": "18042"}}},
{"geometry": {"type": "Point", "coordinates": [-75.242182728, 40.6875453078]}, "type": "Feature", "properties": {"collection_times": [{"days": "Mon-Sat", "time": "10:00am"}, {"days": "Sun", "time": "Closed"}], "id": "1804200057", "name": "USPS COLLECTION BOX - BLUE BOX", "address": {"city": "EASTON", "state": "PA", "street": "2060 FAIRVIEW AVE", "postcode": "18042"}}},
{"geometry": {"type": "Point", "coordinates": [-75.2105622611, 40.6743779962]}, "type": "Feature", "properties": {"collection_times": [{"days": "Mon-Fri", "time": "3:00pm"}, {"days": "Sat", "time": "10:00am"}, {"days": "Sun", "time": "Closed"}], "id": "1804200073", "name": "USPS COLLECTION BOX - BLUE BOX", "address": {"city": "EASTON", "state": "PA", "street": "250 LINE ST", "postcode": "18042"}}},
{"geometry": {"type": "Point", "coordinates": [-75.2198891472, 40.6808432879]}, "type": "Feature", "properties": {"collection_times": [{"days": "Mon-Sat", "time": "10:00am"}, {"days": "Sun", "time": "Closed"}], "id": "1804200079", "name": "USPS COLLECTION BOX - BLUE BOX", "address": {"city": "EASTON", "state": "PA", "street": "100 W SAINT JOSEPH ST", "postcode": "18042"}}},
{"geometry": {"type": "Point", "coordinates": [-75.210945564, 40.6880083164]}, "type": "Feature", "properties": {"collection_times": [{"days": "Mon-Fri", "time": "3:00pm"}, {"days": "Sat", "time": "10:00am"}, {"days": "Sun", "time": "Closed"}], "id": "1804200082", "name": "USPS COLLECTION BOX - BLUE BOX", "address": {"city": "EASTON", "state": "PA", "street": "221 S 4TH ST", "postcode": "18042"}}},
{"geometry": {"type": "Point", "coordinates": [-75.2088526675, 40.699571516]}, "type": "Feature", "properties": {"collection_times": [{"days": "Mon-Fri", "time": "3:30pm"}, {"days": "Sat", "time": "10:00am"}, {"days": "Sun", "time": "Closed"}], "id": "1804200083", "name": "USPS COLLECTION BOX - BLUE BOX", "address": {"city": "EASTON", "state": "PA", "street": "730 HIGH ST", "postcode": "18042"}}},
{"geometry": {"type": "Point", "coordinates": [-75.2200187669, 40.6736132975]}, "type": "Feature", "properties": {"collection_times": [{"days": "Mon-Sat", "time": "10:00am"}, {"days": "Sun", "time": "Closed"}], "id": "1804200087", "name": "USPS COLLECTION BOX - BLUE BOX", "address": {"city": "EASTON", "state": "PA", "street": "650 LINE ST", "postcode": "18042"}}},
{"geometry": {"type": "Point", "coordinates": [-75.2099080166, 40.6784646122]}, "type": "Feature", "properties": {"collection_times": [{"days": "Mon-Sat", "time": "10:00am"}, {"days": "Sun", "time": "Closed"}], "id": "1804200096", "name": "USPS COLLECTION BOX - BLUE BOX", "address": {"city": "EASTON", "state": "PA", "street": "162 W LINCOLN ST", "postcode": "18042"}}},
{"geometry": {"type": "Point", "coordinates": [-75.2054991286, 40.7047878151]}, "type": "Feature", "properties": {"collection_times": [{"days": "Mon-Sat", "time": "10:00am"}, {"days": "Sun", "time": "Closed"}], "id": "1804200097", "name": "USPS COLLECTION BOX - BLUE BOX", "address": {"city": "EASTON", "state": "PA", "street": "231 W BURKE ST", "postcode": "18042"}}},
{"geometry": {"type": "Point", "coordinates": [-75.2152593243, 40.6788591476]}, "type": "Feature", "properties": {"collection_times": [{"days": "Mon-Sat", "time": "10:00am"}, {"days": "Sun", "time": "Closed"}], "id": "1804200107", "name": "USPS COLLECTION BOX - BLUE BOX", "address": {"city": "EASTON", "state": "PA", "street": "394 W BERWICK ST", "postcode": "18042"}}},
{"geometry": {"type": "Point", "coordinates": [-75.2074441409, 40.7032888442]}, "type": "Feature", "properties": {"collection_times": [{"days": "Mon-Sat", "time": "10:00am"}, {"days": "Sun", "time": "Closed"}], "id": "1804200108", "name": "USPS COLLECTION BOX - BLUE BOX", "address": {"city": "EASTON", "state": "PA", "street": "600 CATTELL ST", "postcode": "18042"}}},
{"geometry": {"type": "Point", "coordinates": [-75.2181458767, 40.6870844268]}, "type": "Feature", "properties": {"collection_times": [{"days": "Mon-Fri", "time": "3:00pm"}, {"days": "Sat", "time": "10:00am"}, {"days": "Sun", "time": "Closed"}], "id": "1804200115", "name": "USPS COLLECTION BOX - BLUE BOX", "address": {"city": "EASTON", "state": "PA", "street": "699 WASHINGTON ST", "postcode": "18042"}}},
{"geometry": {"type": "Point", "coordinates": [-75.2058232593, 40.7002618141]}, "type": "Feature", "properties": {"collection_times": [{"days": "Mon-Sat", "time": "10:00am"}, {"days": "Sun", "time": "Closed"}], "id": "1804200117", "name": "USPS COLLECTION BOX - BLUE BOX", "address": {"city": "EASTON", "state": "PA", "street": "228 CATTELL ST", "postcode": "18042"}}},
{"geometry": {"type": "Point", "coordinates": [-75.2089635028, 40.6915465147]}, "type": "Feature", "properties": {"collection_times": [{"days": "Mon-Fri", "time": "3:00pm"}, {"days": "Sat", "time": "10:00am"}, {"days": "Sun", "time": "Closed"}], "id": "1804200121", "name": "USPS COLLECTION BOX - BLUE BOX", "address": {"city": "EASTON", "state": "PA", "street": "66 CENTRE SQ", "postcode": "18042"}}},
{"geometry": {"type": "Point", "coordinates": [-75.2098228436, 40.6911991654]}, "type": "Feature", "properties": {"collection_times": [{"days": "Mon-Fri", "time": "3:00pm"}, {"days": "Sat", "time": "10:00am"}, {"days": "Sun", "time": "Closed"}], "id": "1804200122", "name": "USPS COLLECTION BOX - BLUE BOX", "address": {"city": "EASTON", "state": "PA", "street": "301 NORTHAMPTON ST", "postcode": "18042"}}},
{"geometry": {"type": "Point", "coordinates": [-75.2198891472, 40.6808432879]}, "type": "Feature", "properties": {"collection_times": [{"days": "Mon-Fri", "time": "5:30pm"}, {"days": "Sat", "time": "2:45pm"}, {"days": "Sun", "time": "Closed"}], "id": "1804200257", "name": "USPS COLLECTION BOX - EXPRESS", "address": {"city": "EASTON", "state": "PA", "street": "201 FERRY ST", "postcode": "18042"}}},
{"geometry": {"type": "Point", "coordinates": [-75.2071519585, 40.6898853863]}, "type": "Feature", "properties": {"collection_times": [{"days": "Mon-Fri", "time": "5:30pm"}, {"days": "Sat", "time": "2:45pm"}, {"days": "Sun", "time": "Closed"}], "id": "1804200258", "name": "USPS COLLECTION BOX - BLUE BOX", "address": {"city": "EASTON", "state": "PA", "street": "201 FERRY ST", "postcode": "18042"}}},
{"geometry": {"type": "Point", "coordinates": [-75.2464155964, 40.682606914]}, "type": "Feature", "properties": {"collection_times": [{"days": "Mon-Fri", "time": "3:00pm"}, {"days": "Sat", "time": "10:00am"}, {"days": "Sun", "time": "Closed"}], "id": "1804200269", "name": "USPS COLLECTION BOX - BLUE BOX", "address": {"city": "EASTON", "state": "PA", "street": "2431 BUTLER ST", "postcode": "18042"}}},
{"geometry": {"type": "Point", "coordinates": [-75.241501888, 40.6847119789]}, "type": "Feature", "properties": {"collection_times": [{"days": "Mon-Sat", "time": "10:00am"}, {"days": "Sun", "time": "Closed"}], "id": "1804200271", "name": "USPS COLLECTION BOX - BLUE BOX", "address": {"city": "EASTON", "state": "PA", "street": "2040 HAY TER", "postcode": "18042"}}},
{"geometry": {"type": "Point", "coordinates": [-75.2408116366, 40.6747678654]}, "type": "Feature", "properties": {"collection_times": [{"days": "Mon-Sat", "time": "10:00am"}, {"days": "Sun", "time": "Closed"}], "id": "1804200274", "name": "USPS COLLECTION BOX - BLUE BOX", "address": {"city": "EASTON", "state": "PA", "street": "2300 2ND ST", "postcode": "18042"}}},
{"geometry": {"type": "Point", "coordinates": [-75.2323795051, 40.6921419837]}, "type": "Feature", "properties": {"collection_times": [{"days": "Mon-Sat", "time": "10:00am"}, {"days": "Sun", "time": "Closed"}], "id": "1804200278", "name": "USPS COLLECTION BOX - BLUE BOX", "address": {"city": "EASTON", "state": "PA", "street": "1501 SPRING GARDEN ST", "postcode": "18042"}}},
{"geometry": {"type": "Point", "coordinates": [-75.2071519585, 40.6898853863]}, "type": "Feature", "properties": {"collection_times": [{"days": "Mon-Fri", "time": "5:15pm"}, {"days": "Sat", "time": "2:45pm"}, {"days": "Sun", "time": "Closed"}], "id": "1804200279", "name": "USPS COLLECTION BOX - PO LOBBY", "address": {"city": "EASTON", "state": "PA", "street": "201 FERRY ST", "postcode": "18042"}}},
{"geometry": {"type": "Point", "coordinates": [-75.2596087338, 40.6747477763]}, "type": "Feature", "properties": {"collection_times": [{"days": "Mon-Fri", "time": "5:45pm"}, {"days": "Sat", "time": "4:00pm"}, {"days": "Sun", "time": "Closed"}], "id": "1804500000", "name": "USPS COLLECTION BOX - BLUE BOX", "address": {"city": "EASTON", "state": "PA", "street": "650 S GREENWOOD AVE", "postcode": "18045"}}},
{"geometry": {"type": "Point", "coordinates": [-75.2545897438, 40.688908856]}, "type": "Feature", "properties": {"collection_times": [{"days": "Mon-Sat", "time": "10:00am"}, {"days": "Sun", "time": "Closed"}], "id": "1804500001", "name": "USPS COLLECTION BOX - BLUE BOX", "address": {"city": "EASTON", "state": "PA", "street": "2555 NAZARETH RD", "postcode": "18045"}}},
{"geometry": {"type": "Point", "coordinates": [-75.2530302819, 40.687057813]}, "type": "Feature", "properties": {"collection_times": [{"days": "Mon-Fri", "time": "5:00pm"}, {"days": "Sat", "time": "10:00am"}, {"days": "Sun", "time": "Closed"}], "id": "1804500002", "name": "USPS COLLECTION BOX - BLUE BOX", "address": {"city": "EASTON", "state": "PA", "street": "2501 NORTHAMPTON ST", "postcode": "18045"}}},
{"geometry": {"type": "Point", "coordinates": [-75.2662090395, 40.6709835444]}, "type": "Feature", "properties": {"collection_times": [{"days": "Mon-Sat", "time": "10:00am"}, {"days": "Sun", "time": "Closed"}], "id": "1804500003", "name": "USPS COLLECTION BOX - BLUE BOX", "address": {"city": "EASTON", "state": "PA", "street": "3745 NICHOLAS ST", "postcode": "18045"}}},
{"geometry": {"type": "Point", "coordinates": [-75.2754766839, 40.6944190988]}, "type": "Feature", "properties": {"collection_times": [{"days": "Mon-Fri", "time": "5:00pm"}, {"days": "Sat", "time": "10:00am"}, {"days": "Sun", "time": "Closed"}], "id": "1804500006", "name": "USPS COLLECTION BOX - BLUE BOX", "address": {"city": "EASTON", "state": "PA", "street": "3019 WM PENN HWY", "postcode": "18045"}}},
{"geometry": {"type": "Point", "coordinates": [-75.2596087338, 40.6747477763]}, "type": "Feature", "properties": {"collection_times": [{"days": "Mon-Fri", "time": "5:45pm"}, {"days": "Sat", "time": "4:00pm"}, {"days": "Sun", "time": "Closed"}], "id": "1804500012", "name": "USPS COLLECTION BOX - BLUE BOX", "address": {"city": "EASTON", "state": "PA", "street": "650 S GREENWOOD AVE", "postcode": "18045"}}},
{"geometry": {"type": "Point", "coordinates": [-75.2651853231, 40.7323436612]}, "type": "Feature", "properties": {"collection_times": [{"days": "Mon-Fri", "time": "4:30pm"}, {"days": "Sat", "time": "10:00am"}, {"days": "Sun", "time": "Closed"}], "id": "1804500014", "name": "USPS COLLECTION BOX - BLUE BOX", "address": {"city": "EASTON", "state": "PA", "street": "9 MC FADDEN RD", "postcode": "18045"}}},
{"geometry": {"type": "Point", "coordinates": [-75.2626951945, 40.6945540371]}, "type": "Feature", "properties": {"collection_times": [{"days": "Mon-Sat", "time": "10:00am"}, {"days": "Sun", "time": "Closed"}], "id": "1804500015", "name": "USPS COLLECTION BOX - BLUE BOX", "address": {"city": "EASTON", "state": "PA", "street": "2 MAPLECROFT AVE", "postcode": "18045"}}},
{"geometry": {"type": "Point", "coordinates": [-75.2076073162, 40.6752378818]}, "type": "Feature", "properties": {"collection_times": [{"days": "Mon-Sat", "time": "10:00am"}, {"days": "Sun", "time": "Closed"}], "id": "1804500018", "name": "USPS COLLECTION BOX - BLUE BOX", "address": {"city": "EASTON", "state": "PA", "street": "100 PALMER PARK MALL", "postcode": "18045"}}},
{"geometry": {"type": "Point", "coordinates": [-75.2705828253, 40.7007800306]}, "type": "Feature", "properties": {"collection_times": [{"days": "Mon-Fri", "time": "5:00pm"}, {"days": "Sat", "time": "10:00am"}, {"days": "Sun", "time": "Closed"}], "id": "1804500020", "name": "USPS COLLECTION BOX - BLUE BOX", "address": {"city": "EASTON", "state": "PA", "street": "3 WELLER PL", "postcode": "18045"}}},
{"geometry": {"type": "Point", "coordinates": [-75.2850931705, 40.7143896217]}, "type": "Feature", "properties": {"collection_times": [{"days": "Mon-Fri", "time": "4:30pm"}, {"days": "Sat", "time": "10:00am"}, {"days": "Sun", "time": "Closed"}], "id": "1804500022", "name": "USPS COLLECTION BOX - BLUE BOX", "address": {"city": "EASTON", "state": "PA", "street": "3735 EASTON NAZARETH HWY", "postcode": "18045"}}},
{"geometry": {"type": "Point", "coordinates": [-75.2596087338, 40.6747477763]}, "type": "Feature", "properties": {"collection_times": [{"days": "Mon-Fri", "time": "5:45pm"}, {"days": "Sat", "time": "4:00pm"}, {"days": "Sun", "time": "Closed"}], "id": "1804500028", "name": "USPS COLLECTION BOX - PO LOBBY", "address": {"city": "EASTON", "state": "PA", "street": "650 S GREENWOOD AVE", "postcode": "18045"}}},
{"geometry": {"type": "Point", "coordinates": [-75.2460616085, 40.6674311539]}, "type": "Feature", "properties": {"collection_times": [{"days": "Mon-Sat", "time": "10:00am"}, {"days": "Sun", "time": "Closed"}], "id": "1804500030", "name": "USPS COLLECTION BOX - BLUE BOX", "address": {"city": "EASTON", "state": "PA", "street": "100 GRANDVIEW DR", "postcode": "18045"}}},
{"geometry": {"type": "Point", "coordinates": [-75.2596087338, 40.6747477763]}, "type": "Feature", "properties": {"collection_times": [{"days": "Mon-Fri", "time": "5:45pm"}, {"days": "Sat", "time": "4:00pm"}, {"days": "Sun", "time": "Closed"}], "id": "1804500031", "name": "USPS COLLECTION BOX - APC", "address": {"city": "EASTON", "state": "PA", "street": "650 S GREENWOOD AVE", "postcode": "18045"}}},
{"geometry": {"type": "Point", "coordinates": [-75.5621712085, 40.5468307933]}, "type": "Feature", "properties": {"collection_times": [{"days": "Mon-Fri", "time": "4:15pm"}, {"days": "Sat", "time": "11:30am"}, {"days": "Sun", "time": "Closed"}], "id": "1804600001", "name": "USPS COLLECTION BOX - BLUE BOX", "address": {"city": "EAST TEXAS", "state": "PA", "street": "5637 E TEXAS RD", "postcode": "18046"}}},
{"geometry": {"type": "Point", "coordinates": [-75.5621712085, 40.5468307933]}, "type": "Feature", "properties": {"collection_times": [{"days": "Mon-Fri", "time": "4:15pm"}, {"days": "Sat", "time": "11:30am"}, {"days": "Sun", "time": "Closed"}], "id": "1804600002", "name": "USPS COLLECTION BOX - PO LOBBY", "address": {"city": "EAST TEXAS", "state": "PA", "street": "5637 E TEXAS RD", "postcode": "18046"}}},
{"geometry": {"type": "Point", "coordinates": [-75.500095893, 40.5417730111]}, "type": "Feature", "properties": {"collection_times": [{"days": "Mon-Sat", "time": "2:00pm"}, {"days": "Sun", "time": "Closed"}], "id": "1804900006", "name": "USPS COLLECTION BOX - BLUE BOX", "address": {"city": "EMMAUS", "state": "PA", "street": "705 N 3RD ST", "postcode": "18049"}}},
{"geometry": {"type": "Point", "coordinates": [-75.4875738161, 40.5497239603]}, "type": "Feature", "properties": {"collection_times": [{"days": "Mon-Sat", "time": "2:00pm"}, {"days": "Sun", "time": "Closed"}], "id": "1804900008", "name": "USPS COLLECTION BOX - BLUE BOX", "address": {"city": "EMMAUS", "state": "PA", "street": "498 E HARRISON ST", "postcode": "18049"}}},
{"geometry": {"type": "Point", "coordinates": [-75.4918710178, 40.5324318768]}, "type": "Feature", "properties": {"collection_times": [{"days": "Mon-Fri", "time": "5:00pm"}, {"days": "Sat", "time": "3:30pm"}, {"days": "Sun", "time": "Closed"}], "id": "1804900009", "name": "USPS COLLECTION BOX - BLUE BOX", "address": {"city": "EMMAUS", "state": "PA", "street": "105 N 5TH ST", "postcode": "18049"}}},
{"geometry": {"type": "Point", "coordinates": [-75.4949043928, 40.5312684834]}, "type": "Feature", "properties": {"collection_times": [{"days": "Mon-Sat", "time": "12:30pm"}, {"days": "Sun", "time": "Closed"}], "id": "1804900011", "name": "USPS COLLECTION BOX - BLUE BOX", "address": {"city": "EMMAUS", "state": "PA", "street": "607 BROAD ST", "postcode": "18049"}}},
{"geometry": {"type": "Point", "coordinates": [-75.5064829033, 40.532282812]}, "type": "Feature", "properties": {"collection_times": [{"days": "Mon-Sat", "time": "10:00am"}, {"days": "Sun", "time": "Closed"}], "id": "1804900016", "name": "USPS COLLECTION BOX - BLUE BOX", "address": {"city": "EMMAUS", "state": "PA", "street": "198 N 10TH ST", "postcode": "18049"}}},
{"geometry": {"type": "Point", "coordinates": [-75.503193118, 40.5270576942]}, "type": "Feature", "properties": {"collection_times": [{"days": "Mon-Sat", "time": "2:00pm"}, {"days": "Sun", "time": "Closed"}], "id": "1804900017", "name": "USPS COLLECTION BOX - BLUE BOX", "address": {"city": "EMMAUS", "state": "PA", "street": "1030 PENNA AVE", "postcode": "18049"}}},
{"geometry": {"type": "Point", "coordinates": [-75.5097769184, 40.5272008805]}, "type": "Feature", "properties": {"collection_times": [{"days": "Mon-Sat", "time": "3:00pm"}, {"days": "Sun", "time": "Closed"}], "id": "1804900019", "name": "USPS COLLECTION BOX - BLUE BOX", "address": {"city": "EMMAUS", "state": "PA", "street": "1328 CHESTNUT ST", "postcode": "18049"}}},
{"geometry": {"type": "Point", "coordinates": [-75.4836560867, 40.554510293]}, "type": "Feature", "properties": {"collection_times": [{"days": "Mon-Sat", "time": "2:00pm"}, {"days": "Sun", "time": "Closed"}], "id": "1804900021", "name": "USPS COLLECTION BOX - BLUE BOX", "address": {"city": "EMMAUS", "state": "PA", "street": "135 FOX ST", "postcode": "18049"}}},
{"geometry": {"type": "Point", "coordinates": [-75.4878016389, 40.5383880752]}, "type": "Feature", "properties": {"collection_times": [{"days": "Mon-Sat", "time": "11:00am"}, {"days": "Sun", "time": "Closed"}], "id": "1804900022", "name": "USPS COLLECTION BOX - BLUE BOX", "address": {"city": "EMMAUS", "state": "PA", "street": "150 MAIN ST", "postcode": "18049"}}},
{"geometry": {"type": "Point", "coordinates": [-75.4907963904, 40.535419304]}, "type": "Feature", "properties": {"collection_times": [{"days": "Mon-Sat", "time": "10:00am"}, {"days": "Sun", "time": "Closed"}], "id": "1804900026", "name": "USPS COLLECTION BOX - BLUE BOX", "address": {"city": "EMMAUS", "state": "PA", "street": "323 MAIN ST", "postcode": "18049"}}},
{"geometry": {"type": "Point", "coordinates": [-75.5012195633, 40.5283118698]}, "type": "Feature", "properties": {"collection_times": [{"days": "Mon-Sat", "time": "2:00pm"}, {"days": "Sun", "time": "Closed"}], "id": "1804900027", "name": "USPS COLLECTION BOX - BLUE BOX", "address": {"city": "EMMAUS", "state": "PA", "street": "111 E HARRISON ST", "postcode": "18049"}}},
{"geometry": {"type": "Point", "coordinates": [-75.5095183996, 40.5297536577]}, "type": "Feature", "properties": {"collection_times": [{"days": "Mon-Sat", "time": "12:00pm"}, {"days": "Sun", "time": "Closed"}], "id": "1804900029", "name": "USPS COLLECTION BOX - BLUE BOX", "address": {"city": "EMMAUS", "state": "PA", "street": "100 EAGLE DR", "postcode": "18049"}}},
{"geometry": {"type": "Point", "coordinates": [-75.4938055316, 40.5357911898]}, "type": "Feature", "properties": {"collection_times": [{"days": "Mon-Fri", "time": "5:00pm"}, {"days": "Sat", "time": "3:30pm"}, {"days": "Sun", "time": "Closed"}], "id": "1804900030", "name": "USPS COLLECTION BOX - BLUE BOX", "address": {"city": "EMMAUS", "state": "PA", "street": "441 RIDGE ST", "postcode": "18049"}}},
{"geometry": {"type": "Point", "coordinates": [-75.4918710178, 40.5324318768]}, "type": "Feature", "properties": {"collection_times": [{"days": "Mon-Fri", "time": "5:00pm"}, {"days": "Sat", "time": "3:30pm"}, {"days": "Sun", "time": "Closed"}], "id": "1804900031", "name": "USPS COLLECTION BOX - PO LOBBY", "address": {"city": "EMMAUS", "state": "PA", "street": "105 N 5TH ST", "postcode": "18049"}}},
{"geometry": {"type": "Point", "coordinates": [-75.6321309134, 40.5833416988]}, "type": "Feature", "properties": {"collection_times": [{"days": "Mon-Fri", "time": "5:00pm"}, {"days": "Sat", "time": "1:00pm"}, {"days": "Sun", "time": "Closed"}], "id": "1805100001", "name": "USPS COLLECTION BOX - BLUE BOX", "address": {"city": "FOGELSVILLE", "state": "PA", "street": "7918 MAIN ST", "postcode": "18051"}}},
{"geometry": {"type": "Point", "coordinates": [-75.6321309134, 40.5833416988]}, "type": "Feature", "properties": {"collection_times": [{"days": "Mon-Fri", "time": "5:00pm"}, {"days": "Sat", "time": "1:00pm"}, {"days": "Sun", "time": "Closed"}], "id": "1805100005", "name": "USPS COLLECTION BOX - PO LOBBY", "address": {"city": "FOGELSVILLE", "state": "PA", "street": "7918 MAIN ST", "postcode": "18051"}}},
{"geometry": {"type": "Point", "coordinates": [-75.6321309134, 40.5833416988]}, "type": "Feature", "properties": {"collection_times": [{"days": "Mon-Fri", "time": "5:00pm"}, {"days": "Sat", "time": "1:00pm"}, {"days": "Sun", "time": "Closed"}], "id": "1805100007", "name": "USPS COLLECTION BOX - BLUE BOX", "address": {"city": "FOGELSVILLE", "state": "PA", "street": "7918 MAIN ST", "postcode": "18051"}}},
{"geometry": {"type": "Point", "coordinates": [-75.4737729286, 40.6242389562]}, "type": "Feature", "properties": {"collection_times": [{"days": "Mon-Sat", "time": "10:00am"}, {"days": "Sun", "time": "Closed"}], "id": "1805200002", "name": "USPS COLLECTION BOX - BLUE BOX", "address": {"city": "WHITEHALL", "state": "PA", "street": "535 FAIRMONT AVE", "postcode": "18052"}}},
{"geometry": {"type": "Point", "coordinates": [-75.4782764533, 40.6253343762]}, "type": "Feature", "properties": {"collection_times": [{"days": "Mon-Sat", "time": "1:00pm"}, {"days": "Sun", "time": "Closed"}], "id": "1805200003", "name": "USPS COLLECTION BOX - BLUE BOX", "address": {"city": "WHITEHALL", "state": "PA", "street": "311 KAY DR", "postcode": "18052"}}},
{"geometry": {"type": "Point", "coordinates": [-75.4812754005, 40.6243117662]}, "type": "Feature", "properties": {"collection_times": [{"days": "Mon-Sat", "time": "2:00pm"}, {"days": "Sun", "time": "Closed"}], "id": "1805200004", "name": "USPS COLLECTION BOX - BLUE BOX", "address": {"city": "WHITEHALL", "state": "PA", "street": "969 FAIRMONT AVE", "postcode": "18052"}}},
{"geometry": {"type": "Point", "coordinates": [-75.5029064556, 40.6314686244]}, "type": "Feature", "properties": {"collection_times": [{"days": "Mon-Sat", "time": "1:00pm"}, {"days": "Sun", "time": "Closed"}], "id": "1805200005", "name": "USPS COLLECTION BOX - BLUE BOX", "address": {"city": "WHITEHALL", "state": "PA", "street": "1800 PRESIDENTIAL DR", "postcode": "18052"}}},
{"geometry": {"type": "Point", "coordinates": [-75.5025010795, 40.6451221213]}, "type": "Feature", "properties": {"collection_times": [{"days": "Mon-Sat", "time": "11:00am"}, {"days": "Sun", "time": "Closed"}], "id": "1805200006", "name": "USPS COLLECTION BOX - BLUE BOX", "address": {"city": "WHITEHALL", "state": "PA", "street": "205 OAKWOOD DR", "postcode": "18052"}}},
{"geometry": {"type": "Point", "coordinates": [-75.4691285142, 40.6293530034]}, "type": "Feature", "properties": {"collection_times": [{"days": "Mon-Sat", "time": "2:00pm"}, {"days": "Sun", "time": "Closed"}], "id": "1805200008", "name": "USPS COLLECTION BOX - BLUE BOX", "address": {"city": "WHITEHALL", "state": "PA", "street": "235 PERSHING BLVD", "postcode": "18052"}}},
{"geometry": {"type": "Point", "coordinates": [-75.4834496332, 40.6310390555]}, "type": "Feature", "properties": {"collection_times": [{"days": "Mon-Sat", "time": "11:00am"}, {"days": "Sun", "time": "Closed"}], "id": "1805200011", "name": "USPS COLLECTION BOX - BLUE BOX", "address": {"city": "WHITEHALL", "state": "PA", "street": "201 LEHIGH VALLEY MALL", "postcode": "18052"}}},
{"geometry": {"type": "Point", "coordinates": [-75.4825151386, 40.6324501311]}, "type": "Feature", "properties": {"collection_times": [{"days": "Mon-Sat", "time": "11:00am"}, {"days": "Sun", "time": "Closed"}], "id": "1805200012", "name": "USPS COLLECTION BOX - BLUE BOX", "address": {"city": "WHITEHALL", "state": "PA", "street": "101 LEHIGH VALLEY MALL", "postcode": "18052"}}},
{"geometry": {"type": "Point", "coordinates": [-75.4888733998, 40.6328568122]}, "type": "Feature", "properties": {"collection_times": [{"days": "Mon-Sat", "time": "1:00pm"}, {"days": "Sun", "time": "Closed"}], "id": "1805200013", "name": "USPS COLLECTION BOX - BLUE BOX", "address": {"city": "WHITEHALL", "state": "PA", "street": "900 MICKLEY RD", "postcode": "18052"}}},
{"geometry": {"type": "Point", "coordinates": [-75.5064663655, 40.6618866252]}, "type": "Feature", "properties": {"collection_times": [{"days": "Mon-Sat", "time": "12:00pm"}, {"days": "Sun", "time": "Closed"}], "id": "1805200020", "name": "USPS COLLECTION BOX - BLUE BOX", "address": {"city": "WHITEHALL", "state": "PA", "street": "3504 CENTER ST", "postcode": "18052"}}},
{"geometry": {"type": "Point", "coordinates": [-75.5366446124, 40.6799583447]}, "type": "Feature", "properties": {"collection_times": [{"days": "Mon-Sat", "time": "2:00pm"}, {"days": "Sun", "time": "Closed"}], "id": "1805200024", "name": "USPS COLLECTION BOX - BLUE BOX", "address": {"city": "WHITEHALL", "state": "PA", "street": "4730 WEST ST", "postcode": "18052"}}},
{"geometry": {"type": "Point", "coordinates": [-75.4894755259, 40.6610147845]}, "type": "Feature", "properties": {"collection_times": [{"days": "Mon-Sat", "time": "2:00pm"}, {"days": "Sun", "time": "Closed"}], "id": "1805200030", "name": "USPS COLLECTION BOX - BLUE BOX", "address": {"city": "WHITEHALL", "state": "PA", "street": "3001 2ND ST", "postcode": "18052"}}},
{"geometry": {"type": "Point", "coordinates": [-75.4910062748, 40.655782557]}, "type": "Feature", "properties": {"collection_times": [{"days": "Mon-Sat", "time": "10:00am"}, {"days": "Sun", "time": "Closed"}], "id": "1805200031", "name": "USPS COLLECTION BOX - BLUE BOX", "address": {"city": "WHITEHALL", "state": "PA", "street": "3405 THOMAS ST", "postcode": "18052"}}},
{"geometry": {"type": "Point", "coordinates": [-75.4859769553, 40.6342994556]}, "type": "Feature", "properties": {"collection_times": [{"days": "Mon-Sat", "time": "9:00am"}, {"days": "Sun", "time": "Closed"}], "id": "1805200032", "name": "USPS COLLECTION BOX - BLUE BOX", "address": {"city": "WHITEHALL", "state": "PA", "street": "2010 WHITEHALL MALL", "postcode": "18052"}}},
{"geometry": {"type": "Point", "coordinates": [-75.4732456897, 40.6416828353]}, "type": "Feature", "properties": {"collection_times": [{"days": "Mon-Sat", "time": "9:00am"}, {"days": "Sun", "time": "Closed"}], "id": "1805200036", "name": "USPS COLLECTION BOX - BLUE BOX", "address": {"city": "WHITEHALL", "state": "PA", "street": "1220 3RD ST", "postcode": "18052"}}},
{"geometry": {"type": "Point", "coordinates": [-75.4802981302, 40.6381694809]}, "type": "Feature", "properties": {"collection_times": [{"days": "Mon-Sat", "time": "1:00pm"}, {"days": "Sun", "time": "Closed"}], "id": "1805200037", "name": "USPS COLLECTION BOX - BLUE BOX", "address": {"city": "WHITEHALL", "state": "PA", "street": "915 W UNION ST", "postcode": "18052"}}},
{"geometry": {"type": "Point", "coordinates": [-75.4902988252, 40.6214204432]}, "type": "Feature", "properties": {"collection_times": [{"days": "Mon-Sat", "time": "10:30am"}, {"days": "Sun", "time": "Closed"}], "id": "1805200038", "name": "USPS COLLECTION BOX - BLUE BOX", "address": {"city": "WHITEHALL", "state": "PA", "street": "1223 KNOSSOS DR", "postcode": "18052"}}},
{"geometry": {"type": "Point", "coordinates": [-75.4817399094, 40.620166534]}, "type": "Feature", "properties": {"collection_times": [{"days": "Mon-Sat", "time": "2:00pm"}, {"days": "Sun", "time": "Closed"}], "id": "1805200039", "name": "USPS COLLECTION BOX - BLUE BOX", "address": {"city": "WHITEHALL", "state": "PA", "street": "150 MICKLEY RUN", "postcode": "18052"}}},
{"geometry": {"type": "Point", "coordinates": [-75.4886722967, 40.6156648696]}, "type": "Feature", "properties": {"collection_times": [{"days": "Mon-Sat", "time": "1:00pm"}, {"days": "Sun", "time": "Closed"}], "id": "1805200040", "name": "USPS COLLECTION BOX - BLUE BOX", "address": {"city": "WHITEHALL", "state": "PA", "street": "1136 W HIGHLAND ST", "postcode": "18052"}}},
{"geometry": {"type": "Point", "coordinates": [-75.4933321253, 40.6185996587]}, "type": "Feature", "properties": {"collection_times": [{"days": "Mon-Sat", "time": "2:00pm"}, {"days": "Sun", "time": "Closed"}], "id": "1805200041", "name": "USPS COLLECTION BOX - BLUE BOX", "address": {"city": "WHITEHALL", "state": "PA", "street": "1320 N 13TH ST", "postcode": "18052"}}},
{"geometry": {"type": "Point", "coordinates": [-75.4968985934, 40.6537324891]}, "type": "Feature", "properties": {"collection_times": [{"days": "Mon-Sat", "time": "10:00am"}, {"days": "Sun", "time": "Closed"}], "id": "1805200045", "name": "USPS COLLECTION BOX - BLUE BOX", "address": {"city": "WHITEHALL", "state": "PA", "street": "3300 7TH ST", "postcode": "18052"}}},
{"geometry": {"type": "Point", "coordinates": [-75.483850556, 40.6427782891]}, "type": "Feature", "properties": {"collection_times": [{"days": "Mon-Sat", "time": "1:30pm"}, {"days": "Sun", "time": "Closed"}], "id": "1805200046", "name": "USPS COLLECTION BOX - BLUE BOX", "address": {"city": "WHITEHALL", "state": "PA", "street": "1301 MICKLEY RD", "postcode": "18052"}}},
{"geometry": {"type": "Point", "coordinates": [-75.4851234198, 40.6435046259]}, "type": "Feature", "properties": {"collection_times": [{"days": "Mon-Fri", "time": "5:15pm"}, {"days": "Sat", "time": "3:45pm"}, {"days": "Sun", "time": "Closed"}], "id": "1805200048", "name": "USPS COLLECTION BOX - BLUE BOX", "address": {"city": "WHITEHALL", "state": "PA", "street": "1105 SCHADT AVE", "postcode": "18052"}}},
{"geometry": {"type": "Point", "coordinates": [-75.4851234198, 40.6435046259]}, "type": "Feature", "properties": {"collection_times": [{"days": "Mon-Fri", "time": "5:15pm"}, {"days": "Sat", "time": "3:45pm"}, {"days": "Sun", "time": "Closed"}], "id": "1805200049", "name": "USPS COLLECTION BOX - BLUE BOX", "address": {"city": "WHITEHALL", "state": "PA", "street": "1105 SCHADT AVE", "postcode": "18052"}}},
{"geometry": {"type": "Point", "coordinates": [-75.4713558582, 40.6418966319]}, "type": "Feature", "properties": {"collection_times": [{"days": "Mon-Sat", "time": "12:00pm"}, {"days": "Sun", "time": "Closed"}], "id": "1805200110", "name": "USPS COLLECTION BOX - BLUE BOX", "address": {"city": "WHITEHALL", "state": "PA", "street": "1220 WASHINGTON ST", "postcode": "18052"}}},
{"geometry": {"type": "Point", "coordinates": [-75.4938042382, 40.6460374797]}, "type": "Feature", "properties": {"collection_times": [{"days": "Mon-Sat", "time": "9:00am"}, {"days": "Sun", "time": "Closed"}], "id": "1805200112", "name": "USPS COLLECTION BOX - BLUE BOX", "address": {"city": "WHITEHALL", "state": "PA", "street": "2633 MACARTHUR RD", "postcode": "18052"}}},
{"geometry": {"type": "Point", "coordinates": [-75.4999083675, 40.6786335889]}, "type": "Feature", "properties": {"collection_times": [{"days": "Mon-Sat", "time": "9:00am"}, {"days": "Sun", "time": "Closed"}], "id": "1805200113", "name": "USPS COLLECTION BOX - BLUE BOX", "address": {"city": "WHITEHALL", "state": "PA", "street": "5100 STONE TERRACE DR", "postcode": "18052"}}},
{"geometry": {"type": "Point", "coordinates": [-75.4851234198, 40.6435046259]}, "type": "Feature", "properties": {"collection_times": [{"days": "Mon-Fri", "time": "5:15pm"}, {"days": "Sat", "time": "3:45pm"}, {"days": "Sun", "time": "Closed"}], "id": "1805200114", "name": "USPS COLLECTION BOX - PO LOBBY", "address": {"city": "WHITEHALL", "state": "PA", "street": "1105 SCHADT AVE", "postcode": "18052"}}},
{"geometry": {"type": "Point", "coordinates": [-75.4864518828, 40.6274542386]}, "type": "Feature", "properties": {"collection_times": [{"days": "Mon-Sat", "time": "10:00am"}, {"days": "Sun", "time": "Closed"}], "id": "1805200116", "name": "USPS COLLECTION BOX - BLUE BOX", "address": {"city": "WHITEHALL", "state": "PA", "street": "1541 ALTA DR", "postcode": "18052"}}},
{"geometry": {"type": "Point", "coordinates": [-75.4851234198, 40.6435046259]}, "type": "Feature", "properties": {"collection_times": [{"days": "Mon-Fri", "time": "5:15pm"}, {"days": "Sat", "time": "3:45pm"}, {"days": "Sun", "time": "Closed"}], "id": "1805200117", "name": "USPS COLLECTION BOX - APC", "address": {"city": "WHITEHALL", "state": "PA", "street": "1105 SCHADT AVE", "postcode": "18052"}}},
{"geometry": {"type": "Point", "coordinates": [-75.5064841099, 40.6566532148]}, "type": "Feature", "properties": {"collection_times": [{"days": "Mon-Sat", "time": "9:00am"}, {"days": "Sun", "time": "Closed"}], "id": "1805200118", "name": "USPS COLLECTION BOX - BLUE BOX", "address": {"city": "WHITEHALL", "state": "PA", "street": "3655 MUNICIPAL DR", "postcode": "18052"}}},
{"geometry": {"type": "Point", "coordinates": [-75.7083122878, 40.7014435901]}, "type": "Feature", "properties": {"collection_times": [{"days": "Mon-Fri", "time": "4:15pm"}, {"days": "Sat", "time": "10:30am"}, {"days": "Sun", "time": "Closed"}], "id": "1805300001", "name": "USPS COLLECTION BOX - BLUE BOX", "address": {"city": "GERMANSVILLE", "state": "PA", "street": "6066 MEMORIAL RD", "postcode": "18053"}}},
{"geometry": {"type": "Point", "coordinates": [-75.7083122878, 40.7014435901]}, "type": "Feature", "properties": {"collection_times": [{"days": "Mon-Fri", "time": "4:15pm"}, {"days": "Sat", "time": "10:30am"}, {"days": "Sun", "time": "Closed"}], "id": "1805300002", "name": "USPS COLLECTION BOX - PO LOBBY", "address": {"city": "GERMANSVILLE", "state": "PA", "street": "6066 MEMORIAL RD", "postcode": "18053"}}},
{"geometry": {"type": "Point", "coordinates": [-75.4723045604, 40.3373362079]}, "type": "Feature", "properties": {"collection_times": [{"days": "Mon-Fri", "time": "5:00pm"}, {"days": "Sat", "time": "12:00pm"}, {"days": "Sun", "time": "Closed"}], "id": "1805400001", "name": "USPS COLLECTION BOX - BLUE BOX", "address": {"city": "GREEN LANE", "state": "PA", "street": "125 GRAVEL PIKE", "postcode": "18054"}}},
{"geometry": {"type": "Point", "coordinates": [-75.4723045604, 40.3373362079]}, "type": "Feature", "properties": {"collection_times": [{"days": "Mon-Fri", "time": "5:00pm"}, {"days": "Sat", "time": "12:00pm"}, {"days": "Sun", "time": "Closed"}], "id": "1805400003", "name": "USPS COLLECTION BOX - PO LOBBY", "address": {"city": "GREEN LANE", "state": "PA", "street": "125 GRAVEL PIKE", "postcode": "18054"}}},
{"geometry": {"type": "Point", "coordinates": [-75.3408899651, 40.5883195902]}, "type": "Feature", "properties": {"collection_times": [{"days": "Mon-Sat", "time": "2:00pm"}, {"days": "Sun", "time": "Closed"}], "id": "1805500001", "name": "USPS COLLECTION BOX - BLUE BOX", "address": {"city": "HELLERTOWN", "state": "PA", "street": "1332 MAIN ST", "postcode": "18055"}}},
{"geometry": {"type": "Point", "coordinates": [-75.3426868797, 40.590631092]}, "type": "Feature", "properties": {"collection_times": [{"days": "Mon-Sat", "time": "1:30pm"}, {"days": "Sun", "time": "Closed"}], "id": "1805500004", "name": "USPS COLLECTION BOX - BLUE BOX", "address": {"city": "HELLERTOWN", "state": "PA", "street": "215 E HIGH ST", "postcode": "18055"}}},
{"geometry": {"type": "Point", "coordinates": [-75.3366490572, 40.5860684193]}, "type": "Feature", "properties": {"collection_times": [{"days": "Mon-Sat", "time": "10:15am"}, {"days": "Sun", "time": "Closed"}], "id": "1805500008", "name": "USPS COLLECTION BOX - BLUE BOX", "address": {"city": "HELLERTOWN", "state": "PA", "street": "1200 EASTON RD", "postcode": "18055"}}},
{"geometry": {"type": "Point", "coordinates": [-75.3378119058, 40.5836409875]}, "type": "Feature", "properties": {"collection_times": [{"days": "Mon-Sat", "time": "2:30pm"}, {"days": "Sun", "time": "Closed"}], "id": "1805500009", "name": "USPS COLLECTION BOX - BLUE BOX", "address": {"city": "HELLERTOWN", "state": "PA", "street": "1035 EASTON RD", "postcode": "18055"}}},
{"geometry": {"type": "Point", "coordinates": [-75.3410767, 40.581778313]}, "type": "Feature", "properties": {"collection_times": [{"days": "Mon-Sat", "time": "2:00pm"}, {"days": "Sun", "time": "Closed"}], "id": "1805500015", "name": "USPS COLLECTION BOX - BLUE BOX", "address": {"city": "HELLERTOWN", "state": "PA", "street": "834 MAIN ST", "postcode": "18055"}}},
{"geometry": {"type": "Point", "coordinates": [-75.3407006916, 40.5776256411]}, "type": "Feature", "properties": {"collection_times": [{"days": "Mon-Sat", "time": "2:30pm"}, {"days": "Sun", "time": "Closed"}], "id": "1805500019", "name": "USPS COLLECTION BOX - BLUE BOX", "address": {"city": "HELLERTOWN", "state": "PA", "street": "519 MAIN ST", "postcode": "18055"}}},
{"geometry": {"type": "Point", "coordinates": [-75.3486903965, 40.5768780111]}, "type": "Feature", "properties": {"collection_times": [{"days": "Mon-Sat", "time": "11:30am"}, {"days": "Sun", "time": "Closed"}], "id": "1805500022", "name": "USPS COLLECTION BOX - BLUE BOX", "address": {"city": "HELLERTOWN", "state": "PA", "street": "1945 DELANCEY ST", "postcode": "18055"}}},
{"geometry": {"type": "Point", "coordinates": [-75.3379274053, 40.5792142077]}, "type": "Feature", "properties": {"collection_times": [{"days": "Mon-Fri", "time": "5:15pm"}, {"days": "Sat", "time": "3:30pm"}, {"days": "Sun", "time": "Closed"}], "id": "1805500023", "name": "USPS COLLECTION BOX - BLUE BOX", "address": {"city": "HELLERTOWN", "state": "PA", "street": "660 DELAWARE AVE", "postcode": "18055"}}},
{"geometry": {"type": "Point", "coordinates": [-75.3379274053, 40.5792142077]}, "type": "Feature", "properties": {"collection_times": [{"days": "Mon-Fri", "time": "5:15pm"}, {"days": "Sat", "time": "3:30pm"}, {"days": "Sun", "time": "Closed"}], "id": "1805500048", "name": "USPS COLLECTION BOX - BLUE BOX", "address": {"city": "HELLERTOWN", "state": "PA", "street": "660 DELAWARE AVE", "postcode": "18055"}}},
{"geometry": {"type": "Point", "coordinates": [-75.3379274053, 40.5792142077]}, "type": "Feature", "properties": {"collection_times": [{"days": "Mon-Fri", "time": "5:15pm"}, {"days": "Sat", "time": "3:30pm"}, {"days": "Sun", "time": "Closed"}], "id": "1805500049", "name": "USPS COLLECTION BOX - PO LOBBY", "address": {"city": "HELLERTOWN", "state": "PA", "street": "660 DELAWARE AVE", "postcode": "18055"}}},
{"geometry": {"type": "Point", "coordinates": [-75.3390214228, 40.5639259892]}, "type": "Feature", "properties": {"collection_times": [{"days": "Mon-Sat", "time": "2:00pm"}, {"days": "Sun", "time": "Closed"}], "id": "1805500051", "name": "USPS COLLECTION BOX - BLUE BOX", "address": {"city": "HELLERTOWN", "state": "PA", "street": "1838 LEITHSVILLE RD", "postcode": "18055"}}},
{"geometry": {"type": "Point", "coordinates": [-75.5535804309, 40.4480180036]}, "type": "Feature", "properties": {"collection_times": [{"days": "Mon-Fri", "time": "4:30pm"}, {"days": "Sat", "time": "11:30am"}, {"days": "Sun", "time": "Closed"}], "id": "1805600001", "name": "USPS COLLECTION BOX - BLUE BOX", "address": {"city": "HEREFORD", "state": "PA", "street": "43 STAR RD", "postcode": "18056"}}},
{"geometry": {"type": "Point", "coordinates": [-75.5535804309, 40.4480180036]}, "type": "Feature", "properties": {"collection_times": [{"days": "Mon-Fri", "time": "4:30pm"}, {"days": "Sat", "time": "11:30am"}, {"days": "Sun", "time": "Closed"}], "id": "1805600003", "name": "USPS COLLECTION BOX - PO LOBBY", "address": {"city": "HEREFORD", "state": "PA", "street": "43 STAR RD", "postcode": "18056"}}},
{"geometry": {"type": "Point", "coordinates": [-75.4266723626, 40.8589190084]}, "type": "Feature", "properties": {"collection_times": [{"days": "Mon-Fri", "time": "4:00pm"}, {"days": "Sat", "time": "12:00pm"}, {"days": "Sun", "time": "Closed"}], "id": "1805800000", "name": "USPS COLLECTION BOX - BLUE BOX", "address": {"city": "KUNKLETOWN", "state": "PA", "street": "490 KUNKLETOWN RD", "postcode": "18058"}}},
{"geometry": {"type": "Point", "coordinates": [-75.504126372, 40.9148218341]}, "type": "Feature", "properties": {"collection_times": [{"days": "Mon-Fri", "time": "4:00pm"}, {"days": "Sat", "time": "12:00pm"}, {"days": "Sun", "time": "Closed"}], "id": "1805800001", "name": "USPS COLLECTION BOX - EXPRESS", "address": {"city": "KUNKLETOWN", "state": "PA", "street": "490 KUNKLETOWN RD", "postcode": "18058"}}},
{"geometry": {"type": "Point", "coordinates": [-75.4266723626, 40.8589190084]}, "type": "Feature", "properties": {"collection_times": [{"days": "Mon-Fri", "time": "4:00pm"}, {"days": "Sat", "time": "12:00pm"}, {"days": "Sun", "time": "Closed"}], "id": "1805800002", "name": "USPS COLLECTION BOX - PO LOBBY", "address": {"city": "KUNKLETOWN", "state": "PA", "street": "490 KUNKLETOWN RD", "postcode": "18058"}}},
{"geometry": {"type": "Point", "coordinates": [-75.4266723626, 40.8589190084]}, "type": "Feature", "properties": {"collection_times": [{"days": "Mon-Sat", "time": "11:00am"}, {"days": "Sun", "time": "Closed"}], "id": "1805800004", "name": "USPS COLLECTION BOX - BLUE BOX", "address": {"city": "KUNKLETOWN", "state": "PA", "street": "4301 PLEASANT VALLEY RD", "postcode": "18058"}}},
{"geometry": {"type": "Point", "coordinates": [-75.5337548629, 40.7236855845]}, "type": "Feature", "properties": {"collection_times": [{"days": "Mon-Fri", "time": "4:30pm"}, {"days": "Sat", "time": "11:00am"}, {"days": "Sun", "time": "Closed"}], "id": "1805900001", "name": "USPS COLLECTION BOX - BLUE BOX", "address": {"city": "LAURYS STATION", "state": "PA", "street": "1072 RISING SUN RD", "postcode": "18059"}}},
{"geometry": {"type": "Point", "coordinates": [-75.5351093509, 40.7276745222]}, "type": "Feature", "properties": {"collection_times": [{"days": "Mon-Sat", "time": "11:30am"}, {"days": "Sun", "time": "Closed"}], "id": "1805900002", "name": "USPS COLLECTION BOX - BLUE BOX", "address": {"city": "LAURYS STATION", "state": "PA", "street": "5649 WYNNEWOOD DR", "postcode": "18059"}}},
{"geometry": {"type": "Point", "coordinates": [-75.5321874423, 40.7259107303]}, "type": "Feature", "properties": {"collection_times": [{"days": "Mon-Sat", "time": "11:00am"}, {"days": "Sun", "time": "Closed"}], "id": "1805900003", "name": "USPS COLLECTION BOX - BLUE BOX", "address": {"city": "LAURYS STATION", "state": "PA", "street": "5230 KEYSTONE RD", "postcode": "18059"}}},
{"geometry": {"type": "Point", "coordinates": [-75.5337548629, 40.7236855845]}, "type": "Feature", "properties": {"collection_times": [{"days": "Mon-Fri", "time": "4:30pm"}, {"days": "Sat", "time": "11:00am"}, {"days": "Sun", "time": "Closed"}], "id": "1805900005", "name": "USPS COLLECTION BOX - PO LOBBY", "address": {"city": "LAURYS STATION", "state": "PA", "street": "1072 RISING SUN RD", "postcode": "18059"}}},
{"geometry": {"type": "Point", "coordinates": [-75.4425780508, 40.5078188784]}, "type": "Feature", "properties": {"collection_times": [{"days": "Mon-Fri", "time": "4:15pm"}, {"days": "Sat", "time": "11:30am"}, {"days": "Sun", "time": "Closed"}], "id": "1806000001", "name": "USPS COLLECTION BOX - BLUE BOX", "address": {"city": "LIMEPORT", "state": "PA", "street": "1540 BLUE CHURCH RD", "postcode": "18060"}}},
{"geometry": {"type": "Point", "coordinates": [-75.4425780508, 40.5078188784]}, "type": "Feature", "properties": {"collection_times": [{"days": "Mon-Fri", "time": "4:15pm"}, {"days": "Sat", "time": "11:30am"}, {"days": "Sun", "time": "Closed"}], "id": "1806000002", "name": "USPS COLLECTION BOX - PO LOBBY", "address": {"city": "LIMEPORT", "state": "PA", "street": "1540 BLUE CHURCH RD", "postcode": "18060"}}},
{"geometry": {"type": "Point", "coordinates": [-75.5869013924, 40.4874973904]}, "type": "Feature", "properties": {"collection_times": [{"days": "Mon-Fri", "time": "5:00pm"}, {"days": "Sat", "time": "3:30pm"}, {"days": "Sun", "time": "Closed"}], "id": "1806200011", "name": "USPS COLLECTION BOX - BLUE BOX", "address": {"city": "MACUNGIE", "state": "PA", "street": "51 W END TRL", "postcode": "18062"}}},
{"geometry": {"type": "Point", "coordinates": [-75.5869013924, 40.4874973904]}, "type": "Feature", "properties": {"collection_times": [{"days": "Mon-Fri", "time": "5:00pm"}, {"days": "Sat", "time": "3:30pm"}, {"days": "Sun", "time": "Closed"}], "id": "1806200022", "name": "USPS COLLECTION BOX - BLUE BOX", "address": {"city": "MACUNGIE", "state": "PA", "street": "51 W END TRL", "postcode": "18062"}}},
{"geometry": {"type": "Point", "coordinates": [-75.5869013924, 40.4874973904]}, "type": "Feature", "properties": {"collection_times": [{"days": "Mon-Fri", "time": "5:00pm"}, {"days": "Sat", "time": "2:00pm"}, {"days": "Sun", "time": "Closed"}], "id": "1806200023", "name": "USPS COLLECTION BOX - PO LOBBY", "address": {"city": "MACUNGIE", "state": "PA", "street": "51 W END TRL", "postcode": "18062"}}},
{"geometry": {"type": "Point", "coordinates": [-75.186325266, 40.782036069]}, "type": "Feature", "properties": {"collection_times": [{"days": "Mon-Fri", "time": "3:45pm"}, {"days": "Sat", "time": "10:45am"}, {"days": "Sun", "time": "Closed"}], "id": "1806300001", "name": "USPS COLLECTION BOX - BLUE BOX", "address": {"city": "MARTINS CREEK", "state": "PA", "street": "6564 S DELAWARE DR", "postcode": "18063"}}},
{"geometry": {"type": "Point", "coordinates": [-75.186325266, 40.782036069]}, "type": "Feature", "properties": {"collection_times": [{"days": "Mon-Fri", "time": "3:45pm"}, {"days": "Sat", "time": "10:45am"}, {"days": "Sun", "time": "Closed"}], "id": "1806300002", "name": "USPS COLLECTION BOX - PO LOBBY", "address": {"city": "MARTINS CREEK", "state": "PA", "street": "6564 S DELAWARE DR", "postcode": "18063"}}},
{"geometry": {"type": "Point", "coordinates": [-75.3119975696, 40.7430065366]}, "type": "Feature", "properties": {"collection_times": [{"days": "Mon-Fri", "time": "4:30pm"}, {"days": "Sat", "time": "3:00pm"}, {"days": "Sun", "time": "Closed"}], "id": "1806400001", "name": "USPS COLLECTION BOX - BLUE BOX", "address": {"city": "NAZARETH", "state": "PA", "street": "9 N MAIN ST", "postcode": "18064"}}},
{"geometry": {"type": "Point", "coordinates": [-75.3119975696, 40.7430065366]}, "type": "Feature", "properties": {"collection_times": [{"days": "Mon-Fri", "time": "4:30pm"}, {"days": "Sat", "time": "3:00pm"}, {"days": "Sun", "time": "Closed"}], "id": "1806400002", "name": "USPS COLLECTION BOX - BLUE BOX", "address": {"city": "NAZARETH", "state": "PA", "street": "9 N MAIN ST", "postcode": "18064"}}},
{"geometry": {"type": "Point", "coordinates": [-75.3119984221, 40.7409843821]}, "type": "Feature", "properties": {"collection_times": [{"days": "Mon-Sat", "time": "9:00am"}, {"days": "Sun", "time": "Closed"}], "id": "1806400003", "name": "USPS COLLECTION BOX - BLUE BOX", "address": {"city": "NAZARETH", "state": "PA", "street": "76 S MAIN ST", "postcode": "18064"}}},
{"geometry": {"type": "Point", "coordinates": [-75.3118466315, 40.7397644348]}, "type": "Feature", "properties": {"collection_times": [{"days": "Mon-Sat", "time": "10:00am"}, {"days": "Sun", "time": "Closed"}], "id": "1806400005", "name": "USPS COLLECTION BOX - BLUE BOX", "address": {"city": "NAZARETH", "state": "PA", "street": "131 S MAIN ST", "postcode": "18064"}}},
{"geometry": {"type": "Point", "coordinates": [-75.3119975696, 40.7430065366]}, "type": "Feature", "properties": {"collection_times": [{"days": "Mon-Fri", "time": "4:30pm"}, {"days": "Sat", "time": "3:00pm"}, {"days": "Sun", "time": "Closed"}], "id": "1806400016", "name": "USPS COLLECTION BOX - BLUE BOX", "address": {"city": "NAZARETH", "state": "PA", "street": "9 N MAIN ST", "postcode": "18064"}}},
{"geometry": {"type": "Point", "coordinates": [-75.3119975696, 40.7430065366]}, "type": "Feature", "properties": {"collection_times": [{"days": "Mon-Fri", "time": "4:30pm"}, {"days": "Sat", "time": "3:00pm"}, {"days": "Sun", "time": "Closed"}], "id": "1806400018", "name": "USPS COLLECTION BOX - PO LOBBY", "address": {"city": "NAZARETH", "state": "PA", "street": "9 N MAIN ST", "postcode": "18064"}}},
{"geometry": {"type": "Point", "coordinates": [-75.4998768896, 40.669073715]}, "type": "Feature", "properties": {"collection_times": [{"days": "Mon-Fri", "time": "4:00pm"}, {"days": "Sat", "time": "11:30am"}, {"days": "Sun", "time": "Closed"}], "id": "1806500001", "name": "USPS COLLECTION BOX - BLUE BOX", "address": {"city": "NEFFS", "state": "PA", "street": "5613 ROUTE 873", "postcode": "18065"}}},
{"geometry": {"type": "Point", "coordinates": [-75.4998768896, 40.669073715]}, "type": "Feature", "properties": {"collection_times": [{"days": "Mon-Fri", "time": "4:00pm"}, {"days": "Sat", "time": "11:30am"}, {"days": "Sun", "time": "Closed"}], "id": "1806500003", "name": "USPS COLLECTION BOX - BLUE BOX", "address": {"city": "NEFFS", "state": "PA", "street": "5613 ROUTE 873", "postcode": "18065"}}},
{"geometry": {"type": "Point", "coordinates": [-75.4998768896, 40.669073715]}, "type": "Feature", "properties": {"collection_times": [{"days": "Mon-Fri", "time": "4:00pm"}, {"days": "Sat", "time": "11:30am"}, {"days": "Sun", "time": "Closed"}], "id": "1806500005", "name": "USPS COLLECTION BOX - PO LOBBY", "address": {"city": "NEFFS", "state": "PA", "street": "5613 ROUTE 873", "postcode": "18065"}}},
{"geometry": {"type": "Point", "coordinates": [-75.751865288, 40.6792796709]}, "type": "Feature", "properties": {"collection_times": [{"days": "Mon-Fri", "time": "4:30pm"}, {"days": "Sat", "time": "10:30am"}, {"days": "Sun", "time": "Closed"}], "id": "1806600001", "name": "USPS COLLECTION BOX - BLUE BOX", "address": {"city": "NEW TRIPOLI", "state": "PA", "street": "6736 MADISON ST", "postcode": "18066"}}},
{"geometry": {"type": "Point", "coordinates": [-75.751865288, 40.6792796709]}, "type": "Feature", "properties": {"collection_times": [{"days": "Mon-Fri", "time": "4:30pm"}, {"days": "Sat", "time": "10:30am"}, {"days": "Sun", "time": "Closed"}], "id": "1806600005", "name": "USPS COLLECTION BOX - PO LOBBY", "address": {"city": "NEW TRIPOLI", "state": "PA", "street": "6736 MADISON ST", "postcode": "18066"}}},
{"geometry": {"type": "Point", "coordinates": [-75.4957383964, 40.6867136212]}, "type": "Feature", "properties": {"collection_times": [{"days": "Mon-Fri", "time": "4:00pm"}, {"days": "Sat", "time": "3:00pm"}, {"days": "Sun", "time": "Closed"}], "id": "1806700001", "name": "USPS COLLECTION BOX - BLUE BOX", "address": {"city": "NORTHAMPTON", "state": "PA", "street": "1701 WASHINGTON AVE", "postcode": "18067"}}},
{"geometry": {"type": "Point", "coordinates": [-75.4743419318, 40.671666147]}, "type": "Feature", "properties": {"collection_times": [{"days": "Mon-Sat", "time": "9:00am"}, {"days": "Sun", "time": "Closed"}], "id": "1806700002", "name": "USPS COLLECTION BOX - BLUE BOX", "address": {"city": "NORTHAMPTON", "state": "PA", "street": "240 HOWERTOWN RD", "postcode": "18067"}}},
{"geometry": {"type": "Point", "coordinates": [-75.4993247583, 40.697691232]}, "type": "Feature", "properties": {"collection_times": [{"days": "Mon-Sat", "time": "10:30am"}, {"days": "Sun", "time": "Closed"}], "id": "1806700006", "name": "USPS COLLECTION BOX - BLUE BOX", "address": {"city": "NORTHAMPTON", "state": "PA", "street": "2428 MAIN ST", "postcode": "18067"}}},
{"geometry": {"type": "Point", "coordinates": [-75.4804223409, 40.6804626299]}, "type": "Feature", "properties": {"collection_times": [{"days": "Mon-Sat", "time": "11:00am"}, {"days": "Sun", "time": "Closed"}], "id": "1806700007", "name": "USPS COLLECTION BOX - BLUE BOX", "address": {"city": "NORTHAMPTON", "state": "PA", "street": "477 E 10TH ST", "postcode": "18067"}}},
{"geometry": {"type": "Point", "coordinates": [-75.4904609307, 40.6798415764]}, "type": "Feature", "properties": {"collection_times": [{"days": "Mon-Sat", "time": "9:00am"}, {"days": "Sun", "time": "Closed"}], "id": "1806700008", "name": "USPS COLLECTION BOX - BLUE BOX", "address": {"city": "NORTHAMPTON", "state": "PA", "street": "1205 MAIN ST", "postcode": "18067"}}},
{"geometry": {"type": "Point", "coordinates": [-75.4924804539, 40.6796825347]}, "type": "Feature", "properties": {"collection_times": [{"days": "Mon-Sat", "time": "12:00pm"}, {"days": "Sun", "time": "Closed"}], "id": "1806700010", "name": "USPS COLLECTION BOX - BLUE BOX", "address": {"city": "NORTHAMPTON", "state": "PA", "street": "1300 NEWPORT AVE", "postcode": "18067"}}},
{"geometry": {"type": "Point", "coordinates": [-75.4975693311, 40.6847851619]}, "type": "Feature", "properties": {"collection_times": [{"days": "Mon-Sat", "time": "10:00am"}, {"days": "Sun", "time": "Closed"}], "id": "1806700012", "name": "USPS COLLECTION BOX - BLUE BOX", "address": {"city": "NORTHAMPTON", "state": "PA", "street": "1692 NEWPORT AVE", "postcode": "18067"}}},
{"geometry": {"type": "Point", "coordinates": [-75.4981395173, 40.688386089]}, "type": "Feature", "properties": {"collection_times": [{"days": "Mon-Sat", "time": "8:30am"}, {"days": "Sun", "time": "Closed"}], "id": "1806700013", "name": "USPS COLLECTION BOX - BLUE BOX", "address": {"city": "NORTHAMPTON", "state": "PA", "street": "1840 MAIN ST", "postcode": "18067"}}},
{"geometry": {"type": "Point", "coordinates": [-75.4994490529, 40.6909424633]}, "type": "Feature", "properties": {"collection_times": [{"days": "Mon-Sat", "time": "8:30am"}, {"days": "Sun", "time": "Closed"}], "id": "1806700014", "name": "USPS COLLECTION BOX - BLUE BOX", "address": {"city": "NORTHAMPTON", "state": "PA", "street": "2102 MAIN ST", "postcode": "18067"}}},
{"geometry": {"type": "Point", "coordinates": [-75.4992869875, 40.6957973269]}, "type": "Feature", "properties": {"collection_times": [{"days": "Mon-Sat", "time": "8:30am"}, {"days": "Sun", "time": "Closed"}], "id": "1806700016", "name": "USPS COLLECTION BOX - BLUE BOX", "address": {"city": "NORTHAMPTON", "state": "PA", "street": "2365 MAIN ST", "postcode": "18067"}}},
{"geometry": {"type": "Point", "coordinates": [-75.4984849432, 40.6945439654]}, "type": "Feature", "properties": {"collection_times": [{"days": "Mon-Sat", "time": "8:30am"}, {"days": "Sun", "time": "Closed"}], "id": "1806700017", "name": "USPS COLLECTION BOX - BLUE BOX", "address": {"city": "NORTHAMPTON", "state": "PA", "street": "2311 WASHINGTON AVE", "postcode": "18067"}}},
{"geometry": {"type": "Point", "coordinates": [-75.4957383964, 40.6867136212]}, "type": "Feature", "properties": {"collection_times": [{"days": "Mon-Fri", "time": "4:00pm"}, {"days": "Sat", "time": "3:00pm"}, {"days": "Sun", "time": "Closed"}], "id": "1806700022", "name": "USPS COLLECTION BOX - PO LOBBY", "address": {"city": "NORTHAMPTON", "state": "PA", "street": "1701 WASHINGTON AVE", "postcode": "18067"}}},
{"geometry": {"type": "Point", "coordinates": [-75.5207539046, 40.4859970414]}, "type": "Feature", "properties": {"collection_times": [{"days": "Mon-Fri", "time": "4:00pm"}, {"days": "Sat", "time": "11:30am"}, {"days": "Sun", "time": "Closed"}], "id": "1806800001", "name": "USPS COLLECTION BOX - BLUE BOX", "address": {"city": "OLD ZIONSVILLE", "state": "PA", "street": "5831 KINGS HWY S", "postcode": "18068"}}},
{"geometry": {"type": "Point", "coordinates": [-75.5207539046, 40.4859970414]}, "type": "Feature", "properties": {"collection_times": [{"days": "Mon-Fri", "time": "4:00pm"}, {"days": "Sat", "time": "11:30am"}, {"days": "Sun", "time": "Closed"}], "id": "1806800003", "name": "USPS COLLECTION BOX - PO LOBBY", "address": {"city": "OLD ZIONSVILLE", "state": "PA", "street": "5831 KINGS HWY S", "postcode": "18068"}}},
{"geometry": {"type": "Point", "coordinates": [-75.6101966462, 40.6251229374]}, "type": "Feature", "properties": {"collection_times": [{"days": "Mon-Fri", "time": "4:30pm"}, {"days": "Sat", "time": "11:30am"}, {"days": "Sun", "time": "Closed"}], "id": "1806900001", "name": "USPS COLLECTION BOX - EXPRESS", "address": {"city": "OREFIELD", "state": "PA", "street": "4711 KERNSVILLE RD", "postcode": "18069"}}},
{"geometry": {"type": "Point", "coordinates": [-75.5892592975, 40.6512707515]}, "type": "Feature", "properties": {"collection_times": [{"days": "Mon-Sat", "time": "10:00am"}, {"days": "Sun", "time": "Closed"}], "id": "1806900002", "name": "USPS COLLECTION BOX - BLUE BOX", "address": {"city": "OREFIELD", "state": "PA", "street": "3411 LIL WOLF DR", "postcode": "18069"}}},
{"geometry": {"type": "Point", "coordinates": [-75.6542061106, 40.6144180308]}, "type": "Feature", "properties": {"collection_times": [{"days": "Mon-Sat", "time": "10:30am"}, {"days": "Sun", "time": "Closed"}], "id": "1806900003", "name": "USPS COLLECTION BOX - BLUE BOX", "address": {"city": "OREFIELD", "state": "PA", "street": "2909 ROUTE 100", "postcode": "18069"}}},
{"geometry": {"type": "Point", "coordinates": [-75.5882999178, 40.6345023082]}, "type": "Feature", "properties": {"collection_times": [{"days": "Mon-Fri", "time": "4:30pm"}, {"days": "Sat", "time": "11:30am"}, {"days": "Sun", "time": "Closed"}], "id": "1806900004", "name": "USPS COLLECTION BOX - BLUE BOX", "address": {"city": "OREFIELD", "state": "PA", "street": "4711 KERNSVILLE RD", "postcode": "18069"}}},
{"geometry": {"type": "Point", "coordinates": [-75.5882999178, 40.6345023082]}, "type": "Feature", "properties": {"collection_times": [{"days": "Mon-Fri", "time": "4:30pm"}, {"days": "Sat", "time": "11:30am"}, {"days": "Sun", "time": "Closed"}], "id": "1806900005", "name": "USPS COLLECTION BOX - BLUE BOX", "address": {"city": "OREFIELD", "state": "PA", "street": "4711 KERNSVILLE RD", "postcode": "18069"}}},
{"geometry": {"type": "Point", "coordinates": [-75.5882999178, 40.6345023082]}, "type": "Feature", "properties": {"collection_times": [{"days": "Mon-Fri", "time": "4:30pm"}, {"days": "Sat", "time": "11:30am"}, {"days": "Sun", "time": "Closed"}], "id": "1806900006", "name": "USPS COLLECTION BOX - PO LOBBY", "address": {"city": "OREFIELD", "state": "PA", "street": "4711 KERNSVILLE RD", "postcode": "18069"}}},
{"geometry": {"type": "Point", "coordinates": [-75.6575773234, 40.6146012067]}, "type": "Feature", "properties": {"collection_times": [{"days": "Mon-Sat", "time": "10:30am"}, {"days": "Sun", "time": "Closed"}], "id": "1806900008", "name": "USPS COLLECTION BOX - BLUE BOX", "address": {"city": "OREFIELD", "state": "PA", "street": "2907 CORPORATE CT", "postcode": "18069"}}},
{"geometry": {"type": "Point", "coordinates": [-75.5333278692, 40.427275529]}, "type": "Feature", "properties": {"collection_times": [{"days": "Mon-Fri", "time": "4:15pm"}, {"days": "Sat", "time": "1:30pm"}, {"days": "Sun", "time": "Closed"}], "id": "1807000001", "name": "USPS COLLECTION BOX - BLUE BOX", "address": {"city": "PALM", "state": "PA", "street": "801 GRAVEL PIKE", "postcode": "18070"}}},
{"geometry": {"type": "Point", "coordinates": [-75.5333278692, 40.427275529]}, "type": "Feature", "properties": {"collection_times": [{"days": "Mon-Fri", "time": "4:15pm"}, {"days": "Sat", "time": "11:30am"}, {"days": "Sun", "time": "Closed"}], "id": "1807000002", "name": "USPS COLLECTION BOX - PO LOBBY", "address": {"city": "PALM", "state": "PA", "street": "801 GRAVEL PIKE", "postcode": "18070"}}},
{"geometry": {"type": "Point", "coordinates": [-75.6136187885, 40.8002561524]}, "type": "Feature", "properties": {"collection_times": [{"days": "Mon-Sat", "time": "2:30pm"}, {"days": "Sun", "time": "Closed"}], "id": "1807100004", "name": "USPS COLLECTION BOX - BLUE BOX", "address": {"city": "PALMERTON", "state": "PA", "street": "175 DELAWARE AVE", "postcode": "18071"}}},
{"geometry": {"type": "Point", "coordinates": [-75.6145687046, 40.8036595254]}, "type": "Feature", "properties": {"collection_times": [{"days": "Mon-Sat", "time": "2:30pm"}, {"days": "Sun", "time": "Closed"}], "id": "1807100010", "name": "USPS COLLECTION BOX - BLUE BOX", "address": {"city": "PALMERTON", "state": "PA", "street": "203 COLUMBIA AVE", "postcode": "18071"}}},
{"geometry": {"type": "Point", "coordinates": [-75.6020044974, 40.8048637776]}, "type": "Feature", "properties": {"collection_times": [{"days": "Mon-Sat", "time": "9:00am"}, {"days": "Sun", "time": "Closed"}], "id": "1807100013", "name": "USPS COLLECTION BOX - BLUE BOX", "address": {"city": "PALMERTON", "state": "PA", "street": "577 DELAWARE AVE", "postcode": "18071"}}},
{"geometry": {"type": "Point", "coordinates": [-75.6055072389, 40.8051429559]}, "type": "Feature", "properties": {"collection_times": [{"days": "Mon-Sat", "time": "10:30am"}, {"days": "Sun", "time": "Closed"}], "id": "1807100018", "name": "USPS COLLECTION BOX - BLUE BOX", "address": {"city": "PALMERTON", "state": "PA", "street": "708 5TH ST", "postcode": "18071"}}},
{"geometry": {"type": "Point", "coordinates": [-75.6151459886, 40.7996481115]}, "type": "Feature", "properties": {"collection_times": [{"days": "Mon-Fri", "time": "4:30pm"}, {"days": "Sat", "time": "3:00pm"}, {"days": "Sun", "time": "Closed"}], "id": "1807100020", "name": "USPS COLLECTION BOX - BLUE BOX", "address": {"city": "PALMERTON", "state": "PA", "street": "128 DELAWARE AVE", "postcode": "18071"}}},
{"geometry": {"type": "Point", "coordinates": [-75.6151459886, 40.7996481115]}, "type": "Feature", "properties": {"collection_times": [{"days": "Mon-Fri", "time": "4:30pm"}, {"days": "Sat", "time": "3:00pm"}, {"days": "Sun", "time": "Closed"}], "id": "1807100021", "name": "USPS COLLECTION BOX - PO LOBBY", "address": {"city": "PALMERTON", "state": "PA", "street": "128 DELAWARE AVE", "postcode": "18071"}}},
{"geometry": {"type": "Point", "coordinates": [-75.2541551276, 40.8668854131]}, "type": "Feature", "properties": {"collection_times": [{"days": "Mon-Sat", "time": "9:45am"}, {"days": "Sun", "time": "Closed"}], "id": "1807200010", "name": "USPS COLLECTION BOX - BLUE BOX", "address": {"city": "PEN ARGYL", "state": "PA", "street": "229 S ROBINSON AVE", "postcode": "18072"}}},
{"geometry": {"type": "Point", "coordinates": [-75.2550358069, 40.8685763192]}, "type": "Feature", "properties": {"collection_times": [{"days": "Mon-Fri", "time": "5:00pm"}, {"days": "Sat", "time": "2:00pm"}, {"days": "Sun", "time": "Closed"}], "id": "1807200018", "name": "USPS COLLECTION BOX - BLUE BOX", "address": {"city": "PEN ARGYL", "state": "PA", "street": "7 S ROBINSON AVE", "postcode": "18072"}}},
{"geometry": {"type": "Point", "coordinates": [-75.236191205, 40.8729443808]}, "type": "Feature", "properties": {"collection_times": [{"days": "Mon-Sat", "time": "12:30pm"}, {"days": "Sun", "time": "Closed"}], "id": "1807200019", "name": "USPS COLLECTION BOX - BLUE BOX", "address": {"city": "PEN ARGYL", "state": "PA", "street": "1339 BLUE VALLEY DR", "postcode": "18072"}}},
{"geometry": {"type": "Point", "coordinates": [-75.2550358069, 40.8685763192]}, "type": "Feature", "properties": {"collection_times": [{"days": "Mon-Fri", "time": "4:45pm"}, {"days": "Sat", "time": "12:15pm"}, {"days": "Sun", "time": "Closed"}], "id": "1807200020", "name": "USPS COLLECTION BOX - PO LOBBY", "address": {"city": "PEN ARGYL", "state": "PA", "street": "7 S ROBINSON AVE", "postcode": "18072"}}},
{"geometry": {"type": "Point", "coordinates": [-75.2559092428, 40.8654538816]}, "type": "Feature", "properties": {"collection_times": [{"days": "Mon-Fri", "time": "4:45pm"}, {"days": "Sat", "time": "2:00pm"}, {"days": "Sun", "time": "Closed"}], "id": "1807200022", "name": "USPS COLLECTION BOX - EXPRESS", "address": {"city": "PEN ARGYL", "state": "PA", "street": "7 S ROBINSON AVE", "postcode": "18072"}}},
{"geometry": {"type": "Point", "coordinates": [-75.5158394092, 40.3778042627]}, "type": "Feature", "properties": {"collection_times": [{"days": "Mon-Sat", "time": "12:30pm"}, {"days": "Sun", "time": "Closed"}], "id": "1807300005", "name": "USPS COLLECTION BOX - BLUE BOX", "address": {"city": "RED HILL", "state": "PA", "street": "468 PENNSBURG SQ", "postcode": "18073"}}},
{"geometry": {"type": "Point", "coordinates": [-75.4984269764, 40.3976928507]}, "type": "Feature", "properties": {"collection_times": [{"days": "Mon-Fri", "time": "12:00pm"}, {"days": "Sat", "time": "10:00am"}, {"days": "Sun", "time": "Closed"}], "id": "1807300007", "name": "USPS COLLECTION BOX - BLUE BOX", "address": {"city": "RED HILL", "state": "PA", "street": "102 4TH ST", "postcode": "18073"}}},
{"geometry": {"type": "Point", "coordinates": [-75.4801382067, 40.3007728272]}, "type": "Feature", "properties": {"collection_times": [{"days": "Mon-Fri", "time": "4:45pm"}, {"days": "Sat", "time": "11:30am"}, {"days": "Sun", "time": "Closed"}], "id": "1807400001", "name": "USPS COLLECTION BOX - BLUE BOX", "address": {"city": "PERKIOMENVILLE", "state": "PA", "street": "1463 GRAVEL PIKE", "postcode": "18074"}}},
{"geometry": {"type": "Point", "coordinates": [-75.4801382067, 40.3007728272]}, "type": "Feature", "properties": {"collection_times": [{"days": "Mon-Fri", "time": "4:45pm"}, {"days": "Sat", "time": "11:30am"}, {"days": "Sun", "time": "Closed"}], "id": "1807400002", "name": "USPS COLLECTION BOX - PO LOBBY", "address": {"city": "PERKIOMENVILLE", "state": "PA", "street": "1463 GRAVEL PIKE", "postcode": "18074"}}},
{"geometry": {"type": "Point", "coordinates": [-75.4823138923, 40.3757584256]}, "type": "Feature", "properties": {"collection_times": [{"days": "Mon-Fri", "time": "5:00pm"}, {"days": "Sat", "time": "3:00pm"}, {"days": "Sun", "time": "Closed"}], "id": "1807600001", "name": "USPS COLLECTION BOX - BLUE BOX", "address": {"city": "RED HILL", "state": "PA", "street": "427 MAIN ST", "postcode": "18076"}}},
{"geometry": {"type": "Point", "coordinates": [-75.4823138923, 40.3757584256]}, "type": "Feature", "properties": {"collection_times": [{"days": "Mon-Fri", "time": "5:00pm"}, {"days": "Sat", "time": "3:00pm"}, {"days": "Sun", "time": "Closed"}], "id": "1807600012", "name": "USPS COLLECTION BOX - PO LOBBY", "address": {"city": "RED HILL", "state": "PA", "street": "427 MAIN ST", "postcode": "18076"}}},
{"geometry": {"type": "Point", "coordinates": [-75.1935784351, 40.5943916194]}, "type": "Feature", "properties": {"collection_times": [{"days": "Mon-Fri", "time": "4:30pm"}, {"days": "Sat", "time": "12:00pm"}, {"days": "Sun", "time": "Closed"}], "id": "1807700001", "name": "USPS COLLECTION BOX - BLUE BOX", "address": {"city": "RIEGELSVILLE", "state": "PA", "street": "114 DELAWARE RD", "postcode": "18077"}}},
{"geometry": {"type": "Point", "coordinates": [-75.1935784351, 40.5943916194]}, "type": "Feature", "properties": {"collection_times": [{"days": "Mon-Fri", "time": "4:30pm"}, {"days": "Sat", "time": "12:00pm"}, {"days": "Sun", "time": "Closed"}], "id": "1807700002", "name": "USPS COLLECTION BOX - PO LOBBY", "address": {"city": "RIEGELSVILLE", "state": "PA", "street": "114 DELAWARE RD", "postcode": "18077"}}},
{"geometry": {"type": "Point", "coordinates": [-75.6085572619, 40.6706653662]}, "type": "Feature", "properties": {"collection_times": [{"days": "Mon-Fri", "time": "4:30pm"}, {"days": "Sat", "time": "11:30am"}, {"days": "Sun", "time": "Closed"}], "id": "1807800001", "name": "USPS COLLECTION BOX - BLUE BOX", "address": {"city": "SCHNECKSVILLE", "state": "PA", "street": "4709 ROUTE 309", "postcode": "18078"}}},
{"geometry": {"type": "Point", "coordinates": [-75.6085572619, 40.6706653662]}, "type": "Feature", "properties": {"collection_times": [{"days": "Mon-Fri", "time": "4:30pm"}, {"days": "Sat", "time": "11:30am"}, {"days": "Sun", "time": "Closed"}], "id": "1807800004", "name": "USPS COLLECTION BOX - PO LOBBY", "address": {"city": "SCHNECKSVILLE", "state": "PA", "street": "4709 ROUTE 309", "postcode": "18078"}}},
{"geometry": {"type": "Point", "coordinates": [-75.606565057, 40.7525988243]}, "type": "Feature", "properties": {"collection_times": [{"days": "Mon-Fri", "time": "4:15pm"}, {"days": "Sat", "time": "11:00am"}, {"days": "Sun", "time": "Closed"}], "id": "1807900001", "name": "USPS COLLECTION BOX - BLUE BOX", "address": {"city": "SLATEDALE", "state": "PA", "street": "4016 MAIN ST", "postcode": "18079"}}},
{"geometry": {"type": "Point", "coordinates": [-75.606565057, 40.7525988243]}, "type": "Feature", "properties": {"collection_times": [{"days": "Mon-Fri", "time": "4:15pm"}, {"days": "Sat", "time": "11:00am"}, {"days": "Sun", "time": "Closed"}], "id": "1807900002", "name": "USPS COLLECTION BOX - PO LOBBY", "address": {"city": "SLATEDALE", "state": "PA", "street": "4016 MAIN ST", "postcode": "18079"}}},
{"geometry": {"type": "Point", "coordinates": [-75.6128747073, 40.7514839372]}, "type": "Feature", "properties": {"collection_times": [{"days": "Mon-Fri", "time": "5:00pm"}, {"days": "Sat", "time": "3:00pm"}, {"days": "Sun", "time": "Closed"}], "id": "1808000001", "name": "USPS COLLECTION BOX - BLUE BOX", "address": {"city": "SLATINGTON", "state": "PA", "street": "605 MAIN ST", "postcode": "18080"}}},
{"geometry": {"type": "Point", "coordinates": [-75.6108707749, 40.7464646424]}, "type": "Feature", "properties": {"collection_times": [{"days": "Mon-Sat", "time": "9:30am"}, {"days": "Sun", "time": "Closed"}], "id": "1808000002", "name": "USPS COLLECTION BOX - BLUE BOX", "address": {"city": "SLATINGTON", "state": "PA", "street": "1108 MAIN ST", "postcode": "18080"}}},
{"geometry": {"type": "Point", "coordinates": [-75.6056693043, 40.7510379617]}, "type": "Feature", "properties": {"collection_times": [{"days": "Mon-Sat", "time": "12:00pm"}, {"days": "Sun", "time": "Closed"}], "id": "1808000005", "name": "USPS COLLECTION BOX - BLUE BOX", "address": {"city": "SLATINGTON", "state": "PA", "street": "125 S WALNUT ST", "postcode": "18080"}}},
{"geometry": {"type": "Point", "coordinates": [-75.6095837155, 40.7625493354]}, "type": "Feature", "properties": {"collection_times": [{"days": "Mon-Fri", "time": "12:30pm"}, {"days": "Sat", "time": "12:00pm"}, {"days": "Sun", "time": "Closed"}], "id": "1808000006", "name": "USPS COLLECTION BOX - BLUE BOX", "address": {"city": "SLATINGTON", "state": "PA", "street": "1006 OAKHURST DR", "postcode": "18080"}}},
{"geometry": {"type": "Point", "coordinates": [-75.6080218976, 40.7525553651]}, "type": "Feature", "properties": {"collection_times": [{"days": "Mon-Fri", "time": "12:30pm"}, {"days": "Sat", "time": "12:00pm"}, {"days": "Sun", "time": "Closed"}], "id": "1808000007", "name": "USPS COLLECTION BOX - BLUE BOX", "address": {"city": "SLATINGTON", "state": "PA", "street": "302 MAIN ST", "postcode": "18080"}}},
{"geometry": {"type": "Point", "coordinates": [-75.6346754581, 40.7440443083]}, "type": "Feature", "properties": {"collection_times": [{"days": "Mon-Sat", "time": "9:30am"}, {"days": "Sun", "time": "Closed"}], "id": "1808000009", "name": "USPS COLLECTION BOX - BLUE BOX", "address": {"city": "SLATINGTON", "state": "PA", "street": "3408 MAIN ST", "postcode": "18080"}}},
{"geometry": {"type": "Point", "coordinates": [-75.6128747073, 40.7514839372]}, "type": "Feature", "properties": {"collection_times": [{"days": "Mon-Fri", "time": "5:00pm"}, {"days": "Sat", "time": "3:00pm"}, {"days": "Sun", "time": "Closed"}], "id": "1808000022", "name": "USPS COLLECTION BOX - PO LOBBY", "address": {"city": "SLATINGTON", "state": "PA", "street": "605 MAIN ST", "postcode": "18080"}}},
{"geometry": {"type": "Point", "coordinates": [-75.2882026553, 40.5571854745]}, "type": "Feature", "properties": {"collection_times": [{"days": "Mon-Fri", "time": "4:45pm"}, {"days": "Sat", "time": "11:30am"}, {"days": "Sun", "time": "Closed"}], "id": "1808100001", "name": "USPS COLLECTION BOX - BLUE BOX", "address": {"city": "SPRINGTOWN", "state": "PA", "street": "3147 ROUTE 212", "postcode": "18081"}}},
{"geometry": {"type": "Point", "coordinates": [-75.2882026553, 40.5571854745]}, "type": "Feature", "properties": {"collection_times": [{"days": "Mon-Fri", "time": "4:45pm"}, {"days": "Sat", "time": "11:30am"}, {"days": "Sun", "time": "Closed"}], "id": "1808100002", "name": "USPS COLLECTION BOX - PO LOBBY", "address": {"city": "SPRINGTOWN", "state": "PA", "street": "3147 ROUTE 212", "postcode": "18081"}}},
{"geometry": {"type": "Point", "coordinates": [-75.2882026553, 40.5571854745]}, "type": "Feature", "properties": {"collection_times": [{"days": "Mon-Fri", "time": "4:45pm"}, {"days": "Sat", "time": "11:30am"}, {"days": "Sun", "time": "Closed"}], "id": "1808100003", "name": "USPS COLLECTION BOX - PO LOBBY", "address": {"city": "SPRINGTOWN", "state": "PA", "street": "3147 ROUTE 212", "postcode": "18081"}}},
{"geometry": {"type": "Point", "coordinates": [-75.2624634546, 40.7554552446]}, "type": "Feature", "properties": {"collection_times": [{"days": "Mon-Fri", "time": "4:00pm"}, {"days": "Sat", "time": "12:00pm"}, {"days": "Sun", "time": "Closed"}], "id": "1808300001", "name": "USPS COLLECTION BOX - BLUE BOX", "address": {"city": "STOCKERTOWN", "state": "PA", "street": "209 MAIN ST", "postcode": "18083"}}},
{"geometry": {"type": "Point", "coordinates": [-75.2624634546, 40.7554552446]}, "type": "Feature", "properties": {"collection_times": [{"days": "Mon-Fri", "time": "4:00pm"}, {"days": "Sat", "time": "12:00pm"}, {"days": "Sun", "time": "Closed"}], "id": "1808300002", "name": "USPS COLLECTION BOX - PO LOBBY", "address": {"city": "STOCKERTOWN", "state": "PA", "street": "209 MAIN ST", "postcode": "18083"}}},
{"geometry": {"type": "Point", "coordinates": [-75.2624634546, 40.7554552446]}, "type": "Feature", "properties": {"collection_times": [{"days": "Mon-Fri", "time": "4:00pm"}, {"days": "Sat", "time": "12:00pm"}, {"days": "Sun", "time": "Closed"}], "id": "1808300003", "name": "USPS COLLECTION BOX - PO LOBBY", "address": {"city": "STOCKERTOWN", "state": "PA", "street": "209 MAIN ST", "postcode": "18083"}}},
{"geometry": {"type": "Point", "coordinates": [-75.4547470745, 40.3288383281]}, "type": "Feature", "properties": {"collection_times": [{"days": "Mon-Fri", "time": "4:30pm"}, {"days": "Sat", "time": "11:15am"}, {"days": "Sun", "time": "Closed"}], "id": "1808400001", "name": "USPS COLLECTION BOX - BLUE BOX", "address": {"city": "SUMNEYTOWN", "state": "PA", "street": "3196 MAIN ST", "postcode": "18084"}}},
{"geometry": {"type": "Point", "coordinates": [-75.4547470745, 40.3288383281]}, "type": "Feature", "properties": {"collection_times": [{"days": "Mon-Fri", "time": "4:30pm"}, {"days": "Sat", "time": "11:15am"}, {"days": "Sun", "time": "Closed"}], "id": "1808400002", "name": "USPS COLLECTION BOX - PO LOBBY", "address": {"city": "SUMNEYTOWN", "state": "PA", "street": "3196 MAIN ST", "postcode": "18084"}}},
{"geometry": {"type": "Point", "coordinates": [-75.2531759237, 40.7403984288]}, "type": "Feature", "properties": {"collection_times": [{"days": "Mon-Fri", "time": "3:45pm"}, {"days": "Sat", "time": "10:45am"}, {"days": "Sun", "time": "Closed"}], "id": "1808500001", "name": "USPS COLLECTION BOX - BLUE BOX", "address": {"city": "TATAMY", "state": "PA", "street": "423 BROAD ST", "postcode": "18085"}}},
{"geometry": {"type": "Point", "coordinates": [-75.2531759237, 40.7403984288]}, "type": "Feature", "properties": {"collection_times": [{"days": "Mon-Fri", "time": "3:45pm"}, {"days": "Sat", "time": "10:45am"}, {"days": "Sun", "time": "Closed"}], "id": "1808500002", "name": "USPS COLLECTION BOX - PO LOBBY", "address": {"city": "TATAMY", "state": "PA", "street": "423 BROAD ST", "postcode": "18085"}}},
{"geometry": {"type": "Point", "coordinates": [-75.544409975, 40.7361234013]}, "type": "Feature", "properties": {"collection_times": [{"days": "Mon-Fri", "time": "4:30pm"}, {"days": "Sat", "time": "11:30am"}, {"days": "Sun", "time": "Closed"}], "id": "1808600001", "name": "USPS COLLECTION BOX - BLUE BOX", "address": {"city": "TREICHLERS", "state": "PA", "street": "331 E BREADFRUIT DR", "postcode": "18086"}}},
{"geometry": {"type": "Point", "coordinates": [-75.544409975, 40.7361234013]}, "type": "Feature", "properties": {"collection_times": [{"days": "Mon-Fri", "time": "4:30pm"}, {"days": "Sat", "time": "11:30am"}, {"days": "Sun", "time": "Closed"}], "id": "1808600002", "name": "USPS COLLECTION BOX - PO LOBBY", "address": {"city": "TREICHLERS", "state": "PA", "street": "331 E BREADFRUIT DR", "postcode": "18086"}}},
{"geometry": {"type": "Point", "coordinates": [-75.5987856661, 40.5502791787]}, "type": "Feature", "properties": {"collection_times": [{"days": "Mon-Fri", "time": "4:45pm"}, {"days": "Sat", "time": "1:00pm"}, {"days": "Sun", "time": "Closed"}], "id": "1808700001", "name": "USPS COLLECTION BOX - BLUE BOX", "address": {"city": "TREXLERTOWN", "state": "PA", "street": "7150 HAMILTON BLVD", "postcode": "18087"}}},
{"geometry": {"type": "Point", "coordinates": [-75.5987856661, 40.5502791787]}, "type": "Feature", "properties": {"collection_times": [{"days": "Mon-Fri", "time": "4:45pm"}, {"days": "Sat", "time": "1:00pm"}, {"days": "Sun", "time": "Closed"}], "id": "1808700003", "name": "USPS COLLECTION BOX - BLUE BOX", "address": {"city": "TREXLERTOWN", "state": "PA", "street": "7150 HAMILTON BLVD", "postcode": "18087"}}},
{"geometry": {"type": "Point", "coordinates": [-75.5987856661, 40.5502791787]}, "type": "Feature", "properties": {"collection_times": [{"days": "Mon-Fri", "time": "4:45pm"}, {"days": "Sat", "time": "1:00pm"}, {"days": "Sun", "time": "Closed"}], "id": "1808700004", "name": "USPS COLLECTION BOX - PO LOBBY", "address": {"city": "TREXLERTOWN", "state": "PA", "street": "7150 HAMILTON BLVD", "postcode": "18087"}}},
{"geometry": {"type": "Point", "coordinates": [-75.5703659808, 40.7565115587]}, "type": "Feature", "properties": {"collection_times": [{"days": "Mon-Fri", "time": "4:15pm"}, {"days": "Sat", "time": "12:15pm"}, {"days": "Sun", "time": "Closed"}], "id": "1808800001", "name": "USPS COLLECTION BOX - BLUE BOX", "address": {"city": "WALNUTPORT", "state": "PA", "street": "249 LEHIGH GAP ST", "postcode": "18088"}}},
{"geometry": {"type": "Point", "coordinates": [-75.5703659808, 40.7565115587]}, "type": "Feature", "properties": {"collection_times": [{"days": "Mon-Fri", "time": "4:15pm"}, {"days": "Sat", "time": "12:15pm"}, {"days": "Sun", "time": "Closed"}], "id": "1808800004", "name": "USPS COLLECTION BOX - EXPRESS", "address": {"city": "WALNUTPORT", "state": "PA", "street": "249 LEHIGH GAP ST", "postcode": "18088"}}},
{"geometry": {"type": "Point", "coordinates": [-75.5703659808, 40.7565115587]}, "type": "Feature", "properties": {"collection_times": [{"days": "Mon-Fri", "time": "4:15pm"}, {"days": "Sat", "time": "12:15pm"}, {"days": "Sun", "time": "Closed"}], "id": "1808800006", "name": "USPS COLLECTION BOX - PO LOBBY", "address": {"city": "WALNUTPORT", "state": "PA", "street": "249 LEHIGH GAP ST", "postcode": "18088"}}},
{"geometry": {"type": "Point", "coordinates": [-75.2915341, 40.8505905618]}, "type": "Feature", "properties": {"collection_times": [{"days": "Mon-Fri", "time": "5:00pm"}, {"days": "Sat", "time": "12:00pm"}, {"days": "Sun", "time": "Closed"}], "id": "1809100001", "name": "USPS COLLECTION BOX - BLUE BOX", "address": {"city": "WIND GAP", "state": "PA", "street": "138 N BROADWAY", "postcode": "18091"}}},
{"geometry": {"type": "Point", "coordinates": [-75.2915341, 40.8505905618]}, "type": "Feature", "properties": {"collection_times": [{"days": "Mon-Fri", "time": "5:00pm"}, {"days": "Sat", "time": "12:00pm"}, {"days": "Sun", "time": "Closed"}], "id": "1809100008", "name": "USPS COLLECTION BOX - BLUE BOX", "address": {"city": "WIND GAP", "state": "PA", "street": "138 N BROADWAY", "postcode": "18091"}}},
{"geometry": {"type": "Point", "coordinates": [-75.2915341, 40.8505905618]}, "type": "Feature", "properties": {"collection_times": [{"days": "Mon-Fri", "time": "5:00pm"}, {"days": "Sat", "time": "12:00pm"}, {"days": "Sun", "time": "Closed"}], "id": "1809100012", "name": "USPS COLLECTION BOX - PO LOBBY", "address": {"city": "WIND GAP", "state": "PA", "street": "138 N BROADWAY", "postcode": "18091"}}}
]}
