{"type": "FeatureCollection", "features": [
{"geometry": {"type": "Point", "coordinates": [-75.4737847582, 40.6016858435]}, "type": "Feature", "properties": {"collection_times": [{"days": "Mon-Fri", "time": "4:30pm"}, {"days": "Sat", "time": "12:00pm"}, {"days": "Sun", "time": "Closed"}], "id": "1810100017", "name": "USPS COLLECTION BOX - BLUE BOX", "address": {"city": "ALLENTOWN", "state": "PA", "street": "801 HAMILTON ST", "postcode": "18101"}}},
{"geometry": {"type": "Point", "coordinates": [-75.4808000654, 40.5996330383]}, "type": "Feature", "properties": {"collection_times": [{"days": "Mon-Fri", "time": "4:00pm"}, {"days": "Sat", "time": "1:30pm"}, {"days": "Sun", "time": "Closed"}], "id": "1810100025", "name": "USPS COLLECTION BOX - BLUE BOX", "address": {"city": "ALLENTOWN", "state": "PA", "street": "1132 HAMILTON ST", "postcode": "18101"}}},
{"geometry": {"type": "Point", "coordinates": [-75.4722066909, 40.603343169]}, "type": "Feature", "properties": {"collection_times": [{"days": "Mon-Fri", "time": "4:30pm"}, {"days": "Sat", "time": "12:00pm"}, {"days": "Sun", "time": "Closed"}], "id": "1810100030", "name": "USPS COLLECTION BOX - BLUE BOX", "address": {"city": "ALLENTOWN", "state": "PA", "street": "33 S 7TH ST", "postcode": "18101"}}},
{"geometry": {"type": "Point", "coordinates": [-75.4784716416, 40.6003727591]}, "type": "Feature", "properties": {"collection_times": [{"days": "Mon-Fri", "time": "4:00pm"}, {"days": "Sat", "time": "1:30pm"}, {"days": "Sun", "time": "Closed"}], "id": "1810100031", "name": "USPS COLLECTION BOX - BLUE BOX", "address": {"city": "ALLENTOWN", "state": "PA", "street": "1014 HAMILTON ST", "postcode": "18101"}}},
{"geometry": {"type": "Point", "coordinates": [-75.4669637683, 40.6034801994]}, "type": "Feature", "properties": {"collection_times": [{"days": "Mon-Fri", "time": "5:30pm"}, {"days": "Sat", "time": "1:30pm"}, {"days": "Sun", "time": "Closed"}], "id": "1810100033", "name": "USPS COLLECTION BOX - BLUE BOX", "address": {"city": "ALLENTOWN", "state": "PA", "street": "442 HAMILTON ST", "postcode": "18101"}}},
{"geometry": {"type": "Point", "coordinates": [-75.4669637683, 40.6034801994]}, "type": "Feature", "properties": {"collection_times": [{"days": "Mon-Fri", "time": "5:30pm"}, {"days": "Sat", "time": "1:30pm"}, {"days": "Sun", "time": "Closed"}], "id": "1810100034", "name": "USPS COLLECTION BOX - BLUE BOX", "address": {"city": "ALLENTOWN", "state": "PA", "street": "442 HAMILTON ST", "postcode": "18101"}}},
{"geometry": {"type": "Point", "coordinates": [-75.4669637683, 40.6034801994]}, "type": "Feature", "properties": {"collection_times": [{"days": "Mon-Fri", "time": "5:30pm"}, {"days": "Sat", "time": "1:30pm"}, {"days": "Sun", "time": "Closed"}], "id": "1810100036", "name": "USPS COLLECTION BOX - PO LOBBY", "address": {"city": "ALLENTOWN", "state": "PA", "street": "442 HAMILTON ST", "postcode": "18101"}}},
{"geometry": {"type": "Point", "coordinates": [-75.4621292354, 40.6106369782]}, "type": "Feature", "properties": {"collection_times": [{"days": "Mon-Sat", "time": "12:00pm"}, {"days": "Sun", "time": "Closed"}], "id": "1810200011", "name": "USPS COLLECTION BOX - BLUE BOX", "address": {"city": "ALLENTOWN", "state": "PA", "street": "347 N 2ND ST", "postcode": "18102"}}},
{"geometry": {"type": "Point", "coordinates": [-75.4682094726, 40.6079413305]}, "type": "Feature", "properties": {"collection_times": [{"days": "Mon-Fri", "time": "4:30pm"}, {"days": "Sat", "time": "12:00pm"}, {"days": "Sun", "time": "Closed"}], "id": "1810200021", "name": "USPS COLLECTION BOX - BLUE BOX", "address": {"city": "ALLENTOWN", "state": "PA", "street": "421 CHEW ST", "postcode": "18102"}}},
{"geometry": {"type": "Point", "coordinates": [-75.4740449223, 40.6070496416]}, "type": "Feature", "properties": {"collection_times": [{"days": "Mon-Sat", "time": "12:30pm"}, {"days": "Sun", "time": "Closed"}], "id": "1810200036", "name": "USPS COLLECTION BOX - BLUE BOX", "address": {"city": "ALLENTOWN", "state": "PA", "street": "344 N 7TH ST", "postcode": "18102"}}},
{"geometry": {"type": "Point", "coordinates": [-75.4763703661, 40.6119277294]}, "type": "Feature", "properties": {"collection_times": [{"days": "Mon-Sat", "time": "12:00pm"}, {"days": "Sun", "time": "Closed"}], "id": "1810200038", "name": "USPS COLLECTION BOX - BLUE BOX", "address": {"city": "ALLENTOWN", "state": "PA", "street": "702 N 7TH ST", "postcode": "18102"}}},
{"geometry": {"type": "Point", "coordinates": [-75.4752370719, 40.6054077228]}, "type": "Feature", "properties": {"collection_times": [{"days": "Mon-Sat", "time": "12:30pm"}, {"days": "Sun", "time": "Closed"}], "id": "1810200039", "name": "USPS COLLECTION BOX - BLUE BOX", "address": {"city": "ALLENTOWN", "state": "PA", "street": "247 N 8TH ST", "postcode": "18102"}}},
{"geometry": {"type": "Point", "coordinates": [-75.487095276, 40.6106116153]}, "type": "Feature", "properties": {"collection_times": [{"days": "Mon-Fri", "time": "4:30pm"}, {"days": "Sat", "time": "12:30pm"}, {"days": "Sun", "time": "Closed"}], "id": "1810200055", "name": "USPS COLLECTION BOX - BLUE BOX", "address": {"city": "ALLENTOWN", "state": "PA", "street": "1202 W WASHINGTON ST", "postcode": "18102"}}},
{"geometry": {"type": "Point", "coordinates": [-75.4876734006, 40.6086604561]}, "type": "Feature", "properties": {"collection_times": [{"days": "Mon-Sat", "time": "12:30pm"}, {"days": "Sun", "time": "Closed"}], "id": "1810200056", "name": "USPS COLLECTION BOX - BLUE BOX", "address": {"city": "ALLENTOWN", "state": "PA", "street": "1250 W TILGHMAN ST", "postcode": "18102"}}},
{"geometry": {"type": "Point", "coordinates": [-75.4927262971, 40.6026487721]}, "type": "Feature", "properties": {"collection_times": [{"days": "Mon-Sat", "time": "12:30pm"}, {"days": "Sun", "time": "Closed"}], "id": "1810200077", "name": "USPS COLLECTION BOX - BLUE BOX", "address": {"city": "ALLENTOWN", "state": "PA", "street": "349 N 16TH ST", "postcode": "18102"}}},
{"geometry": {"type": "Point", "coordinates": [-75.4894861725, 40.5989023411]}, "type": "Feature", "properties": {"collection_times": [{"days": "Mon-Fri", "time": "4:30pm"}, {"days": "Sat", "time": "1:00pm"}, {"days": "Sun", "time": "Closed"}], "id": "1810200165", "name": "USPS COLLECTION BOX - BLUE BOX", "address": {"city": "ALLENTOWN", "state": "PA", "street": "1524 W LINDEN ST", "postcode": "18102"}}},
{"geometry": {"type": "Point", "coordinates": [-75.5197214207, 40.5739241625]}, "type": "Feature", "properties": {"collection_times": [{"days": "Mon-Fri", "time": "4:15pm"}, {"days": "Sat", "time": "1:30pm"}, {"days": "Sun", "time": "Closed"}], "id": "1810300040", "name": "USPS COLLECTION BOX - BLUE BOX", "address": {"city": "ALLENTOWN", "state": "PA", "street": "1033 S CEDAR CREST BLVD", "postcode": "18103"}}},
{"geometry": {"type": "Point", "coordinates": [-75.530521836, 40.6062449674]}, "type": "Feature", "properties": {"collection_times": [{"days": "Mon-Fri", "time": "4:30pm"}, {"days": "Sat-Sun", "time": "Closed"}], "id": "1810300042", "name": "USPS COLLECTION BOX - BLUE BOX", "address": {"city": "ALLENTOWN", "state": "PA", "street": "1210 S CEDAR CREST BLVD", "postcode": "18103"}}},
{"geometry": {"type": "Point", "coordinates": [-75.5183905918, 40.5658575653]}, "type": "Feature", "properties": {"collection_times": [{"days": "Mon-Fri", "time": "4:30pm"}, {"days": "Sat", "time": "1:30pm"}, {"days": "Sun", "time": "Closed"}], "id": "1810300047", "name": "USPS COLLECTION BOX - BLUE BOX", "address": {"city": "ALLENTOWN", "state": "PA", "street": "1251 S CEDAR CREST BLVD", "postcode": "18103"}}},
{"geometry": {"type": "Point", "coordinates": [-75.4593604015, 40.585025821]}, "type": "Feature", "properties": {"collection_times": [{"days": "Mon-Sat", "time": "12:00pm"}, {"days": "Sun", "time": "Closed"}], "id": "1810300052", "name": "USPS COLLECTION BOX - BLUE BOX", "address": {"city": "ALLENTOWN", "state": "PA", "street": "1610 S 4TH ST", "postcode": "18103"}}},
{"geometry": {"type": "Point", "coordinates": [-75.4556653757, 40.5938097027]}, "type": "Feature", "properties": {"collection_times": [{"days": "Mon-Sat", "time": "12:00pm"}, {"days": "Sun", "time": "Closed"}], "id": "1810300055", "name": "USPS COLLECTION BOX - BLUE BOX", "address": {"city": "ALLENTOWN", "state": "PA", "street": "759 S FILMORE ST", "postcode": "18103"}}},
{"geometry": {"type": "Point", "coordinates": [-75.4557220286, 40.577086251]}, "type": "Feature", "properties": {"collection_times": [{"days": "Mon-Fri", "time": "4:30pm"}, {"days": "Sat", "time": "12:00pm"}, {"days": "Sun", "time": "Closed"}], "id": "1810300064", "name": "USPS COLLECTION BOX - BLUE BOX", "address": {"city": "ALLENTOWN", "state": "PA", "street": "2004 S 5TH ST", "postcode": "18103"}}},
{"geometry": {"type": "Point", "coordinates": [-75.4642519355, 40.5929303612]}, "type": "Feature", "properties": {"collection_times": [{"days": "Mon-Sat", "time": "12:00pm"}, {"days": "Sun", "time": "Closed"}], "id": "1810300068", "name": "USPS COLLECTION BOX - BLUE BOX", "address": {"city": "ALLENTOWN", "state": "PA", "street": "543 SAINT JOHN ST", "postcode": "18103"}}},
{"geometry": {"type": "Point", "coordinates": [-75.4213855908, 40.5924540317]}, "type": "Feature", "properties": {"collection_times": [{"days": "Mon-Sat", "time": "12:30pm"}, {"days": "Sun", "time": "Closed"}], "id": "1810300075", "name": "USPS COLLECTION BOX - BLUE BOX", "address": {"city": "ALLENTOWN", "state": "PA", "street": "1501 LEHIGH ST", "postcode": "18103"}}},
{"geometry": {"type": "Point", "coordinates": [-75.4758904251, 40.584835776]}, "type": "Feature", "properties": {"collection_times": [{"days": "Mon-Sat", "time": "12:30pm"}, {"days": "Sun", "time": "Closed"}], "id": "1810300079", "name": "USPS COLLECTION BOX - BLUE BOX", "address": {"city": "ALLENTOWN", "state": "PA", "street": "1224 LEHIGH ST", "postcode": "18103"}}},
{"geometry": {"type": "Point", "coordinates": [-75.5261956929, 40.5778049272]}, "type": "Feature", "properties": {"collection_times": [{"days": "Mon-Fri", "time": "4:15pm"}, {"days": "Sat", "time": "1:30pm"}, {"days": "Sun", "time": "Closed"}], "id": "1810300086", "name": "USPS COLLECTION BOX - BLUE BOX", "address": {"city": "ALLENTOWN", "state": "PA", "street": "3434 HAMILTON BLVD", "postcode": "18103"}}},
{"geometry": {"type": "Point", "coordinates": [-75.4887929585, 40.5595393815]}, "type": "Feature", "properties": {"collection_times": [{"days": "Mon-Sat", "time": "1:00pm"}, {"days": "Sun", "time": "Closed"}], "id": "1810300087", "name": "USPS COLLECTION BOX - BLUE BOX", "address": {"city": "ALLENTOWN", "state": "PA", "street": "3026 MORAVIAN AVE", "postcode": "18103"}}},
{"geometry": {"type": "Point", "coordinates": [-75.5226036131, 40.5836802006]}, "type": "Feature", "properties": {"collection_times": [{"days": "Mon-Fri", "time": "4:00pm"}, {"days": "Sat", "time": "1:00pm"}, {"days": "Sun", "time": "Closed"}], "id": "1810300104", "name": "USPS COLLECTION BOX - BLUE BOX", "address": {"city": "ALLENTOWN", "state": "PA", "street": "365 S CEDAR CREST BLVD", "postcode": "18103"}}},
{"geometry": {"type": "Point", "coordinates": [-75.4769113187, 40.5721414434]}, "type": "Feature", "properties": {"collection_times": [{"days": "Mon-Fri", "time": "4:30pm"}, {"days": "Sat", "time": "12:30pm"}, {"days": "Sun", "time": "Closed"}], "id": "1810300109", "name": "USPS COLLECTION BOX - BLUE BOX", "address": {"city": "ALLENTOWN", "state": "PA", "street": "2141 DOWNYFLAKE LN", "postcode": "18103"}}},
{"geometry": {"type": "Point", "coordinates": [-75.4817539357, 40.570589351]}, "type": "Feature", "properties": {"collection_times": [{"days": "Mon-Fri", "time": "5:00pm"}, {"days": "Sat", "time": "12:30pm"}, {"days": "Sun", "time": "Closed"}], "id": "1810300114", "name": "USPS COLLECTION BOX - BLUE BOX", "address": {"city": "ALLENTOWN", "state": "PA", "street": "2300 LEHIGH ST", "postcode": "18103"}}},
{"geometry": {"type": "Point", "coordinates": [-75.4954817103, 40.6036320818]}, "type": "Feature", "properties": {"collection_times": [{"days": "Mon-Fri", "time": "4:30pm"}, {"days": "Sat", "time": "1:30pm"}, {"days": "Sun", "time": "Closed"}], "id": "1810400002", "name": "USPS COLLECTION BOX - BLUE BOX", "address": {"city": "ALLENTOWN", "state": "PA", "street": "501 N 17TH ST", "postcode": "18104"}}},
{"geometry": {"type": "Point", "coordinates": [-75.4911928583, 40.594551761]}, "type": "Feature", "properties": {"collection_times": [{"days": "Mon-Sat", "time": "1:00pm"}, {"days": "Sun", "time": "Closed"}], "id": "1810400004", "name": "USPS COLLECTION BOX - BLUE BOX", "address": {"city": "ALLENTOWN", "state": "PA", "street": "135 S 17TH ST", "postcode": "18104"}}},
{"geometry": {"type": "Point", "coordinates": [-75.5039786028, 40.6113423375]}, "type": "Feature", "properties": {"collection_times": [{"days": "Mon-Sat", "time": "1:30pm"}, {"days": "Sun", "time": "Closed"}], "id": "1810400016", "name": "USPS COLLECTION BOX - BLUE BOX", "address": {"city": "ALLENTOWN", "state": "PA", "street": "1051 N 19TH ST", "postcode": "18104"}}},
{"geometry": {"type": "Point", "coordinates": [-75.4702570287, 40.6026020974]}, "type": "Feature", "properties": {"collection_times": [{"days": "Mon-Fri", "time": "4:30pm"}, {"days": "Sat", "time": "1:30pm"}, {"days": "Sun", "time": "Closed"}], "id": "1810400021", "name": "USPS COLLECTION BOX - BLUE BOX", "address": {"city": "ALLENTOWN", "state": "PA", "street": "N 19TH ST", "postcode": "18104"}}},
{"geometry": {"type": "Point", "coordinates": [-75.4992574135, 40.594638957]}, "type": "Feature", "properties": {"collection_times": [{"days": "Mon-Fri", "time": "4:30pm"}, {"days": "Sat", "time": "1:00pm"}, {"days": "Sun", "time": "Closed"}], "id": "1810400026", "name": "USPS COLLECTION BOX - BLUE BOX", "address": {"city": "ALLENTOWN", "state": "PA", "street": "2015 HAMILTON ST", "postcode": "18104"}}},
{"geometry": {"type": "Point", "coordinates": [-75.5042018512, 40.6040961321]}, "type": "Feature", "properties": {"collection_times": [{"days": "Mon-Fri", "time": "4:15pm"}, {"days": "Sat", "time": "1:30pm"}, {"days": "Sun", "time": "Closed"}], "id": "1810400027", "name": "USPS COLLECTION BOX - BLUE BOX", "address": {"city": "ALLENTOWN", "state": "PA", "street": "2030 W TILGHMAN ST", "postcode": "18104"}}},
{"geometry": {"type": "Point", "coordinates": [-75.5083176963, 40.6000521772]}, "type": "Feature", "properties": {"collection_times": [{"days": "Mon-Fri", "time": "3:45pm"}, {"days": "Sat", "time": "1:30pm"}, {"days": "Sun", "time": "Closed"}], "id": "1810400039", "name": "USPS COLLECTION BOX - BLUE BOX", "address": {"city": "ALLENTOWN", "state": "PA", "street": "2301 W LIBERTY ST", "postcode": "18104"}}},
{"geometry": {"type": "Point", "coordinates": [-75.5098922146, 40.5862304846]}, "type": "Feature", "properties": {"collection_times": [{"days": "Mon-Sat", "time": "1:00pm"}, {"days": "Sun", "time": "Closed"}], "id": "1810400043", "name": "USPS COLLECTION BOX - BLUE BOX", "address": {"city": "ALLENTOWN", "state": "PA", "street": "344 S OTT ST", "postcode": "18104"}}},
{"geometry": {"type": "Point", "coordinates": [-75.5234367029, 40.5939851232]}, "type": "Feature", "properties": {"collection_times": [{"days": "Mon-Fri", "time": "4:00pm"}, {"days": "Sat", "time": "1:00pm"}, {"days": "Sun", "time": "Closed"}], "id": "1810400049", "name": "USPS COLLECTION BOX - BLUE BOX", "address": {"city": "ALLENTOWN", "state": "PA", "street": "3057 COLLEGE HEIGHTS BLVD", "postcode": "18104"}}},
{"geometry": {"type": "Point", "coordinates": [-75.5275121108, 40.5976174143]}, "type": "Feature", "properties": {"collection_times": [{"days": "Mon-Fri", "time": "5:00pm"}, {"days": "Sat", "time": "1:00pm"}, {"days": "Sun", "time": "Closed"}], "id": "1810400053", "name": "USPS COLLECTION BOX - BLUE BOX", "address": {"city": "ALLENTOWN", "state": "PA", "street": "3140 W TILGHMAN ST", "postcode": "18104"}}},
{"geometry": {"type": "Point", "coordinates": [-75.5501707844, 40.5914745417]}, "type": "Feature", "properties": {"collection_times": [{"days": "Mon-Fri", "time": "4:30pm"}, {"days": "Sat", "time": "12:30pm"}, {"days": "Sun", "time": "Closed"}], "id": "1810400056", "name": "USPS COLLECTION BOX - BLUE BOX", "address": {"city": "ALLENTOWN", "state": "PA", "street": "4200 W TILGHMAN ST", "postcode": "18104"}}},
{"geometry": {"type": "Point", "coordinates": [-75.5656841083, 40.5904110616]}, "type": "Feature", "properties": {"collection_times": [{"days": "Mon-Fri", "time": "4:30pm"}, {"days": "Sat-Sun", "time": "Closed"}], "id": "1810400065", "name": "USPS COLLECTION BOX - BLUE BOX", "address": {"city": "ALLENTOWN", "state": "PA", "street": "5050 W TILGHMAN ST", "postcode": "18104"}}},
{"geometry": {"type": "Point", "coordinates": [-75.536000119, 40.5844868031]}, "type": "Feature", "properties": {"collection_times": [{"days": "Mon-Sat", "time": "1:00pm"}, {"days": "Sun", "time": "Closed"}], "id": "1810400069", "name": "USPS COLLECTION BOX - BLUE BOX", "address": {"city": "ALLENTOWN", "state": "PA", "street": "3746 BROADWAY", "postcode": "18104"}}},
{"geometry": {"type": "Point", "coordinates": [-75.5645520166, 40.5901188707]}, "type": "Feature", "properties": {"collection_times": [{"days": "Mon-Fri", "time": "4:00pm"}, {"days": "Sat-Sun", "time": "Closed"}], "id": "1810400072", "name": "USPS COLLECTION BOX - BLUE BOX", "address": {"city": "ALLENTOWN", "state": "PA", "street": "4905 W TILGHMAN ST", "postcode": "18104"}}},
{"geometry": {"type": "Point", "coordinates": [-75.5386582278, 40.6121420178]}, "type": "Feature", "properties": {"collection_times": [{"days": "Mon-Fri", "time": "4:30pm"}, {"days": "Sat", "time": "12:00pm"}, {"days": "Sun", "time": "Closed"}], "id": "1810400073", "name": "USPS COLLECTION BOX - BLUE BOX", "address": {"city": "ALLENTOWN", "state": "PA", "street": "1550 POND RD", "postcode": "18104"}}},
{"geometry": {"type": "Point", "coordinates": [-75.5649112484, 40.6064268419]}, "type": "Feature", "properties": {"collection_times": [{"days": "Mon-Fri", "time": "4:30pm"}, {"days": "Sat", "time": "12:00pm"}, {"days": "Sun", "time": "Closed"}], "id": "1810400078", "name": "USPS COLLECTION BOX - BLUE BOX", "address": {"city": "ALLENTOWN", "state": "PA", "street": "1409 HAUSMAN RD", "postcode": "18104"}}},
{"geometry": {"type": "Point", "coordinates": [-75.5331373583, 40.6132102297]}, "type": "Feature", "properties": {"collection_times": [{"days": "Mon-Fri", "time": "4:30pm"}, {"days": "Sat", "time": "12:00pm"}, {"days": "Sun", "time": "Closed"}], "id": "1810400087", "name": "USPS COLLECTION BOX - BLUE BOX", "address": {"city": "ALLENTOWN", "state": "PA", "street": "1621 N CEDAR CREST BLVD", "postcode": "18104"}}},
{"geometry": {"type": "Point", "coordinates": [-75.5656829254, 40.5904110616]}, "type": "Feature", "properties": {"collection_times": [{"days": "Mon-Fri", "time": "4:30pm"}, {"days": "Sat-Sun", "time": "Closed"}], "id": "1810400094", "name": "USPS COLLECTION BOX - BLUE BOX", "address": {"city": "ALLENTOWN", "state": "PA", "street": "5000 W TILGHMAN ST", "postcode": "18104"}}},
{"geometry": {"type": "Point", "coordinates": [-75.5331373583, 40.6132102297]}, "type": "Feature", "properties": {"collection_times": [{"days": "Mon-Fri", "time": "4:30pm"}, {"days": "Sat", "time": "12:00pm"}, {"days": "Sun", "time": "Closed"}], "id": "1810400099", "name": "USPS COLLECTION BOX - BLUE BOX", "address": {"city": "ALLENTOWN", "state": "PA", "street": "1621 N CEDAR CREST BLVD", "postcode": "18104"}}},
{"geometry": {"type": "Point", "coordinates": [-75.5423455109, 40.5936440885]}, "type": "Feature", "properties": {"collection_times": [{"days": "Mon-Sat", "time": "12:30pm"}, {"days": "Sun", "time": "Closed"}], "id": "1810400103", "name": "USPS COLLECTION BOX - BLUE BOX", "address": {"city": "ALLENTOWN", "state": "PA", "street": "3900 W TILGHMAN ST", "postcode": "18104"}}},
{"geometry": {"type": "Point", "coordinates": [-75.501701365, 40.5910361324]}, "type": "Feature", "properties": {"collection_times": [{"days": "Mon-Sat", "time": "1:00pm"}, {"days": "Sun", "time": "Closed"}], "id": "1810400109", "name": "USPS COLLECTION BOX - BLUE BOX", "address": {"city": "ALLENTOWN", "state": "PA", "street": "2204 W UNION ST", "postcode": "18104"}}},
{"geometry": {"type": "Point", "coordinates": [-75.5386582278, 40.6121420178]}, "type": "Feature", "properties": {"collection_times": [{"days": "Mon-Fri", "time": "4:30pm"}, {"days": "Sat", "time": "12:00pm"}, {"days": "Sun", "time": "Closed"}], "id": "1810400111", "name": "USPS COLLECTION BOX - BLUE BOX", "address": {"city": "ALLENTOWN", "state": "PA", "street": "1550 POND RD", "postcode": "18104"}}},
{"geometry": {"type": "Point", "coordinates": [-75.5536806237, 40.5616060108]}, "type": "Feature", "properties": {"collection_times": [{"days": "Mon-Fri", "time": "4:30pm"}, {"days": "Sat", "time": "1:30pm"}, {"days": "Sun", "time": "Closed"}], "id": "1810600004", "name": "USPS COLLECTION BOX - BLUE BOX", "address": {"city": "ALLENTOWN", "state": "PA", "street": "1115 BROOKSIDE RD", "postcode": "18106"}}},
{"geometry": {"type": "Point", "coordinates": [-75.6280603516, 40.5906133476]}, "type": "Feature", "properties": {"collection_times": [{"days": "Mon-Fri", "time": "4:15pm"}, {"days": "Sat", "time": "12:30pm"}, {"days": "Sun", "time": "Closed"}], "id": "1810600011", "name": "USPS COLLECTION BOX - BLUE BOX", "address": {"city": "ALLENTOWN", "state": "PA", "street": "1275 GLENLIVET DR", "postcode": "18106"}}},
{"geometry": {"type": "Point", "coordinates": [-75.5536806237, 40.5616060108]}, "type": "Feature", "properties": {"collection_times": [{"days": "Mon-Fri", "time": "4:30pm"}, {"days": "Sat", "time": "1:30pm"}, {"days": "Sun", "time": "Closed"}], "id": "1810600016", "name": "USPS COLLECTION BOX - PO LOBBY", "address": {"city": "ALLENTOWN", "state": "PA", "street": "1115 BROOKSIDE RD", "postcode": "18106"}}},
{"geometry": {"type": "Point", "coordinates": [-75.6200352802, 40.5828802357]}, "type": "Feature", "properties": {"collection_times": [{"days": "Mon-Fri", "time": "4:15pm"}, {"days": "Sat", "time": "12:30pm"}, {"days": "Sun", "time": "Closed"}], "id": "1810600020", "name": "USPS COLLECTION BOX - BLUE BOX", "address": {"city": "ALLENTOWN", "state": "PA", "street": "7450 WINDSOR DR", "postcode": "18106"}}},
{"geometry": {"type": "Point", "coordinates": [-75.4422270309, 40.6277552789]}, "type": "Feature", "properties": {"collection_times": [{"days": "Mon-Fri", "time": "5:00pm"}, {"days": "Sat", "time": "1:00pm"}, {"days": "Sun", "time": "Closed"}], "id": "1810900010", "name": "USPS COLLECTION BOX - BLUE BOX", "address": {"city": "ALLENTOWN", "state": "PA", "street": "1201 AIRPORT RD", "postcode": "18109"}}},
{"geometry": {"type": "Point", "coordinates": [-75.4315470041, 40.6194031146]}, "type": "Feature", "properties": {"collection_times": [{"days": "Mon-Sat", "time": "1:00pm"}, {"days": "Sun", "time": "Closed"}], "id": "1810900018", "name": "USPS COLLECTION BOX - BLUE BOX", "address": {"city": "ALLENTOWN", "state": "PA", "street": "1600 HANOVER AVE", "postcode": "18109"}}},
{"geometry": {"type": "Point", "coordinates": [-75.4400337559, 40.6124957225]}, "type": "Feature", "properties": {"collection_times": [{"days": "Mon-Sat", "time": "1:00pm"}, {"days": "Sun", "time": "Closed"}], "id": "1810900023", "name": "USPS COLLECTION BOX - BLUE BOX", "address": {"city": "ALLENTOWN", "state": "PA", "street": "7 N IRVING ST", "postcode": "18109"}}},
{"geometry": {"type": "Point", "coordinates": [-75.4378748558, 40.64522938]}, "type": "Feature", "properties": {"collection_times": [{"days": "Mon-Sat", "time": "6:00pm"}, {"days": "Sun", "time": "Closed"}], "id": "1810900030", "name": "USPS COLLECTION BOX - BLUE BOX", "address": {"city": "ALLENTOWN", "state": "PA", "street": "1000 POSTAL RD", "postcode": "18109"}}},
{"geometry": {"type": "Point", "coordinates": [-75.4378748558, 40.64522938]}, "type": "Feature", "properties": {"collection_times": [{"days": "Mon-Sat", "time": "6:00pm"}, {"days": "Sun", "time": "Closed"}], "id": "1810900032", "name": "USPS COLLECTION BOX - BLUE BOX", "address": {"city": "ALLENTOWN", "state": "PA", "street": "1000 POSTAL RD", "postcode": "18109"}}},
{"geometry": {"type": "Point", "coordinates": [-75.4385645209, 40.6245015731]}, "type": "Feature", "properties": {"collection_times": [{"days": "Mon-Fri", "time": "4:30pm"}, {"days": "Sat", "time": "1:30pm"}, {"days": "Sun", "time": "Closed"}], "id": "1810900037", "name": "USPS COLLECTION BOX - BLUE BOX", "address": {"city": "ALLENTOWN", "state": "PA", "street": "1117 UNION BLVD", "postcode": "18109"}}},
{"geometry": {"type": "Point", "coordinates": [-75.4326497456, 40.6251057977]}, "type": "Feature", "properties": {"collection_times": [{"days": "Mon-Fri", "time": "4:30pm"}, {"days": "Sat", "time": "1:30pm"}, {"days": "Sun", "time": "Closed"}], "id": "1810900038", "name": "USPS COLLECTION BOX - BLUE BOX", "address": {"city": "ALLENTOWN", "state": "PA", "street": "1601 UNION BLVD", "postcode": "18109"}}},
{"geometry": {"type": "Point", "coordinates": [-75.425098899, 40.6257460459]}, "type": "Feature", "properties": {"collection_times": [{"days": "Mon-Sat", "time": "1:00pm"}, {"days": "Sun", "time": "Closed"}], "id": "1810900039", "name": "USPS COLLECTION BOX - BLUE BOX", "address": {"city": "ALLENTOWN", "state": "PA", "street": "2020 UNION BLVD", "postcode": "18109"}}},
{"geometry": {"type": "Point", "coordinates": [-75.4378748558, 40.64522938]}, "type": "Feature", "properties": {"collection_times": [{"days": "Mon-Sat", "time": "6:00pm"}, {"days": "Sun", "time": "Closed"}], "id": "1810900047", "name": "USPS COLLECTION BOX - PO LOBBY", "address": {"city": "ALLENTOWN", "state": "PA", "street": "1000 POSTAL RD", "postcode": "18109"}}}
]}
