{"type": "FeatureCollection", "features": [
{"geometry": {"type": "Point", "coordinates": [-75.9735469492, 40.9537863365]}, "type": "Feature", "properties": {"collection_times": [{"days": "Mon-Sat", "time": "4:15pm"}, {"days": "Sun", "time": "Closed"}], "id": "1820100007", "name": "USPS COLLECTION BOX - BLUE BOX", "address": {"city": "WEST HAZLETON", "state": "PA", "street": "30 E BROAD ST", "postcode": "18201"}}},
{"geometry": {"type": "Point", "coordinates": [-75.9732891811, 40.9519990307]}, "type": "Feature", "properties": {"collection_times": [{"days": "Mon-Sat", "time": "9:30am"}, {"days": "Sun", "time": "Closed"}], "id": "1820100010", "name": "USPS COLLECTION BOX - BLUE BOX", "address": {"city": "WEST HAZLETON", "state": "PA", "street": "70 S PINE ST", "postcode": "18201"}}},
{"geometry": {"type": "Point", "coordinates": [-75.9765274131, 40.9521526115]}, "type": "Feature", "properties": {"collection_times": [{"days": "Mon-Sat", "time": "3:00pm"}, {"days": "Sun", "time": "Closed"}], "id": "1820100013", "name": "USPS COLLECTION BOX - BLUE BOX", "address": {"city": "WEST HAZLETON", "state": "PA", "street": "88 S LAUREL ST", "postcode": "18201"}}},
{"geometry": {"type": "Point", "coordinates": [-75.9754437029, 40.9545348053]}, "type": "Feature", "properties": {"collection_times": [{"days": "Mon-Sat", "time": "4:30pm"}, {"days": "Sun", "time": "Closed"}], "id": "1820100015", "name": "USPS COLLECTION BOX - BLUE BOX", "address": {"city": "WEST HAZLETON", "state": "PA", "street": "101 W BROAD ST", "postcode": "18201"}}},
{"geometry": {"type": "Point", "coordinates": [-75.9748250961, 40.9559428189]}, "type": "Feature", "properties": {"collection_times": [{"days": "Mon-Sat", "time": "3:00pm"}, {"days": "Sun", "time": "Closed"}], "id": "1820100017", "name": "USPS COLLECTION BOX - BLUE BOX", "address": {"city": "WEST HAZLETON", "state": "PA", "street": "61 N LAUREL ST", "postcode": "18201"}}},
{"geometry": {"type": "Point", "coordinates": [-75.9774918633, 40.9561858219]}, "type": "Feature", "properties": {"collection_times": [{"days": "Mon-Sat", "time": "3:00pm"}, {"days": "Sun", "time": "Closed"}], "id": "1820100049", "name": "USPS COLLECTION BOX - BLUE BOX", "address": {"city": "WEST HAZLETON", "state": "PA", "street": "211 W GREEN ST", "postcode": "18201"}}},
{"geometry": {"type": "Point", "coordinates": [-75.9761676977, 40.9545197883]}, "type": "Feature", "properties": {"collection_times": [{"days": "Mon-Sat", "time": "4:15pm"}, {"days": "Sun", "time": "Closed"}], "id": "1820100050", "name": "USPS COLLECTION BOX - BLUE BOX", "address": {"city": "WEST HAZLETON", "state": "PA", "street": "146 W BROAD ST", "postcode": "18201"}}},
{"geometry": {"type": "Point", "coordinates": [-75.9783354964, 40.9622652758]}, "type": "Feature", "properties": {"collection_times": [{"days": "Mon-Sat", "time": "10:00am"}, {"days": "Sun", "time": "Closed"}], "id": "1820100056", "name": "USPS COLLECTION BOX - BLUE BOX", "address": {"city": "WEST HAZLETON", "state": "PA", "street": "602 ALTER ST", "postcode": "18201"}}},
{"geometry": {"type": "Point", "coordinates": [-75.9823857529, 40.9703092492]}, "type": "Feature", "properties": {"collection_times": [{"days": "Mon-Sat", "time": "1:00pm"}, {"days": "Sun", "time": "Closed"}], "id": "1820100064", "name": "USPS COLLECTION BOX - BLUE BOX", "address": {"city": "WEST HAZLETON", "state": "PA", "street": "932 N LOCUST ST", "postcode": "18201"}}},
{"geometry": {"type": "Point", "coordinates": [-75.9860666684, 40.9581878912]}, "type": "Feature", "properties": {"collection_times": [{"days": "Mon-Sat", "time": "9:00am"}, {"days": "Sun", "time": "Closed"}], "id": "1820100073", "name": "USPS COLLECTION BOX - BLUE BOX", "address": {"city": "WEST HAZLETON", "state": "PA", "street": "903 W DIAMOND AVE", "postcode": "18201"}}},
{"geometry": {"type": "Point", "coordinates": [-75.9853509832, 40.9568268878]}, "type": "Feature", "properties": {"collection_times": [{"days": "Mon-Sat", "time": "4:00pm"}, {"days": "Sun", "time": "Closed"}], "id": "1820100075", "name": "USPS COLLECTION BOX - BLUE BOX", "address": {"city": "WEST HAZLETON", "state": "PA", "street": "540 W BROAD ST", "postcode": "18201"}}},
{"geometry": {"type": "Point", "coordinates": [-75.9732025961, 40.9428388401]}, "type": "Feature", "properties": {"collection_times": [{"days": "Mon-Sat", "time": "3:00pm"}, {"days": "Sun", "time": "Closed"}], "id": "1820100081", "name": "USPS COLLECTION BOX - BLUE BOX", "address": {"city": "WEST HAZLETON", "state": "PA", "street": "383 S POPLAR ST", "postcode": "18201"}}},
{"geometry": {"type": "Point", "coordinates": [-75.9693558426, 40.9425483715]}, "type": "Feature", "properties": {"collection_times": [{"days": "Mon-Sat", "time": "12:30pm"}, {"days": "Sun", "time": "Closed"}], "id": "1820100083", "name": "USPS COLLECTION BOX - BLUE BOX", "address": {"city": "WEST HAZLETON", "state": "PA", "street": "452 MUIR AVE", "postcode": "18201"}}},
{"geometry": {"type": "Point", "coordinates": [-75.9805283265, 40.9554026044]}, "type": "Feature", "properties": {"collection_times": [{"days": "Mon-Sat", "time": "9:30am"}, {"days": "Sun", "time": "Closed"}], "id": "1820100101", "name": "USPS COLLECTION BOX - BLUE BOX", "address": {"city": "WEST HAZLETON", "state": "PA", "street": "70 S LOCUST ST", "postcode": "18201"}}},
{"geometry": {"type": "Point", "coordinates": [-75.9710888775, 40.9598574271]}, "type": "Feature", "properties": {"collection_times": [{"days": "Mon-Fri", "time": "5:15pm"}, {"days": "Sat", "time": "5:00pm"}, {"days": "Sun", "time": "Closed"}], "id": "1820100103", "name": "USPS COLLECTION BOX - PO LOBBY", "address": {"city": "WEST HAZLETON", "state": "PA", "street": "231 N WYOMING ST", "postcode": "18201"}}},
{"geometry": {"type": "Point", "coordinates": [-75.974177757, 40.9580242238]}, "type": "Feature", "properties": {"collection_times": [{"days": "Mon-Fri", "time": "5:15pm"}, {"days": "Sat", "time": "5:00pm"}, {"days": "Sun", "time": "Closed"}], "id": "1820100105", "name": "USPS COLLECTION BOX - EXPRESS", "address": {"city": "WEST HAZLETON", "state": "PA", "street": "231 N WYOMING ST", "postcode": "18201"}}},
{"geometry": {"type": "Point", "coordinates": [-75.9741357813, 40.9539483278]}, "type": "Feature", "properties": {"collection_times": [{"days": "Mon-Sat", "time": "4:15pm"}, {"days": "Sun", "time": "Closed"}], "id": "1820100106", "name": "USPS COLLECTION BOX - BLUE BOX", "address": {"city": "WEST HAZLETON", "state": "PA", "street": "8 W BROAD ST", "postcode": "18201"}}},
{"geometry": {"type": "Point", "coordinates": [-75.9710888775, 40.9598574271]}, "type": "Feature", "properties": {"collection_times": [{"days": "Mon-Fri", "time": "5:15pm"}, {"days": "Sat", "time": "5:00pm"}, {"days": "Sun", "time": "Closed"}], "id": "1820100111", "name": "USPS COLLECTION BOX - BLUE BOX", "address": {"city": "WEST HAZLETON", "state": "PA", "street": "231 N WYOMING ST", "postcode": "18201"}}},
{"geometry": {"type": "Point", "coordinates": [-75.9599015025, 40.9482537076]}, "type": "Feature", "properties": {"collection_times": [{"days": "Mon-Sat", "time": "1:30pm"}, {"days": "Sun", "time": "Closed"}], "id": "1820100112", "name": "USPS COLLECTION BOX - BLUE BOX", "address": {"city": "WEST HAZLETON", "state": "PA", "street": "992 N SHERMAN CT", "postcode": "18201"}}},
{"geometry": {"type": "Point", "coordinates": [-75.9742659408, 40.9516824074]}, "type": "Feature", "properties": {"collection_times": [{"days": "Mon-Sat", "time": "9:00am"}, {"days": "Sun", "time": "Closed"}], "id": "1820100115", "name": "USPS COLLECTION BOX - BLUE BOX", "address": {"city": "WEST HAZLETON", "state": "PA", "street": "50 E JUNIPER ST", "postcode": "18201"}}},
{"geometry": {"type": "Point", "coordinates": [-75.9760630972, 40.9521926729]}, "type": "Feature", "properties": {"collection_times": [{"days": "Mon-Sat", "time": "9:00am"}, {"days": "Sun", "time": "Closed"}], "id": "1820100116", "name": "USPS COLLECTION BOX - BLUE BOX", "address": {"city": "WEST HAZLETON", "state": "PA", "street": "70 W JUNIPER ST", "postcode": "18201"}}},
{"geometry": {"type": "Point", "coordinates": [-75.974177757, 40.9580242238]}, "type": "Feature", "properties": {"collection_times": [{"days": "Mon-Sat", "time": "3:45pm"}, {"days": "Sun", "time": "Closed"}], "id": "1820100119", "name": "USPS COLLECTION BOX - BLUE BOX", "address": {"city": "WEST HAZLETON", "state": "PA", "street": "545 W BROAD ST", "postcode": "18201"}}},
{"geometry": {"type": "Point", "coordinates": [-76.0128003414, 40.9883561908]}, "type": "Feature", "properties": {"collection_times": [{"days": "Mon-Sat", "time": "10:00am"}, {"days": "Sun", "time": "Closed"}], "id": "1820200000", "name": "USPS COLLECTION BOX - BLUE BOX", "address": {"city": "WEST HAZLETON", "state": "PA", "street": "761 AIRPORT RD", "postcode": "18202"}}},
{"geometry": {"type": "Point", "coordinates": [-75.9931663927, 40.9584608213]}, "type": "Feature", "properties": {"collection_times": [{"days": "Mon-Sat", "time": "3:00pm"}, {"days": "Sun", "time": "Closed"}], "id": "1820200003", "name": "USPS COLLECTION BOX - BLUE BOX", "address": {"city": "WEST HAZLETON", "state": "PA", "street": "40 E BROAD ST", "postcode": "18202"}}},
{"geometry": {"type": "Point", "coordinates": [-75.9984512138, 40.9668738129]}, "type": "Feature", "properties": {"collection_times": [{"days": "Mon-Sat", "time": "10:30am"}, {"days": "Sun", "time": "Closed"}], "id": "1820200005", "name": "USPS COLLECTION BOX - BLUE BOX", "address": {"city": "WEST HAZLETON", "state": "PA", "street": "601 N BROAD ST", "postcode": "18202"}}},
{"geometry": {"type": "Point", "coordinates": [-75.9945236078, 40.9587557372]}, "type": "Feature", "properties": {"collection_times": [{"days": "Mon-Sat", "time": "3:30pm"}, {"days": "Sun", "time": "Closed"}], "id": "1820200006", "name": "USPS COLLECTION BOX - BLUE BOX", "address": {"city": "WEST HAZLETON", "state": "PA", "street": "40 W BROAD ST", "postcode": "18202"}}},
{"geometry": {"type": "Point", "coordinates": [-75.9800471764, 40.979842436]}, "type": "Feature", "properties": {"collection_times": [{"days": "Mon-Sat", "time": "3:15pm"}, {"days": "Sun", "time": "Closed"}], "id": "1820200007", "name": "USPS COLLECTION BOX - BLUE BOX", "address": {"city": "WEST HAZLETON", "state": "PA", "street": "1099 N CHURCH ST", "postcode": "18202"}}},
{"geometry": {"type": "Point", "coordinates": [-75.9814669848, 40.9848118175]}, "type": "Feature", "properties": {"collection_times": [{"days": "Mon-Sat", "time": "3:15pm"}, {"days": "Sun", "time": "Closed"}], "id": "1820200008", "name": "USPS COLLECTION BOX - BLUE BOX", "address": {"city": "WEST HAZLETON", "state": "PA", "street": "1229 N CHURCH ST", "postcode": "18202"}}},
{"geometry": {"type": "Point", "coordinates": [-75.9966396081, 40.9596776173]}, "type": "Feature", "properties": {"collection_times": [{"days": "Mon-Sat", "time": "1:00pm"}, {"days": "Sun", "time": "Closed"}], "id": "1820200009", "name": "USPS COLLECTION BOX - BLUE BOX", "address": {"city": "WEST HAZLETON", "state": "PA", "street": "100 E GREEN ST", "postcode": "18202"}}},
{"geometry": {"type": "Point", "coordinates": [-76.0008766383, 40.9591034257]}, "type": "Feature", "properties": {"collection_times": [{"days": "Mon-Sat", "time": "2:15pm"}, {"days": "Sun", "time": "Closed"}], "id": "1820200010", "name": "USPS COLLECTION BOX - BLUE BOX", "address": {"city": "WEST HAZLETON", "state": "PA", "street": "401 W GREEN ST", "postcode": "18202"}}},
{"geometry": {"type": "Point", "coordinates": [-76.0226048259, 40.9767826129]}, "type": "Feature", "properties": {"collection_times": [{"days": "Mon-Sat", "time": "9:00am"}, {"days": "Sun", "time": "Closed"}], "id": "1820200011", "name": "USPS COLLECTION BOX - BLUE BOX", "address": {"city": "WEST HAZLETON", "state": "PA", "street": "25 JAYCEE DR", "postcode": "18202"}}},
{"geometry": {"type": "Point", "coordinates": [-76.0181975188, 40.980995177]}, "type": "Feature", "properties": {"collection_times": [{"days": "Mon-Sat", "time": "12:00pm"}, {"days": "Sun", "time": "Closed"}], "id": "1820200012", "name": "USPS COLLECTION BOX - BLUE BOX", "address": {"city": "WEST HAZLETON", "state": "PA", "street": "10 LAUREL MALL", "postcode": "18202"}}},
{"geometry": {"type": "Point", "coordinates": [-76.0181975188, 40.980995177]}, "type": "Feature", "properties": {"collection_times": [{"days": "Mon-Sat", "time": "12:00pm"}, {"days": "Sun", "time": "Closed"}], "id": "1820200013", "name": "USPS COLLECTION BOX - BLUE BOX", "address": {"city": "WEST HAZLETON", "state": "PA", "street": "10 LAUREL MALL", "postcode": "18202"}}},
{"geometry": {"type": "Point", "coordinates": [-76.0300008737, 40.9827023761]}, "type": "Feature", "properties": {"collection_times": [{"days": "Mon-Sat", "time": "10:00am"}, {"days": "Sun", "time": "Closed"}], "id": "1820200015", "name": "USPS COLLECTION BOX - BLUE BOX", "address": {"city": "WEST HAZLETON", "state": "PA", "street": "17 UNIVERSITY DR", "postcode": "18202"}}},
{"geometry": {"type": "Point", "coordinates": [-76.0051050747, 40.9673233932]}, "type": "Feature", "properties": {"collection_times": [{"days": "Mon-Sat", "time": "11:00am"}, {"days": "Sun", "time": "Closed"}], "id": "1820200017", "name": "USPS COLLECTION BOX - BLUE BOX", "address": {"city": "WEST HAZLETON", "state": "PA", "street": "100 WEIS LN", "postcode": "18202"}}},
{"geometry": {"type": "Point", "coordinates": [-75.5341199449, 40.9941225295]}, "type": "Feature", "properties": {"collection_times": [{"days": "Mon-Fri", "time": "4:30pm"}, {"days": "Sat", "time": "2:00pm"}, {"days": "Sun", "time": "Closed"}], "id": "1821000001", "name": "USPS COLLECTION BOX - BLUE BOX", "address": {"city": "ALBRIGHTSVILLE", "state": "PA", "street": "5 PINE POINT PLZ", "postcode": "18210"}}},
{"geometry": {"type": "Point", "coordinates": [-75.5341199449, 40.9941225295]}, "type": "Feature", "properties": {"collection_times": [{"days": "Mon-Sat", "time": "10:00am"}, {"days": "Sun", "time": "Closed"}], "id": "1821000002", "name": "USPS COLLECTION BOX - BLUE BOX", "address": {"city": "ALBRIGHTSVILLE", "state": "PA", "street": "5 PINE POINT PLZ", "postcode": "18210"}}},
{"geometry": {"type": "Point", "coordinates": [-75.5341199449, 40.9941225295]}, "type": "Feature", "properties": {"collection_times": [{"days": "Mon-Sat", "time": "10:00am"}, {"days": "Sun", "time": "Closed"}], "id": "1821000003", "name": "USPS COLLECTION BOX - BLUE BOX", "address": {"city": "ALBRIGHTSVILLE", "state": "PA", "street": "5 PINE POINT PLZ", "postcode": "18210"}}},
{"geometry": {"type": "Point", "coordinates": [-75.5341199449, 40.9941225295]}, "type": "Feature", "properties": {"collection_times": [{"days": "Mon-Fri", "time": "4:30pm"}, {"days": "Sat", "time": "2:00pm"}, {"days": "Sun", "time": "Closed"}], "id": "1821000004", "name": "USPS COLLECTION BOX - PO LOBBY", "address": {"city": "ALBRIGHTSVILLE", "state": "PA", "street": "5 PINE POINT PLZ", "postcode": "18210"}}},
{"geometry": {"type": "Point", "coordinates": [-75.7922404004, 40.7517850072]}, "type": "Feature", "properties": {"collection_times": [{"days": "Mon-Fri", "time": "4:00pm"}, {"days": "Sat", "time": "11:00am"}, {"days": "Sun", "time": "Closed"}], "id": "1821100001", "name": "USPS COLLECTION BOX - BLUE BOX", "address": {"city": "ANDREAS", "state": "PA", "street": "820 LIZARD CREEK RD", "postcode": "18211"}}},
{"geometry": {"type": "Point", "coordinates": [-75.8237760905, 40.7423919048]}, "type": "Feature", "properties": {"collection_times": [{"days": "Mon-Sat", "time": "10:45am"}, {"days": "Sun", "time": "Closed"}], "id": "1821100002", "name": "USPS COLLECTION BOX - BLUE BOX", "address": {"city": "ANDREAS", "state": "PA", "street": "2083 W PENN PIKE", "postcode": "18211"}}},
{"geometry": {"type": "Point", "coordinates": [-75.7922404004, 40.7517850072]}, "type": "Feature", "properties": {"collection_times": [{"days": "Mon-Fri", "time": "4:15pm"}, {"days": "Sat", "time": "11:00am"}, {"days": "Sun", "time": "Closed"}], "id": "1821100004", "name": "USPS COLLECTION BOX - PO LOBBY", "address": {"city": "ANDREAS", "state": "PA", "street": "820 LIZARD CREEK RD", "postcode": "18211"}}},
{"geometry": {"type": "Point", "coordinates": [-75.7091983039, 40.8346647874]}, "type": "Feature", "properties": {"collection_times": [{"days": "Mon-Fri", "time": "4:00pm"}, {"days": "Sat", "time": "11:00am"}, {"days": "Sun", "time": "Closed"}], "id": "1821200001", "name": "USPS COLLECTION BOX - BLUE BOX", "address": {"city": "ASHFIELD", "state": "PA", "street": "403 BLUE MOUNTAIN RD", "postcode": "18212"}}},
{"geometry": {"type": "Point", "coordinates": [-75.7091983039, 40.8346647874]}, "type": "Feature", "properties": {"collection_times": [{"days": "Mon-Fri", "time": "4:15pm"}, {"days": "Sat", "time": "11:00am"}, {"days": "Sun", "time": "Closed"}], "id": "1821200002", "name": "USPS COLLECTION BOX - PO LOBBY", "address": {"city": "ASHFIELD", "state": "PA", "street": "403 BLUE MOUNTAIN RD", "postcode": "18212"}}},
{"geometry": {"type": "Point", "coordinates": [-75.9151853501, 40.9283188553]}, "type": "Feature", "properties": {"collection_times": [{"days": "Mon-Fri", "time": "4:45pm"}, {"days": "Sat", "time": "10:30am"}, {"days": "Sun", "time": "Closed"}], "id": "1821600001", "name": "USPS COLLECTION BOX - BLUE BOX", "address": {"city": "BEAVER MEADOWS", "state": "PA", "street": "2 BROAD ST", "postcode": "18216"}}},
{"geometry": {"type": "Point", "coordinates": [-75.9151853501, 40.9283188553]}, "type": "Feature", "properties": {"collection_times": [{"days": "Mon-Fri", "time": "4:45pm"}, {"days": "Sat", "time": "10:30am"}, {"days": "Sun", "time": "Closed"}], "id": "1821600003", "name": "USPS COLLECTION BOX - PO LOBBY", "address": {"city": "BEAVER MEADOWS", "state": "PA", "street": "2 BROAD ST", "postcode": "18216"}}},
{"geometry": {"type": "Point", "coordinates": [-75.9052197572, 40.8234536205]}, "type": "Feature", "properties": {"collection_times": [{"days": "Mon-Fri", "time": "2:30pm"}, {"days": "Sat", "time": "2:00pm"}, {"days": "Sun", "time": "Closed"}], "id": "1821800006", "name": "USPS COLLECTION BOX - BLUE BOX", "address": {"city": "COALDALE", "state": "PA", "street": "100 E PHILLIPS ST", "postcode": "18218"}}},
{"geometry": {"type": "Point", "coordinates": [-75.9094224096, 40.8234681732]}, "type": "Feature", "properties": {"collection_times": [{"days": "Mon-Sat", "time": "9:30am"}, {"days": "Sun", "time": "Closed"}], "id": "1821800007", "name": "USPS COLLECTION BOX - BLUE BOX", "address": {"city": "COALDALE", "state": "PA", "street": "45 W RUDDLE ST", "postcode": "18218"}}},
{"geometry": {"type": "Point", "coordinates": [-75.9133071637, 40.8220022316]}, "type": "Feature", "properties": {"collection_times": [{"days": "Mon-Sat", "time": "1:00pm"}, {"days": "Sun", "time": "Closed"}], "id": "1821800013", "name": "USPS COLLECTION BOX - BLUE BOX", "address": {"city": "COALDALE", "state": "PA", "street": "300 W RUDDLE ST", "postcode": "18218"}}},
{"geometry": {"type": "Point", "coordinates": [-75.9056052805, 40.824132299]}, "type": "Feature", "properties": {"collection_times": [{"days": "Mon-Fri", "time": "2:00pm"}, {"days": "Sat", "time": "12:00pm"}, {"days": "Sun", "time": "Closed"}], "id": "1821800014", "name": "USPS COLLECTION BOX - BLUE BOX", "address": {"city": "COALDALE", "state": "PA", "street": "145 3RD ST", "postcode": "18218"}}},
{"geometry": {"type": "Point", "coordinates": [-75.9056052805, 40.824132299]}, "type": "Feature", "properties": {"collection_times": [{"days": "Mon-Fri", "time": "2:00pm"}, {"days": "Sat", "time": "12:00pm"}, {"days": "Sun", "time": "Closed"}], "id": "1821800019", "name": "USPS COLLECTION BOX - PO LOBBY", "address": {"city": "COALDALE", "state": "PA", "street": "145 3RD ST", "postcode": "18218"}}},
{"geometry": {"type": "Point", "coordinates": [-76.0586455889, 40.9924163925]}, "type": "Feature", "properties": {"collection_times": [{"days": "Mon-Fri", "time": "4:15pm"}, {"days": "Sat", "time": "12:30pm"}, {"days": "Sun", "time": "Closed"}], "id": "1821900002", "name": "USPS COLLECTION BOX - BLUE BOX", "address": {"city": "CONYNGHAM", "state": "PA", "street": "366 MAIN ST", "postcode": "18219"}}},
{"geometry": {"type": "Point", "coordinates": [-76.0586455889, 40.9924163925]}, "type": "Feature", "properties": {"collection_times": [{"days": "Mon-Fri", "time": "4:15pm"}, {"days": "Sat", "time": "12:30pm"}, {"days": "Sun", "time": "Closed"}], "id": "1821900003", "name": "USPS COLLECTION BOX - PO LOBBY", "address": {"city": "CONYNGHAM", "state": "PA", "street": "366 MAIN ST", "postcode": "18219"}}},
{"geometry": {"type": "Point", "coordinates": [-76.0641089793, 40.8543455014]}, "type": "Feature", "properties": {"collection_times": [{"days": "Mon-Fri", "time": "4:15pm"}, {"days": "Sat", "time": "10:15am"}, {"days": "Sun", "time": "Closed"}], "id": "1822000001", "name": "USPS COLLECTION BOX - BLUE BOX", "address": {"city": "DELANO", "state": "PA", "street": "150 HAZLE ST", "postcode": "18220"}}},
{"geometry": {"type": "Point", "coordinates": [-76.0641089793, 40.8543455014]}, "type": "Feature", "properties": {"collection_times": [{"days": "Mon-Fri", "time": "4:15pm"}, {"days": "Sat", "time": "10:15am"}, {"days": "Sun", "time": "Closed"}], "id": "1822000002", "name": "USPS COLLECTION BOX - PO LOBBY", "address": {"city": "DELANO", "state": "PA", "street": "150 HAZLE ST", "postcode": "18220"}}},
{"geometry": {"type": "Point", "coordinates": [-75.9026676565, 41.0026213602]}, "type": "Feature", "properties": {"collection_times": [{"days": "Mon-Fri", "time": "4:15pm"}, {"days": "Sat", "time": "10:45am"}, {"days": "Sun", "time": "Closed"}], "id": "1822100001", "name": "USPS COLLECTION BOX - BLUE BOX", "address": {"city": "DRIFTON", "state": "PA", "street": "2304 STATE ROUTE 940", "postcode": "18221"}}},
{"geometry": {"type": "Point", "coordinates": [-75.9026676565, 41.0026213602]}, "type": "Feature", "properties": {"collection_times": [{"days": "Mon-Fri", "time": "4:15pm"}, {"days": "Sat", "time": "10:45am"}, {"days": "Sun", "time": "Closed"}], "id": "1822100002", "name": "USPS COLLECTION BOX - PO LOBBY", "address": {"city": "DRIFTON", "state": "PA", "street": "2304 STATE ROUTE 940", "postcode": "18221"}}},
{"geometry": {"type": "Point", "coordinates": [-75.9872729258, 41.0365881742]}, "type": "Feature", "properties": {"collection_times": [{"days": "Mon-Fri", "time": "5:00pm"}, {"days": "Sat", "time": "12:30pm"}, {"days": "Sun", "time": "Closed"}], "id": "1822200003", "name": "USPS COLLECTION BOX - BLUE BOX", "address": {"city": "DRUMS", "state": "PA", "street": "4 RITTENHOUSE PL", "postcode": "18222"}}},
{"geometry": {"type": "Point", "coordinates": [-76.0110396268, 41.0111326418]}, "type": "Feature", "properties": {"collection_times": [{"days": "Mon-Sat", "time": "11:00am"}, {"days": "Sun", "time": "Closed"}], "id": "1822200005", "name": "USPS COLLECTION BOX - BLUE BOX", "address": {"city": "DRUMS", "state": "PA", "street": "8 W BUTLER DR", "postcode": "18222"}}},
{"geometry": {"type": "Point", "coordinates": [-75.9872729258, 41.0365881742]}, "type": "Feature", "properties": {"collection_times": [{"days": "Mon-Fri", "time": "5:00pm"}, {"days": "Sat", "time": "12:30pm"}, {"days": "Sun", "time": "Closed"}], "id": "1822200006", "name": "USPS COLLECTION BOX - PO LOBBY", "address": {"city": "DRUMS", "state": "PA", "street": "4 RITTENHOUSE PL", "postcode": "18222"}}},
{"geometry": {"type": "Point", "coordinates": [-75.9712294214, 40.9596143046]}, "type": "Feature", "properties": {"collection_times": [{"days": "Mon-Fri", "time": "11:45am"}, {"days": "Sat", "time": "9:15am"}, {"days": "Sun", "time": "Closed"}], "id": "1822300001", "name": "USPS COLLECTION BOX - PO LOBBY", "address": {"city": "EBERVALE", "state": "PA", "street": "102 OAKMONT DR", "postcode": "18223"}}},
{"geometry": {"type": "Point", "coordinates": [-75.9712294214, 40.9596143046]}, "type": "Feature", "properties": {"collection_times": [{"days": "Mon-Fri", "time": "1:00pm"}, {"days": "Sat", "time": "9:15am"}, {"days": "Sun", "time": "Closed"}], "id": "1822300002", "name": "USPS COLLECTION BOX - BLUE BOX", "address": {"city": "EBERVALE", "state": "PA", "street": "102 OAKMONT DR", "postcode": "18223"}}},
{"geometry": {"type": "Point", "coordinates": [-75.8964303221, 41.017475644]}, "type": "Feature", "properties": {"collection_times": [{"days": "Mon-Fri", "time": "4:30pm"}, {"days": "Sat", "time": "12:00pm"}, {"days": "Sun", "time": "Closed"}], "id": "1822400001", "name": "USPS COLLECTION BOX - BLUE BOX", "address": {"city": "FREELAND", "state": "PA", "street": "701 MAIN ST", "postcode": "18224"}}},
{"geometry": {"type": "Point", "coordinates": [-75.8985663951, 41.0153228241]}, "type": "Feature", "properties": {"collection_times": [{"days": "Mon-Sat", "time": "11:00am"}, {"days": "Sun", "time": "Closed"}], "id": "1822400004", "name": "USPS COLLECTION BOX - BLUE BOX", "address": {"city": "FREELAND", "state": "PA", "street": "400 RIDGE ST", "postcode": "18224"}}},
{"geometry": {"type": "Point", "coordinates": [-75.8894524955, 41.0185033788]}, "type": "Feature", "properties": {"collection_times": [{"days": "Mon-Sat", "time": "9:00am"}, {"days": "Sun", "time": "Closed"}], "id": "1822400020", "name": "USPS COLLECTION BOX - BLUE BOX", "address": {"city": "FREELAND", "state": "PA", "street": "400 FRONT ST", "postcode": "18224"}}},
{"geometry": {"type": "Point", "coordinates": [-75.8964303221, 41.017475644]}, "type": "Feature", "properties": {"collection_times": [{"days": "Mon-Fri", "time": "4:30pm"}, {"days": "Sat", "time": "12:00pm"}, {"days": "Sun", "time": "Closed"}], "id": "1822400022", "name": "USPS COLLECTION BOX - PO LOBBY", "address": {"city": "FREELAND", "state": "PA", "street": "701 MAIN ST", "postcode": "18224"}}},
{"geometry": {"type": "Point", "coordinates": [-75.8964303221, 41.017475644]}, "type": "Feature", "properties": {"collection_times": [{"days": "Mon-Fri", "time": "4:30pm"}, {"days": "Sat", "time": "12:00pm"}, {"days": "Sun", "time": "Closed"}], "id": "1822400025", "name": "USPS COLLECTION BOX - BLUE BOX", "address": {"city": "FREELAND", "state": "PA", "street": "701 MAIN ST", "postcode": "18224"}}},
{"geometry": {"type": "Point", "coordinates": [-75.9680312344, 40.9824335326]}, "type": "Feature", "properties": {"collection_times": [{"days": "Mon-Fri", "time": "3:30pm"}, {"days": "Sat", "time": "10:00am"}, {"days": "Sun", "time": "Closed"}], "id": "1822500001", "name": "USPS COLLECTION BOX - BLUE BOX", "address": {"city": "HARLEIGH", "state": "PA", "street": "1129 STATE ROUTE 940 STE 1", "postcode": "18225"}}},
{"geometry": {"type": "Point", "coordinates": [-75.9680312344, 40.9824335326]}, "type": "Feature", "properties": {"collection_times": [{"days": "Mon-Fri", "time": "3:30pm"}, {"days": "Sat", "time": "10:00am"}, {"days": "Sun", "time": "Closed"}], "id": "1822500002", "name": "USPS COLLECTION BOX - PO LOBBY", "address": {"city": "HARLEIGH", "state": "PA", "street": "1129 STATE ROUTE 940 STE 1", "postcode": "18225"}}},
{"geometry": {"type": "Point", "coordinates": [-75.7377522863, 40.8638417932]}, "type": "Feature", "properties": {"collection_times": [{"days": "Mon-Fri", "time": "3:45pm"}, {"days": "Sat", "time": "9:45am"}, {"days": "Sun", "time": "Closed"}], "id": "1822900004", "name": "USPS COLLECTION BOX - BLUE BOX", "address": {"city": "JIM THORPE", "state": "PA", "street": "10 BROADWAY", "postcode": "18229"}}},
{"geometry": {"type": "Point", "coordinates": [-75.7436129662, 40.8671725922]}, "type": "Feature", "properties": {"collection_times": [{"days": "Mon-Sat", "time": "12:00pm"}, {"days": "Sun", "time": "Closed"}], "id": "1822900007", "name": "USPS COLLECTION BOX - BLUE BOX", "address": {"city": "JIM THORPE", "state": "PA", "street": "340 CENTER AVE", "postcode": "18229"}}},
{"geometry": {"type": "Point", "coordinates": [-75.6994019913, 40.9239128188]}, "type": "Feature", "properties": {"collection_times": [{"days": "Mon-Fri", "time": "4:30pm"}, {"days": "Sat", "time": "3:00pm"}, {"days": "Sun", "time": "Closed"}], "id": "1822900018", "name": "USPS COLLECTION BOX - BLUE BOX", "address": {"city": "JIM THORPE", "state": "PA", "street": "3 LEHIGH AVE", "postcode": "18229"}}},
{"geometry": {"type": "Point", "coordinates": [-75.7317952062, 40.8736197185]}, "type": "Feature", "properties": {"collection_times": [{"days": "Mon-Fri", "time": "3:30pm"}, {"days": "Sat", "time": "2:00pm"}, {"days": "Sun", "time": "Closed"}], "id": "1822900019", "name": "USPS COLLECTION BOX - BLUE BOX", "address": {"city": "JIM THORPE", "state": "PA", "street": "432 CENTER ST", "postcode": "18229"}}},
{"geometry": {"type": "Point", "coordinates": [-75.6994019913, 40.9239128188]}, "type": "Feature", "properties": {"collection_times": [{"days": "Mon-Sat", "time": "9:15am"}, {"days": "Sun", "time": "Closed"}], "id": "1822900023", "name": "USPS COLLECTION BOX - BLUE BOX", "address": {"city": "JIM THORPE", "state": "PA", "street": "2 CLUB RD", "postcode": "18229"}}},
{"geometry": {"type": "Point", "coordinates": [-75.6994019913, 40.9239128188]}, "type": "Feature", "properties": {"collection_times": [{"days": "Mon-Sat", "time": "9:30am"}, {"days": "Sun", "time": "Closed"}], "id": "1822900024", "name": "USPS COLLECTION BOX - BLUE BOX", "address": {"city": "JIM THORPE", "state": "PA", "street": "201 INDIAN TRL", "postcode": "18229"}}},
{"geometry": {"type": "Point", "coordinates": [-75.6994019913, 40.9239128188]}, "type": "Feature", "properties": {"collection_times": [{"days": "Mon-Fri", "time": "4:30pm"}, {"days": "Sat", "time": "3:00pm"}, {"days": "Sun", "time": "Closed"}], "id": "1822900027", "name": "USPS COLLECTION BOX - PO LOBBY", "address": {"city": "JIM THORPE", "state": "PA", "street": "3 LEHIGH AVE", "postcode": "18229"}}},
{"geometry": {"type": "Point", "coordinates": [-75.938605356, 40.9239014525]}, "type": "Feature", "properties": {"collection_times": [{"days": "Mon-Fri", "time": "4:30pm"}, {"days": "Sat", "time": "10:45am"}, {"days": "Sun", "time": "Closed"}], "id": "1823000001", "name": "USPS COLLECTION BOX - BLUE BOX", "address": {"city": "JUNEDALE", "state": "PA", "street": "13 E MAIN ST", "postcode": "18230"}}},
{"geometry": {"type": "Point", "coordinates": [-75.945809216, 40.926788025]}, "type": "Feature", "properties": {"collection_times": [{"days": "Mon-Fri", "time": "3:30pm"}, {"days": "Sat", "time": "10:45am"}, {"days": "Sun", "time": "Closed"}], "id": "1823000002", "name": "USPS COLLECTION BOX - PO LOBBY", "address": {"city": "JUNEDALE", "state": "PA", "street": "13 E MAIN ST", "postcode": "18230"}}},
{"geometry": {"type": "Point", "coordinates": [-75.9956044091, 40.9023112034]}, "type": "Feature", "properties": {"collection_times": [{"days": "Mon-Fri", "time": "3:45pm"}, {"days": "Sat", "time": "10:00am"}, {"days": "Sun", "time": "Closed"}], "id": "1823100001", "name": "USPS COLLECTION BOX - BLUE BOX", "address": {"city": "KELAYRES", "state": "PA", "street": "21 4TH ST", "postcode": "18231"}}},
{"geometry": {"type": "Point", "coordinates": [-75.9956044091, 40.9023112034]}, "type": "Feature", "properties": {"collection_times": [{"days": "Mon-Fri", "time": "3:45pm"}, {"days": "Sat", "time": "10:00am"}, {"days": "Sun", "time": "Closed"}], "id": "1823100002", "name": "USPS COLLECTION BOX - PO LOBBY", "address": {"city": "KELAYRES", "state": "PA", "street": "21 4TH ST", "postcode": "18231"}}},
{"geometry": {"type": "Point", "coordinates": [-75.8866610961, 40.8316175775]}, "type": "Feature", "properties": {"collection_times": [{"days": "Mon-Fri", "time": "1:00pm"}, {"days": "Sat", "time": "10:00am"}, {"days": "Sun", "time": "Closed"}], "id": "1823200007", "name": "USPS COLLECTION BOX - BLUE BOX", "address": {"city": "LANSFORD", "state": "PA", "street": "100 W RIDGE ST", "postcode": "18232"}}},
{"geometry": {"type": "Point", "coordinates": [-75.8786713913, 40.8323285359]}, "type": "Feature", "properties": {"collection_times": [{"days": "Mon-Sat", "time": "9:00am"}, {"days": "Sun", "time": "Closed"}], "id": "1823200019", "name": "USPS COLLECTION BOX - BLUE BOX", "address": {"city": "LANSFORD", "state": "PA", "street": "267 E BERTSCH ST", "postcode": "18232"}}},
{"geometry": {"type": "Point", "coordinates": [-75.8842809827, 40.8312792513]}, "type": "Feature", "properties": {"collection_times": [{"days": "Mon-Fri", "time": "4:30pm"}, {"days": "Sat", "time": "3:30pm"}, {"days": "Sun", "time": "Closed"}], "id": "1823200025", "name": "USPS COLLECTION BOX - BLUE BOX", "address": {"city": "LANSFORD", "state": "PA", "street": "14 TUNNEL ST", "postcode": "18232"}}},
{"geometry": {"type": "Point", "coordinates": [-75.8842809827, 40.8312792513]}, "type": "Feature", "properties": {"collection_times": [{"days": "Mon-Fri", "time": "4:30pm"}, {"days": "Sat", "time": "3:30pm"}, {"days": "Sun", "time": "Closed"}], "id": "1823200028", "name": "USPS COLLECTION BOX - PO LOBBY", "address": {"city": "LANSFORD", "state": "PA", "street": "14 TUNNEL ST", "postcode": "18232"}}},
{"geometry": {"type": "Point", "coordinates": [-75.9955731518, 40.9588271897]}, "type": "Feature", "properties": {"collection_times": [{"days": "Mon-Fri", "time": "3:45pm"}, {"days": "Sat", "time": "9:30am"}, {"days": "Sun", "time": "Closed"}], "id": "1823400001", "name": "USPS COLLECTION BOX - BLUE BOX", "address": {"city": "LATTIMER MINES", "state": "PA", "street": "850 LATTIMER RD", "postcode": "18234"}}},
{"geometry": {"type": "Point", "coordinates": [-75.9955731518, 40.9588271897]}, "type": "Feature", "properties": {"collection_times": [{"days": "Mon-Fri", "time": "3:45pm"}, {"days": "Sat", "time": "9:30am"}, {"days": "Sun", "time": "Closed"}], "id": "1823400002", "name": "USPS COLLECTION BOX - PO LOBBY", "address": {"city": "LATTIMER MINES", "state": "PA", "street": "850 LATTIMER RD", "postcode": "18234"}}},
{"geometry": {"type": "Point", "coordinates": [-75.6883893652, 40.835742734]}, "type": "Feature", "properties": {"collection_times": [{"days": "Mon-Sat", "time": "4:30pm"}, {"days": "Sun", "time": "Closed"}], "id": "1823500001", "name": "USPS COLLECTION BOX - BLUE BOX", "address": {"city": "LEHIGHTON", "state": "PA", "street": "118 NORTH ST", "postcode": "18235"}}},
{"geometry": {"type": "Point", "coordinates": [-75.6883893652, 40.835742734]}, "type": "Feature", "properties": {"collection_times": [{"days": "Mon-Fri", "time": "9:30am"}, {"days": "Sat", "time": "8:30am"}, {"days": "Sun", "time": "Closed"}], "id": "1823500013", "name": "USPS COLLECTION BOX - BLUE BOX", "address": {"city": "LEHIGHTON", "state": "PA", "street": "279 N 1ST ST", "postcode": "18235"}}},
{"geometry": {"type": "Point", "coordinates": [-75.6883893652, 40.835742734]}, "type": "Feature", "properties": {"collection_times": [{"days": "Mon-Sat", "time": "10:30am"}, {"days": "Sun", "time": "Closed"}], "id": "1823500017", "name": "USPS COLLECTION BOX - BLUE BOX", "address": {"city": "LEHIGHTON", "state": "PA", "street": "200 BRIDGE ST", "postcode": "18235"}}},
{"geometry": {"type": "Point", "coordinates": [-75.6883893652, 40.835742734]}, "type": "Feature", "properties": {"collection_times": [{"days": "Mon-Sat", "time": "9:15am"}, {"days": "Sun", "time": "Closed"}], "id": "1823500018", "name": "USPS COLLECTION BOX - BLUE BOX", "address": {"city": "LEHIGHTON", "state": "PA", "street": "145 S 1ST ST", "postcode": "18235"}}},
{"geometry": {"type": "Point", "coordinates": [-75.6883893652, 40.835742734]}, "type": "Feature", "properties": {"collection_times": [{"days": "Mon-Sat", "time": "12:15pm"}, {"days": "Sun", "time": "Closed"}], "id": "1823500020", "name": "USPS COLLECTION BOX - BLUE BOX", "address": {"city": "LEHIGHTON", "state": "PA", "street": "212 S 3RD ST", "postcode": "18235"}}},
{"geometry": {"type": "Point", "coordinates": [-75.6883893652, 40.835742734]}, "type": "Feature", "properties": {"collection_times": [{"days": "Mon-Sat", "time": "10:00am"}, {"days": "Sun", "time": "Closed"}], "id": "1823500031", "name": "USPS COLLECTION BOX - BLUE BOX", "address": {"city": "LEHIGHTON", "state": "PA", "street": "124 S 9TH ST", "postcode": "18235"}}},
{"geometry": {"type": "Point", "coordinates": [-75.6883893652, 40.835742734]}, "type": "Feature", "properties": {"collection_times": [{"days": "Mon-Sat", "time": "10:45am"}, {"days": "Sun", "time": "Closed"}], "id": "1823500032", "name": "USPS COLLECTION BOX - BLUE BOX", "address": {"city": "LEHIGHTON", "state": "PA", "street": "211 N 12TH ST", "postcode": "18235"}}},
{"geometry": {"type": "Point", "coordinates": [-75.6883893652, 40.835742734]}, "type": "Feature", "properties": {"collection_times": [{"days": "Mon-Sat", "time": "9:00am"}, {"days": "Sun", "time": "Closed"}], "id": "1823500033", "name": "USPS COLLECTION BOX - BLUE BOX", "address": {"city": "LEHIGHTON", "state": "PA", "street": "447 MAHONING ST", "postcode": "18235"}}},
{"geometry": {"type": "Point", "coordinates": [-75.6883893652, 40.835742734]}, "type": "Feature", "properties": {"collection_times": [{"days": "Mon-Sat", "time": "10:00am"}, {"days": "Sun", "time": "Closed"}], "id": "1823500034", "name": "USPS COLLECTION BOX - BLUE BOX", "address": {"city": "LEHIGHTON", "state": "PA", "street": "1241 BLAKESLEE BOULEVARD DR E", "postcode": "18235"}}},
{"geometry": {"type": "Point", "coordinates": [-75.6883893652, 40.835742734]}, "type": "Feature", "properties": {"collection_times": [{"days": "Mon-Sat", "time": "4:30pm"}, {"days": "Sun", "time": "Closed"}], "id": "1823500036", "name": "USPS COLLECTION BOX - PO LOBBY", "address": {"city": "LEHIGHTON", "state": "PA", "street": "118 NORTH ST", "postcode": "18235"}}},
{"geometry": {"type": "Point", "coordinates": [-75.6883893652, 40.835742734]}, "type": "Feature", "properties": {"collection_times": [{"days": "Mon-Sat", "time": "4:30pm"}, {"days": "Sun", "time": "Closed"}], "id": "1823500038", "name": "USPS COLLECTION BOX - BLUE BOX", "address": {"city": "LEHIGHTON", "state": "PA", "street": "118 NORTH ST", "postcode": "18235"}}},
{"geometry": {"type": "Point", "coordinates": [-75.995361493, 40.9022456032]}, "type": "Feature", "properties": {"collection_times": [{"days": "Mon-Fri", "time": "4:30pm"}, {"days": "Sat", "time": "11:45am"}, {"days": "Sun", "time": "Closed"}], "id": "1823700001", "name": "USPS COLLECTION BOX - BLUE BOX", "address": {"city": "MCADOO", "state": "PA", "street": "126 W BLAINE ST", "postcode": "18237"}}},
{"geometry": {"type": "Point", "coordinates": [-75.9957512622, 40.8986963348]}, "type": "Feature", "properties": {"collection_times": [{"days": "Mon-Sat", "time": "2:45pm"}, {"days": "Sun", "time": "Closed"}], "id": "1823700002", "name": "USPS COLLECTION BOX - BLUE BOX", "address": {"city": "MCADOO", "state": "PA", "street": "318 S HANCOCK ST", "postcode": "18237"}}},
{"geometry": {"type": "Point", "coordinates": [-75.9936833937, 40.901859315]}, "type": "Feature", "properties": {"collection_times": [{"days": "Mon-Sat", "time": "2:30pm"}, {"days": "Sun", "time": "Closed"}], "id": "1823700003", "name": "USPS COLLECTION BOX - BLUE BOX", "address": {"city": "MCADOO", "state": "PA", "street": "7 N KENNEDY DR", "postcode": "18237"}}},
{"geometry": {"type": "Point", "coordinates": [-75.9939522102, 40.900890239]}, "type": "Feature", "properties": {"collection_times": [{"days": "Mon-Sat", "time": "2:45pm"}, {"days": "Sun", "time": "Closed"}], "id": "1823700004", "name": "USPS COLLECTION BOX - BLUE BOX", "address": {"city": "MCADOO", "state": "PA", "street": "78 S KENNEDY DR", "postcode": "18237"}}},
{"geometry": {"type": "Point", "coordinates": [-75.995361493, 40.9022456032]}, "type": "Feature", "properties": {"collection_times": [{"days": "Mon-Fri", "time": "4:30pm"}, {"days": "Sat", "time": "11:45am"}, {"days": "Sun", "time": "Closed"}], "id": "1823700015", "name": "USPS COLLECTION BOX - PO LOBBY", "address": {"city": "MCADOO", "state": "PA", "street": "126 W BLAINE ST", "postcode": "18237"}}},
{"geometry": {"type": "Point", "coordinates": [-75.995578835, 40.958851343]}, "type": "Feature", "properties": {"collection_times": [{"days": "Mon-Fri", "time": "4:00pm"}, {"days": "Sat", "time": "9:30am"}, {"days": "Sun", "time": "Closed"}], "id": "1823900001", "name": "USPS COLLECTION BOX - BLUE BOX", "address": {"city": "MILNESVILLE", "state": "PA", "street": "1620 N CHURCH ST", "postcode": "18239"}}},
{"geometry": {"type": "Point", "coordinates": [-75.995578835, 40.958851343]}, "type": "Feature", "properties": {"collection_times": [{"days": "Mon-Fri", "time": "4:00pm"}, {"days": "Sat", "time": "9:30am"}, {"days": "Sun", "time": "Closed"}], "id": "1823900002", "name": "USPS COLLECTION BOX - PO LOBBY", "address": {"city": "MILNESVILLE", "state": "PA", "street": "1620 N CHURCH ST", "postcode": "18239"}}},
{"geometry": {"type": "Point", "coordinates": [-75.8129036047, 40.8636497404]}, "type": "Feature", "properties": {"collection_times": [{"days": "Mon-Sat", "time": "12:45pm"}, {"days": "Sun", "time": "Closed"}], "id": "1824000013", "name": "USPS COLLECTION BOX - BLUE BOX", "address": {"city": "NESQUEHONING", "state": "PA", "street": "83 W CATAWISSA ST", "postcode": "18240"}}},
{"geometry": {"type": "Point", "coordinates": [-75.8160739347, 40.8629198547]}, "type": "Feature", "properties": {"collection_times": [{"days": "Mon-Fri", "time": "4:30pm"}, {"days": "Sat", "time": "3:45pm"}, {"days": "Sun", "time": "Closed"}], "id": "1824000015", "name": "USPS COLLECTION BOX - BLUE BOX", "address": {"city": "NESQUEHONING", "state": "PA", "street": "300 W CATAWISSA ST", "postcode": "18240"}}},
{"geometry": {"type": "Point", "coordinates": [-75.8160739347, 40.8629198547]}, "type": "Feature", "properties": {"collection_times": [{"days": "Mon-Fri", "time": "4:30pm"}, {"days": "Sat", "time": "3:45pm"}, {"days": "Sun", "time": "Closed"}], "id": "1824000018", "name": "USPS COLLECTION BOX - PO LOBBY", "address": {"city": "NESQUEHONING", "state": "PA", "street": "300 W CATAWISSA ST", "postcode": "18240"}}},
{"geometry": {"type": "Point", "coordinates": [-75.8169912405, 40.8568046727]}, "type": "Feature", "properties": {"collection_times": [{"days": "Mon-Sat", "time": "9:30am"}, {"days": "Sun", "time": "Closed"}], "id": "1824000020", "name": "USPS COLLECTION BOX - BLUE BOX", "address": {"city": "NESQUEHONING", "state": "PA", "street": "184 MARKET ST", "postcode": "18240"}}},
{"geometry": {"type": "Point", "coordinates": [-76.1703638072, 40.9379146551]}, "type": "Feature", "properties": {"collection_times": [{"days": "Mon-Fri", "time": "3:30pm"}, {"days": "Sat", "time": "10:30am"}, {"days": "Sun", "time": "Closed"}], "id": "1824100001", "name": "USPS COLLECTION BOX - BLUE BOX", "address": {"city": "NUREMBURG", "state": "PA", "street": "200 MAHONY ST", "postcode": "18241"}}},
{"geometry": {"type": "Point", "coordinates": [-76.1703638072, 40.9379146551]}, "type": "Feature", "properties": {"collection_times": [{"days": "Mon-Fri", "time": "3:30pm"}, {"days": "Sat", "time": "10:30am"}, {"days": "Sun", "time": "Closed"}], "id": "1824100002", "name": "USPS COLLECTION BOX - PO LOBBY", "address": {"city": "NUREMBURG", "state": "PA", "street": "200 MAHONY ST", "postcode": "18241"}}},
{"geometry": {"type": "Point", "coordinates": [-76.1245204197, 40.9071118584]}, "type": "Feature", "properties": {"collection_times": [{"days": "Mon-Fri", "time": "2:45pm"}, {"days": "Sat", "time": "10:00am"}, {"days": "Sun", "time": "Closed"}], "id": "1824200001", "name": "USPS COLLECTION BOX - BLUE BOX", "address": {"city": "ONEIDA", "state": "PA", "street": "172 FIRST ST", "postcode": "18242"}}},
{"geometry": {"type": "Point", "coordinates": [-76.1245204197, 40.9071118584]}, "type": "Feature", "properties": {"collection_times": [{"days": "Mon-Fri", "time": "3:15pm"}, {"days": "Sat", "time": "10:00am"}, {"days": "Sun", "time": "Closed"}], "id": "1824200002", "name": "USPS COLLECTION BOX - PO LOBBY", "address": {"city": "ONEIDA", "state": "PA", "street": "172 FIRST ST", "postcode": "18242"}}},
{"geometry": {"type": "Point", "coordinates": [-75.6732265803, 40.8186341209]}, "type": "Feature", "properties": {"collection_times": [{"days": "Mon-Fri", "time": "4:30pm"}, {"days": "Sat", "time": "9:30am"}, {"days": "Sun", "time": "Closed"}], "id": "1824400001", "name": "USPS COLLECTION BOX - BLUE BOX", "address": {"city": "PARRYVILLE", "state": "PA", "street": "177 MAIN ST", "postcode": "18244"}}},
{"geometry": {"type": "Point", "coordinates": [-75.9741803919, 40.8642256404]}, "type": "Feature", "properties": {"collection_times": [{"days": "Mon-Fri", "time": "4:00pm"}, {"days": "Sat", "time": "9:15am"}, {"days": "Sun", "time": "Closed"}], "id": "1824500001", "name": "USPS COLLECTION BOX - BLUE BOX", "address": {"city": "QUAKAKE", "state": "PA", "street": "32 HECKMAN ST", "postcode": "18245"}}},
{"geometry": {"type": "Point", "coordinates": [-75.9741803919, 40.8642256404]}, "type": "Feature", "properties": {"collection_times": [{"days": "Mon-Fri", "time": "4:00pm"}, {"days": "Sat", "time": "9:15am"}, {"days": "Sun", "time": "Closed"}], "id": "1824500002", "name": "USPS COLLECTION BOX - PO LOBBY", "address": {"city": "QUAKAKE", "state": "PA", "street": "32 HECKMAN ST", "postcode": "18245"}}},
{"geometry": {"type": "Point", "coordinates": [-76.1852298635, 40.9651419654]}, "type": "Feature", "properties": {"collection_times": [{"days": "Mon-Fri", "time": "4:00pm"}, {"days": "Sat", "time": "12:00pm"}, {"days": "Sun", "time": "Closed"}], "id": "1824600001", "name": "USPS COLLECTION BOX - BLUE BOX", "address": {"city": "ROCK GLEN", "state": "PA", "street": "1289 MOUNTAIN ST", "postcode": "18246"}}},
{"geometry": {"type": "Point", "coordinates": [-76.1322256751, 40.940142446]}, "type": "Feature", "properties": {"collection_times": [{"days": "Mon-Fri", "time": "4:00pm"}, {"days": "Sat", "time": "12:00pm"}, {"days": "Sun", "time": "Closed"}], "id": "1824600002", "name": "USPS COLLECTION BOX - PO LOBBY", "address": {"city": "ROCK GLEN", "state": "PA", "street": "9999 MOUNTAIN ST", "postcode": "18246"}}},
{"geometry": {"type": "Point", "coordinates": [-76.0059051004, 41.0276258623]}, "type": "Feature", "properties": {"collection_times": [{"days": "Mon-Fri", "time": "3:30pm"}, {"days": "Sat", "time": "11:45am"}, {"days": "Sun", "time": "Closed"}], "id": "1824700001", "name": "USPS COLLECTION BOX - BLUE BOX", "address": {"city": "SAINT JOHNS", "state": "PA", "street": "784 SAINT JOHNS RD", "postcode": "18247"}}},
{"geometry": {"type": "Point", "coordinates": [-76.0059051004, 41.0276258623]}, "type": "Feature", "properties": {"collection_times": [{"days": "Mon-Fri", "time": "3:30pm"}, {"days": "Sat", "time": "11:45am"}, {"days": "Sun", "time": "Closed"}], "id": "1824700002", "name": "USPS COLLECTION BOX - PO LOBBY", "address": {"city": "SAINT JOHNS", "state": "PA", "street": "784 SAINT JOHNS RD", "postcode": "18247"}}},
{"geometry": {"type": "Point", "coordinates": [-76.1122451755, 40.8938078051]}, "type": "Feature", "properties": {"collection_times": [{"days": "Mon-Fri", "time": "3:00pm"}, {"days": "Sat", "time": "9:45am"}, {"days": "Sun", "time": "Closed"}], "id": "1824800001", "name": "USPS COLLECTION BOX - BLUE BOX", "address": {"city": "SHEPPTON", "state": "PA", "street": "928 CENTER ST", "postcode": "18248"}}},
{"geometry": {"type": "Point", "coordinates": [-76.1122451755, 40.8938078051]}, "type": "Feature", "properties": {"collection_times": [{"days": "Mon-Fri", "time": "3:00pm"}, {"days": "Sat", "time": "9:45am"}, {"days": "Sun", "time": "Closed"}], "id": "1824800002", "name": "USPS COLLECTION BOX - PO LOBBY", "address": {"city": "SHEPPTON", "state": "PA", "street": "928 CENTER ST", "postcode": "18248"}}},
{"geometry": {"type": "Point", "coordinates": [-76.0935857259, 40.9685739452]}, "type": "Feature", "properties": {"collection_times": [{"days": "Mon-Fri", "time": "4:15pm"}, {"days": "Sat", "time": "10:45am"}, {"days": "Sun", "time": "Closed"}], "id": "1824900001", "name": "USPS COLLECTION BOX - BLUE BOX", "address": {"city": "SUGARLOAF", "state": "PA", "street": "627 TOMHICKEN RD", "postcode": "18249"}}},
{"geometry": {"type": "Point", "coordinates": [-76.111151171, 40.9880328464]}, "type": "Feature", "properties": {"collection_times": [{"days": "Mon-Sat", "time": "9:00am"}, {"days": "Sun", "time": "Closed"}], "id": "1824900002", "name": "USPS COLLECTION BOX - BLUE BOX", "address": {"city": "SUGARLOAF", "state": "PA", "street": "669 STATE ROUTE 93", "postcode": "18249"}}},
{"geometry": {"type": "Point", "coordinates": [-76.0935857259, 40.9685739452]}, "type": "Feature", "properties": {"collection_times": [{"days": "Mon-Fri", "time": "4:15pm"}, {"days": "Sat", "time": "10:45am"}, {"days": "Sun", "time": "Closed"}], "id": "1824900003", "name": "USPS COLLECTION BOX - PO LOBBY", "address": {"city": "SUGARLOAF", "state": "PA", "street": "627 TOMHICKEN RD", "postcode": "18249"}}},
{"geometry": {"type": "Point", "coordinates": [-75.8711300279, 40.8249965562]}, "type": "Feature", "properties": {"collection_times": [{"days": "Mon-Fri", "time": "3:00pm"}, {"days": "Sat", "time": "2:30pm"}, {"days": "Sun", "time": "Closed"}], "id": "1825000005", "name": "USPS COLLECTION BOX - BLUE BOX", "address": {"city": "SUMMIT HILL", "state": "PA", "street": "2 E LUDLOW ST", "postcode": "18250"}}},
{"geometry": {"type": "Point", "coordinates": [-75.8735186896, 40.8264971832]}, "type": "Feature", "properties": {"collection_times": [{"days": "Mon-Fri", "time": "4:30pm"}, {"days": "Sat", "time": "3:30pm"}, {"days": "Sun", "time": "Closed"}], "id": "1825000012", "name": "USPS COLLECTION BOX - BLUE BOX", "address": {"city": "SUMMIT HILL", "state": "PA", "street": "200 N MARKET ST", "postcode": "18250"}}},
{"geometry": {"type": "Point", "coordinates": [-75.8735186896, 40.8264971832]}, "type": "Feature", "properties": {"collection_times": [{"days": "Mon-Fri", "time": "4:30pm"}, {"days": "Sat", "time": "3:30pm"}, {"days": "Sun", "time": "Closed"}], "id": "1825000015", "name": "USPS COLLECTION BOX - PO LOBBY", "address": {"city": "SUMMIT HILL", "state": "PA", "street": "200 N MARKET ST", "postcode": "18250"}}},
{"geometry": {"type": "Point", "coordinates": [-76.0753090275, 41.0007588177]}, "type": "Feature", "properties": {"collection_times": [{"days": "Mon-Fri", "time": "4:15pm"}, {"days": "Sat", "time": "10:30am"}, {"days": "Sun", "time": "Closed"}], "id": "1825100001", "name": "USPS COLLECTION BOX - BLUE BOX", "address": {"city": "SYBERTSVILLE", "state": "PA", "street": "41 N MAIN ST", "postcode": "18251"}}},
{"geometry": {"type": "Point", "coordinates": [-76.0753090275, 41.0007588177]}, "type": "Feature", "properties": {"collection_times": [{"days": "Mon-Fri", "time": "4:15pm"}, {"days": "Sat", "time": "10:30am"}, {"days": "Sun", "time": "Closed"}], "id": "1825100002", "name": "USPS COLLECTION BOX - PO LOBBY", "address": {"city": "SYBERTSVILLE", "state": "PA", "street": "41 N MAIN ST", "postcode": "18251"}}},
{"geometry": {"type": "Point", "coordinates": [-75.9680344774, 40.7973318779]}, "type": "Feature", "properties": {"collection_times": [{"days": "Mon-Fri", "time": "11:00am"}, {"days": "Sat", "time": "11:15am"}, {"days": "Sun", "time": "Closed"}], "id": "1825200013", "name": "USPS COLLECTION BOX - BLUE BOX", "address": {"city": "TAMAQUA", "state": "PA", "street": "200 E BROAD ST", "postcode": "18252"}}},
{"geometry": {"type": "Point", "coordinates": [-75.9780718842, 40.7965026236]}, "type": "Feature", "properties": {"collection_times": [{"days": "Mon-Fri", "time": "4:30pm"}, {"days": "Sat", "time": "10:15am"}, {"days": "Sun", "time": "Closed"}], "id": "1825200017", "name": "USPS COLLECTION BOX - BLUE BOX", "address": {"city": "TAMAQUA", "state": "PA", "street": "408 E BROAD ST", "postcode": "18252"}}},
{"geometry": {"type": "Point", "coordinates": [-75.9665268654, 40.7974698774]}, "type": "Feature", "properties": {"collection_times": [{"days": "Mon-Fri", "time": "3:00pm"}, {"days": "Sat", "time": "10:30am"}, {"days": "Sun", "time": "Closed"}], "id": "1825200018", "name": "USPS COLLECTION BOX - BLUE BOX", "address": {"city": "TAMAQUA", "state": "PA", "street": "249 E BROAD ST", "postcode": "18252"}}},
{"geometry": {"type": "Point", "coordinates": [-75.9690577369, 40.7972798277]}, "type": "Feature", "properties": {"collection_times": [{"days": "Mon-Fri", "time": "3:00pm"}, {"days": "Sat", "time": "11:15am"}, {"days": "Sun", "time": "Closed"}], "id": "1825200020", "name": "USPS COLLECTION BOX - BLUE BOX", "address": {"city": "TAMAQUA", "state": "PA", "street": "100 E BROAD ST", "postcode": "18252"}}},
{"geometry": {"type": "Point", "coordinates": [-75.9703306008, 40.7972076672]}, "type": "Feature", "properties": {"collection_times": [{"days": "Mon-Fri", "time": "3:00pm"}, {"days": "Sat", "time": "10:30am"}, {"days": "Sun", "time": "Closed"}], "id": "1825200021", "name": "USPS COLLECTION BOX - BLUE BOX", "address": {"city": "TAMAQUA", "state": "PA", "street": "10 W BROAD ST", "postcode": "18252"}}},
{"geometry": {"type": "Point", "coordinates": [-75.9720939318, 40.7970534201]}, "type": "Feature", "properties": {"collection_times": [{"days": "Mon-Fri", "time": "3:00pm"}, {"days": "Sat", "time": "10:30am"}, {"days": "Sun", "time": "Closed"}], "id": "1825200022", "name": "USPS COLLECTION BOX - BLUE BOX", "address": {"city": "TAMAQUA", "state": "PA", "street": "138 W BROAD ST", "postcode": "18252"}}},
{"geometry": {"type": "Point", "coordinates": [-75.9827702451, 40.8259863903]}, "type": "Feature", "properties": {"collection_times": [{"days": "Mon-Sat", "time": "9:45am"}, {"days": "Sun", "time": "Closed"}], "id": "1825200031", "name": "USPS COLLECTION BOX - BLUE BOX", "address": {"city": "TAMAQUA", "state": "PA", "street": "224 CLAREMONT AVE", "postcode": "18252"}}},
{"geometry": {"type": "Point", "coordinates": [-75.9633170282, 40.7976315459]}, "type": "Feature", "properties": {"collection_times": [{"days": "Mon-Fri", "time": "4:30pm"}, {"days": "Sat", "time": "3:00pm"}, {"days": "Sun", "time": "Closed"}], "id": "1825200032", "name": "USPS COLLECTION BOX - BLUE BOX", "address": {"city": "TAMAQUA", "state": "PA", "street": "399 E BROAD ST", "postcode": "18252"}}},
{"geometry": {"type": "Point", "coordinates": [-75.9633170282, 40.7976315459]}, "type": "Feature", "properties": {"collection_times": [{"days": "Mon-Fri", "time": "4:30pm"}, {"days": "Sat", "time": "3:00pm"}, {"days": "Sun", "time": "Closed"}], "id": "1825200036", "name": "USPS COLLECTION BOX - PO LOBBY", "address": {"city": "TAMAQUA", "state": "PA", "street": "399 E BROAD ST", "postcode": "18252"}}},
{"geometry": {"type": "Point", "coordinates": [-75.9673801536, 40.9148568872]}, "type": "Feature", "properties": {"collection_times": [{"days": "Mon-Fri", "time": "4:30pm"}, {"days": "Sat", "time": "10:30am"}, {"days": "Sun", "time": "Closed"}], "id": "1825400001", "name": "USPS COLLECTION BOX - BLUE BOX", "address": {"city": "TRESCKOW", "state": "PA", "street": "5 E MARKET ST", "postcode": "18254"}}},
{"geometry": {"type": "Point", "coordinates": [-75.9673801536, 40.9148568872]}, "type": "Feature", "properties": {"collection_times": [{"days": "Mon-Fri", "time": "4:30pm"}, {"days": "Sat", "time": "10:30am"}, {"days": "Sun", "time": "Closed"}], "id": "1825400002", "name": "USPS COLLECTION BOX - PO LOBBY", "address": {"city": "TRESCKOW", "state": "PA", "street": "5 E MARKET ST", "postcode": "18254"}}},
{"geometry": {"type": "Point", "coordinates": [-75.8285707132, 40.9417806312]}, "type": "Feature", "properties": {"collection_times": [{"days": "Mon-Fri", "time": "4:30pm"}, {"days": "Sat", "time": "12:00pm"}, {"days": "Sun", "time": "Closed"}], "id": "1825500001", "name": "USPS COLLECTION BOX - BLUE BOX", "address": {"city": "WEATHERLY", "state": "PA", "street": "5 CARBON ST", "postcode": "18255"}}},
{"geometry": {"type": "Point", "coordinates": [-75.8291101425, 40.9410625751]}, "type": "Feature", "properties": {"collection_times": [{"days": "Mon-Fri", "time": "2:00pm"}, {"days": "Sat", "time": "12:00pm"}, {"days": "Sun", "time": "Closed"}], "id": "1825500017", "name": "USPS COLLECTION BOX - BLUE BOX", "address": {"city": "WEATHERLY", "state": "PA", "street": "31 WILBUR ST", "postcode": "18255"}}},
{"geometry": {"type": "Point", "coordinates": [-75.8285707132, 40.9417806312]}, "type": "Feature", "properties": {"collection_times": [{"days": "Mon-Fri", "time": "4:30pm"}, {"days": "Sat", "time": "12:00pm"}, {"days": "Sun", "time": "Closed"}], "id": "1825500018", "name": "USPS COLLECTION BOX - PO LOBBY", "address": {"city": "WEATHERLY", "state": "PA", "street": "5 CARBON ST", "postcode": "18255"}}},
{"geometry": {"type": "Point", "coordinates": [-76.1422464718, 40.9413728458]}, "type": "Feature", "properties": {"collection_times": [{"days": "Mon-Fri", "time": "3:15pm"}, {"days": "Sat", "time": "9:45am"}, {"days": "Sun", "time": "Closed"}], "id": "1825600001", "name": "USPS COLLECTION BOX - BLUE BOX", "address": {"city": "WESTON", "state": "PA", "street": "592 HAZLE ST", "postcode": "18256"}}},
{"geometry": {"type": "Point", "coordinates": [-76.1422464718, 40.9413728458]}, "type": "Feature", "properties": {"collection_times": [{"days": "Mon-Fri", "time": "3:30pm"}, {"days": "Sat", "time": "9:45am"}, {"days": "Sun", "time": "Closed"}], "id": "1825600002", "name": "USPS COLLECTION BOX - PO LOBBY", "address": {"city": "WESTON", "state": "PA", "street": "592 HAZLE ST", "postcode": "18256"}}}
]}
