{"type": "FeatureCollection", "features": [
{"geometry": {"type": "Point", "coordinates": [-75.1717233034, 40.9970524814]}, "type": "Feature", "properties": {"collection_times": [{"days": "Mon-Sat", "time": "1:00pm"}, {"days": "Sun", "time": "Closed"}], "id": "1830100006", "name": "USPS COLLECTION BOX - BLUE BOX", "address": {"city": "E STROUDSBURG", "state": "PA", "street": "220 NORMAL ST", "postcode": "18301"}}},
{"geometry": {"type": "Point", "coordinates": [-75.184426898, 40.9931680766]}, "type": "Feature", "properties": {"collection_times": [{"days": "Mon-Sat", "time": "10:30am"}, {"days": "Sun", "time": "Closed"}], "id": "1830100008", "name": "USPS COLLECTION BOX - BLUE BOX", "address": {"city": "E STROUDSBURG", "state": "PA", "street": "300 LINCOLN AVE", "postcode": "18301"}}},
{"geometry": {"type": "Point", "coordinates": [-75.1755943631, 40.9921619374]}, "type": "Feature", "properties": {"collection_times": [{"days": "Mon-Sat", "time": "11:00am"}, {"days": "Sun", "time": "Closed"}], "id": "1830100010", "name": "USPS COLLECTION BOX - BLUE BOX", "address": {"city": "E STROUDSBURG", "state": "PA", "street": "206 E BROWN ST", "postcode": "18301"}}},
{"geometry": {"type": "Point", "coordinates": [-75.1945189331, 41.0331541368]}, "type": "Feature", "properties": {"collection_times": [{"days": "Mon-Sat", "time": "11:00am"}, {"days": "Sun", "time": "Closed"}], "id": "1830100013", "name": "USPS COLLECTION BOX - BLUE BOX", "address": {"city": "E STROUDSBURG", "state": "PA", "street": "200 EAGLE VALLEY MALL", "postcode": "18301"}}},
{"geometry": {"type": "Point", "coordinates": [-75.1778782197, 41.0048914919]}, "type": "Feature", "properties": {"collection_times": [{"days": "Mon-Sat", "time": "11:00am"}, {"days": "Sun", "time": "Closed"}], "id": "1830100014", "name": "USPS COLLECTION BOX - BLUE BOX", "address": {"city": "E STROUDSBURG", "state": "PA", "street": "166 E BROAD ST", "postcode": "18301"}}},
{"geometry": {"type": "Point", "coordinates": [-75.1980174528, 41.0168735607]}, "type": "Feature", "properties": {"collection_times": [{"days": "Mon-Sat", "time": "11:00am"}, {"days": "Sun", "time": "Closed"}], "id": "1830100018", "name": "USPS COLLECTION BOX - BLUE BOX", "address": {"city": "E STROUDSBURG", "state": "PA", "street": "275 STOKES AVE", "postcode": "18301"}}},
{"geometry": {"type": "Point", "coordinates": [-75.1828798314, 40.996418383]}, "type": "Feature", "properties": {"collection_times": [{"days": "Mon-Fri", "time": "5:00pm"}, {"days": "Sat", "time": "3:00pm"}, {"days": "Sun", "time": "Closed"}], "id": "1830100020", "name": "USPS COLLECTION BOX - BLUE BOX", "address": {"city": "E STROUDSBURG", "state": "PA", "street": "200 S COURTLAND ST", "postcode": "18301"}}},
{"geometry": {"type": "Point", "coordinates": [-75.1945189331, 41.0331541368]}, "type": "Feature", "properties": {"collection_times": [{"days": "Mon-Sat", "time": "9:30am"}, {"days": "Sun", "time": "Closed"}], "id": "1830100021", "name": "USPS COLLECTION BOX - BLUE BOX", "address": {"city": "E STROUDSBURG", "state": "PA", "street": "2610 MILFORD RD STE 1", "postcode": "18301"}}},
{"geometry": {"type": "Point", "coordinates": [-75.2426901755, 41.0240826352]}, "type": "Feature", "properties": {"collection_times": [{"days": "Mon-Sat", "time": "11:00am"}, {"days": "Sun", "time": "Closed"}], "id": "1830100026", "name": "USPS COLLECTION BOX - BLUE BOX", "address": {"city": "E STROUDSBURG", "state": "PA", "street": "1 PENN EST", "postcode": "18301"}}},
{"geometry": {"type": "Point", "coordinates": [-75.1828798314, 40.996418383]}, "type": "Feature", "properties": {"collection_times": [{"days": "Mon-Fri", "time": "5:00pm"}, {"days": "Sat", "time": "3:00pm"}, {"days": "Sun", "time": "Closed"}], "id": "1830100029", "name": "USPS COLLECTION BOX - BLUE BOX", "address": {"city": "E STROUDSBURG", "state": "PA", "street": "200 S COURTLAND ST", "postcode": "18301"}}},
{"geometry": {"type": "Point", "coordinates": [-75.1827920505, 40.9912244284]}, "type": "Feature", "properties": {"collection_times": [{"days": "Mon-Sat", "time": "10:30am"}, {"days": "Sun", "time": "Closed"}], "id": "1830100030", "name": "USPS COLLECTION BOX - BLUE BOX", "address": {"city": "E STROUDSBURG", "state": "PA", "street": "355 LINCOLN AVE", "postcode": "18301"}}},
{"geometry": {"type": "Point", "coordinates": [-75.1828798314, 40.996418383]}, "type": "Feature", "properties": {"collection_times": [{"days": "Mon-Fri", "time": "4:00pm"}, {"days": "Sat", "time": "3:00pm"}, {"days": "Sun", "time": "Closed"}], "id": "1830100035", "name": "USPS COLLECTION BOX - PO LOBBY", "address": {"city": "E STROUDSBURG", "state": "PA", "street": "200 S COURTLAND ST", "postcode": "18301"}}},
{"geometry": {"type": "Point", "coordinates": [-75.1945189331, 41.0331541368]}, "type": "Feature", "properties": {"collection_times": [{"days": "Mon-Sat", "time": "11:00am"}, {"days": "Sun", "time": "Closed"}], "id": "1830100037", "name": "USPS COLLECTION BOX - BLUE BOX", "address": {"city": "E STROUDSBURG", "state": "PA", "street": "447 OFFICE PLZ", "postcode": "18301"}}},
{"geometry": {"type": "Point", "coordinates": [-75.2216662543, 41.0529800204]}, "type": "Feature", "properties": {"collection_times": [{"days": "Mon-Fri", "time": "4:30pm"}, {"days": "Sat", "time": "12:00pm"}, {"days": "Sun", "time": "Closed"}], "id": "1832000001", "name": "USPS COLLECTION BOX - BLUE BOX", "address": {"city": "ANALOMINK", "state": "PA", "street": "1635 CHERRY LANE RD", "postcode": "18320"}}},
{"geometry": {"type": "Point", "coordinates": [-75.2216662543, 41.0529800204]}, "type": "Feature", "properties": {"collection_times": [{"days": "Mon-Fri", "time": "4:30pm"}, {"days": "Sat", "time": "12:00pm"}, {"days": "Sun", "time": "Closed"}], "id": "1832000002", "name": "USPS COLLECTION BOX - PO LOBBY", "address": {"city": "ANALOMINK", "state": "PA", "street": "1635 CHERRY LANE RD", "postcode": "18320"}}},
{"geometry": {"type": "Point", "coordinates": [-75.3988875362, 40.9127510909]}, "type": "Feature", "properties": {"collection_times": [{"days": "Mon-Fri", "time": "4:30pm"}, {"days": "Sat", "time": "12:00pm"}, {"days": "Sun", "time": "Closed"}], "id": "1832200001", "name": "USPS COLLECTION BOX - BLUE BOX", "address": {"city": "BRODHEADSVILLE", "state": "PA", "street": "0 RODENBACH LN", "postcode": "18322"}}},
{"geometry": {"type": "Point", "coordinates": [-75.4044825423, 40.9238943486]}, "type": "Feature", "properties": {"collection_times": [{"days": "Mon-Sat", "time": "4:00pm"}, {"days": "Sun", "time": "Closed"}], "id": "1832200004", "name": "USPS COLLECTION BOX - BLUE BOX", "address": {"city": "BRODHEADSVILLE", "state": "PA", "street": "2 HC BOX2089", "postcode": "18322"}}},
{"geometry": {"type": "Point", "coordinates": [-75.4044825423, 40.9238943486]}, "type": "Feature", "properties": {"collection_times": [{"days": "Mon-Sat", "time": "4:00pm"}, {"days": "Sun", "time": "Closed"}], "id": "1832200005", "name": "USPS COLLECTION BOX - BLUE BOX", "address": {"city": "BRODHEADSVILLE", "state": "PA", "street": "1 HC 1E", "postcode": "18322"}}},
{"geometry": {"type": "Point", "coordinates": [-75.3988875362, 40.9127510909]}, "type": "Feature", "properties": {"collection_times": [{"days": "Mon-Fri", "time": "4:30pm"}, {"days": "Sat", "time": "12:00pm"}, {"days": "Sun", "time": "Closed"}], "id": "1832200007", "name": "USPS COLLECTION BOX - PO LOBBY", "address": {"city": "BRODHEADSVILLE", "state": "PA", "street": "0 RODENBACH LN", "postcode": "18322"}}},
{"geometry": {"type": "Point", "coordinates": [-75.4044825423, 40.9238943486]}, "type": "Feature", "properties": {"collection_times": [{"days": "Mon-Sat", "time": "4:00pm"}, {"days": "Sun", "time": "Closed"}], "id": "1832200009", "name": "USPS COLLECTION BOX - BLUE BOX", "address": {"city": "BRODHEADSVILLE", "state": "PA", "street": "2 HC BOX 2000-AID", "postcode": "18322"}}},
{"geometry": {"type": "Point", "coordinates": [-74.982868881, 41.1320401792]}, "type": "Feature", "properties": {"collection_times": [{"days": "Mon-Sat", "time": "9:30am"}, {"days": "Sun", "time": "Closed"}], "id": "1832400001", "name": "USPS COLLECTION BOX - BLUE BOX", "address": {"city": "BUSHKILL", "state": "PA", "street": "1 SAW CREEK EST", "postcode": "18324"}}},
{"geometry": {"type": "Point", "coordinates": [-74.9547733891, 41.1522479963]}, "type": "Feature", "properties": {"collection_times": [{"days": "Mon-Sat", "time": "9:30am"}, {"days": "Sun", "time": "Closed"}], "id": "1832400002", "name": "USPS COLLECTION BOX - BLUE BOX", "address": {"city": "BUSHKILL", "state": "PA", "street": "1 POCONO MOUNTAIN LAKE EST", "postcode": "18324"}}},
{"geometry": {"type": "Point", "coordinates": [-75.0125888331, 41.1457541906]}, "type": "Feature", "properties": {"collection_times": [{"days": "Mon-Sat", "time": "9:30am"}, {"days": "Sun", "time": "Closed"}], "id": "1832400003", "name": "USPS COLLECTION BOX - BLUE BOX", "address": {"city": "BUSHKILL", "state": "PA", "street": "100 PINE RDG", "postcode": "18324"}}},
{"geometry": {"type": "Point", "coordinates": [-75.0125888331, 41.1457541906]}, "type": "Feature", "properties": {"collection_times": [{"days": "Mon-Sat", "time": "10:00am"}, {"days": "Sun", "time": "Closed"}], "id": "1832400005", "name": "USPS COLLECTION BOX - BLUE BOX", "address": {"city": "BUSHKILL", "state": "PA", "street": "1 RANCHLANDS", "postcode": "18324"}}},
{"geometry": {"type": "Point", "coordinates": [-74.9598999169, 41.1525621296]}, "type": "Feature", "properties": {"collection_times": [{"days": "Mon-Sat", "time": "9:30am"}, {"days": "Sun", "time": "Closed"}], "id": "1832400006", "name": "USPS COLLECTION BOX - BLUE BOX", "address": {"city": "BUSHKILL", "state": "PA", "street": "649 SAW CREEK EST", "postcode": "18324"}}},
{"geometry": {"type": "Point", "coordinates": [-75.0231513786, 41.1086714335]}, "type": "Feature", "properties": {"collection_times": [{"days": "Mon-Sat", "time": "9:30am"}, {"days": "Sun", "time": "Closed"}], "id": "1832400007", "name": "USPS COLLECTION BOX - BLUE BOX", "address": {"city": "BUSHKILL", "state": "PA", "street": "1 WICKES RD", "postcode": "18324"}}},
{"geometry": {"type": "Point", "coordinates": [-75.2201030089, 41.2196222242]}, "type": "Feature", "properties": {"collection_times": [{"days": "Mon-Fri", "time": "4:30pm"}, {"days": "Sat", "time": "11:30am"}, {"days": "Sun", "time": "Closed"}], "id": "1832500001", "name": "USPS COLLECTION BOX - BLUE BOX", "address": {"city": "CANADENSIS", "state": "PA", "street": "4792 ROUTE 447", "postcode": "18325"}}},
{"geometry": {"type": "Point", "coordinates": [-75.2201030089, 41.2196222242]}, "type": "Feature", "properties": {"collection_times": [{"days": "Mon-Fri", "time": "4:30pm"}, {"days": "Sat", "time": "11:30am"}, {"days": "Sun", "time": "Closed"}], "id": "1832500003", "name": "USPS COLLECTION BOX - PO LOBBY", "address": {"city": "CANADENSIS", "state": "PA", "street": "4792 ROUTE 447", "postcode": "18325"}}},
{"geometry": {"type": "Point", "coordinates": [-75.2201030089, 41.2196222242]}, "type": "Feature", "properties": {"collection_times": [{"days": "Mon-Fri", "time": "4:30pm"}, {"days": "Sat", "time": "11:30am"}, {"days": "Sun", "time": "Closed"}], "id": "1832500004", "name": "USPS COLLECTION BOX - PO LOBBY", "address": {"city": "CANADENSIS", "state": "PA", "street": "4792 ROUTE 447", "postcode": "18325"}}},
{"geometry": {"type": "Point", "coordinates": [-75.2464569478, 41.0972832846]}, "type": "Feature", "properties": {"collection_times": [{"days": "Mon-Fri", "time": "5:00pm"}, {"days": "Sat", "time": "12:00pm"}, {"days": "Sun", "time": "Closed"}], "id": "1832600001", "name": "USPS COLLECTION BOX - BLUE BOX", "address": {"city": "CRESCO", "state": "PA", "street": "6535 ROUTE 191", "postcode": "18326"}}},
{"geometry": {"type": "Point", "coordinates": [-75.2464569478, 41.0972832846]}, "type": "Feature", "properties": {"collection_times": [{"days": "Mon-Fri", "time": "5:00pm"}, {"days": "Sat", "time": "12:00pm"}, {"days": "Sun", "time": "Closed"}], "id": "1832600004", "name": "USPS COLLECTION BOX - PO LOBBY", "address": {"city": "CRESCO", "state": "PA", "street": "6535 ROUTE 191", "postcode": "18326"}}},
{"geometry": {"type": "Point", "coordinates": [-75.1492726136, 40.9733220384]}, "type": "Feature", "properties": {"collection_times": [{"days": "Mon-Fri", "time": "4:30pm"}, {"days": "Sat", "time": "11:30am"}, {"days": "Sun", "time": "Closed"}], "id": "1832700001", "name": "USPS COLLECTION BOX - BLUE BOX", "address": {"city": "DE WATER GAP", "state": "PA", "street": "12 SHEPARD AVE", "postcode": "18327"}}},
{"geometry": {"type": "Point", "coordinates": [-75.1492726136, 40.9733220384]}, "type": "Feature", "properties": {"collection_times": [{"days": "Mon-Fri", "time": "4:30pm"}, {"days": "Sat", "time": "11:30am"}, {"days": "Sun", "time": "Closed"}], "id": "1832700002", "name": "USPS COLLECTION BOX - PO LOBBY", "address": {"city": "DE WATER GAP", "state": "PA", "street": "12 SHEPARD AVE", "postcode": "18327"}}},
{"geometry": {"type": "Point", "coordinates": [-75.1492726136, 40.9733220384]}, "type": "Feature", "properties": {"collection_times": [{"days": "Mon-Fri", "time": "4:30pm"}, {"days": "Sat", "time": "11:30am"}, {"days": "Sun", "time": "Closed"}], "id": "1832700003", "name": "USPS COLLECTION BOX - PO LOBBY", "address": {"city": "DE WATER GAP", "state": "PA", "street": "12 SHEPARD AVE", "postcode": "18327"}}},
{"geometry": {"type": "Point", "coordinates": [-74.9487442954, 41.256632462]}, "type": "Feature", "properties": {"collection_times": [{"days": "Mon-Fri", "time": "4:45pm"}, {"days": "Sat", "time": "12:45pm"}, {"days": "Sun", "time": "Closed"}], "id": "1832800001", "name": "USPS COLLECTION BOX - BLUE BOX", "address": {"city": "DINGMANS FERRY", "state": "PA", "street": "103 NICHECRONK RD", "postcode": "18328"}}},
{"geometry": {"type": "Point", "coordinates": [-74.9325287628, 41.2162028138]}, "type": "Feature", "properties": {"collection_times": [{"days": "Mon-Sat", "time": "10:30am"}, {"days": "Sun", "time": "Closed"}], "id": "1832800003", "name": "USPS COLLECTION BOX - BLUE BOX", "address": {"city": "DINGMANS FERRY", "state": "PA", "street": "116 WILD ACRES DR", "postcode": "18328"}}},
{"geometry": {"type": "Point", "coordinates": [-74.9031219633, 41.2562214334]}, "type": "Feature", "properties": {"collection_times": [{"days": "Mon-Sat", "time": "10:45am"}, {"days": "Sun", "time": "Closed"}], "id": "1832800004", "name": "USPS COLLECTION BOX - BLUE BOX", "address": {"city": "DINGMANS FERRY", "state": "PA", "street": "1757 ROUTE 739", "postcode": "18328"}}},
{"geometry": {"type": "Point", "coordinates": [-74.8987521043, 41.253325265]}, "type": "Feature", "properties": {"collection_times": [{"days": "Mon-Sat", "time": "9:30am"}, {"days": "Sun", "time": "Closed"}], "id": "1832800006", "name": "USPS COLLECTION BOX - BLUE BOX", "address": {"city": "DINGMANS FERRY", "state": "PA", "street": "1816 ROUTE 739", "postcode": "18328"}}},
{"geometry": {"type": "Point", "coordinates": [-74.8995006297, 41.2354079919]}, "type": "Feature", "properties": {"collection_times": [{"days": "Mon-Sat", "time": "11:45am"}, {"days": "Sun", "time": "Closed"}], "id": "1832800008", "name": "USPS COLLECTION BOX - BLUE BOX", "address": {"city": "DINGMANS FERRY", "state": "PA", "street": "229 SILVER LAKE RD", "postcode": "18328"}}},
{"geometry": {"type": "Point", "coordinates": [-74.9487442954, 41.256632462]}, "type": "Feature", "properties": {"collection_times": [{"days": "Mon-Fri", "time": "4:45pm"}, {"days": "Sat", "time": "12:45pm"}, {"days": "Sun", "time": "Closed"}], "id": "1832800009", "name": "USPS COLLECTION BOX - PO LOBBY", "address": {"city": "DINGMANS FERRY", "state": "PA", "street": "103 NICHECRONK RD", "postcode": "18328"}}},
{"geometry": {"type": "Point", "coordinates": [-75.4534592631, 40.9722411282]}, "type": "Feature", "properties": {"collection_times": [{"days": "Mon-Fri", "time": "4:30pm"}, {"days": "Sat", "time": "11:45am"}, {"days": "Sun", "time": "Closed"}], "id": "1833000001", "name": "USPS COLLECTION BOX - BLUE BOX", "address": {"city": "EFFORT", "state": "PA", "street": "985 GILBERT RD", "postcode": "18330"}}},
{"geometry": {"type": "Point", "coordinates": [-75.4534592631, 40.9722411282]}, "type": "Feature", "properties": {"collection_times": [{"days": "Mon-Fri", "time": "4:30pm"}, {"days": "Sat", "time": "11:45am"}, {"days": "Sun", "time": "Closed"}], "id": "1833000003", "name": "USPS COLLECTION BOX - PO LOBBY", "address": {"city": "EFFORT", "state": "PA", "street": "985 GILBERT RD", "postcode": "18330"}}},
{"geometry": {"type": "Point", "coordinates": [-75.4534592631, 40.9722411282]}, "type": "Feature", "properties": {"collection_times": [{"days": "Mon-Fri", "time": "4:30pm"}, {"days": "Sat", "time": "11:45am"}, {"days": "Sun", "time": "Closed"}], "id": "1833000004", "name": "USPS COLLECTION BOX - PO LOBBY", "address": {"city": "EFFORT", "state": "PA", "street": "985 GILBERT RD", "postcode": "18330"}}},
{"geometry": {"type": "Point", "coordinates": [-75.2713861522, 41.0829127631]}, "type": "Feature", "properties": {"collection_times": [{"days": "Mon-Fri", "time": "4:30pm"}, {"days": "Sat", "time": "11:00am"}, {"days": "Sun", "time": "Closed"}], "id": "1833200001", "name": "USPS COLLECTION BOX - BLUE BOX", "address": {"city": "HENRYVILLE", "state": "PA", "street": "5285 PARADISE VALLEY RD", "postcode": "18332"}}},
{"geometry": {"type": "Point", "coordinates": [-75.2713861522, 41.0829127631]}, "type": "Feature", "properties": {"collection_times": [{"days": "Mon-Fri", "time": "4:30pm"}, {"days": "Sat", "time": "11:00am"}, {"days": "Sun", "time": "Closed"}], "id": "1833200002", "name": "USPS COLLECTION BOX - PO LOBBY", "address": {"city": "HENRYVILLE", "state": "PA", "street": "5285 PARADISE VALLEY RD", "postcode": "18332"}}},
{"geometry": {"type": "Point", "coordinates": [-75.509985775, 40.8979209777]}, "type": "Feature", "properties": {"collection_times": [{"days": "Mon-Fri", "time": "4:00pm"}, {"days": "Sat", "time": "11:30am"}, {"days": "Sun", "time": "Closed"}], "id": "1833300001", "name": "USPS COLLECTION BOX - BLUE BOX", "address": {"city": "KRESGEVILLE", "state": "PA", "street": "543 INTERCHANGE RD STE 103", "postcode": "18333"}}},
{"geometry": {"type": "Point", "coordinates": [-75.509985775, 40.8979209777]}, "type": "Feature", "properties": {"collection_times": [{"days": "Mon-Fri", "time": "4:00pm"}, {"days": "Sat", "time": "11:30am"}, {"days": "Sun", "time": "Closed"}], "id": "1833300002", "name": "USPS COLLECTION BOX - PO LOBBY", "address": {"city": "KRESGEVILLE", "state": "PA", "street": "1 POSTAL WAY", "postcode": "18333"}}},
{"geometry": {"type": "Point", "coordinates": [-75.4250994119, 41.0802014334]}, "type": "Feature", "properties": {"collection_times": [{"days": "Mon-Fri", "time": "4:00pm"}, {"days": "Sat", "time": "12:00pm"}, {"days": "Sun", "time": "Closed"}], "id": "1833400001", "name": "USPS COLLECTION BOX - BLUE BOX", "address": {"city": "LONG POND", "state": "PA", "street": "1557 LONG POND RD", "postcode": "18334"}}},
{"geometry": {"type": "Point", "coordinates": [-75.4250994119, 41.0802014334]}, "type": "Feature", "properties": {"collection_times": [{"days": "Mon-Fri", "time": "4:00pm"}, {"days": "Sat", "time": "12:00pm"}, {"days": "Sun", "time": "Closed"}], "id": "1833400003", "name": "USPS COLLECTION BOX - PO LOBBY", "address": {"city": "LONG POND", "state": "PA", "street": "1557 LONG POND RD LBBY", "postcode": "18334"}}},
{"geometry": {"type": "Point", "coordinates": [-75.4250994119, 41.0802014334]}, "type": "Feature", "properties": {"collection_times": [{"days": "Mon-Fri", "time": "4:00pm"}, {"days": "Sat", "time": "12:00pm"}, {"days": "Sun", "time": "Closed"}], "id": "1833400004", "name": "USPS COLLECTION BOX - PO LOBBY", "address": {"city": "LONG POND", "state": "PA", "street": "1556 LONG POND RD", "postcode": "18334"}}},
{"geometry": {"type": "Point", "coordinates": [-74.7070177327, 41.3691704157]}, "type": "Feature", "properties": {"collection_times": [{"days": "Mon-Fri", "time": "4:45pm"}, {"days": "Sat", "time": "11:45am"}, {"days": "Sun", "time": "Closed"}], "id": "1833600001", "name": "USPS COLLECTION BOX - BLUE BOX", "address": {"city": "MATAMORAS", "state": "PA", "street": "6 PENNSYLVANIA AVE", "postcode": "18336"}}},
{"geometry": {"type": "Point", "coordinates": [-74.7051774131, 41.3641509486]}, "type": "Feature", "properties": {"collection_times": [{"days": "Mon-Sat", "time": "10:00am"}, {"days": "Sun", "time": "Closed"}], "id": "1833600006", "name": "USPS COLLECTION BOX - BLUE BOX", "address": {"city": "MATAMORAS", "state": "PA", "street": "912 PENNSYLVANIA AVE", "postcode": "18336"}}},
{"geometry": {"type": "Point", "coordinates": [-74.7012048912, 41.3680184544]}, "type": "Feature", "properties": {"collection_times": [{"days": "Mon-Sat", "time": "10:00am"}, {"days": "Sun", "time": "Closed"}], "id": "1833600007", "name": "USPS COLLECTION BOX - BLUE BOX", "address": {"city": "MATAMORAS", "state": "PA", "street": "411 PENN AVE", "postcode": "18336"}}},
{"geometry": {"type": "Point", "coordinates": [-74.6978132969, 41.3709995166]}, "type": "Feature", "properties": {"collection_times": [{"days": "Mon-Fri", "time": "4:45pm"}, {"days": "Sat", "time": "11:45am"}, {"days": "Sun", "time": "Closed"}], "id": "1833600013", "name": "USPS COLLECTION BOX - PO LOBBY", "address": {"city": "MATAMORAS", "state": "PA", "street": "6 PENNSYLVANIA AVE", "postcode": "18336"}}},
{"geometry": {"type": "Point", "coordinates": [-74.8019554873, 41.3235112678]}, "type": "Feature", "properties": {"collection_times": [{"days": "Mon-Sat", "time": "3:00pm"}, {"days": "Sun", "time": "Closed"}], "id": "1833700001", "name": "USPS COLLECTION BOX - BLUE BOX", "address": {"city": "MILFORD", "state": "PA", "street": "412 BROAD ST", "postcode": "18337"}}},
{"geometry": {"type": "Point", "coordinates": [-74.8024730818, 41.3230932141]}, "type": "Feature", "properties": {"collection_times": [{"days": "Mon-Sat", "time": "3:00pm"}, {"days": "Sun", "time": "Closed"}], "id": "1833700002", "name": "USPS COLLECTION BOX - BLUE BOX", "address": {"city": "MILFORD", "state": "PA", "street": "322 BROAD ST", "postcode": "18337"}}},
{"geometry": {"type": "Point", "coordinates": [-74.9437742573, 41.3200560807]}, "type": "Feature", "properties": {"collection_times": [{"days": "Mon-Sat", "time": "11:00am"}, {"days": "Sun", "time": "Closed"}], "id": "1833700003", "name": "USPS COLLECTION BOX - BLUE BOX", "address": {"city": "MILFORD", "state": "PA", "street": "106 LOG TAVERN WAY", "postcode": "18337"}}},
{"geometry": {"type": "Point", "coordinates": [-74.9626498252, 41.3246414769]}, "type": "Feature", "properties": {"collection_times": [{"days": "Mon-Sat", "time": "11:00am"}, {"days": "Sun", "time": "Closed"}], "id": "1833700004", "name": "USPS COLLECTION BOX - BLUE BOX", "address": {"city": "MILFORD", "state": "PA", "street": "3000 SUNRISE LK", "postcode": "18337"}}},
{"geometry": {"type": "Point", "coordinates": [-74.9557792042, 41.3721963598]}, "type": "Feature", "properties": {"collection_times": [{"days": "Mon-Sat", "time": "11:00am"}, {"days": "Sun", "time": "Closed"}], "id": "1833700006", "name": "USPS COLLECTION BOX - BLUE BOX", "address": {"city": "MILFORD", "state": "PA", "street": "4000 CONASHAUGH LK", "postcode": "18337"}}},
{"geometry": {"type": "Point", "coordinates": [-74.8069604157, 41.3244942482]}, "type": "Feature", "properties": {"collection_times": [{"days": "Mon-Sat", "time": "10:00am"}, {"days": "Sun", "time": "Closed"}], "id": "1833700009", "name": "USPS COLLECTION BOX - BLUE BOX", "address": {"city": "MILFORD", "state": "PA", "street": "501 W HARFORD ST", "postcode": "18337"}}},
{"geometry": {"type": "Point", "coordinates": [-74.8042756619, 41.3227300869]}, "type": "Feature", "properties": {"collection_times": [{"days": "Mon-Fri", "time": "4:00pm"}, {"days": "Sat", "time": "3:00pm"}, {"days": "Sun", "time": "Closed"}], "id": "1833700010", "name": "USPS COLLECTION BOX - BLUE BOX", "address": {"city": "MILFORD", "state": "PA", "street": "200 W HARFORD ST", "postcode": "18337"}}},
{"geometry": {"type": "Point", "coordinates": [-74.8860565614, 41.3190075566]}, "type": "Feature", "properties": {"collection_times": [{"days": "Mon-Sat", "time": "11:00am"}, {"days": "Sun", "time": "Closed"}], "id": "1833700014", "name": "USPS COLLECTION BOX - BLUE BOX", "address": {"city": "MILFORD", "state": "PA", "street": "1294 ROUTE 739", "postcode": "18337"}}},
{"geometry": {"type": "Point", "coordinates": [-74.8042756619, 41.3227300869]}, "type": "Feature", "properties": {"collection_times": [{"days": "Mon-Fri", "time": "4:00pm"}, {"days": "Sat", "time": "12:00pm"}, {"days": "Sun", "time": "Closed"}], "id": "1833700015", "name": "USPS COLLECTION BOX - PO LOBBY", "address": {"city": "MILFORD", "state": "PA", "street": "200 W HARFORD ST", "postcode": "18337"}}},
{"geometry": {"type": "Point", "coordinates": [-74.7801952909, 41.4163355923]}, "type": "Feature", "properties": {"collection_times": [{"days": "Mon-Fri", "time": "4:15pm"}, {"days": "Sat", "time": "11:30am"}, {"days": "Sun", "time": "Closed"}], "id": "1834000001", "name": "USPS COLLECTION BOX - BLUE BOX", "address": {"city": "MILLRIFT", "state": "PA", "street": "125 BLUESTONE BLVD", "postcode": "18340"}}},
{"geometry": {"type": "Point", "coordinates": [-74.7801952909, 41.4163355923]}, "type": "Feature", "properties": {"collection_times": [{"days": "Mon-Fri", "time": "4:15pm"}, {"days": "Sat", "time": "11:30am"}, {"days": "Sun", "time": "Closed"}], "id": "1834000002", "name": "USPS COLLECTION BOX - PO LOBBY", "address": {"city": "MILLRIFT", "state": "PA", "street": "125 BLUESTONE BLVD", "postcode": "18340"}}},
{"geometry": {"type": "Point", "coordinates": [-75.1208522082, 40.8962967927]}, "type": "Feature", "properties": {"collection_times": [{"days": "Mon-Fri", "time": "4:30pm"}, {"days": "Sat", "time": "12:00pm"}, {"days": "Sun", "time": "Closed"}], "id": "1834300001", "name": "USPS COLLECTION BOX - BLUE BOX", "address": {"city": "MT BETHEL", "state": "PA", "street": "2 MOUNT BETHEL PLZ", "postcode": "18343"}}},
{"geometry": {"type": "Point", "coordinates": [-75.1000278255, 40.8908504387]}, "type": "Feature", "properties": {"collection_times": [{"days": "Mon-Fri", "time": "4:30pm"}, {"days": "Sat", "time": "12:00pm"}, {"days": "Sun", "time": "Closed"}], "id": "1834300002", "name": "USPS COLLECTION BOX - EXPRESS", "address": {"city": "MT BETHEL", "state": "PA", "street": "2 MOUNT BETHEL PLZ", "postcode": "18343"}}},
{"geometry": {"type": "Point", "coordinates": [-75.1208522082, 40.8962967927]}, "type": "Feature", "properties": {"collection_times": [{"days": "Mon-Fri", "time": "4:30pm"}, {"days": "Sat", "time": "12:00pm"}, {"days": "Sun", "time": "Closed"}], "id": "1834300003", "name": "USPS COLLECTION BOX - PO LOBBY", "address": {"city": "MT BETHEL", "state": "PA", "street": "2 MOUNT BETHEL PLZ", "postcode": "18343"}}},
{"geometry": {"type": "Point", "coordinates": [-75.1208522082, 40.8962967927]}, "type": "Feature", "properties": {"collection_times": [{"days": "Mon-Fri", "time": "4:30pm"}, {"days": "Sat", "time": "12:00pm"}, {"days": "Sun", "time": "Closed"}], "id": "1834300004", "name": "USPS COLLECTION BOX - PO LOBBY", "address": {"city": "MT BETHEL", "state": "PA", "street": "2 MT BETHEL PLZ", "postcode": "18343"}}},
{"geometry": {"type": "Point", "coordinates": [-75.3584025317, 41.1244415295]}, "type": "Feature", "properties": {"collection_times": [{"days": "Mon-Sat", "time": "10:15am"}, {"days": "Sun", "time": "Closed"}], "id": "1834400003", "name": "USPS COLLECTION BOX - BLUE BOX", "address": {"city": "MOUNT POCONO", "state": "PA", "street": "415 POCONO BLVD", "postcode": "18344"}}},
{"geometry": {"type": "Point", "coordinates": [-75.3697381195, 41.124185489]}, "type": "Feature", "properties": {"collection_times": [{"days": "Mon-Sat", "time": "11:00am"}, {"days": "Sun", "time": "Closed"}], "id": "1834400004", "name": "USPS COLLECTION BOX - BLUE BOX", "address": {"city": "MOUNT POCONO", "state": "PA", "street": "601 ROUTE 940", "postcode": "18344"}}},
{"geometry": {"type": "Point", "coordinates": [-75.3563483903, 41.1225739733]}, "type": "Feature", "properties": {"collection_times": [{"days": "Mon-Fri", "time": "5:00pm"}, {"days": "Sat", "time": "12:00pm"}, {"days": "Sun", "time": "Closed"}], "id": "1834400005", "name": "USPS COLLECTION BOX - BLUE BOX", "address": {"city": "MOUNT POCONO", "state": "PA", "street": "11 PINE HILL RD", "postcode": "18344"}}},
{"geometry": {"type": "Point", "coordinates": [-75.3563483903, 41.1225739733]}, "type": "Feature", "properties": {"collection_times": [{"days": "Mon-Fri", "time": "5:00pm"}, {"days": "Sat", "time": "12:00pm"}, {"days": "Sun", "time": "Closed"}], "id": "1834400006", "name": "USPS COLLECTION BOX - PO LOBBY", "address": {"city": "MOUNT POCONO", "state": "PA", "street": "11 PINE HILL RD", "postcode": "18344"}}},
{"geometry": {"type": "Point", "coordinates": [-75.4072066793, 41.1098300259]}, "type": "Feature", "properties": {"collection_times": [{"days": "Mon-Fri", "time": "4:30pm"}, {"days": "Sat", "time": "12:45pm"}, {"days": "Sun", "time": "Closed"}], "id": "1834600001", "name": "USPS COLLECTION BOX - BLUE BOX", "address": {"city": "POCONO SUMMIT", "state": "PA", "street": "2657 ROUTE 940", "postcode": "18346"}}},
{"geometry": {"type": "Point", "coordinates": [-75.4072066793, 41.1098300259]}, "type": "Feature", "properties": {"collection_times": [{"days": "Mon-Sat", "time": "10:30am"}, {"days": "Sun", "time": "Closed"}], "id": "1834600002", "name": "USPS COLLECTION BOX - BLUE BOX", "address": {"city": "POCONO SUMMIT", "state": "PA", "street": "STILLWATER DRIVE", "postcode": "18346"}}},
{"geometry": {"type": "Point", "coordinates": [-75.4072066793, 41.1098300259]}, "type": "Feature", "properties": {"collection_times": [{"days": "Mon-Fri", "time": "4:30pm"}, {"days": "Sat", "time": "12:45pm"}, {"days": "Sun", "time": "Closed"}], "id": "1834600003", "name": "USPS COLLECTION BOX - PO LOBBY", "address": {"city": "POCONO SUMMIT", "state": "PA", "street": "2657 ROUTE 940", "postcode": "18346"}}},
{"geometry": {"type": "Point", "coordinates": [-75.3976747357, 41.1133064938]}, "type": "Feature", "properties": {"collection_times": [{"days": "Mon-Sat", "time": "11:15am"}, {"days": "Sun", "time": "Closed"}], "id": "1834600005", "name": "USPS COLLECTION BOX - BLUE BOX", "address": {"city": "POCONO SUMMIT", "state": "PA", "street": "HUMMINGBIRD DRIVE", "postcode": "18346"}}},
{"geometry": {"type": "Point", "coordinates": [-75.5580296202, 41.1163979307]}, "type": "Feature", "properties": {"collection_times": [{"days": "Mon-Sat", "time": "10:00am"}, {"days": "Sun", "time": "Closed"}], "id": "1834700002", "name": "USPS COLLECTION BOX - BLUE BOX", "address": {"city": "POCONO LAKE", "state": "PA", "street": "999999 ARROWHEAD LK", "postcode": "18347"}}},
{"geometry": {"type": "Point", "coordinates": [-75.3591680251, 41.1001683035]}, "type": "Feature", "properties": {"collection_times": [{"days": "Mon-Fri", "time": "2:00pm"}, {"days": "Sat", "time": "11:00am"}, {"days": "Sun", "time": "Closed"}], "id": "1834900000", "name": "USPS COLLECTION BOX - PO LOBBY", "address": {"city": "POCONO MANOR", "state": "PA", "street": "1 MANOR DR", "postcode": "18349"}}},
{"geometry": {"type": "Point", "coordinates": [-75.4546063443, 41.1078834635]}, "type": "Feature", "properties": {"collection_times": [{"days": "Mon-Fri", "time": "4:30pm"}, {"days": "Sat", "time": "11:30am"}, {"days": "Sun", "time": "Closed"}], "id": "1835000001", "name": "USPS COLLECTION BOX - BLUE BOX", "address": {"city": "POCONO PINES", "state": "PA", "street": "1712 ROUTE 940 STE 102", "postcode": "18350"}}},
{"geometry": {"type": "Point", "coordinates": [-75.4491506023, 41.1199001657]}, "type": "Feature", "properties": {"collection_times": [{"days": "Mon-Fri", "time": "5:00pm"}, {"days": "Sat", "time": "2:00pm"}, {"days": "Sun", "time": "Closed"}], "id": "1835000002", "name": "USPS COLLECTION BOX - BLUE BOX", "address": {"city": "POCONO PINES", "state": "PA", "street": "1 OLD ROUTE 940", "postcode": "18350"}}},
{"geometry": {"type": "Point", "coordinates": [-75.096186378, 40.9217402818]}, "type": "Feature", "properties": {"collection_times": [{"days": "Mon-Fri", "time": "4:30pm"}, {"days": "Sat", "time": "11:30am"}, {"days": "Sun", "time": "Closed"}], "id": "1835100001", "name": "USPS COLLECTION BOX - BLUE BOX", "address": {"city": "PORTLAND", "state": "PA", "street": "403 DELAWARE AVE", "postcode": "18351"}}},
{"geometry": {"type": "Point", "coordinates": [-75.096186378, 40.9217402818]}, "type": "Feature", "properties": {"collection_times": [{"days": "Mon-Fri", "time": "4:30pm"}, {"days": "Sat", "time": "11:30am"}, {"days": "Sun", "time": "Closed"}], "id": "1835100002", "name": "USPS COLLECTION BOX - PO LOBBY", "address": {"city": "PORTLAND", "state": "PA", "street": "403 DELAWARE AVE", "postcode": "18351"}}},
{"geometry": {"type": "Point", "coordinates": [-75.3341280318, 41.020614028]}, "type": "Feature", "properties": {"collection_times": [{"days": "Mon-Fri", "time": "4:30pm"}, {"days": "Sat", "time": "11:45am"}, {"days": "Sun", "time": "Closed"}], "id": "1835200001", "name": "USPS COLLECTION BOX - BLUE BOX", "address": {"city": "REEDERS", "state": "PA", "street": "2162 ROUTE 715", "postcode": "18352"}}},
{"geometry": {"type": "Point", "coordinates": [-75.3341280318, 41.020614028]}, "type": "Feature", "properties": {"collection_times": [{"days": "Mon-Fri", "time": "4:30pm"}, {"days": "Sat", "time": "11:45am"}, {"days": "Sun", "time": "Closed"}], "id": "1835200002", "name": "USPS COLLECTION BOX - PO LOBBY", "address": {"city": "REEDERS", "state": "PA", "street": "2162 ROUTE 715", "postcode": "18352"}}},
{"geometry": {"type": "Point", "coordinates": [-75.3341280318, 41.020614028]}, "type": "Feature", "properties": {"collection_times": [{"days": "Mon-Fri", "time": "4:30pm"}, {"days": "Sat", "time": "11:45am"}, {"days": "Sun", "time": "Closed"}], "id": "1835200004", "name": "USPS COLLECTION BOX - BLUE BOX", "address": {"city": "REEDERS", "state": "PA", "street": "2162 ROUTE 715", "postcode": "18352"}}},
{"geometry": {"type": "Point", "coordinates": [-75.3235560488, 40.9255793996]}, "type": "Feature", "properties": {"collection_times": [{"days": "Mon-Fri", "time": "4:15pm"}, {"days": "Sat", "time": "11:30am"}, {"days": "Sun", "time": "Closed"}], "id": "1835400003", "name": "USPS COLLECTION BOX - BLUE BOX", "address": {"city": "SCIOTA", "state": "PA", "street": "134 BOSSARDSVILLE RD", "postcode": "18354"}}},
{"geometry": {"type": "Point", "coordinates": [-75.3235560488, 40.9255793996]}, "type": "Feature", "properties": {"collection_times": [{"days": "Mon-Sat", "time": "10:30am"}, {"days": "Sun", "time": "Closed"}], "id": "1835400004", "name": "USPS COLLECTION BOX - BLUE BOX", "address": {"city": "SCIOTA", "state": "PA", "street": "5654 HAMILTON S", "postcode": "18354"}}},
{"geometry": {"type": "Point", "coordinates": [-75.3235560488, 40.9255793996]}, "type": "Feature", "properties": {"collection_times": [{"days": "Mon-Fri", "time": "4:15pm"}, {"days": "Sat", "time": "11:30am"}, {"days": "Sun", "time": "Closed"}], "id": "1835400005", "name": "USPS COLLECTION BOX - PO LOBBY", "address": {"city": "SCIOTA", "state": "PA", "street": "134 BOSSARDSVILLE RD", "postcode": "18354"}}},
{"geometry": {"type": "Point", "coordinates": [-75.3235560488, 40.9255793996]}, "type": "Feature", "properties": {"collection_times": [{"days": "Mon-Fri", "time": "4:15pm"}, {"days": "Sat", "time": "11:30am"}, {"days": "Sun", "time": "Closed"}], "id": "1835400006", "name": "USPS COLLECTION BOX - BLUE BOX", "address": {"city": "SCIOTA", "state": "PA", "street": "134 BOSSARDSVILLE RD", "postcode": "18354"}}},
{"geometry": {"type": "Point", "coordinates": [-75.3222185908, 41.0691285011]}, "type": "Feature", "properties": {"collection_times": [{"days": "Mon-Fri", "time": "4:00pm"}, {"days": "Sat", "time": "11:00am"}, {"days": "Sun", "time": "Closed"}], "id": "1835500001", "name": "USPS COLLECTION BOX - BLUE BOX", "address": {"city": "SCOTRUN", "state": "PA", "street": "1 SCOTRUN AVE", "postcode": "18355"}}},
{"geometry": {"type": "Point", "coordinates": [-75.3222185908, 41.0691285011]}, "type": "Feature", "properties": {"collection_times": [{"days": "Mon-Fri", "time": "4:00pm"}, {"days": "Sat", "time": "11:00am"}, {"days": "Sun", "time": "Closed"}], "id": "1835500002", "name": "USPS COLLECTION BOX - PO LOBBY", "address": {"city": "SCOTRUN", "state": "PA", "street": "1 SCOTRUN AVE", "postcode": "18355"}}},
{"geometry": {"type": "Point", "coordinates": [-75.1106687439, 41.0090823834]}, "type": "Feature", "properties": {"collection_times": [{"days": "Mon-Fri", "time": "3:30pm"}, {"days": "Sat", "time": "11:00am"}, {"days": "Sun", "time": "Closed"}], "id": "1835600001", "name": "USPS COLLECTION BOX - BLUE BOX", "address": {"city": "SHAWNEE ON DELAW", "state": "PA", "street": "107 SHAWNEE SQUARE DR SE", "postcode": "18356"}}},
{"geometry": {"type": "Point", "coordinates": [-75.1106687439, 41.0090823834]}, "type": "Feature", "properties": {"collection_times": [{"days": "Mon-Fri", "time": "3:30pm"}, {"days": "Sat", "time": "11:00am"}, {"days": "Sun", "time": "Closed"}], "id": "1835600003", "name": "USPS COLLECTION BOX - PO LOBBY", "address": {"city": "SHAWNEE ON DELAW", "state": "PA", "street": "107 SHAWNEE SQUARE DR SE", "postcode": "18356"}}},
{"geometry": {"type": "Point", "coordinates": [-75.2385561646, 41.2294981008]}, "type": "Feature", "properties": {"collection_times": [{"days": "Mon-Fri", "time": "12:00pm"}, {"days": "Sat", "time": "10:00am"}, {"days": "Sun", "time": "Closed"}], "id": "1835700002", "name": "USPS COLLECTION BOX - PO LOBBY", "address": {"city": "SKY TOP", "state": "PA", "street": "1 SKY TOP LDG", "postcode": "18357"}}},
{"geometry": {"type": "Point", "coordinates": [-75.2385561646, 41.2294981008]}, "type": "Feature", "properties": {"collection_times": [{"days": "Mon-Fri", "time": "4:00pm"}, {"days": "Sat", "time": "10:00am"}, {"days": "Sun", "time": "Closed"}], "id": "1835700004", "name": "USPS COLLECTION BOX - BLUE BOX", "address": {"city": "SKY TOP", "state": "PA", "street": "1 SKYTOP LDG", "postcode": "18357"}}},
{"geometry": {"type": "Point", "coordinates": [-75.1968964468, 40.9832868815]}, "type": "Feature", "properties": {"collection_times": [{"days": "Mon-Sat", "time": "9:00am"}, {"days": "Sun", "time": "Closed"}], "id": "1836000002", "name": "USPS COLLECTION BOX - BLUE BOX", "address": {"city": "STROUDSBURG", "state": "PA", "street": "890 ANN ST", "postcode": "18360"}}},
{"geometry": {"type": "Point", "coordinates": [-75.1995240028, 40.9838774089]}, "type": "Feature", "properties": {"collection_times": [{"days": "Mon-Sat", "time": "10:15am"}, {"days": "Sun", "time": "Closed"}], "id": "1836000003", "name": "USPS COLLECTION BOX - BLUE BOX", "address": {"city": "STROUDSBURG", "state": "PA", "street": "1000 MAIN ST", "postcode": "18360"}}},
{"geometry": {"type": "Point", "coordinates": [-75.1967464152, 40.9846782721]}, "type": "Feature", "properties": {"collection_times": [{"days": "Mon-Sat", "time": "10:00am"}, {"days": "Sun", "time": "Closed"}], "id": "1836000004", "name": "USPS COLLECTION BOX - BLUE BOX", "address": {"city": "STROUDSBURG", "state": "PA", "street": "810 MAIN ST", "postcode": "18360"}}},
{"geometry": {"type": "Point", "coordinates": [-75.1945538749, 40.9873236446]}, "type": "Feature", "properties": {"collection_times": [{"days": "Mon-Fri", "time": "3:00pm"}, {"days": "Sat", "time": "11:00am"}, {"days": "Sun", "time": "Closed"}], "id": "1836000006", "name": "USPS COLLECTION BOX - BLUE BOX", "address": {"city": "STROUDSBURG", "state": "PA", "street": "625 SARAH ST", "postcode": "18360"}}},
{"geometry": {"type": "Point", "coordinates": [-75.1927125, 40.9858426356]}, "type": "Feature", "properties": {"collection_times": [{"days": "Mon-Sat", "time": "10:00am"}, {"days": "Sun", "time": "Closed"}], "id": "1836000008", "name": "USPS COLLECTION BOX - BLUE BOX", "address": {"city": "STROUDSBURG", "state": "PA", "street": "586 MAIN ST", "postcode": "18360"}}},
{"geometry": {"type": "Point", "coordinates": [-75.1943485574, 40.9853111551]}, "type": "Feature", "properties": {"collection_times": [{"days": "Mon-Sat", "time": "10:00am"}, {"days": "Sun", "time": "Closed"}], "id": "1836000009", "name": "USPS COLLECTION BOX - BLUE BOX", "address": {"city": "STROUDSBURG", "state": "PA", "street": "701 MAIN ST", "postcode": "18360"}}},
{"geometry": {"type": "Point", "coordinates": [-75.1961726801, 40.9848308738]}, "type": "Feature", "properties": {"collection_times": [{"days": "Mon-Sat", "time": "10:00am"}, {"days": "Sun", "time": "Closed"}], "id": "1836000010", "name": "USPS COLLECTION BOX - BLUE BOX", "address": {"city": "STROUDSBURG", "state": "PA", "street": "801 MAIN ST", "postcode": "18360"}}},
{"geometry": {"type": "Point", "coordinates": [-75.1897906026, 40.982829021]}, "type": "Feature", "properties": {"collection_times": [{"days": "Mon-Fri", "time": "3:00pm"}, {"days": "Sat", "time": "11:00am"}, {"days": "Sun", "time": "Closed"}], "id": "1836000013", "name": "USPS COLLECTION BOX - BLUE BOX", "address": {"city": "STROUDSBURG", "state": "PA", "street": "511 LENOX ST", "postcode": "18360"}}},
{"geometry": {"type": "Point", "coordinates": [-75.1890980276, 40.9880971141]}, "type": "Feature", "properties": {"collection_times": [{"days": "Mon-Sat", "time": "11:00am"}, {"days": "Sun", "time": "Closed"}], "id": "1836000017", "name": "USPS COLLECTION BOX - BLUE BOX", "address": {"city": "STROUDSBURG", "state": "PA", "street": "411 MAIN ST", "postcode": "18360"}}},
{"geometry": {"type": "Point", "coordinates": [-75.1992161053, 41.002730873]}, "type": "Feature", "properties": {"collection_times": [{"days": "Mon-Sat", "time": "12:00pm"}, {"days": "Sun", "time": "Closed"}], "id": "1836000020", "name": "USPS COLLECTION BOX - BLUE BOX", "address": {"city": "STROUDSBURG", "state": "PA", "street": "1501 N 5TH ST", "postcode": "18360"}}},
{"geometry": {"type": "Point", "coordinates": [-75.2204545267, 40.9885686843]}, "type": "Feature", "properties": {"collection_times": [{"days": "Mon-Sat", "time": "10:00am"}, {"days": "Sun", "time": "Closed"}], "id": "1836000023", "name": "USPS COLLECTION BOX - BLUE BOX", "address": {"city": "STROUDSBURG", "state": "PA", "street": "1116 N 9TH ST", "postcode": "18360"}}},
{"geometry": {"type": "Point", "coordinates": [-75.2231559741, 40.9876557798]}, "type": "Feature", "properties": {"collection_times": [{"days": "Mon-Sat", "time": "10:30am"}, {"days": "Sun", "time": "Closed"}], "id": "1836000024", "name": "USPS COLLECTION BOX - BLUE BOX", "address": {"city": "STROUDSBURG", "state": "PA", "street": "1163 N 9TH ST", "postcode": "18360"}}},
{"geometry": {"type": "Point", "coordinates": [-75.2164830257, 40.9897255152]}, "type": "Feature", "properties": {"collection_times": [{"days": "Mon-Sat", "time": "9:45am"}, {"days": "Sun", "time": "Closed"}], "id": "1836000025", "name": "USPS COLLECTION BOX - BLUE BOX", "address": {"city": "STROUDSBURG", "state": "PA", "street": "1002 N 9TH ST", "postcode": "18360"}}},
{"geometry": {"type": "Point", "coordinates": [-75.2250057106, 40.9838878554]}, "type": "Feature", "properties": {"collection_times": [{"days": "Mon-Sat", "time": "12:00pm"}, {"days": "Sun", "time": "Closed"}], "id": "1836000029", "name": "USPS COLLECTION BOX - BLUE BOX", "address": {"city": "STROUDSBURG", "state": "PA", "street": "33 BRIDGE ST", "postcode": "18360"}}},
{"geometry": {"type": "Point", "coordinates": [-75.2005889554, 40.9823815413]}, "type": "Feature", "properties": {"collection_times": [{"days": "Mon-Sat", "time": "12:45pm"}, {"days": "Sun", "time": "Closed"}], "id": "1836000033", "name": "USPS COLLECTION BOX - BLUE BOX", "address": {"city": "STROUDSBURG", "state": "PA", "street": "38 WAVERLY DR", "postcode": "18360"}}},
{"geometry": {"type": "Point", "coordinates": [-75.1935402659, 40.9841186331]}, "type": "Feature", "properties": {"collection_times": [{"days": "Mon-Fri", "time": "5:00pm"}, {"days": "Sat", "time": "4:15pm"}, {"days": "Sun", "time": "Closed"}], "id": "1836000034", "name": "USPS COLLECTION BOX - BLUE BOX", "address": {"city": "STROUDSBURG", "state": "PA", "street": "701 ANN ST", "postcode": "18360"}}},
{"geometry": {"type": "Point", "coordinates": [-75.1935402659, 40.9841186331]}, "type": "Feature", "properties": {"collection_times": [{"days": "Mon-Fri", "time": "5:00pm"}, {"days": "Sat", "time": "4:15pm"}, {"days": "Sun", "time": "Closed"}], "id": "1836000035", "name": "USPS COLLECTION BOX - BLUE BOX", "address": {"city": "STROUDSBURG", "state": "PA", "street": "701 ANN ST", "postcode": "18360"}}},
{"geometry": {"type": "Point", "coordinates": [-75.1935402659, 40.9841186331]}, "type": "Feature", "properties": {"collection_times": [{"days": "Mon-Fri", "time": "5:00pm"}, {"days": "Sat", "time": "4:15pm"}, {"days": "Sun", "time": "Closed"}], "id": "1836000036", "name": "USPS COLLECTION BOX - BLUE BOX", "address": {"city": "STROUDSBURG", "state": "PA", "street": "701 ANN ST", "postcode": "18360"}}},
{"geometry": {"type": "Point", "coordinates": [-75.1947054629, 40.9865917238]}, "type": "Feature", "properties": {"collection_times": [{"days": "Mon-Fri", "time": "3:00pm"}, {"days": "Sat", "time": "11:00am"}, {"days": "Sun", "time": "Closed"}], "id": "1836000039", "name": "USPS COLLECTION BOX - BLUE BOX", "address": {"city": "STROUDSBURG", "state": "PA", "street": "690 MONROE ST", "postcode": "18360"}}},
{"geometry": {"type": "Point", "coordinates": [-75.1935402659, 40.9841186331]}, "type": "Feature", "properties": {"collection_times": [{"days": "Mon-Fri", "time": "5:00pm"}, {"days": "Sat", "time": "4:15pm"}, {"days": "Sun", "time": "Closed"}], "id": "1836000040", "name": "USPS COLLECTION BOX - PO LOBBY", "address": {"city": "STROUDSBURG", "state": "PA", "street": "701 ANN ST", "postcode": "18360"}}},
{"geometry": {"type": "Point", "coordinates": [-75.1965901526, 40.9981457081]}, "type": "Feature", "properties": {"collection_times": [{"days": "Mon-Sat", "time": "2:15pm"}, {"days": "Sun", "time": "Closed"}], "id": "1836000042", "name": "USPS COLLECTION BOX - BLUE BOX", "address": {"city": "STROUDSBURG", "state": "PA", "street": "890 WALLACE ST", "postcode": "18360"}}},
{"geometry": {"type": "Point", "coordinates": [-75.1935750668, 40.9869021881]}, "type": "Feature", "properties": {"collection_times": [{"days": "Mon-Sat", "time": "9:30am"}, {"days": "Sun", "time": "Closed"}], "id": "1836000043", "name": "USPS COLLECTION BOX - BLUE BOX", "address": {"city": "STROUDSBURG", "state": "PA", "street": "30 N 6TH ST", "postcode": "18360"}}},
{"geometry": {"type": "Point", "coordinates": [-75.2926170343, 40.9667466453]}, "type": "Feature", "properties": {"collection_times": [{"days": "Mon-Sat", "time": "9:00am"}, {"days": "Sun", "time": "Closed"}], "id": "1836000044", "name": "USPS COLLECTION BOX - BLUE BOX", "address": {"city": "STROUDSBURG", "state": "PA", "street": "7074 ROUTE 209", "postcode": "18360"}}},
{"geometry": {"type": "Point", "coordinates": [-75.2895450155, 40.9484948048]}, "type": "Feature", "properties": {"collection_times": [{"days": "Mon-Sat", "time": "9:00am"}, {"days": "Sun", "time": "Closed"}], "id": "1836000045", "name": "USPS COLLECTION BOX - BLUE BOX", "address": {"city": "STROUDSBURG", "state": "PA", "street": "4300 MANOR DR", "postcode": "18360"}}},
{"geometry": {"type": "Point", "coordinates": [-75.2200892535, 40.9885594358]}, "type": "Feature", "properties": {"collection_times": [{"days": "Mon-Sat", "time": "11:00am"}, {"days": "Sun", "time": "Closed"}], "id": "1836000046", "name": "USPS COLLECTION BOX - BLUE BOX", "address": {"city": "STROUDSBURG", "state": "PA", "street": "1113 N 9TH ST", "postcode": "18360"}}},
{"geometry": {"type": "Point", "coordinates": [-75.1945538749, 40.9873236446]}, "type": "Feature", "properties": {"collection_times": [{"days": "Mon-Fri", "time": "3:00pm"}, {"days": "Sat", "time": "10:00am"}, {"days": "Sun", "time": "Closed"}], "id": "1836000048", "name": "USPS COLLECTION BOX - BLUE BOX", "address": {"city": "STROUDSBURG", "state": "PA", "street": "625 SARAH ST", "postcode": "18360"}}},
{"geometry": {"type": "Point", "coordinates": [-75.3132285553, 41.0510942416]}, "type": "Feature", "properties": {"collection_times": [{"days": "Mon-Fri", "time": "4:30pm"}, {"days": "Sat", "time": "11:30am"}, {"days": "Sun", "time": "Closed"}], "id": "1837200001", "name": "USPS COLLECTION BOX - BLUE BOX", "address": {"city": "TANNERSVILLE", "state": "PA", "street": "2937 ROUTE 611", "postcode": "18372"}}},
{"geometry": {"type": "Point", "coordinates": [-75.3354991676, 41.0476248322]}, "type": "Feature", "properties": {"collection_times": [{"days": "Mon-Fri", "time": "4:30pm"}, {"days": "Sat", "time": "11:30am"}, {"days": "Sun", "time": "Closed"}], "id": "1837200002", "name": "USPS COLLECTION BOX - BLUE BOX", "address": {"city": "TANNERSVILLE", "state": "PA", "street": "1 POSTAL WAY", "postcode": "18372"}}},
{"geometry": {"type": "Point", "coordinates": [-75.3354991676, 41.0476248322]}, "type": "Feature", "properties": {"collection_times": [{"days": "Mon-Sat", "time": "10:00am"}, {"days": "Sun", "time": "Closed"}], "id": "1837200003", "name": "USPS COLLECTION BOX - BLUE BOX", "address": {"city": "TANNERSVILLE", "state": "PA", "street": "1 CROSSINGS OUTLET", "postcode": "18372"}}},
{"geometry": {"type": "Point", "coordinates": [-75.3354991676, 41.0476248322]}, "type": "Feature", "properties": {"collection_times": [{"days": "Mon-Fri", "time": "4:30pm"}, {"days": "Sat", "time": "12:00pm"}, {"days": "Sun", "time": "Closed"}], "id": "1837200005", "name": "USPS COLLECTION BOX - PO LOBBY", "address": {"city": "TANNERSVILLE", "state": "PA", "street": "1 POSTAL WAY", "postcode": "18372"}}}
]}
