{"type": "FeatureCollection", "features": [
{"geometry": {"type": "Point", "coordinates": [-75.5555799271, 41.4933115213]}, "type": "Feature", "properties": {"collection_times": [{"days": "Mon-Sat", "time": "12:00pm"}, {"days": "Sun", "time": "Closed"}], "id": "1840300004", "name": "USPS COLLECTION BOX - BLUE BOX", "address": {"city": "ARCHBALD", "state": "PA", "street": "343 MAIN ST", "postcode": "18403"}}},
{"geometry": {"type": "Point", "coordinates": [-75.5555799271, 41.4933115213]}, "type": "Feature", "properties": {"collection_times": [{"days": "Mon-Sat", "time": "10:00am"}, {"days": "Sun", "time": "Closed"}], "id": "1840300006", "name": "USPS COLLECTION BOX - BLUE BOX", "address": {"city": "ARCHBALD", "state": "PA", "street": "400 CHURCH ST", "postcode": "18403"}}},
{"geometry": {"type": "Point", "coordinates": [-75.5555799271, 41.4933115213]}, "type": "Feature", "properties": {"collection_times": [{"days": "Mon-Sat", "time": "10:00am"}, {"days": "Sun", "time": "Closed"}], "id": "1840300010", "name": "USPS COLLECTION BOX - BLUE BOX", "address": {"city": "ARCHBALD", "state": "PA", "street": "377 N MAIN ST", "postcode": "18403"}}},
{"geometry": {"type": "Point", "coordinates": [-75.5555799271, 41.4933115213]}, "type": "Feature", "properties": {"collection_times": [{"days": "Mon-Sat", "time": "10:00am"}, {"days": "Sun", "time": "Closed"}], "id": "1840300017", "name": "USPS COLLECTION BOX - BLUE BOX", "address": {"city": "ARCHBALD", "state": "PA", "street": "202 BETTY ST", "postcode": "18403"}}},
{"geometry": {"type": "Point", "coordinates": [-75.5555799271, 41.4933115213]}, "type": "Feature", "properties": {"collection_times": [{"days": "Mon-Fri", "time": "5:00pm"}, {"days": "Sat", "time": "3:15pm"}, {"days": "Sun", "time": "Closed"}], "id": "1840300018", "name": "USPS COLLECTION BOX - BLUE BOX", "address": {"city": "ARCHBALD", "state": "PA", "street": "1 KENNEDY DR", "postcode": "18403"}}},
{"geometry": {"type": "Point", "coordinates": [-75.5555799271, 41.4933115213]}, "type": "Feature", "properties": {"collection_times": [{"days": "Mon-Fri", "time": "5:00pm"}, {"days": "Sat", "time": "3:30pm"}, {"days": "Sun", "time": "Closed"}], "id": "1840300021", "name": "USPS COLLECTION BOX - PO LOBBY", "address": {"city": "ARCHBALD", "state": "PA", "street": "1 KENNEDY DR", "postcode": "18403"}}},
{"geometry": {"type": "Point", "coordinates": [-75.153992243, 41.5977669054]}, "type": "Feature", "properties": {"collection_times": [{"days": "Mon-Fri", "time": "4:30pm"}, {"days": "Sat", "time": "11:30am"}, {"days": "Sun", "time": "Closed"}], "id": "1840500001", "name": "USPS COLLECTION BOX - BLUE BOX", "address": {"city": "BEACH LAKE", "state": "PA", "street": "1015 BEACH LAKE HWY", "postcode": "18405"}}},
{"geometry": {"type": "Point", "coordinates": [-75.153992243, 41.5977669054]}, "type": "Feature", "properties": {"collection_times": [{"days": "Mon-Fri", "time": "4:30pm"}, {"days": "Sat", "time": "11:30am"}, {"days": "Sun", "time": "Closed"}], "id": "1840500004", "name": "USPS COLLECTION BOX - PO LOBBY", "address": {"city": "BEACH LAKE", "state": "PA", "street": "1015 BEACH LAKE HWY", "postcode": "18405"}}},
{"geometry": {"type": "Point", "coordinates": [-75.5131596384, 41.5840439262]}, "type": "Feature", "properties": {"collection_times": [{"days": "Mon-Sat", "time": "2:00pm"}, {"days": "Sun", "time": "Closed"}], "id": "1840700001", "name": "USPS COLLECTION BOX - BLUE BOX", "address": {"city": "CARBONDALE", "state": "PA", "street": "347 MAIN ST", "postcode": "18407"}}},
{"geometry": {"type": "Point", "coordinates": [-75.5131596384, 41.5840439262]}, "type": "Feature", "properties": {"collection_times": [{"days": "Mon-Sat", "time": "1:30pm"}, {"days": "Sun", "time": "Closed"}], "id": "1840700003", "name": "USPS COLLECTION BOX - BLUE BOX", "address": {"city": "CARBONDALE", "state": "PA", "street": "67 SALEM AVE", "postcode": "18407"}}},
{"geometry": {"type": "Point", "coordinates": [-75.5131596384, 41.5840439262]}, "type": "Feature", "properties": {"collection_times": [{"days": "Mon-Sat", "time": "2:00pm"}, {"days": "Sun", "time": "Closed"}], "id": "1840700004", "name": "USPS COLLECTION BOX - BLUE BOX", "address": {"city": "CARBONDALE", "state": "PA", "street": "24 6TH AVE", "postcode": "18407"}}},
{"geometry": {"type": "Point", "coordinates": [-75.5131596384, 41.5840439262]}, "type": "Feature", "properties": {"collection_times": [{"days": "Mon-Sat", "time": "1:00pm"}, {"days": "Sun", "time": "Closed"}], "id": "1840700005", "name": "USPS COLLECTION BOX - BLUE BOX", "address": {"city": "CARBONDALE", "state": "PA", "street": "70 N MAIN ST", "postcode": "18407"}}},
{"geometry": {"type": "Point", "coordinates": [-75.5131596384, 41.5840439262]}, "type": "Feature", "properties": {"collection_times": [{"days": "Mon-Sat", "time": "2:00pm"}, {"days": "Sun", "time": "Closed"}], "id": "1840700007", "name": "USPS COLLECTION BOX - BLUE BOX", "address": {"city": "CARBONDALE", "state": "PA", "street": "1 N MAIN ST", "postcode": "18407"}}},
{"geometry": {"type": "Point", "coordinates": [-75.5131596384, 41.5840439262]}, "type": "Feature", "properties": {"collection_times": [{"days": "Mon-Sat", "time": "9:30am"}, {"days": "Sun", "time": "Closed"}], "id": "1840700008", "name": "USPS COLLECTION BOX - BLUE BOX", "address": {"city": "CARBONDALE", "state": "PA", "street": "89 BROOKLYN ST", "postcode": "18407"}}},
{"geometry": {"type": "Point", "coordinates": [-75.5131596384, 41.5840439262]}, "type": "Feature", "properties": {"collection_times": [{"days": "Mon-Sat", "time": "1:00pm"}, {"days": "Sun", "time": "Closed"}], "id": "1840700015", "name": "USPS COLLECTION BOX - BLUE BOX", "address": {"city": "CARBONDALE", "state": "PA", "street": "47 S MAIN ST", "postcode": "18407"}}},
{"geometry": {"type": "Point", "coordinates": [-75.5131596384, 41.5840439262]}, "type": "Feature", "properties": {"collection_times": [{"days": "Mon-Fri", "time": "5:00pm"}, {"days": "Sat", "time": "3:00pm"}, {"days": "Sun", "time": "Closed"}], "id": "1840700030", "name": "USPS COLLECTION BOX - BLUE BOX", "address": {"city": "CARBONDALE", "state": "PA", "street": "50 DUNDAFF ST", "postcode": "18407"}}},
{"geometry": {"type": "Point", "coordinates": [-75.5131596384, 41.5840439262]}, "type": "Feature", "properties": {"collection_times": [{"days": "Mon-Fri", "time": "5:00pm"}, {"days": "Sat", "time": "3:00pm"}, {"days": "Sun", "time": "Closed"}], "id": "1840700031", "name": "USPS COLLECTION BOX - BLUE BOX", "address": {"city": "CARBONDALE", "state": "PA", "street": "50 DUNDAFF ST", "postcode": "18407"}}},
{"geometry": {"type": "Point", "coordinates": [-75.5131596384, 41.5840439262]}, "type": "Feature", "properties": {"collection_times": [{"days": "Mon-Sat", "time": "2:00pm"}, {"days": "Sun", "time": "Closed"}], "id": "1840700032", "name": "USPS COLLECTION BOX - BLUE BOX", "address": {"city": "CARBONDALE", "state": "PA", "street": "48 N CHURCH ST", "postcode": "18407"}}},
{"geometry": {"type": "Point", "coordinates": [-75.5131596384, 41.5840439262]}, "type": "Feature", "properties": {"collection_times": [{"days": "Mon-Sat", "time": "9:30am"}, {"days": "Sun", "time": "Closed"}], "id": "1840700033", "name": "USPS COLLECTION BOX - BLUE BOX", "address": {"city": "CARBONDALE", "state": "PA", "street": "140 WESTGATE DR", "postcode": "18407"}}},
{"geometry": {"type": "Point", "coordinates": [-75.5131596384, 41.5840439262]}, "type": "Feature", "properties": {"collection_times": [{"days": "Mon-Fri", "time": "5:00pm"}, {"days": "Sat", "time": "3:00pm"}, {"days": "Sun", "time": "Closed"}], "id": "1840700037", "name": "USPS COLLECTION BOX - PO LOBBY", "address": {"city": "CARBONDALE", "state": "PA", "street": "50 DUNDAFF ST", "postcode": "18407"}}},
{"geometry": {"type": "Point", "coordinates": [-75.683816922, 41.474253359]}, "type": "Feature", "properties": {"collection_times": [{"days": "Mon-Fri", "time": "5:00pm"}, {"days": "Sat", "time": "12:00pm"}, {"days": "Sun", "time": "Closed"}], "id": "1841000001", "name": "USPS COLLECTION BOX - BLUE BOX", "address": {"city": "CHINCHILLA", "state": "PA", "street": "555 NORTHERN BLVD", "postcode": "18410"}}},
{"geometry": {"type": "Point", "coordinates": [-75.683816922, 41.474253359]}, "type": "Feature", "properties": {"collection_times": [{"days": "Mon-Fri", "time": "5:00pm"}, {"days": "Sat", "time": "12:00pm"}, {"days": "Sun", "time": "Closed"}], "id": "1841000003", "name": "USPS COLLECTION BOX - PO LOBBY", "address": {"city": "CHINCHILLA", "state": "PA", "street": "555 NORTHERN BLVD", "postcode": "18410"}}},
{"geometry": {"type": "Point", "coordinates": [-75.7036272995, 41.4896834418]}, "type": "Feature", "properties": {"collection_times": [{"days": "Mon-Fri", "time": "5:00pm"}, {"days": "Sat", "time": "4:15pm"}, {"days": "Sun", "time": "Closed"}], "id": "1841100001", "name": "USPS COLLECTION BOX - BLUE BOX", "address": {"city": "CLARKS SUMMIT", "state": "PA", "street": "117 S STATE ST", "postcode": "18411"}}},
{"geometry": {"type": "Point", "coordinates": [-75.7036272995, 41.4896834418]}, "type": "Feature", "properties": {"collection_times": [{"days": "Mon-Sat", "time": "1:30pm"}, {"days": "Sun", "time": "Closed"}], "id": "1841100002", "name": "USPS COLLECTION BOX - BLUE BOX", "address": {"city": "CLARKS SUMMIT", "state": "PA", "street": "400 S STATE ST", "postcode": "18411"}}},
{"geometry": {"type": "Point", "coordinates": [-75.7036272995, 41.4896834418]}, "type": "Feature", "properties": {"collection_times": [{"days": "Mon-Sat", "time": "1:00pm"}, {"days": "Sun", "time": "Closed"}], "id": "1841100003", "name": "USPS COLLECTION BOX - BLUE BOX", "address": {"city": "CLARKS SUMMIT", "state": "PA", "street": "100 E GROVE ST", "postcode": "18411"}}},
{"geometry": {"type": "Point", "coordinates": [-75.7036272995, 41.4896834418]}, "type": "Feature", "properties": {"collection_times": [{"days": "Mon-Sat", "time": "9:00am"}, {"days": "Sun", "time": "Closed"}], "id": "1841100004", "name": "USPS COLLECTION BOX - BLUE BOX", "address": {"city": "CLARKS SUMMIT", "state": "PA", "street": "400 BEDFORD ST", "postcode": "18411"}}},
{"geometry": {"type": "Point", "coordinates": [-75.7036272995, 41.4896834418]}, "type": "Feature", "properties": {"collection_times": [{"days": "Mon-Sat", "time": "9:00am"}, {"days": "Sun", "time": "Closed"}], "id": "1841100005", "name": "USPS COLLECTION BOX - BLUE BOX", "address": {"city": "CLARKS SUMMIT", "state": "PA", "street": "100 LINDEN ST", "postcode": "18411"}}},
{"geometry": {"type": "Point", "coordinates": [-75.7036272995, 41.4896834418]}, "type": "Feature", "properties": {"collection_times": [{"days": "Mon-Sat", "time": "10:00am"}, {"days": "Sun", "time": "Closed"}], "id": "1841100009", "name": "USPS COLLECTION BOX - BLUE BOX", "address": {"city": "CLARKS SUMMIT", "state": "PA", "street": "1020 NORTHERN BLVD", "postcode": "18411"}}},
{"geometry": {"type": "Point", "coordinates": [-75.7036272995, 41.4896834418]}, "type": "Feature", "properties": {"collection_times": [{"days": "Mon-Sat", "time": "1:30pm"}, {"days": "Sun", "time": "Closed"}], "id": "1841100012", "name": "USPS COLLECTION BOX - BLUE BOX", "address": {"city": "CLARKS SUMMIT", "state": "PA", "street": "517 MAIN AVE", "postcode": "18411"}}},
{"geometry": {"type": "Point", "coordinates": [-75.7036272995, 41.4896834418]}, "type": "Feature", "properties": {"collection_times": [{"days": "Mon-Sat", "time": "10:00am"}, {"days": "Sun", "time": "Closed"}], "id": "1841100017", "name": "USPS COLLECTION BOX - BLUE BOX", "address": {"city": "CLARKS SUMMIT", "state": "PA", "street": "701 APPLEWOOD ACRES", "postcode": "18411"}}},
{"geometry": {"type": "Point", "coordinates": [-75.7036272995, 41.4896834418]}, "type": "Feature", "properties": {"collection_times": [{"days": "Mon-Sat", "time": "9:00am"}, {"days": "Sun", "time": "Closed"}], "id": "1841100019", "name": "USPS COLLECTION BOX - BLUE BOX", "address": {"city": "CLARKS SUMMIT", "state": "PA", "street": "100 OLD LACKAWANNA TRL", "postcode": "18411"}}},
{"geometry": {"type": "Point", "coordinates": [-75.7036272995, 41.4896834418]}, "type": "Feature", "properties": {"collection_times": [{"days": "Mon-Sat", "time": "10:30am"}, {"days": "Sun", "time": "Closed"}], "id": "1841100020", "name": "USPS COLLECTION BOX - BLUE BOX", "address": {"city": "CLARKS SUMMIT", "state": "PA", "street": "218 DEPOT ST", "postcode": "18411"}}},
{"geometry": {"type": "Point", "coordinates": [-75.7036272995, 41.4896834418]}, "type": "Feature", "properties": {"collection_times": [{"days": "Mon-Sat", "time": "10:00am"}, {"days": "Sun", "time": "Closed"}], "id": "1841100023", "name": "USPS COLLECTION BOX - BLUE BOX", "address": {"city": "CLARKS SUMMIT", "state": "PA", "street": "64 COLE VLG", "postcode": "18411"}}},
{"geometry": {"type": "Point", "coordinates": [-75.7036272995, 41.4896834418]}, "type": "Feature", "properties": {"collection_times": [{"days": "Mon-Fri", "time": "5:00pm"}, {"days": "Sat", "time": "4:15pm"}, {"days": "Sun", "time": "Closed"}], "id": "1841100025", "name": "USPS COLLECTION BOX - BLUE BOX", "address": {"city": "CLARKS SUMMIT", "state": "PA", "street": "207 S STATE ST", "postcode": "18411"}}},
{"geometry": {"type": "Point", "coordinates": [-75.7036272995, 41.4896834418]}, "type": "Feature", "properties": {"collection_times": [{"days": "Mon-Fri", "time": "5:00pm"}, {"days": "Sat", "time": "4:15pm"}, {"days": "Sun", "time": "Closed"}], "id": "1841100026", "name": "USPS COLLECTION BOX - BLUE BOX", "address": {"city": "CLARKS SUMMIT", "state": "PA", "street": "207 S STATE ST", "postcode": "18411"}}},
{"geometry": {"type": "Point", "coordinates": [-75.7036272995, 41.4896834418]}, "type": "Feature", "properties": {"collection_times": [{"days": "Mon-Sat", "time": "1:30pm"}, {"days": "Sun", "time": "Closed"}], "id": "1841100028", "name": "USPS COLLECTION BOX - BLUE BOX", "address": {"city": "CLARKS SUMMIT", "state": "PA", "street": "125 N STATE ST", "postcode": "18411"}}},
{"geometry": {"type": "Point", "coordinates": [-75.7036272995, 41.4896834418]}, "type": "Feature", "properties": {"collection_times": [{"days": "Mon-Fri", "time": "5:00pm"}, {"days": "Sat", "time": "4:15pm"}, {"days": "Sun", "time": "Closed"}], "id": "1841100029", "name": "USPS COLLECTION BOX - PO LOBBY", "address": {"city": "CLARKS SUMMIT", "state": "PA", "street": "117 S STATE ST", "postcode": "18411"}}},
{"geometry": {"type": "Point", "coordinates": [-75.7036272995, 41.4896834418]}, "type": "Feature", "properties": {"collection_times": [{"days": "Mon-Sat", "time": "9:00am"}, {"days": "Sun", "time": "Closed"}], "id": "1841100031", "name": "USPS COLLECTION BOX - BLUE BOX", "address": {"city": "CLARKS SUMMIT", "state": "PA", "street": "1143 NORTHERN BLVD", "postcode": "18411"}}},
{"geometry": {"type": "Point", "coordinates": [-75.7036272995, 41.4896834418]}, "type": "Feature", "properties": {"collection_times": [{"days": "Mon-Sat", "time": "1:30pm"}, {"days": "Sun", "time": "Closed"}], "id": "1841100032", "name": "USPS COLLECTION BOX - BLUE BOX", "address": {"city": "CLARKS SUMMIT", "state": "PA", "street": "251 E GROVE ST", "postcode": "18411"}}},
{"geometry": {"type": "Point", "coordinates": [-75.4667939106, 41.6462427607]}, "type": "Feature", "properties": {"collection_times": [{"days": "Mon-Fri", "time": "4:30pm"}, {"days": "Sat", "time": "12:00pm"}, {"days": "Sun", "time": "Closed"}], "id": "1841300001", "name": "USPS COLLECTION BOX - BLUE BOX", "address": {"city": "CLIFFORD", "state": "PA", "street": "1748 STATE ROUTE 106", "postcode": "18413"}}},
{"geometry": {"type": "Point", "coordinates": [-75.4667939106, 41.6462427607]}, "type": "Feature", "properties": {"collection_times": [{"days": "Mon-Fri", "time": "4:30pm"}, {"days": "Sat", "time": "12:00pm"}, {"days": "Sun", "time": "Closed"}], "id": "1841300002", "name": "USPS COLLECTION BOX - PO LOBBY", "address": {"city": "CLIFFORD", "state": "PA", "street": "1748 STATE ROUTE 106", "postcode": "18413"}}},
{"geometry": {"type": "Point", "coordinates": [-75.7388809313, 41.5349699109]}, "type": "Feature", "properties": {"collection_times": [{"days": "Mon-Fri", "time": "5:00pm"}, {"days": "Sat", "time": "12:00pm"}, {"days": "Sun", "time": "Closed"}], "id": "1841400001", "name": "USPS COLLECTION BOX - BLUE BOX", "address": {"city": "DALTON", "state": "PA", "street": "101 W MAIN ST", "postcode": "18414"}}},
{"geometry": {"type": "Point", "coordinates": [-75.7388809313, 41.5349699109]}, "type": "Feature", "properties": {"collection_times": [{"days": "Mon-Fri", "time": "5:00pm"}, {"days": "Sat", "time": "12:00pm"}, {"days": "Sun", "time": "Closed"}], "id": "1841400003", "name": "USPS COLLECTION BOX - PO LOBBY", "address": {"city": "DALTON", "state": "PA", "street": "101 W MAIN ST", "postcode": "18414"}}},
{"geometry": {"type": "Point", "coordinates": [-75.0793128958, 41.6983373054]}, "type": "Feature", "properties": {"collection_times": [{"days": "Mon-Fri", "time": "3:45pm"}, {"days": "Sat", "time": "11:45am"}, {"days": "Sun", "time": "Closed"}], "id": "1841500001", "name": "USPS COLLECTION BOX - BLUE BOX", "address": {"city": "DAMASCUS", "state": "PA", "street": "1676 COCHECTON TPKE", "postcode": "18415"}}},
{"geometry": {"type": "Point", "coordinates": [-75.0793128958, 41.6983373054]}, "type": "Feature", "properties": {"collection_times": [{"days": "Mon-Fri", "time": "4:00pm"}, {"days": "Sat", "time": "12:00pm"}, {"days": "Sun", "time": "Closed"}], "id": "1841500003", "name": "USPS COLLECTION BOX - PO LOBBY", "address": {"city": "DAMASCUS", "state": "PA", "street": "1676 COCHECTON TPKE", "postcode": "18415"}}},
{"geometry": {"type": "Point", "coordinates": [-75.1964512008, 41.812449033]}, "type": "Feature", "properties": {"collection_times": [{"days": "Mon-Fri", "time": "4:30pm"}, {"days": "Sat", "time": "11:00am"}, {"days": "Sun", "time": "Closed"}], "id": "1841700001", "name": "USPS COLLECTION BOX - BLUE BOX", "address": {"city": "EQUINUNK", "state": "PA", "street": "4338 HANCOCK HWY", "postcode": "18417"}}},
{"geometry": {"type": "Point", "coordinates": [-75.1964512008, 41.812449033]}, "type": "Feature", "properties": {"collection_times": [{"days": "Mon-Fri", "time": "4:30pm"}, {"days": "Sat", "time": "11:00am"}, {"days": "Sun", "time": "Closed"}], "id": "1841700002", "name": "USPS COLLECTION BOX - PO LOBBY", "address": {"city": "EQUINUNK", "state": "PA", "street": "4338 HANCOCK HWY", "postcode": "18417"}}},
{"geometry": {"type": "Point", "coordinates": [-75.7827961915, 41.5643770206]}, "type": "Feature", "properties": {"collection_times": [{"days": "Mon-Fri", "time": "4:45pm"}, {"days": "Sat", "time": "11:45am"}, {"days": "Sun", "time": "Closed"}], "id": "1841900001", "name": "USPS COLLECTION BOX - BLUE BOX", "address": {"city": "FACTORYVILLE", "state": "PA", "street": "102 COLLEGE AVE", "postcode": "18419"}}},
{"geometry": {"type": "Point", "coordinates": [-75.7827961915, 41.5643770206]}, "type": "Feature", "properties": {"collection_times": [{"days": "Mon-Fri", "time": "4:45pm"}, {"days": "Sat", "time": "11:45am"}, {"days": "Sun", "time": "Closed"}], "id": "1841900003", "name": "USPS COLLECTION BOX - PO LOBBY", "address": {"city": "FACTORYVILLE", "state": "PA", "street": "102 COLLEGE AVE", "postcode": "18419"}}},
{"geometry": {"type": "Point", "coordinates": [-75.7149199688, 41.5993209655]}, "type": "Feature", "properties": {"collection_times": [{"days": "Mon-Fri", "time": "4:45pm"}, {"days": "Sat", "time": "11:45am"}, {"days": "Sun", "time": "Closed"}], "id": "1842000001", "name": "USPS COLLECTION BOX - BLUE BOX", "address": {"city": "FLEETVILLE", "state": "PA", "street": "140 N ROUTE 407", "postcode": "18420"}}},
{"geometry": {"type": "Point", "coordinates": [-75.7149199688, 41.5993209655]}, "type": "Feature", "properties": {"collection_times": [{"days": "Mon-Fri", "time": "4:45pm"}, {"days": "Sat", "time": "11:45am"}, {"days": "Sun", "time": "Closed"}], "id": "1842000002", "name": "USPS COLLECTION BOX - PO LOBBY", "address": {"city": "FLEETVILLE", "state": "PA", "street": "140 N ROUTE 407", "postcode": "18420"}}},
{"geometry": {"type": "Point", "coordinates": [-75.4666675825, 41.646485669]}, "type": "Feature", "properties": {"collection_times": [{"days": "Mon-Fri", "time": "4:15pm"}, {"days": "Sat", "time": "12:00pm"}, {"days": "Sun", "time": "Closed"}], "id": "1842100002", "name": "USPS COLLECTION BOX - BLUE BOX", "address": {"city": "FOREST CITY", "state": "PA", "street": "334 MAIN ST", "postcode": "18421"}}},
{"geometry": {"type": "Point", "coordinates": [-75.4666675825, 41.646485669]}, "type": "Feature", "properties": {"collection_times": [{"days": "Mon-Fri", "time": "4:15pm"}, {"days": "Sat", "time": "12:00pm"}, {"days": "Sun", "time": "Closed"}], "id": "1842100011", "name": "USPS COLLECTION BOX - PO LOBBY", "address": {"city": "FOREST CITY", "state": "PA", "street": "334 MAIN ST", "postcode": "18421"}}},
{"geometry": {"type": "Point", "coordinates": [-75.5062501146, 41.2612200436]}, "type": "Feature", "properties": {"collection_times": [{"days": "Mon-Fri", "time": "4:45pm"}, {"days": "Sat", "time": "12:00pm"}, {"days": "Sun", "time": "Closed"}], "id": "1842400001", "name": "USPS COLLECTION BOX - BLUE BOX", "address": {"city": "GOULDSBORO", "state": "PA", "street": "546 MAIN ST", "postcode": "18424"}}},
{"geometry": {"type": "Point", "coordinates": [-75.5062501146, 41.2612200436]}, "type": "Feature", "properties": {"collection_times": [{"days": "Mon-Fri", "time": "4:45pm"}, {"days": "Sat", "time": "12:00pm"}, {"days": "Sun", "time": "Closed"}], "id": "1842400005", "name": "USPS COLLECTION BOX - PO LOBBY", "address": {"city": "GOULDSBORO", "state": "PA", "street": "546 MAIN ST", "postcode": "18424"}}},
{"geometry": {"type": "Point", "coordinates": [-74.995608146, 41.4226300558]}, "type": "Feature", "properties": {"collection_times": [{"days": "Mon-Fri", "time": "4:00pm"}, {"days": "Sat", "time": "11:00am"}, {"days": "Sun", "time": "Closed"}], "id": "1842500001", "name": "USPS COLLECTION BOX - BLUE BOX", "address": {"city": "GREELEY", "state": "PA", "street": "130 ROUTE 590", "postcode": "18425"}}},
{"geometry": {"type": "Point", "coordinates": [-74.995608146, 41.4226300558]}, "type": "Feature", "properties": {"collection_times": [{"days": "Mon-Fri", "time": "4:00pm"}, {"days": "Sat", "time": "11:00am"}, {"days": "Sun", "time": "Closed"}], "id": "1842500003", "name": "USPS COLLECTION BOX - PO LOBBY", "address": {"city": "GREELEY", "state": "PA", "street": "130 ROUTE 590", "postcode": "18425"}}},
{"geometry": {"type": "Point", "coordinates": [-75.3046150103, 41.3504383536]}, "type": "Feature", "properties": {"collection_times": [{"days": "Mon-Fri", "time": "4:45pm"}, {"days": "Sat", "time": "3:00pm"}, {"days": "Sun", "time": "Closed"}], "id": "1842600001", "name": "USPS COLLECTION BOX - BLUE BOX", "address": {"city": "GREENTOWN", "state": "PA", "street": "1340 ROUTE 507", "postcode": "18426"}}},
{"geometry": {"type": "Point", "coordinates": [-75.210355784, 41.3157856797]}, "type": "Feature", "properties": {"collection_times": [{"days": "Mon-Sat", "time": "11:30am"}, {"days": "Sun", "time": "Closed"}], "id": "1842600002", "name": "USPS COLLECTION BOX - BLUE BOX", "address": {"city": "GREENTOWN", "state": "PA", "street": "1019 ROUTE 390", "postcode": "18426"}}},
{"geometry": {"type": "Point", "coordinates": [-75.3046150103, 41.3504383536]}, "type": "Feature", "properties": {"collection_times": [{"days": "Mon-Fri", "time": "4:45pm"}, {"days": "Sat", "time": "3:00pm"}, {"days": "Sun", "time": "Closed"}], "id": "1842600006", "name": "USPS COLLECTION BOX - PO LOBBY", "address": {"city": "GREENTOWN", "state": "PA", "street": "1340 ROUTE 507", "postcode": "18426"}}},
{"geometry": {"type": "Point", "coordinates": [-75.3064170853, 41.3228313396]}, "type": "Feature", "properties": {"collection_times": [{"days": "Mon-Sat", "time": "12:30pm"}, {"days": "Sun", "time": "Closed"}], "id": "1842600007", "name": "USPS COLLECTION BOX - BLUE BOX", "address": {"city": "GREENTOWN", "state": "PA", "street": "1564 ROUTE 507", "postcode": "18426"}}},
{"geometry": {"type": "Point", "coordinates": [-75.3523965637, 41.3923257464]}, "type": "Feature", "properties": {"collection_times": [{"days": "Mon-Fri", "time": "4:45pm"}, {"days": "Sat", "time": "11:45am"}, {"days": "Sun", "time": "Closed"}], "id": "1842700001", "name": "USPS COLLECTION BOX - BLUE BOX", "address": {"city": "HAMLIN", "state": "PA", "street": "501 HAMLIN HWY", "postcode": "18427"}}},
{"geometry": {"type": "Point", "coordinates": [-75.4127595963, 41.4045039539]}, "type": "Feature", "properties": {"collection_times": [{"days": "Mon-Fri", "time": "4:45pm"}, {"days": "Sat", "time": "11:45am"}, {"days": "Sun", "time": "Closed"}], "id": "1842700004", "name": "USPS COLLECTION BOX - EXPRESS", "address": {"city": "HAMLIN", "state": "PA", "street": "501 HAMLIN HWY", "postcode": "18427"}}},
{"geometry": {"type": "Point", "coordinates": [-75.3523965637, 41.3923257464]}, "type": "Feature", "properties": {"collection_times": [{"days": "Mon-Fri", "time": "5:00pm"}, {"days": "Sat", "time": "12:00pm"}, {"days": "Sun", "time": "Closed"}], "id": "1842700005", "name": "USPS COLLECTION BOX - PO LOBBY", "address": {"city": "HAMLIN", "state": "PA", "street": "501 HAMLIN HWY", "postcode": "18427"}}},
{"geometry": {"type": "Point", "coordinates": [-75.1831957502, 41.4762774113]}, "type": "Feature", "properties": {"collection_times": [{"days": "Mon-Fri", "time": "5:00pm"}, {"days": "Sat", "time": "4:00pm"}, {"days": "Sun", "time": "Closed"}], "id": "1842800001", "name": "USPS COLLECTION BOX - BLUE BOX", "address": {"city": "HAWLEY", "state": "PA", "street": "100 MAIN AVE", "postcode": "18428"}}},
{"geometry": {"type": "Point", "coordinates": [-75.1824759632, 41.4751090989]}, "type": "Feature", "properties": {"collection_times": [{"days": "Mon-Sat", "time": "9:30am"}, {"days": "Sun", "time": "Closed"}], "id": "1842800002", "name": "USPS COLLECTION BOX - BLUE BOX", "address": {"city": "HAWLEY", "state": "PA", "street": "240 MAIN AVE", "postcode": "18428"}}},
{"geometry": {"type": "Point", "coordinates": [-75.182412724, 41.4747637764]}, "type": "Feature", "properties": {"collection_times": [{"days": "Mon-Sat", "time": "9:30am"}, {"days": "Sun", "time": "Closed"}], "id": "1842800003", "name": "USPS COLLECTION BOX - BLUE BOX", "address": {"city": "HAWLEY", "state": "PA", "street": "405 MAIN AVE", "postcode": "18428"}}},
{"geometry": {"type": "Point", "coordinates": [-75.1810970219, 41.4772341726]}, "type": "Feature", "properties": {"collection_times": [{"days": "Mon-Sat", "time": "9:00am"}, {"days": "Sun", "time": "Closed"}], "id": "1842800005", "name": "USPS COLLECTION BOX - BLUE BOX", "address": {"city": "HAWLEY", "state": "PA", "street": "615 BARKER ST", "postcode": "18428"}}},
{"geometry": {"type": "Point", "coordinates": [-75.0858700825, 41.3557021711]}, "type": "Feature", "properties": {"collection_times": [{"days": "Mon-Fri", "time": "4:00pm"}, {"days": "Sat", "time": "3:00pm"}, {"days": "Sun", "time": "Closed"}], "id": "1842800007", "name": "USPS COLLECTION BOX - BLUE BOX", "address": {"city": "HAWLEY", "state": "PA", "street": "641 ROUTE 739", "postcode": "18428"}}},
{"geometry": {"type": "Point", "coordinates": [-75.0858700825, 41.3557021711]}, "type": "Feature", "properties": {"collection_times": [{"days": "Mon-Fri", "time": "11:45am"}, {"days": "Sat", "time": "11:15am"}, {"days": "Sun", "time": "Closed"}], "id": "1842800008", "name": "USPS COLLECTION BOX - BLUE BOX", "address": {"city": "HAWLEY", "state": "PA", "street": "HC 6 BOX 1", "postcode": "18428"}}},
{"geometry": {"type": "Point", "coordinates": [-75.0858700825, 41.3557021711]}, "type": "Feature", "properties": {"collection_times": [{"days": "Mon-Fri", "time": "10:30am"}, {"days": "Sat", "time": "10:00am"}, {"days": "Sun", "time": "Closed"}], "id": "1842800009", "name": "USPS COLLECTION BOX - BLUE BOX", "address": {"city": "HAWLEY", "state": "PA", "street": "123 VILLAGE CENTER DR", "postcode": "18428"}}},
{"geometry": {"type": "Point", "coordinates": [-75.1540492788, 41.4798506943]}, "type": "Feature", "properties": {"collection_times": [{"days": "Mon-Fri", "time": "2:15pm"}, {"days": "Sat", "time": "1:00pm"}, {"days": "Sun", "time": "Closed"}], "id": "1842800011", "name": "USPS COLLECTION BOX - EXPRESS", "address": {"city": "HAWLEY", "state": "PA", "street": "100 MAIN AVE", "postcode": "18428"}}},
{"geometry": {"type": "Point", "coordinates": [-75.1831957502, 41.4762774113]}, "type": "Feature", "properties": {"collection_times": [{"days": "Mon-Fri", "time": "5:00pm"}, {"days": "Sat", "time": "4:00pm"}, {"days": "Sun", "time": "Closed"}], "id": "1842800012", "name": "USPS COLLECTION BOX - PO LOBBY", "address": {"city": "HAWLEY", "state": "PA", "street": "100 MAIN AVE", "postcode": "18428"}}},
{"geometry": {"type": "Point", "coordinates": [-75.0858700825, 41.3557021711]}, "type": "Feature", "properties": {"collection_times": [{"days": "Mon-Sat", "time": "9:30am"}, {"days": "Sun", "time": "Closed"}], "id": "1842800015", "name": "USPS COLLECTION BOX - BLUE BOX", "address": {"city": "HAWLEY", "state": "PA", "street": "2 WOODLOCH SPGS", "postcode": "18428"}}},
{"geometry": {"type": "Point", "coordinates": [-75.0858700825, 41.3557021711]}, "type": "Feature", "properties": {"collection_times": [{"days": "Mon-Sat", "time": "1:00pm"}, {"days": "Sun", "time": "Closed"}], "id": "1842800017", "name": "USPS COLLECTION BOX - BLUE BOX", "address": {"city": "HAWLEY", "state": "PA", "street": "HC 1 BOX 1", "postcode": "18428"}}},
{"geometry": {"type": "Point", "coordinates": [-75.2559209448, 41.5724866035]}, "type": "Feature", "properties": {"collection_times": [{"days": "Mon-Fri", "time": "5:00pm"}, {"days": "Sat", "time": "4:00pm"}, {"days": "Sun", "time": "Closed"}], "id": "1843100001", "name": "USPS COLLECTION BOX - BLUE BOX", "address": {"city": "HONESDALE", "state": "PA", "street": "830 MAIN ST", "postcode": "18431"}}},
{"geometry": {"type": "Point", "coordinates": [-75.2536431047, 41.5687430584]}, "type": "Feature", "properties": {"collection_times": [{"days": "Mon-Sat", "time": "10:00am"}, {"days": "Sun", "time": "Closed"}], "id": "1843100013", "name": "USPS COLLECTION BOX - BLUE BOX", "address": {"city": "HONESDALE", "state": "PA", "street": "419 MAIN ST", "postcode": "18431"}}},
{"geometry": {"type": "Point", "coordinates": [-75.2527213029, 41.5710404898]}, "type": "Feature", "properties": {"collection_times": [{"days": "Mon-Sat", "time": "10:00am"}, {"days": "Sun", "time": "Closed"}], "id": "1843100014", "name": "USPS COLLECTION BOX - BLUE BOX", "address": {"city": "HONESDALE", "state": "PA", "street": "110 6TH ST", "postcode": "18431"}}},
{"geometry": {"type": "Point", "coordinates": [-75.2596742179, 41.580315023]}, "type": "Feature", "properties": {"collection_times": [{"days": "Mon-Sat", "time": "9:00am"}, {"days": "Sun", "time": "Closed"}], "id": "1843100019", "name": "USPS COLLECTION BOX - BLUE BOX", "address": {"city": "HONESDALE", "state": "PA", "street": "1406 N MAIN ST", "postcode": "18431"}}},
{"geometry": {"type": "Point", "coordinates": [-75.2559802818, 41.5728138801]}, "type": "Feature", "properties": {"collection_times": [{"days": "Mon-Fri", "time": "5:00pm"}, {"days": "Sat", "time": "4:00pm"}, {"days": "Sun", "time": "Closed"}], "id": "1843100020", "name": "USPS COLLECTION BOX - BLUE BOX", "address": {"city": "HONESDALE", "state": "PA", "street": "830 MAIN ST", "postcode": "18431"}}},
{"geometry": {"type": "Point", "coordinates": [-75.2541801346, 41.5743357345]}, "type": "Feature", "properties": {"collection_times": [{"days": "Mon-Fri", "time": "3:00pm"}, {"days": "Sat", "time": "10:00am"}, {"days": "Sun", "time": "Closed"}], "id": "1843100021", "name": "USPS COLLECTION BOX - BLUE BOX", "address": {"city": "HONESDALE", "state": "PA", "street": "925 COURT ST", "postcode": "18431"}}},
{"geometry": {"type": "Point", "coordinates": [-75.2572803745, 41.5755549335]}, "type": "Feature", "properties": {"collection_times": [{"days": "Mon-Sat", "time": "10:00am"}, {"days": "Sun", "time": "Closed"}], "id": "1843100023", "name": "USPS COLLECTION BOX - BLUE BOX", "address": {"city": "HONESDALE", "state": "PA", "street": "1101 MAIN ST", "postcode": "18431"}}},
{"geometry": {"type": "Point", "coordinates": [-75.2467270992, 41.619826105]}, "type": "Feature", "properties": {"collection_times": [{"days": "Mon-Sat", "time": "10:00am"}, {"days": "Sun", "time": "Closed"}], "id": "1843100028", "name": "USPS COLLECTION BOX - BLUE BOX", "address": {"city": "HONESDALE", "state": "PA", "street": "1199 TEXAS PALMYRA HWY", "postcode": "18431"}}},
{"geometry": {"type": "Point", "coordinates": [-75.2492299932, 41.5653594959]}, "type": "Feature", "properties": {"collection_times": [{"days": "Mon-Sat", "time": "10:00am"}, {"days": "Sun", "time": "Closed"}], "id": "1843100029", "name": "USPS COLLECTION BOX - BLUE BOX", "address": {"city": "HONESDALE", "state": "PA", "street": "225 WILLOW AVE", "postcode": "18431"}}},
{"geometry": {"type": "Point", "coordinates": [-75.2674511497, 41.5754277915]}, "type": "Feature", "properties": {"collection_times": [{"days": "Mon-Sat", "time": "9:00am"}, {"days": "Sun", "time": "Closed"}], "id": "1843100031", "name": "USPS COLLECTION BOX - BLUE BOX", "address": {"city": "HONESDALE", "state": "PA", "street": "610 MAPLE AVE", "postcode": "18431"}}},
{"geometry": {"type": "Point", "coordinates": [-75.265547589, 41.574590839]}, "type": "Feature", "properties": {"collection_times": [{"days": "Mon-Sat", "time": "9:00am"}, {"days": "Sun", "time": "Closed"}], "id": "1843100032", "name": "USPS COLLECTION BOX - BLUE BOX", "address": {"city": "HONESDALE", "state": "PA", "street": "601 PARK ST", "postcode": "18431"}}},
{"geometry": {"type": "Point", "coordinates": [-75.2549179791, 41.5709351511]}, "type": "Feature", "properties": {"collection_times": [{"days": "Mon-Sat", "time": "10:00am"}, {"days": "Sun", "time": "Closed"}], "id": "1843100034", "name": "USPS COLLECTION BOX - BLUE BOX", "address": {"city": "HONESDALE", "state": "PA", "street": "645 MAIN ST", "postcode": "18431"}}},
{"geometry": {"type": "Point", "coordinates": [-75.2590844607, 41.5794005095]}, "type": "Feature", "properties": {"collection_times": [{"days": "Mon-Sat", "time": "10:00am"}, {"days": "Sun", "time": "Closed"}], "id": "1843100035", "name": "USPS COLLECTION BOX - BLUE BOX", "address": {"city": "HONESDALE", "state": "PA", "street": "1301 N MAIN ST", "postcode": "18431"}}},
{"geometry": {"type": "Point", "coordinates": [-75.2467270992, 41.619826105]}, "type": "Feature", "properties": {"collection_times": [{"days": "Mon-Sat", "time": "10:00am"}, {"days": "Sun", "time": "Closed"}], "id": "1843100041", "name": "USPS COLLECTION BOX - BLUE BOX", "address": {"city": "HONESDALE", "state": "PA", "street": "1199 TEXAS PALMYRA HWY", "postcode": "18431"}}},
{"geometry": {"type": "Point", "coordinates": [-75.255668435, 41.5760822359]}, "type": "Feature", "properties": {"collection_times": [{"days": "Mon-Sat", "time": "10:00am"}, {"days": "Sun", "time": "Closed"}], "id": "1843100042", "name": "USPS COLLECTION BOX - BLUE BOX", "address": {"city": "HONESDALE", "state": "PA", "street": "307 11TH ST", "postcode": "18431"}}},
{"geometry": {"type": "Point", "coordinates": [-75.2268633675, 41.5538932839]}, "type": "Feature", "properties": {"collection_times": [{"days": "Mon-Sat", "time": "9:00am"}, {"days": "Sun", "time": "Closed"}], "id": "1843100044", "name": "USPS COLLECTION BOX - BLUE BOX", "address": {"city": "HONESDALE", "state": "PA", "street": "777 OLD WILLOW AVE", "postcode": "18431"}}},
{"geometry": {"type": "Point", "coordinates": [-75.2502826732, 41.566056295]}, "type": "Feature", "properties": {"collection_times": [{"days": "Mon-Sat", "time": "10:00am"}, {"days": "Sun", "time": "Closed"}], "id": "1843100045", "name": "USPS COLLECTION BOX - BLUE BOX", "address": {"city": "HONESDALE", "state": "PA", "street": "200 WILLOW AVE", "postcode": "18431"}}},
{"geometry": {"type": "Point", "coordinates": [-75.2559209448, 41.5724866035]}, "type": "Feature", "properties": {"collection_times": [{"days": "Mon-Fri", "time": "5:00pm"}, {"days": "Sat", "time": "4:00pm"}, {"days": "Sun", "time": "Closed"}], "id": "1843100046", "name": "USPS COLLECTION BOX - PO LOBBY", "address": {"city": "HONESDALE", "state": "PA", "street": "830 MAIN ST", "postcode": "18431"}}},
{"geometry": {"type": "Point", "coordinates": [-75.2560164419, 41.5751630114]}, "type": "Feature", "properties": {"collection_times": [{"days": "Mon-Sat", "time": "9:00am"}, {"days": "Sun", "time": "Closed"}], "id": "1843100048", "name": "USPS COLLECTION BOX - BLUE BOX", "address": {"city": "HONESDALE", "state": "PA", "street": "928 CHURCH ST", "postcode": "18431"}}},
{"geometry": {"type": "Point", "coordinates": [-75.2541015622, 41.5683711305]}, "type": "Feature", "properties": {"collection_times": [{"days": "Mon-Sat", "time": "9:00am"}, {"days": "Sun", "time": "Closed"}], "id": "1843100049", "name": "USPS COLLECTION BOX - BLUE BOX", "address": {"city": "HONESDALE", "state": "PA", "street": "133 SUNRISE AVE", "postcode": "18431"}}},
{"geometry": {"type": "Point", "coordinates": [-75.2559209448, 41.5724866035]}, "type": "Feature", "properties": {"collection_times": [{"days": "Mon-Fri", "time": "5:00pm"}, {"days": "Sat", "time": "4:00pm"}, {"days": "Sun", "time": "Closed"}], "id": "1843100050", "name": "USPS COLLECTION BOX - BLUE BOX", "address": {"city": "HONESDALE", "state": "PA", "street": "830 MAIN ST", "postcode": "18431"}}},
{"geometry": {"type": "Point", "coordinates": [-75.5623885506, 41.5467421005]}, "type": "Feature", "properties": {"collection_times": [{"days": "Mon-Fri", "time": "1:00pm"}, {"days": "Sat", "time": "12:30pm"}, {"days": "Sun", "time": "Closed"}], "id": "1843300001", "name": "USPS COLLECTION BOX - BLUE BOX", "address": {"city": "JERMYN", "state": "PA", "street": "700 POPLAR ST", "postcode": "18433"}}},
{"geometry": {"type": "Point", "coordinates": [-75.5717216039, 41.4752883117]}, "type": "Feature", "properties": {"collection_times": [{"days": "Mon-Fri", "time": "4:30pm"}, {"days": "Sat", "time": "2:00pm"}, {"days": "Sun", "time": "Closed"}], "id": "1843400001", "name": "USPS COLLECTION BOX - BLUE BOX", "address": {"city": "JESSUP", "state": "PA", "street": "95 CHURCH ST", "postcode": "18434"}}},
{"geometry": {"type": "Point", "coordinates": [-75.5691653966, 41.4808723385]}, "type": "Feature", "properties": {"collection_times": [{"days": "Mon-Sat", "time": "1:00pm"}, {"days": "Sun", "time": "Closed"}], "id": "1843400003", "name": "USPS COLLECTION BOX - BLUE BOX", "address": {"city": "JESSUP", "state": "PA", "street": "10 HILL ST", "postcode": "18434"}}},
{"geometry": {"type": "Point", "coordinates": [-75.5704406506, 41.474579486]}, "type": "Feature", "properties": {"collection_times": [{"days": "Mon-Sat", "time": "12:00pm"}, {"days": "Sun", "time": "Closed"}], "id": "1843400011", "name": "USPS COLLECTION BOX - BLUE BOX", "address": {"city": "JESSUP", "state": "PA", "street": "305 CHURCH ST", "postcode": "18434"}}},
{"geometry": {"type": "Point", "coordinates": [-75.5717216039, 41.4752883117]}, "type": "Feature", "properties": {"collection_times": [{"days": "Mon-Fri", "time": "4:30pm"}, {"days": "Sat-Sun", "time": "Closed"}], "id": "1843400018", "name": "USPS COLLECTION BOX - PO LOBBY", "address": {"city": "JESSUP", "state": "PA", "street": "95 CHURCH ST", "postcode": "18434"}}},
{"geometry": {"type": "Point", "coordinates": [-75.5656473082, 41.4720053877]}, "type": "Feature", "properties": {"collection_times": [{"days": "Mon-Sat", "time": "8:30am"}, {"days": "Sun", "time": "Closed"}], "id": "1843400019", "name": "USPS COLLECTION BOX - BLUE BOX", "address": {"city": "JESSUP", "state": "PA", "street": "801 CHURCH ST", "postcode": "18434"}}},
{"geometry": {"type": "Point", "coordinates": [-74.9857088709, 41.4813053213]}, "type": "Feature", "properties": {"collection_times": [{"days": "Mon-Fri", "time": "4:00pm"}, {"days": "Sat", "time": "11:30am"}, {"days": "Sun", "time": "Closed"}], "id": "1843500001", "name": "USPS COLLECTION BOX - BLUE BOX", "address": {"city": "LACKAWAXEN", "state": "PA", "street": "178 SCENIC DR", "postcode": "18435"}}},
{"geometry": {"type": "Point", "coordinates": [-74.9857088709, 41.4813053213]}, "type": "Feature", "properties": {"collection_times": [{"days": "Mon-Fri", "time": "4:00pm"}, {"days": "Sat", "time": "11:30am"}, {"days": "Sun", "time": "Closed"}], "id": "1843500003", "name": "USPS COLLECTION BOX - PO LOBBY", "address": {"city": "LACKAWAXEN", "state": "PA", "street": "178 SCENIC DR", "postcode": "18435"}}},
{"geometry": {"type": "Point", "coordinates": [-75.4090532077, 41.4406267537]}, "type": "Feature", "properties": {"collection_times": [{"days": "Mon-Sat", "time": "12:00pm"}, {"days": "Sun", "time": "Closed"}], "id": "1843600002", "name": "USPS COLLECTION BOX - BLUE BOX", "address": {"city": "LAKE ARIEL", "state": "PA", "street": "640 THE HIDEOUT", "postcode": "18436"}}},
{"geometry": {"type": "Point", "coordinates": [-75.4090532077, 41.4406267537]}, "type": "Feature", "properties": {"collection_times": [{"days": "Mon-Sat", "time": "12:00pm"}, {"days": "Sun", "time": "Closed"}], "id": "1843600003", "name": "USPS COLLECTION BOX - BLUE BOX", "address": {"city": "LAKE ARIEL", "state": "PA", "street": "640 THE HIDEOUT", "postcode": "18436"}}},
{"geometry": {"type": "Point", "coordinates": [-75.4090532077, 41.4406267537]}, "type": "Feature", "properties": {"collection_times": [{"days": "Mon-Sat", "time": "10:00am"}, {"days": "Sun", "time": "Closed"}], "id": "1843600004", "name": "USPS COLLECTION BOX - BLUE BOX", "address": {"city": "LAKE ARIEL", "state": "PA", "street": "100 WALLENPAUPACK DR", "postcode": "18436"}}},
{"geometry": {"type": "Point", "coordinates": [-75.4090532077, 41.4406267537]}, "type": "Feature", "properties": {"collection_times": [{"days": "Mon-Sat", "time": "10:00am"}, {"days": "Sun", "time": "Closed"}], "id": "1843600005", "name": "USPS COLLECTION BOX - BLUE BOX", "address": {"city": "LAKE ARIEL", "state": "PA", "street": "100 WALLENPAUPACK DR", "postcode": "18436"}}},
{"geometry": {"type": "Point", "coordinates": [-75.3796077683, 41.454639763]}, "type": "Feature", "properties": {"collection_times": [{"days": "Mon-Fri", "time": "4:45pm"}, {"days": "Sat", "time": "2:45pm"}, {"days": "Sun", "time": "Closed"}], "id": "1843600010", "name": "USPS COLLECTION BOX - BLUE BOX", "address": {"city": "LAKE ARIEL", "state": "PA", "street": "1446 LAKE ARIEL HWY", "postcode": "18436"}}},
{"geometry": {"type": "Point", "coordinates": [-75.3796077683, 41.454639763]}, "type": "Feature", "properties": {"collection_times": [{"days": "Mon-Fri", "time": "4:45pm"}, {"days": "Sat", "time": "2:45pm"}, {"days": "Sun", "time": "Closed"}], "id": "1843600013", "name": "USPS COLLECTION BOX - PO LOBBY", "address": {"city": "LAKE ARIEL", "state": "PA", "street": "1446 LAKE ARIEL HWY", "postcode": "18436"}}},
{"geometry": {"type": "Point", "coordinates": [-75.2949627504, 41.8628371735]}, "type": "Feature", "properties": {"collection_times": [{"days": "Mon-Fri", "time": "4:00pm"}, {"days": "Sat", "time": "11:45am"}, {"days": "Sun", "time": "Closed"}], "id": "1843700001", "name": "USPS COLLECTION BOX - BLUE BOX", "address": {"city": "LAKE COMO", "state": "PA", "street": "3177 CREAMTON DR", "postcode": "18437"}}},
{"geometry": {"type": "Point", "coordinates": [-75.2949627504, 41.8628371735]}, "type": "Feature", "properties": {"collection_times": [{"days": "Mon-Fri", "time": "4:15pm"}, {"days": "Sat", "time": "11:45am"}, {"days": "Sun", "time": "Closed"}], "id": "1843700002", "name": "USPS COLLECTION BOX - PO LOBBY", "address": {"city": "LAKE COMO", "state": "PA", "street": "3177 CREAMTON DR", "postcode": "18437"}}},
{"geometry": {"type": "Point", "coordinates": [-75.3451773808, 41.8290240263]}, "type": "Feature", "properties": {"collection_times": [{"days": "Mon-Fri", "time": "4:00pm"}, {"days": "Sat", "time": "12:00pm"}, {"days": "Sun", "time": "Closed"}], "id": "1843900001", "name": "USPS COLLECTION BOX - BLUE BOX", "address": {"city": "LAKEWOOD", "state": "PA", "street": "1436 CROSSTOWN HWY", "postcode": "18439"}}},
{"geometry": {"type": "Point", "coordinates": [-75.3451773808, 41.8290240263]}, "type": "Feature", "properties": {"collection_times": [{"days": "Mon-Fri", "time": "4:00pm"}, {"days": "Sat", "time": "12:00pm"}, {"days": "Sun", "time": "Closed"}], "id": "1843900002", "name": "USPS COLLECTION BOX - PO LOBBY", "address": {"city": "LAKEWOOD", "state": "PA", "street": "1436 CROSSTOWN HWY", "postcode": "18439"}}},
{"geometry": {"type": "Point", "coordinates": [-75.7538407898, 41.556891012]}, "type": "Feature", "properties": {"collection_times": [{"days": "Mon-Fri", "time": "4:15pm"}, {"days": "Sat", "time": "11:00am"}, {"days": "Sun", "time": "Closed"}], "id": "1844000001", "name": "USPS COLLECTION BOX - BLUE BOX", "address": {"city": "LA PLUME", "state": "PA", "street": "2092 E LA PLUME RD", "postcode": "18440"}}},
{"geometry": {"type": "Point", "coordinates": [-75.7538407898, 41.556891012]}, "type": "Feature", "properties": {"collection_times": [{"days": "Mon-Fri", "time": "4:15pm"}, {"days": "Sat", "time": "11:00am"}, {"days": "Sun", "time": "Closed"}], "id": "1844000003", "name": "USPS COLLECTION BOX - PO LOBBY", "address": {"city": "LA PLUME", "state": "PA", "street": "2092 E LA PLUME RD", "postcode": "18440"}}},
{"geometry": {"type": "Point", "coordinates": [-75.0648689668, 41.6724577121]}, "type": "Feature", "properties": {"collection_times": [{"days": "Mon-Fri", "time": "4:15pm"}, {"days": "Sat", "time": "12:00pm"}, {"days": "Sun", "time": "Closed"}], "id": "1844300001", "name": "USPS COLLECTION BOX - BLUE BOX", "address": {"city": "MILANVILLE", "state": "PA", "street": "1143 RIVER RD STE B", "postcode": "18443"}}},
{"geometry": {"type": "Point", "coordinates": [-75.0648689668, 41.6724577121]}, "type": "Feature", "properties": {"collection_times": [{"days": "Mon-Fri", "time": "1:00pm"}, {"days": "Sat", "time": "12:00pm"}, {"days": "Sun", "time": "Closed"}], "id": "1844300002", "name": "USPS COLLECTION BOX - PO LOBBY", "address": {"city": "MILANVILLE", "state": "PA", "street": "1143 RIVER RD STE B", "postcode": "18443"}}},
{"geometry": {"type": "Point", "coordinates": [-75.5196739107, 41.3423332437]}, "type": "Feature", "properties": {"collection_times": [{"days": "Mon-Fri", "time": "5:00pm"}, {"days": "Sat", "time": "3:30pm"}, {"days": "Sun", "time": "Closed"}], "id": "1844400001", "name": "USPS COLLECTION BOX - BLUE BOX", "address": {"city": "MOSCOW", "state": "PA", "street": "331 N MAIN ST", "postcode": "18444"}}},
{"geometry": {"type": "Point", "coordinates": [-75.5582924654, 41.3345708356]}, "type": "Feature", "properties": {"collection_times": [{"days": "Mon-Sat", "time": "10:00am"}, {"days": "Sun", "time": "Closed"}], "id": "1844400002", "name": "USPS COLLECTION BOX - BLUE BOX", "address": {"city": "MOSCOW", "state": "PA", "street": "921 DRINKER TPKE", "postcode": "18444"}}},
{"geometry": {"type": "Point", "coordinates": [-75.5174876061, 41.3352521654]}, "type": "Feature", "properties": {"collection_times": [{"days": "Mon-Sat", "time": "10:30am"}, {"days": "Sun", "time": "Closed"}], "id": "1844400005", "name": "USPS COLLECTION BOX - BLUE BOX", "address": {"city": "MOSCOW", "state": "PA", "street": "208 S MAIN ST", "postcode": "18444"}}},
{"geometry": {"type": "Point", "coordinates": [-75.5196739107, 41.3423332437]}, "type": "Feature", "properties": {"collection_times": [{"days": "Mon-Fri", "time": "5:00pm"}, {"days": "Sat", "time": "3:30pm"}, {"days": "Sun", "time": "Closed"}], "id": "1844400006", "name": "USPS COLLECTION BOX - PO LOBBY", "address": {"city": "MOSCOW", "state": "PA", "street": "331 N MAIN ST", "postcode": "18444"}}},
{"geometry": {"type": "Point", "coordinates": [-75.3414565191, 41.2870413146]}, "type": "Feature", "properties": {"collection_times": [{"days": "Mon-Fri", "time": "4:30pm"}, {"days": "Sat", "time": "11:45am"}, {"days": "Sun", "time": "Closed"}], "id": "1844500001", "name": "USPS COLLECTION BOX - BLUE BOX", "address": {"city": "NEWFOUNDLAND", "state": "PA", "street": "8 PANTHER RD", "postcode": "18445"}}},
{"geometry": {"type": "Point", "coordinates": [-75.3414565191, 41.2870413146]}, "type": "Feature", "properties": {"collection_times": [{"days": "Mon-Fri", "time": "4:30pm"}, {"days": "Sat", "time": "11:45am"}, {"days": "Sun", "time": "Closed"}], "id": "1844500002", "name": "USPS COLLECTION BOX - PO LOBBY", "address": {"city": "NEWFOUNDLAND", "state": "PA", "street": "8 PANTHER RD", "postcode": "18445"}}},
{"geometry": {"type": "Point", "coordinates": [-75.7806136102, 41.6264745493]}, "type": "Feature", "properties": {"collection_times": [{"days": "Mon-Fri", "time": "4:45pm"}, {"days": "Sat", "time": "12:15pm"}, {"days": "Sun", "time": "Closed"}], "id": "1844600001", "name": "USPS COLLECTION BOX - BLUE BOX", "address": {"city": "NICHOLSON", "state": "PA", "street": "55 MAIN ST", "postcode": "18446"}}},
{"geometry": {"type": "Point", "coordinates": [-75.7806136102, 41.6264745493]}, "type": "Feature", "properties": {"collection_times": [{"days": "Mon-Fri", "time": "4:45pm"}, {"days": "Sat", "time": "12:15pm"}, {"days": "Sun", "time": "Closed"}], "id": "1844600002", "name": "USPS COLLECTION BOX - PO LOBBY", "address": {"city": "NICHOLSON", "state": "PA", "street": "55 MAIN ST", "postcode": "18446"}}},
{"geometry": {"type": "Point", "coordinates": [-75.6095362054, 41.4848735207]}, "type": "Feature", "properties": {"collection_times": [{"days": "Mon-Sat", "time": "2:45pm"}, {"days": "Sun", "time": "Closed"}], "id": "1844700007", "name": "USPS COLLECTION BOX - BLUE BOX", "address": {"city": "OLYPHANT", "state": "PA", "street": "2ND ST", "postcode": "18447"}}},
{"geometry": {"type": "Point", "coordinates": [-75.6095362054, 41.4848735207]}, "type": "Feature", "properties": {"collection_times": [{"days": "Mon-Sat", "time": "10:00am"}, {"days": "Sun", "time": "Closed"}], "id": "1844700009", "name": "USPS COLLECTION BOX - BLUE BOX", "address": {"city": "OLYPHANT", "state": "PA", "street": "719 SUNSET DR", "postcode": "18447"}}},
{"geometry": {"type": "Point", "coordinates": [-75.6095275157, 41.4848735668]}, "type": "Feature", "properties": {"collection_times": [{"days": "Mon-Sat", "time": "12:00pm"}, {"days": "Sun", "time": "Closed"}], "id": "1844700010", "name": "USPS COLLECTION BOX - BLUE BOX", "address": {"city": "OLYPHANT", "state": "PA", "street": "993 LAKELAND DR", "postcode": "18447"}}},
{"geometry": {"type": "Point", "coordinates": [-75.6095362054, 41.4848735207]}, "type": "Feature", "properties": {"collection_times": [{"days": "Mon-Fri", "time": "4:45pm"}, {"days": "Sat", "time": "3:30pm"}, {"days": "Sun", "time": "Closed"}], "id": "1844700011", "name": "USPS COLLECTION BOX - BLUE BOX", "address": {"city": "OLYPHANT", "state": "PA", "street": "517 BURKE BYP", "postcode": "18447"}}},
{"geometry": {"type": "Point", "coordinates": [-75.6095362054, 41.4848735207]}, "type": "Feature", "properties": {"collection_times": [{"days": "Mon-Sat", "time": "3:00pm"}, {"days": "Sun", "time": "Closed"}], "id": "1844700013", "name": "USPS COLLECTION BOX - BLUE BOX", "address": {"city": "OLYPHANT", "state": "PA", "street": "115 LACKAWANNA AVE", "postcode": "18447"}}},
{"geometry": {"type": "Point", "coordinates": [-75.6095362054, 41.4848735207]}, "type": "Feature", "properties": {"collection_times": [{"days": "Mon-Sat", "time": "3:00pm"}, {"days": "Sun", "time": "Closed"}], "id": "1844700022", "name": "USPS COLLECTION BOX - BLUE BOX", "address": {"city": "OLYPHANT", "state": "PA", "street": "134 DELAWARE AVE", "postcode": "18447"}}},
{"geometry": {"type": "Point", "coordinates": [-75.6095362054, 41.4848735207]}, "type": "Feature", "properties": {"collection_times": [{"days": "Mon-Sat", "time": "9:45am"}, {"days": "Sun", "time": "Closed"}], "id": "1844700024", "name": "USPS COLLECTION BOX - BLUE BOX", "address": {"city": "OLYPHANT", "state": "PA", "street": "113 WILLOW AVE", "postcode": "18447"}}},
{"geometry": {"type": "Point", "coordinates": [-75.6095362054, 41.4848735207]}, "type": "Feature", "properties": {"collection_times": [{"days": "Mon-Sat", "time": "3:00pm"}, {"days": "Sun", "time": "Closed"}], "id": "1844700027", "name": "USPS COLLECTION BOX - BLUE BOX", "address": {"city": "OLYPHANT", "state": "PA", "street": "307 LACKAWANNA AVE", "postcode": "18447"}}},
{"geometry": {"type": "Point", "coordinates": [-75.6095362054, 41.4848735207]}, "type": "Feature", "properties": {"collection_times": [{"days": "Mon-Sat", "time": "12:00pm"}, {"days": "Sun", "time": "Closed"}], "id": "1844700031", "name": "USPS COLLECTION BOX - BLUE BOX", "address": {"city": "OLYPHANT", "state": "PA", "street": "578 CARBONDALE RD", "postcode": "18447"}}},
{"geometry": {"type": "Point", "coordinates": [-75.6095362054, 41.4848735207]}, "type": "Feature", "properties": {"collection_times": [{"days": "Mon-Fri", "time": "5:00pm"}, {"days": "Sat", "time": "3:45pm"}, {"days": "Sun", "time": "Closed"}], "id": "1844700033", "name": "USPS COLLECTION BOX - PO LOBBY", "address": {"city": "OLYPHANT", "state": "PA", "street": "517 BURKE BY-PASS", "postcode": "18447"}}},
{"geometry": {"type": "Point", "coordinates": [-75.2303779905, 41.406111606]}, "type": "Feature", "properties": {"collection_times": [{"days": "Mon-Fri", "time": "4:45pm"}, {"days": "Sat", "time": "11:30am"}, {"days": "Sun", "time": "Closed"}], "id": "1845100001", "name": "USPS COLLECTION BOX - BLUE BOX", "address": {"city": "PAUPACK", "state": "PA", "street": "480 ROUTE 507", "postcode": "18451"}}},
{"geometry": {"type": "Point", "coordinates": [-75.2303779905, 41.406111606]}, "type": "Feature", "properties": {"collection_times": [{"days": "Mon-Fri", "time": "4:45pm"}, {"days": "Sat", "time": "11:30am"}, {"days": "Sun", "time": "Closed"}], "id": "1845100002", "name": "USPS COLLECTION BOX - PO LOBBY", "address": {"city": "PAUPACK", "state": "PA", "street": "480 ROUTE 507", "postcode": "18451"}}},
{"geometry": {"type": "Point", "coordinates": [-75.5830253076, 41.4799288361]}, "type": "Feature", "properties": {"collection_times": [{"days": "Mon-Fri", "time": "4:45pm"}, {"days": "Sat", "time": "3:45pm"}, {"days": "Sun", "time": "Closed"}], "id": "1845200001", "name": "USPS COLLECTION BOX - BLUE BOX", "address": {"city": "PECKVILLE", "state": "PA", "street": "323 KEYSTONE AVE", "postcode": "18452"}}},
{"geometry": {"type": "Point", "coordinates": [-75.5961555269, 41.4801133597]}, "type": "Feature", "properties": {"collection_times": [{"days": "Mon-Sat", "time": "11:45am"}, {"days": "Sun", "time": "Closed"}], "id": "1845200016", "name": "USPS COLLECTION BOX - BLUE BOX", "address": {"city": "PECKVILLE", "state": "PA", "street": "1437 MAIN ST", "postcode": "18452"}}},
{"geometry": {"type": "Point", "coordinates": [-75.5830253076, 41.4799288361]}, "type": "Feature", "properties": {"collection_times": [{"days": "Mon-Fri", "time": "4:45pm"}, {"days": "Sat", "time": "11:45am"}, {"days": "Sun", "time": "Closed"}], "id": "1845200017", "name": "USPS COLLECTION BOX - PO LOBBY", "address": {"city": "PECKVILLE", "state": "PA", "street": "323 KEYSTONE AVE", "postcode": "18452"}}},
{"geometry": {"type": "Point", "coordinates": [-75.4202774093, 41.8205418245]}, "type": "Feature", "properties": {"collection_times": [{"days": "Mon-Fri", "time": "4:15pm"}, {"days": "Sat", "time": "11:15am"}, {"days": "Sun", "time": "Closed"}], "id": "1845400001", "name": "USPS COLLECTION BOX - BLUE BOX", "address": {"city": "POYNTELLE", "state": "PA", "street": "718 CROSSTOWN HWY", "postcode": "18454"}}},
{"geometry": {"type": "Point", "coordinates": [-75.4202774093, 41.8205418245]}, "type": "Feature", "properties": {"collection_times": [{"days": "Mon-Fri", "time": "4:15pm"}, {"days": "Sat", "time": "11:15am"}, {"days": "Sun", "time": "Closed"}], "id": "1845400002", "name": "USPS COLLECTION BOX - PO LOBBY", "address": {"city": "POYNTELLE", "state": "PA", "street": "718 CROSSTOWN HWY", "postcode": "18454"}}},
{"geometry": {"type": "Point", "coordinates": [-75.3535067563, 41.8794825752]}, "type": "Feature", "properties": {"collection_times": [{"days": "Mon-Fri", "time": "4:00pm"}, {"days": "Sat", "time": "10:30am"}, {"days": "Sun", "time": "Closed"}], "id": "1845500001", "name": "USPS COLLECTION BOX - BLUE BOX", "address": {"city": "PRESTON PARK", "state": "PA", "street": "530 SHEHAWKEN RD STE B", "postcode": "18455"}}},
{"geometry": {"type": "Point", "coordinates": [-75.3535067563, 41.8794825752]}, "type": "Feature", "properties": {"collection_times": [{"days": "Mon-Fri", "time": "12:00pm"}, {"days": "Sat", "time": "10:30am"}, {"days": "Sun", "time": "Closed"}], "id": "1845500002", "name": "USPS COLLECTION BOX - PO LOBBY", "address": {"city": "PRESTON PARK", "state": "PA", "street": "530 SHEHAWKEN RD STE B", "postcode": "18455"}}},
{"geometry": {"type": "Point", "coordinates": [-75.3257670177, 41.585370639]}, "type": "Feature", "properties": {"collection_times": [{"days": "Mon-Fri", "time": "4:30pm"}, {"days": "Sat", "time": "11:30am"}, {"days": "Sun", "time": "Closed"}], "id": "1845600001", "name": "USPS COLLECTION BOX - BLUE BOX", "address": {"city": "PROMPTON", "state": "PA", "street": "88 RIVER RD", "postcode": "18456"}}},
{"geometry": {"type": "Point", "coordinates": [-75.3257670177, 41.585370639]}, "type": "Feature", "properties": {"collection_times": [{"days": "Mon-Fri", "time": "11:45am"}, {"days": "Sat", "time": "11:30am"}, {"days": "Sun", "time": "Closed"}], "id": "1845600002", "name": "USPS COLLECTION BOX - PO LOBBY", "address": {"city": "PROMPTON", "state": "PA", "street": "88 RIVER RD", "postcode": "18456"}}},
{"geometry": {"type": "Point", "coordinates": [-75.0411054091, 41.4740833992]}, "type": "Feature", "properties": {"collection_times": [{"days": "Mon-Fri", "time": "4:30pm"}, {"days": "Sat", "time": "11:30am"}, {"days": "Sun", "time": "Closed"}], "id": "1845700001", "name": "USPS COLLECTION BOX - BLUE BOX", "address": {"city": "ROWLAND", "state": "PA", "street": "102 SOLVERSON RD", "postcode": "18457"}}},
{"geometry": {"type": "Point", "coordinates": [-75.0411054091, 41.4740833992]}, "type": "Feature", "properties": {"collection_times": [{"days": "Mon-Fri", "time": "1:00pm"}, {"days": "Sat", "time": "11:30am"}, {"days": "Sun", "time": "Closed"}], "id": "1845700002", "name": "USPS COLLECTION BOX - PO LOBBY", "address": {"city": "ROWLAND", "state": "PA", "street": "102 SOLVERSON RD", "postcode": "18457"}}},
{"geometry": {"type": "Point", "coordinates": [-74.9185568045, 41.4716828711]}, "type": "Feature", "properties": {"collection_times": [{"days": "Mon-Fri", "time": "4:00pm"}, {"days": "Sat", "time": "11:15am"}, {"days": "Sun", "time": "Closed"}], "id": "1845800001", "name": "USPS COLLECTION BOX - BLUE BOX", "address": {"city": "SHOHOLA", "state": "PA", "street": "118 RICHARDSON AVE", "postcode": "18458"}}},
{"geometry": {"type": "Point", "coordinates": [-74.9822408149, 41.4199801766]}, "type": "Feature", "properties": {"collection_times": [{"days": "Mon-Sat", "time": "11:15am"}, {"days": "Sun", "time": "Closed"}], "id": "1845800003", "name": "USPS COLLECTION BOX - BLUE BOX", "address": {"city": "SHOHOLA", "state": "PA", "street": "101 SHOHOLA PKWY", "postcode": "18458"}}},
{"geometry": {"type": "Point", "coordinates": [-74.9185568045, 41.4716828711]}, "type": "Feature", "properties": {"collection_times": [{"days": "Mon-Fri", "time": "4:00pm"}, {"days": "Sat", "time": "11:15am"}, {"days": "Sun", "time": "Closed"}], "id": "1845800004", "name": "USPS COLLECTION BOX - PO LOBBY", "address": {"city": "SHOHOLA", "state": "PA", "street": "118 RICHARDSON AVE", "postcode": "18458"}}},
{"geometry": {"type": "Point", "coordinates": [-74.916744567, 41.3653783839]}, "type": "Feature", "properties": {"collection_times": [{"days": "Mon-Sat", "time": "11:00am"}, {"days": "Sun", "time": "Closed"}], "id": "1845800005", "name": "USPS COLLECTION BOX - BLUE BOX", "address": {"city": "SHOHOLA", "state": "PA", "street": "837 ROUTE 6", "postcode": "18458"}}},
{"geometry": {"type": "Point", "coordinates": [-75.4120991555, 41.504930066]}, "type": "Feature", "properties": {"collection_times": [{"days": "Mon-Fri", "time": "4:30pm"}, {"days": "Sat", "time": "11:30am"}, {"days": "Sun", "time": "Closed"}], "id": "1845900001", "name": "USPS COLLECTION BOX - BLUE BOX", "address": {"city": "SOUTH CANAAN", "state": "PA", "street": "2159 EASTON TPKE UNIT 1", "postcode": "18459"}}},
{"geometry": {"type": "Point", "coordinates": [-75.4120991555, 41.504930066]}, "type": "Feature", "properties": {"collection_times": [{"days": "Mon-Fri", "time": "4:30pm"}, {"days": "Sat", "time": "11:30am"}, {"days": "Sun", "time": "Closed"}], "id": "1845900002", "name": "USPS COLLECTION BOX - PO LOBBY", "address": {"city": "SOUTH CANAAN", "state": "PA", "street": "2159 EASTON TPKE UNIT 1", "postcode": "18459"}}},
{"geometry": {"type": "Point", "coordinates": [-75.4717300248, 41.8929594728]}, "type": "Feature", "properties": {"collection_times": [{"days": "Mon-Fri", "time": "1:00pm"}, {"days": "Sat", "time": "11:15am"}, {"days": "Sun", "time": "Closed"}], "id": "1846200001", "name": "USPS COLLECTION BOX - BLUE BOX", "address": {"city": "STARRUCCA", "state": "PA", "street": "327 STARRUCCA CREEK RD", "postcode": "18462"}}},
{"geometry": {"type": "Point", "coordinates": [-75.4717300248, 41.8929594728]}, "type": "Feature", "properties": {"collection_times": [{"days": "Mon-Fri", "time": "1:00pm"}, {"days": "Sat", "time": "11:15am"}, {"days": "Sun", "time": "Closed"}], "id": "1846200002", "name": "USPS COLLECTION BOX - PO LOBBY", "address": {"city": "STARRUCCA", "state": "PA", "street": "327 STARRUCCA CREEK RD", "postcode": "18462"}}},
{"geometry": {"type": "Point", "coordinates": [-75.3789076585, 41.3447340583]}, "type": "Feature", "properties": {"collection_times": [{"days": "Mon-Fri", "time": "4:45pm"}, {"days": "Sat", "time": "11:15am"}, {"days": "Sun", "time": "Closed"}], "id": "1846300001", "name": "USPS COLLECTION BOX - BLUE BOX", "address": {"city": "STERLING", "state": "PA", "street": "615 STERLING RD", "postcode": "18463"}}},
{"geometry": {"type": "Point", "coordinates": [-75.3789076585, 41.3447340583]}, "type": "Feature", "properties": {"collection_times": [{"days": "Mon-Fri", "time": "4:45pm"}, {"days": "Sat", "time": "11:15am"}, {"days": "Sun", "time": "Closed"}], "id": "1846300002", "name": "USPS COLLECTION BOX - PO LOBBY", "address": {"city": "STERLING", "state": "PA", "street": "615 STERLING RD", "postcode": "18463"}}},
{"geometry": {"type": "Point", "coordinates": [-75.1764124489, 41.4068802681]}, "type": "Feature", "properties": {"collection_times": [{"days": "Mon-Fri", "time": "4:45pm"}, {"days": "Sat", "time": "12:45pm"}, {"days": "Sun", "time": "Closed"}], "id": "1846400001", "name": "USPS COLLECTION BOX - BLUE BOX", "address": {"city": "TAFTON", "state": "PA", "street": "287 ROUTE 507", "postcode": "18464"}}},
{"geometry": {"type": "Point", "coordinates": [-75.1764124489, 41.4068802681]}, "type": "Feature", "properties": {"collection_times": [{"days": "Mon-Fri", "time": "4:45pm"}, {"days": "Sat", "time": "12:45pm"}, {"days": "Sun", "time": "Closed"}], "id": "1846400002", "name": "USPS COLLECTION BOX - PO LOBBY", "address": {"city": "TAFTON", "state": "PA", "street": "287 ROUTE 507", "postcode": "18464"}}},
{"geometry": {"type": "Point", "coordinates": [-75.5248259782, 41.8303231829]}, "type": "Feature", "properties": {"collection_times": [{"days": "Mon-Fri", "time": "4:45pm"}, {"days": "Sat", "time": "11:45am"}, {"days": "Sun", "time": "Closed"}], "id": "1846500001", "name": "USPS COLLECTION BOX - BLUE BOX", "address": {"city": "THOMPSON", "state": "PA", "street": "412 JACKSON ST", "postcode": "18465"}}},
{"geometry": {"type": "Point", "coordinates": [-75.5248259782, 41.8303231829]}, "type": "Feature", "properties": {"collection_times": [{"days": "Mon-Fri", "time": "4:45pm"}, {"days": "Sat", "time": "12:00pm"}, {"days": "Sun", "time": "Closed"}], "id": "1846500002", "name": "USPS COLLECTION BOX - PO LOBBY", "address": {"city": "THOMPSON", "state": "PA", "street": "412 JACKSON ST", "postcode": "18465"}}},
{"geometry": {"type": "Point", "coordinates": [-75.3704175175, 41.1899606635]}, "type": "Feature", "properties": {"collection_times": [{"days": "Mon-Fri", "time": "4:30pm"}, {"days": "Sat", "time": "4:00pm"}, {"days": "Sun", "time": "Closed"}], "id": "1846600001", "name": "USPS COLLECTION BOX - BLUE BOX", "address": {"city": "TOBYHANNA", "state": "PA", "street": "659 MAIN ST", "postcode": "18466"}}},
{"geometry": {"type": "Point", "coordinates": [-75.4382858593, 41.184676596]}, "type": "Feature", "properties": {"collection_times": [{"days": "Mon-Sat", "time": "9:00am"}, {"days": "Sun", "time": "Closed"}], "id": "1846600002", "name": "USPS COLLECTION BOX - BLUE BOX", "address": {"city": "TOBYHANNA", "state": "PA", "street": "11 HAP ARNOLD BLVD", "postcode": "18466"}}},
{"geometry": {"type": "Point", "coordinates": [-75.4382858593, 41.184676596]}, "type": "Feature", "properties": {"collection_times": [{"days": "Mon-Sat", "time": "11:00am"}, {"days": "Sun", "time": "Closed"}], "id": "1846600005", "name": "USPS COLLECTION BOX - BLUE BOX", "address": {"city": "TOBYHANNA", "state": "PA", "street": "1 POCONO COUNTRY PL", "postcode": "18466"}}},
{"geometry": {"type": "Point", "coordinates": [-75.3704175175, 41.1899606635]}, "type": "Feature", "properties": {"collection_times": [{"days": "Mon-Fri", "time": "4:30pm"}, {"days": "Sat", "time": "4:00pm"}, {"days": "Sun", "time": "Closed"}], "id": "1846600009", "name": "USPS COLLECTION BOX - PO LOBBY", "address": {"city": "TOBYHANNA", "state": "PA", "street": "659 MAIN ST", "postcode": "18466"}}},
{"geometry": {"type": "Point", "coordinates": [-75.1323272018, 41.6919564247]}, "type": "Feature", "properties": {"collection_times": [{"days": "Mon-Fri", "time": "4:00pm"}, {"days": "Sat", "time": "11:30am"}, {"days": "Sun", "time": "Closed"}], "id": "1846900001", "name": "USPS COLLECTION BOX - BLUE BOX", "address": {"city": "TYLER HILL", "state": "PA", "street": "1080 COCHECTON TPKE", "postcode": "18469"}}},
{"geometry": {"type": "Point", "coordinates": [-75.1323272018, 41.6919564247]}, "type": "Feature", "properties": {"collection_times": [{"days": "Mon-Fri", "time": "4:00pm"}, {"days": "Sat", "time": "11:45am"}, {"days": "Sun", "time": "Closed"}], "id": "1846900002", "name": "USPS COLLECTION BOX - PO LOBBY", "address": {"city": "TYLER HILL", "state": "PA", "street": "1080 COCHECTON TPKE", "postcode": "18469"}}},
{"geometry": {"type": "Point", "coordinates": [-75.5483697029, 41.709518842]}, "type": "Feature", "properties": {"collection_times": [{"days": "Mon-Fri", "time": "4:30pm"}, {"days": "Sat", "time": "11:30am"}, {"days": "Sun", "time": "Closed"}], "id": "1847000001", "name": "USPS COLLECTION BOX - BLUE BOX", "address": {"city": "UNION DALE", "state": "PA", "street": "924 S MAIN ST", "postcode": "18470"}}},
{"geometry": {"type": "Point", "coordinates": [-75.5483697029, 41.709518842]}, "type": "Feature", "properties": {"collection_times": [{"days": "Mon-Fri", "time": "4:30pm"}, {"days": "Sat", "time": "11:30am"}, {"days": "Sun", "time": "Closed"}], "id": "1847000002", "name": "USPS COLLECTION BOX - PO LOBBY", "address": {"city": "UNION DALE", "state": "PA", "street": "924 S MAIN ST", "postcode": "18470"}}},
{"geometry": {"type": "Point", "coordinates": [-75.7049515775, 41.4956679651]}, "type": "Feature", "properties": {"collection_times": [{"days": "Mon-Fri", "time": "4:15pm"}, {"days": "Sat", "time": "11:45am"}, {"days": "Sun", "time": "Closed"}], "id": "1847100001", "name": "USPS COLLECTION BOX - BLUE BOX", "address": {"city": "WAVERLY", "state": "PA", "street": "1115 N ABINGTON RD", "postcode": "18471"}}},
{"geometry": {"type": "Point", "coordinates": [-75.7049515775, 41.4956679651]}, "type": "Feature", "properties": {"collection_times": [{"days": "Mon-Fri", "time": "4:15pm"}, {"days": "Sat", "time": "11:45am"}, {"days": "Sun", "time": "Closed"}], "id": "1847100003", "name": "USPS COLLECTION BOX - PO LOBBY", "address": {"city": "WAVERLY", "state": "PA", "street": "1115 N ABINGTON RD", "postcode": "18471"}}},
{"geometry": {"type": "Point", "coordinates": [-75.4075663921, 41.5834089284]}, "type": "Feature", "properties": {"collection_times": [{"days": "Mon-Fri", "time": "4:45pm"}, {"days": "Sat", "time": "12:00pm"}, {"days": "Sun", "time": "Closed"}], "id": "1847200001", "name": "USPS COLLECTION BOX - BLUE BOX", "address": {"city": "WAYMART", "state": "PA", "street": "310 HONESDALE RD", "postcode": "18472"}}},
{"geometry": {"type": "Point", "coordinates": [-75.4075663921, 41.5834089284]}, "type": "Feature", "properties": {"collection_times": [{"days": "Mon-Fri", "time": "4:45pm"}, {"days": "Sat", "time": "12:00pm"}, {"days": "Sun", "time": "Closed"}], "id": "1847200005", "name": "USPS COLLECTION BOX - PO LOBBY", "address": {"city": "WAYMART", "state": "PA", "street": "310 HONESDALE RD", "postcode": "18472"}}},
{"geometry": {"type": "Point", "coordinates": [-75.2558599053, 41.5725551668]}, "type": "Feature", "properties": {"collection_times": [{"days": "Mon-Fri", "time": "4:45pm"}, {"days": "Sat", "time": "11:45am"}, {"days": "Sun", "time": "Closed"}], "id": "1847300001", "name": "USPS COLLECTION BOX - BLUE BOX", "address": {"city": "WHITE MILLS", "state": "PA", "street": "744 TEXAS PALMYRA HWY", "postcode": "18473"}}},
{"geometry": {"type": "Point", "coordinates": [-75.2558599053, 41.5725551668]}, "type": "Feature", "properties": {"collection_times": [{"days": "Mon-Fri", "time": "4:45pm"}, {"days": "Sat", "time": "11:45am"}, {"days": "Sun", "time": "Closed"}], "id": "1847300002", "name": "USPS COLLECTION BOX - PO LOBBY", "address": {"city": "WHITE MILLS", "state": "PA", "street": "744 TEXAS PALMYRA HWY", "postcode": "18473"}}}
]}
