{"type": "FeatureCollection", "features": [
{"geometry": {"type": "Point", "coordinates": [-75.6649813962, 41.4088072232]}, "type": "Feature", "properties": {"collection_times": [{"days": "Mon-Fri", "time": "4:45pm"}, {"days": "Sat-Sun", "time": "Closed"}], "id": "1850300001", "name": "USPS COLLECTION BOX - BLUE BOX", "address": {"city": "SCRANTON", "state": "PA", "street": "204 WYOMING AVE", "postcode": "18503"}}},
{"geometry": {"type": "Point", "coordinates": [-75.6642145157, 41.4073563775]}, "type": "Feature", "properties": {"collection_times": [{"days": "Mon-Fri", "time": "4:30pm"}, {"days": "Sat-Sun", "time": "Closed"}], "id": "1850300004", "name": "USPS COLLECTION BOX - BLUE BOX", "address": {"city": "SCRANTON", "state": "PA", "street": "142 N WASHINGTON AVE", "postcode": "18503"}}},
{"geometry": {"type": "Point", "coordinates": [-75.6646886735, 41.4069259371]}, "type": "Feature", "properties": {"collection_times": [{"days": "Mon-Fri", "time": "4:30pm"}, {"days": "Sat-Sun", "time": "Closed"}], "id": "1850300005", "name": "USPS COLLECTION BOX - BLUE BOX", "address": {"city": "SCRANTON", "state": "PA", "street": "108 N WASHINGTON AVE", "postcode": "18503"}}},
{"geometry": {"type": "Point", "coordinates": [-75.664428212, 41.4111606676]}, "type": "Feature", "properties": {"collection_times": [{"days": "Mon-Fri", "time": "5:00pm"}, {"days": "Sat", "time": "11:00am"}, {"days": "Sun", "time": "Closed"}], "id": "1850300006", "name": "USPS COLLECTION BOX - BLUE BOX", "address": {"city": "SCRANTON", "state": "PA", "street": "338 PENN AVE", "postcode": "18503"}}},
{"geometry": {"type": "Point", "coordinates": [-75.6654652759, 41.4110018958]}, "type": "Feature", "properties": {"collection_times": [{"days": "Mon-Fri", "time": "5:00pm"}, {"days": "Sat-Sun", "time": "Closed"}], "id": "1850300007", "name": "USPS COLLECTION BOX - BLUE BOX", "address": {"city": "SCRANTON", "state": "PA", "street": "228 LINDEN ST", "postcode": "18503"}}},
{"geometry": {"type": "Point", "coordinates": [-75.6622562468, 41.40709759]}, "type": "Feature", "properties": {"collection_times": [{"days": "Mon-Fri", "time": "1:00pm"}, {"days": "Sat-Sun", "time": "Closed"}], "id": "1850300010", "name": "USPS COLLECTION BOX - BLUE BOX", "address": {"city": "SCRANTON", "state": "PA", "street": "200 ADAMS AVE", "postcode": "18503"}}},
{"geometry": {"type": "Point", "coordinates": [-75.6628500422, 41.4073316518]}, "type": "Feature", "properties": {"collection_times": [{"days": "Mon-Fri", "time": "4:45pm"}, {"days": "Sat-Sun", "time": "Closed"}], "id": "1850300012", "name": "USPS COLLECTION BOX - BLUE BOX", "address": {"city": "SCRANTON", "state": "PA", "street": "538 SPRUCE ST", "postcode": "18503"}}},
{"geometry": {"type": "Point", "coordinates": [-75.6635907529, 41.4059006429]}, "type": "Feature", "properties": {"collection_times": [{"days": "Mon-Fri", "time": "1:45pm"}, {"days": "Sat-Sun", "time": "Closed"}], "id": "1850300013", "name": "USPS COLLECTION BOX - BLUE BOX", "address": {"city": "SCRANTON", "state": "PA", "street": "100 ADAMS AVE", "postcode": "18503"}}},
{"geometry": {"type": "Point", "coordinates": [-75.6659548266, 41.4072892803]}, "type": "Feature", "properties": {"collection_times": [{"days": "Mon-Fri", "time": "5:00pm"}, {"days": "Sat-Sun", "time": "Closed"}], "id": "1850300014", "name": "USPS COLLECTION BOX - BLUE BOX", "address": {"city": "SCRANTON", "state": "PA", "street": "432 LACKAWANNA AVE", "postcode": "18503"}}},
{"geometry": {"type": "Point", "coordinates": [-75.6627492603, 41.4055997998]}, "type": "Feature", "properties": {"collection_times": [{"days": "Mon-Fri", "time": "5:00pm"}, {"days": "Sat-Sun", "time": "Closed"}], "id": "1850300015", "name": "USPS COLLECTION BOX - BLUE BOX", "address": {"city": "SCRANTON", "state": "PA", "street": "700 LACKAWANNA AVE", "postcode": "18503"}}},
{"geometry": {"type": "Point", "coordinates": [-75.6617659391, 41.4095569168]}, "type": "Feature", "properties": {"collection_times": [{"days": "Mon-Fri", "time": "4:15pm"}, {"days": "Sat-Sun", "time": "Closed"}], "id": "1850300019", "name": "USPS COLLECTION BOX - BLUE BOX", "address": {"city": "SCRANTON", "state": "PA", "street": "340 N WASHINGTON AVE", "postcode": "18503"}}},
{"geometry": {"type": "Point", "coordinates": [-75.6620480452, 41.409471183]}, "type": "Feature", "properties": {"collection_times": [{"days": "Mon-Fri", "time": "3:30pm"}, {"days": "Sat-Sun", "time": "Closed"}], "id": "1850300020", "name": "USPS COLLECTION BOX - BLUE BOX", "address": {"city": "SCRANTON", "state": "PA", "street": "327 N WASHINGTON AVE", "postcode": "18503"}}},
{"geometry": {"type": "Point", "coordinates": [-75.6620273508, 41.4089813552]}, "type": "Feature", "properties": {"collection_times": [{"days": "Mon-Fri", "time": "2:00pm"}, {"days": "Sat-Sun", "time": "Closed"}], "id": "1850300021", "name": "USPS COLLECTION BOX - BLUE BOX", "address": {"city": "SCRANTON", "state": "PA", "street": "507 LINDEN ST", "postcode": "18503"}}},
{"geometry": {"type": "Point", "coordinates": [-75.6610490585, 41.408341681]}, "type": "Feature", "properties": {"collection_times": [{"days": "Mon-Fri", "time": "2:45pm"}, {"days": "Sat-Sun", "time": "Closed"}], "id": "1850300022", "name": "USPS COLLECTION BOX - BLUE BOX", "address": {"city": "SCRANTON", "state": "PA", "street": "301 ADAMS AVE", "postcode": "18503"}}},
{"geometry": {"type": "Point", "coordinates": [-75.6660492322, 41.4094652311]}, "type": "Feature", "properties": {"collection_times": [{"days": "Mon-Sat", "time": "12:00pm"}, {"days": "Sun", "time": "Closed"}], "id": "1850300025", "name": "USPS COLLECTION BOX - BLUE BOX", "address": {"city": "SCRANTON", "state": "PA", "street": "321 SPRUCE ST", "postcode": "18503"}}},
{"geometry": {"type": "Point", "coordinates": [-75.6676365439, 41.4084490686]}, "type": "Feature", "properties": {"collection_times": [{"days": "Mon-Fri", "time": "5:00pm"}, {"days": "Sat-Sun", "time": "Closed"}], "id": "1850300026", "name": "USPS COLLECTION BOX - BLUE BOX", "address": {"city": "SCRANTON", "state": "PA", "street": "101 PENN AVE", "postcode": "18503"}}},
{"geometry": {"type": "Point", "coordinates": [-75.6675194492, 41.4103977135]}, "type": "Feature", "properties": {"collection_times": [{"days": "Mon-Fri", "time": "2:00pm"}, {"days": "Sat-Sun", "time": "Closed"}], "id": "1850300028", "name": "USPS COLLECTION BOX - BLUE BOX", "address": {"city": "SCRANTON", "state": "PA", "street": "201 FRANKLIN AVE", "postcode": "18503"}}},
{"geometry": {"type": "Point", "coordinates": [-75.6681803476, 41.4098063443]}, "type": "Feature", "properties": {"collection_times": [{"days": "Mon-Fri", "time": "2:00pm"}, {"days": "Sat-Sun", "time": "Closed"}], "id": "1850300029", "name": "USPS COLLECTION BOX - BLUE BOX", "address": {"city": "SCRANTON", "state": "PA", "street": "135 FRANKLIN AVE", "postcode": "18503"}}},
{"geometry": {"type": "Point", "coordinates": [-75.6622902171, 41.4111427802]}, "type": "Feature", "properties": {"collection_times": [{"days": "Mon-Fri", "time": "4:45pm"}, {"days": "Sat-Sun", "time": "Closed"}], "id": "1850300030", "name": "USPS COLLECTION BOX - BLUE BOX", "address": {"city": "SCRANTON", "state": "PA", "street": "400 WYOMING AVE", "postcode": "18503"}}},
{"geometry": {"type": "Point", "coordinates": [-75.6609972674, 41.4103748257]}, "type": "Feature", "properties": {"collection_times": [{"days": "Mon-Fri", "time": "3:15pm"}, {"days": "Sat-Sun", "time": "Closed"}], "id": "1850300031", "name": "USPS COLLECTION BOX - BLUE BOX", "address": {"city": "SCRANTON", "state": "PA", "street": "499 MULBERRY ST", "postcode": "18503"}}},
{"geometry": {"type": "Point", "coordinates": [-75.6607540859, 41.4106608321]}, "type": "Feature", "properties": {"collection_times": [{"days": "Mon-Fri", "time": "4:15pm"}, {"days": "Sat-Sun", "time": "Closed"}], "id": "1850300032", "name": "USPS COLLECTION BOX - BLUE BOX", "address": {"city": "SCRANTON", "state": "PA", "street": "425 N WASHINGTON AVE", "postcode": "18503"}}},
{"geometry": {"type": "Point", "coordinates": [-75.663487468, 41.4100767682]}, "type": "Feature", "properties": {"collection_times": [{"days": "Mon-Fri", "time": "4:45pm"}, {"days": "Sat-Sun", "time": "Closed"}], "id": "1850300037", "name": "USPS COLLECTION BOX - BLUE BOX", "address": {"city": "SCRANTON", "state": "PA", "street": "310 WYOMING AVE", "postcode": "18503"}}},
{"geometry": {"type": "Point", "coordinates": [-75.6632541905, 41.4083912587]}, "type": "Feature", "properties": {"collection_times": [{"days": "Mon-Fri", "time": "5:00pm"}, {"days": "Sat", "time": "2:00pm"}, {"days": "Sun", "time": "Closed"}], "id": "1850300043", "name": "USPS COLLECTION BOX - BLUE BOX", "address": {"city": "SCRANTON", "state": "PA", "street": "235 N WASHINGTON AVE", "postcode": "18503"}}},
{"geometry": {"type": "Point", "coordinates": [-75.6632541905, 41.4083912587]}, "type": "Feature", "properties": {"collection_times": [{"days": "Mon-Fri", "time": "5:00pm"}, {"days": "Sat", "time": "2:00pm"}, {"days": "Sun", "time": "Closed"}], "id": "1850300044", "name": "USPS COLLECTION BOX - BLUE BOX", "address": {"city": "SCRANTON", "state": "PA", "street": "235 N WASHINGTON AVE", "postcode": "18503"}}},
{"geometry": {"type": "Point", "coordinates": [-75.6661754715, 41.4075704318]}, "type": "Feature", "properties": {"collection_times": [{"days": "Mon-Fri", "time": "4:30pm"}, {"days": "Sat-Sun", "time": "Closed"}], "id": "1850300047", "name": "USPS COLLECTION BOX - BLUE BOX", "address": {"city": "SCRANTON", "state": "PA", "street": "409 LACKAWANNA AVE", "postcode": "18503"}}},
{"geometry": {"type": "Point", "coordinates": [-75.6636799634, 41.4120112559]}, "type": "Feature", "properties": {"collection_times": [{"days": "Mon-Fri", "time": "11:00am"}, {"days": "Sat-Sun", "time": "Closed"}], "id": "1850300048", "name": "USPS COLLECTION BOX - BLUE BOX", "address": {"city": "SCRANTON", "state": "PA", "street": "401 PENN AVE", "postcode": "18503"}}},
{"geometry": {"type": "Point", "coordinates": [-75.6636365769, 41.4080525003]}, "type": "Feature", "properties": {"collection_times": [{"days": "Mon-Fri", "time": "4:15pm"}, {"days": "Sat-Sun", "time": "Closed"}], "id": "1850300049", "name": "USPS COLLECTION BOX - BLUE BOX", "address": {"city": "SCRANTON", "state": "PA", "street": "205 N WASHINGTON AVE", "postcode": "18503"}}},
{"geometry": {"type": "Point", "coordinates": [-75.6621011668, 41.411615868]}, "type": "Feature", "properties": {"collection_times": [{"days": "Mon-Fri", "time": "4:45pm"}, {"days": "Sat-Sun", "time": "Closed"}], "id": "1850300052", "name": "USPS COLLECTION BOX - BLUE BOX", "address": {"city": "SCRANTON", "state": "PA", "street": "431 WYOMING AVE", "postcode": "18503"}}},
{"geometry": {"type": "Point", "coordinates": [-75.6632510672, 41.4105532281]}, "type": "Feature", "properties": {"collection_times": [{"days": "Mon-Fri", "time": "5:00pm"}, {"days": "Sat-Sun", "time": "Closed"}], "id": "1850300056", "name": "USPS COLLECTION BOX - BLUE BOX", "address": {"city": "SCRANTON", "state": "PA", "street": "345 WYOMING AVE", "postcode": "18503"}}},
{"geometry": {"type": "Point", "coordinates": [-75.6691640662, 41.4085446505]}, "type": "Feature", "properties": {"collection_times": [{"days": "Mon-Fri", "time": "5:00pm"}, {"days": "Sat", "time": "12:45pm"}, {"days": "Sun", "time": "Closed"}], "id": "1850300057", "name": "USPS COLLECTION BOX - BLUE BOX", "address": {"city": "SCRANTON", "state": "PA", "street": "100 THE MALL AT STEAMTOWN", "postcode": "18503"}}},
{"geometry": {"type": "Point", "coordinates": [-75.665949596, 41.409783906]}, "type": "Feature", "properties": {"collection_times": [{"days": "Mon-Fri", "time": "2:45pm"}, {"days": "Sat-Sun", "time": "Closed"}], "id": "1850300058", "name": "USPS COLLECTION BOX - BLUE BOX", "address": {"city": "SCRANTON", "state": "PA", "street": "220 PENN AVE", "postcode": "18503"}}},
{"geometry": {"type": "Point", "coordinates": [-75.665949596, 41.409783906]}, "type": "Feature", "properties": {"collection_times": [{"days": "Mon-Fri", "time": "2:45pm"}, {"days": "Sat-Sun", "time": "Closed"}], "id": "1850300059", "name": "USPS COLLECTION BOX - BLUE BOX", "address": {"city": "SCRANTON", "state": "PA", "street": "220 PENN AVE", "postcode": "18503"}}},
{"geometry": {"type": "Point", "coordinates": [-75.6650471844, 41.4089097097]}, "type": "Feature", "properties": {"collection_times": [{"days": "Mon-Fri", "time": "5:00pm"}, {"days": "Sat", "time": "12:45pm"}, {"days": "Sun", "time": "Closed"}], "id": "1850300061", "name": "USPS COLLECTION BOX - BLUE BOX", "address": {"city": "SCRANTON", "state": "PA", "street": "207 WYOMING AVE", "postcode": "18503"}}},
{"geometry": {"type": "Point", "coordinates": [-75.6660854237, 41.4093455059]}, "type": "Feature", "properties": {"collection_times": [{"days": "Mon-Fri", "time": "12:30pm"}, {"days": "Sat-Sun", "time": "Closed"}], "id": "1850300065", "name": "USPS COLLECTION BOX - BLUE BOX", "address": {"city": "SCRANTON", "state": "PA", "street": "326 SPRUCE ST", "postcode": "18503"}}},
{"geometry": {"type": "Point", "coordinates": [-75.6644803313, 41.4071144853]}, "type": "Feature", "properties": {"collection_times": [{"days": "Mon-Fri", "time": "4:30pm"}, {"days": "Sat-Sun", "time": "Closed"}], "id": "1850300069", "name": "USPS COLLECTION BOX - BLUE BOX", "address": {"city": "SCRANTON", "state": "PA", "street": "116 N WASHINGTON AVE", "postcode": "18503"}}},
{"geometry": {"type": "Point", "coordinates": [-75.6632541905, 41.4083912587]}, "type": "Feature", "properties": {"collection_times": [{"days": "Mon-Fri", "time": "5:00pm"}, {"days": "Sat-Sun", "time": "Closed"}], "id": "1850300073", "name": "USPS COLLECTION BOX - PO LOBBY", "address": {"city": "SCRANTON", "state": "PA", "street": "235 N WASHINGTON AVE", "postcode": "18503"}}},
{"geometry": {"type": "Point", "coordinates": [-75.6697102608, 41.4096611605]}, "type": "Feature", "properties": {"collection_times": [{"days": "Mon-Fri", "time": "12:45pm"}, {"days": "Sat-Sun", "time": "Closed"}], "id": "1850300077", "name": "USPS COLLECTION BOX - BLUE BOX", "address": {"city": "SCRANTON", "state": "PA", "street": "100 LACKAWANNA AVE", "postcode": "18503"}}},
{"geometry": {"type": "Point", "coordinates": [-75.6697102608, 41.4096611605]}, "type": "Feature", "properties": {"collection_times": [{"days": "Mon-Fri", "time": "12:45pm"}, {"days": "Sat-Sun", "time": "Closed"}], "id": "1850300078", "name": "USPS COLLECTION BOX - BLUE BOX", "address": {"city": "SCRANTON", "state": "PA", "street": "100 LACKAWANNA AVE", "postcode": "18503"}}},
{"geometry": {"type": "Point", "coordinates": [-75.6691640662, 41.4085446505]}, "type": "Feature", "properties": {"collection_times": [{"days": "Mon-Fri", "time": "5:00pm"}, {"days": "Sat", "time": "12:45pm"}, {"days": "Sun", "time": "Closed"}], "id": "1850300080", "name": "USPS COLLECTION BOX - PO LOBBY", "address": {"city": "SCRANTON", "state": "PA", "street": "100 THE MALL AT STEAMTOWN", "postcode": "18503"}}},
{"geometry": {"type": "Point", "coordinates": [-75.6617888117, 41.4106331457]}, "type": "Feature", "properties": {"collection_times": [{"days": "Mon-Fri", "time": "4:15pm"}, {"days": "Sat-Sun", "time": "Closed"}], "id": "1850300081", "name": "USPS COLLECTION BOX - BLUE BOX", "address": {"city": "SCRANTON", "state": "PA", "street": "426 MULBERRY ST", "postcode": "18503"}}},
{"geometry": {"type": "Point", "coordinates": [-75.679008962, 41.4134210625]}, "type": "Feature", "properties": {"collection_times": [{"days": "Mon-Sat", "time": "10:30am"}, {"days": "Sun", "time": "Closed"}], "id": "1850400001", "name": "USPS COLLECTION BOX - BLUE BOX", "address": {"city": "SCRANTON", "state": "PA", "street": "198 N MAIN AVE", "postcode": "18504"}}},
{"geometry": {"type": "Point", "coordinates": [-75.6752051384, 41.4181513141]}, "type": "Feature", "properties": {"collection_times": [{"days": "Mon-Fri", "time": "11:00am"}, {"days": "Sat-Sun", "time": "Closed"}], "id": "1850400002", "name": "USPS COLLECTION BOX - BLUE BOX", "address": {"city": "SCRANTON", "state": "PA", "street": "601 N MAIN AVE", "postcode": "18504"}}},
{"geometry": {"type": "Point", "coordinates": [-75.675120978, 41.4260532646]}, "type": "Feature", "properties": {"collection_times": [{"days": "Mon-Sat", "time": "3:00pm"}, {"days": "Sun", "time": "Closed"}], "id": "1850400004", "name": "USPS COLLECTION BOX - BLUE BOX", "address": {"city": "SCRANTON", "state": "PA", "street": "1526 FARR ST", "postcode": "18504"}}},
{"geometry": {"type": "Point", "coordinates": [-75.6978596627, 41.4212273558]}, "type": "Feature", "properties": {"collection_times": [{"days": "Mon-Fri", "time": "10:30am"}, {"days": "Sat-Sun", "time": "Closed"}], "id": "1850400015", "name": "USPS COLLECTION BOX - BLUE BOX", "address": {"city": "SCRANTON", "state": "PA", "street": "2504 JACKSON ST", "postcode": "18504"}}},
{"geometry": {"type": "Point", "coordinates": [-75.683682257, 41.4142228652]}, "type": "Feature", "properties": {"collection_times": [{"days": "Mon-Sat", "time": "11:45am"}, {"days": "Sun", "time": "Closed"}], "id": "1850400019", "name": "USPS COLLECTION BOX - BLUE BOX", "address": {"city": "SCRANTON", "state": "PA", "street": "1420 JACKSON ST", "postcode": "18504"}}},
{"geometry": {"type": "Point", "coordinates": [-75.6861084208, 41.4128174798]}, "type": "Feature", "properties": {"collection_times": [{"days": "Mon-Fri", "time": "12:00pm"}, {"days": "Sat-Sun", "time": "Closed"}], "id": "1850400024", "name": "USPS COLLECTION BOX - BLUE BOX", "address": {"city": "SCRANTON", "state": "PA", "street": "1402 WASHBURN ST", "postcode": "18504"}}},
{"geometry": {"type": "Point", "coordinates": [-75.6934067092, 41.4126582749]}, "type": "Feature", "properties": {"collection_times": [{"days": "Mon-Sat", "time": "2:00pm"}, {"days": "Sun", "time": "Closed"}], "id": "1850400027", "name": "USPS COLLECTION BOX - BLUE BOX", "address": {"city": "SCRANTON", "state": "PA", "street": "1801 LUZERNE ST", "postcode": "18504"}}},
{"geometry": {"type": "Point", "coordinates": [-75.6924530804, 41.4159243822]}, "type": "Feature", "properties": {"collection_times": [{"days": "Mon-Fri", "time": "11:30am"}, {"days": "Sat-Sun", "time": "Closed"}], "id": "1850400030", "name": "USPS COLLECTION BOX - BLUE BOX", "address": {"city": "SCRANTON", "state": "PA", "street": "2002 WASHBURN ST", "postcode": "18504"}}},
{"geometry": {"type": "Point", "coordinates": [-75.687187177, 41.4009021165]}, "type": "Feature", "properties": {"collection_times": [{"days": "Mon-Fri", "time": "10:00am"}, {"days": "Sat-Sun", "time": "Closed"}], "id": "1850400041", "name": "USPS COLLECTION BOX - BLUE BOX", "address": {"city": "SCRANTON", "state": "PA", "street": "1101 S MAIN AVE", "postcode": "18504"}}},
{"geometry": {"type": "Point", "coordinates": [-75.6808454165, 41.4118378374]}, "type": "Feature", "properties": {"collection_times": [{"days": "Mon-Fri", "time": "5:00pm"}, {"days": "Sat", "time": "2:00pm"}, {"days": "Sun", "time": "Closed"}], "id": "1850400046", "name": "USPS COLLECTION BOX - BLUE BOX", "address": {"city": "SCRANTON", "state": "PA", "street": "127 S MAIN AVE", "postcode": "18504"}}},
{"geometry": {"type": "Point", "coordinates": [-75.6808454165, 41.4118378374]}, "type": "Feature", "properties": {"collection_times": [{"days": "Mon-Fri", "time": "5:00pm"}, {"days": "Sat", "time": "2:00pm"}, {"days": "Sun", "time": "Closed"}], "id": "1850400048", "name": "USPS COLLECTION BOX - BLUE BOX", "address": {"city": "SCRANTON", "state": "PA", "street": "127 S MAIN AVE", "postcode": "18504"}}},
{"geometry": {"type": "Point", "coordinates": [-75.6759785088, 41.4165270039]}, "type": "Feature", "properties": {"collection_times": [{"days": "Mon-Sat", "time": "10:30am"}, {"days": "Sun", "time": "Closed"}], "id": "1850400050", "name": "USPS COLLECTION BOX - BLUE BOX", "address": {"city": "SCRANTON", "state": "PA", "street": "500 N MAIN AVE", "postcode": "18504"}}},
{"geometry": {"type": "Point", "coordinates": [-75.6782774405, 41.4052706308]}, "type": "Feature", "properties": {"collection_times": [{"days": "Mon-Sat", "time": "12:30pm"}, {"days": "Sun", "time": "Closed"}], "id": "1850400052", "name": "USPS COLLECTION BOX - BLUE BOX", "address": {"city": "SCRANTON", "state": "PA", "street": "611 LUZERNE ST", "postcode": "18504"}}},
{"geometry": {"type": "Point", "coordinates": [-75.6808454165, 41.4118378374]}, "type": "Feature", "properties": {"collection_times": [{"days": "Mon-Fri", "time": "4:45pm"}, {"days": "Sat", "time": "1:00pm"}, {"days": "Sun", "time": "Closed"}], "id": "1850400054", "name": "USPS COLLECTION BOX - PO LOBBY", "address": {"city": "SCRANTON", "state": "PA", "street": "127 S MAIN AVE", "postcode": "18504"}}},
{"geometry": {"type": "Point", "coordinates": [-75.6633865139, 41.3980095122]}, "type": "Feature", "properties": {"collection_times": [{"days": "Mon-Sat", "time": "12:00pm"}, {"days": "Sun", "time": "Closed"}], "id": "1850500004", "name": "USPS COLLECTION BOX - BLUE BOX", "address": {"city": "SCRANTON", "state": "PA", "street": "609 PROSPECT AVE", "postcode": "18505"}}},
{"geometry": {"type": "Point", "coordinates": [-75.6561924132, 41.3935884812]}, "type": "Feature", "properties": {"collection_times": [{"days": "Mon-Sat", "time": "3:00pm"}, {"days": "Sun", "time": "Closed"}], "id": "1850500016", "name": "USPS COLLECTION BOX - BLUE BOX", "address": {"city": "SCRANTON", "state": "PA", "street": "601 STAFFORD AVE", "postcode": "18505"}}},
{"geometry": {"type": "Point", "coordinates": [-75.6681421994, 41.4040091082]}, "type": "Feature", "properties": {"collection_times": [{"days": "Mon-Fri", "time": "9:00am"}, {"days": "Sat-Sun", "time": "Closed"}], "id": "1850500030", "name": "USPS COLLECTION BOX - BLUE BOX", "address": {"city": "SCRANTON", "state": "PA", "street": "400 S WASHINGTON AVE", "postcode": "18505"}}},
{"geometry": {"type": "Point", "coordinates": [-75.6610242882, 41.4028144568]}, "type": "Feature", "properties": {"collection_times": [{"days": "Mon-Sat", "time": "10:00am"}, {"days": "Sun", "time": "Closed"}], "id": "1850500034", "name": "USPS COLLECTION BOX - BLUE BOX", "address": {"city": "SCRANTON", "state": "PA", "street": "101 PITTSTON AVE", "postcode": "18505"}}},
{"geometry": {"type": "Point", "coordinates": [-75.6279354176, 41.3997946921]}, "type": "Feature", "properties": {"collection_times": [{"days": "Mon-Sat", "time": "1:30pm"}, {"days": "Sun", "time": "Closed"}], "id": "1850500043", "name": "USPS COLLECTION BOX - BLUE BOX", "address": {"city": "SCRANTON", "state": "PA", "street": "56 LAUREL DR", "postcode": "18505"}}},
{"geometry": {"type": "Point", "coordinates": [-75.6735928954, 41.3916318663]}, "type": "Feature", "properties": {"collection_times": [{"days": "Mon-Sat", "time": "9:00am"}, {"days": "Sun", "time": "Closed"}], "id": "1850500046", "name": "USPS COLLECTION BOX - BLUE BOX", "address": {"city": "SCRANTON", "state": "PA", "street": "1502 PITTSTON AVE", "postcode": "18505"}}},
{"geometry": {"type": "Point", "coordinates": [-75.6742516507, 41.3985736285]}, "type": "Feature", "properties": {"collection_times": [{"days": "Mon-Sat", "time": "10:45am"}, {"days": "Sun", "time": "Closed"}], "id": "1850500047", "name": "USPS COLLECTION BOX - BLUE BOX", "address": {"city": "SCRANTON", "state": "PA", "street": "1000 S WASHINGTON AVE", "postcode": "18505"}}},
{"geometry": {"type": "Point", "coordinates": [-75.6509157379, 41.395820759]}, "type": "Feature", "properties": {"collection_times": [{"days": "Mon-Sat", "time": "9:30am"}, {"days": "Sun", "time": "Closed"}], "id": "1850500048", "name": "USPS COLLECTION BOX - BLUE BOX", "address": {"city": "SCRANTON", "state": "PA", "street": "208 MEADOW AVE", "postcode": "18505"}}},
{"geometry": {"type": "Point", "coordinates": [-75.6496657281, 41.3967637232]}, "type": "Feature", "properties": {"collection_times": [{"days": "Mon-Sat", "time": "9:00am"}, {"days": "Sun", "time": "Closed"}], "id": "1850500049", "name": "USPS COLLECTION BOX - BLUE BOX", "address": {"city": "SCRANTON", "state": "PA", "street": "1101 MOOSIC ST", "postcode": "18505"}}},
{"geometry": {"type": "Point", "coordinates": [-75.6514498812, 41.3953332189]}, "type": "Feature", "properties": {"collection_times": [{"days": "Mon-Sat", "time": "9:00am"}, {"days": "Sun", "time": "Closed"}], "id": "1850500051", "name": "USPS COLLECTION BOX - BLUE BOX", "address": {"city": "SCRANTON", "state": "PA", "street": "300 MEADOW AVE", "postcode": "18505"}}},
{"geometry": {"type": "Point", "coordinates": [-75.6763215384, 41.3890242188]}, "type": "Feature", "properties": {"collection_times": [{"days": "Mon-Sat", "time": "11:30am"}, {"days": "Sun", "time": "Closed"}], "id": "1850500054", "name": "USPS COLLECTION BOX - BLUE BOX", "address": {"city": "SCRANTON", "state": "PA", "street": "1803 PITTSTON AVE", "postcode": "18505"}}},
{"geometry": {"type": "Point", "coordinates": [-75.6784049797, 41.3736895539]}, "type": "Feature", "properties": {"collection_times": [{"days": "Mon-Fri", "time": "7:00pm"}, {"days": "Sat", "time": "6:30pm"}, {"days": "Sun", "time": "Closed"}], "id": "1850500059", "name": "USPS COLLECTION BOX - BLUE BOX", "address": {"city": "SCRANTON", "state": "PA", "street": "2800 STAFFORD AVE", "postcode": "18505"}}},
{"geometry": {"type": "Point", "coordinates": [-75.6652261409, 41.392711609]}, "type": "Feature", "properties": {"collection_times": [{"days": "Mon-Fri", "time": "7:00pm"}, {"days": "Sat", "time": "6:30pm"}, {"days": "Sun", "time": "Closed"}], "id": "1850500061", "name": "USPS COLLECTION BOX - EXPRESS", "address": {"city": "SCRANTON", "state": "PA", "street": "2800 STAFFORD AVE", "postcode": "18505"}}},
{"geometry": {"type": "Point", "coordinates": [-75.6934362277, 41.3780398126]}, "type": "Feature", "properties": {"collection_times": [{"days": "Mon-Fri", "time": "1:00pm"}, {"days": "Sat", "time": "9:30am"}, {"days": "Sun", "time": "Closed"}], "id": "1850500063", "name": "USPS COLLECTION BOX - BLUE BOX", "address": {"city": "SCRANTON", "state": "PA", "street": "509 DAVIS ST", "postcode": "18505"}}},
{"geometry": {"type": "Point", "coordinates": [-75.6929488365, 41.377582087]}, "type": "Feature", "properties": {"collection_times": [{"days": "Mon-Fri", "time": "9:00am"}, {"days": "Sat-Sun", "time": "Closed"}], "id": "1850500067", "name": "USPS COLLECTION BOX - BLUE BOX", "address": {"city": "SCRANTON", "state": "PA", "street": "605 DAVIS ST", "postcode": "18505"}}},
{"geometry": {"type": "Point", "coordinates": [-75.6689239291, 41.3958506575]}, "type": "Feature", "properties": {"collection_times": [{"days": "Mon-Sat", "time": "9:15am"}, {"days": "Sun", "time": "Closed"}], "id": "1850500070", "name": "USPS COLLECTION BOX - BLUE BOX", "address": {"city": "SCRANTON", "state": "PA", "street": "1002 PITTSTON AVE", "postcode": "18505"}}},
{"geometry": {"type": "Point", "coordinates": [-75.6784049797, 41.3736895539]}, "type": "Feature", "properties": {"collection_times": [{"days": "Mon-Fri", "time": "7:00pm"}, {"days": "Sat", "time": "6:30pm"}, {"days": "Sun", "time": "Closed"}], "id": "1850500071", "name": "USPS COLLECTION BOX - APC", "address": {"city": "SCRANTON", "state": "PA", "street": "2800 STAFFORD AVE", "postcode": "18505"}}},
{"geometry": {"type": "Point", "coordinates": [-75.6784049797, 41.3736895539]}, "type": "Feature", "properties": {"collection_times": [{"days": "Mon-Fri", "time": "7:00pm"}, {"days": "Sat", "time": "6:30pm"}, {"days": "Sun", "time": "Closed"}], "id": "1850500073", "name": "USPS COLLECTION BOX - PO LOBBY", "address": {"city": "SCRANTON", "state": "PA", "street": "2800 STAFFORD AVE", "postcode": "18505"}}},
{"geometry": {"type": "Point", "coordinates": [-75.6689239291, 41.3958506575]}, "type": "Feature", "properties": {"collection_times": [{"days": "Mon-Sat", "time": "9:15am"}, {"days": "Sun", "time": "Closed"}], "id": "1850500074", "name": "USPS COLLECTION BOX - BLUE BOX", "address": {"city": "SCRANTON", "state": "PA", "street": "1002 PITTSTON AVE", "postcode": "18505"}}},
{"geometry": {"type": "Point", "coordinates": [-75.7343922981, 41.3557404642]}, "type": "Feature", "properties": {"collection_times": [{"days": "Mon-Sat", "time": "10:00am"}, {"days": "Sun", "time": "Closed"}], "id": "1850700001", "name": "USPS COLLECTION BOX - BLUE BOX", "address": {"city": "MOOSIC", "state": "PA", "street": "525 MAIN ST", "postcode": "18507"}}},
{"geometry": {"type": "Point", "coordinates": [-75.7210332654, 41.3518153643]}, "type": "Feature", "properties": {"collection_times": [{"days": "Mon-Sat", "time": "12:30pm"}, {"days": "Sun", "time": "Closed"}], "id": "1850700002", "name": "USPS COLLECTION BOX - BLUE BOX", "address": {"city": "MOOSIC", "state": "PA", "street": "1025 SPRINGBROOK AVE", "postcode": "18507"}}},
{"geometry": {"type": "Point", "coordinates": [-75.7017017114, 41.3731390391]}, "type": "Feature", "properties": {"collection_times": [{"days": "Mon-Sat", "time": "9:00am"}, {"days": "Sun", "time": "Closed"}], "id": "1850700003", "name": "USPS COLLECTION BOX - BLUE BOX", "address": {"city": "MOOSIC", "state": "PA", "street": "3500 BIRNEY AVE", "postcode": "18507"}}},
{"geometry": {"type": "Point", "coordinates": [-75.7064342586, 41.3684370757]}, "type": "Feature", "properties": {"collection_times": [{"days": "Mon-Fri", "time": "12:00pm"}, {"days": "Sat-Sun", "time": "Closed"}], "id": "1850700004", "name": "USPS COLLECTION BOX - BLUE BOX", "address": {"city": "MOOSIC", "state": "PA", "street": "3808 LAWRENCE AVE", "postcode": "18507"}}},
{"geometry": {"type": "Point", "coordinates": [-75.6760622619, 41.3600015127]}, "type": "Feature", "properties": {"collection_times": [{"days": "Mon-Sat", "time": "9:00am"}, {"days": "Sun", "time": "Closed"}], "id": "1850700006", "name": "USPS COLLECTION BOX - BLUE BOX", "address": {"city": "MOOSIC", "state": "PA", "street": "50 GLENMAURA NATL BLVD", "postcode": "18507"}}},
{"geometry": {"type": "Point", "coordinates": [-75.7127592353, 41.3692291619]}, "type": "Feature", "properties": {"collection_times": [{"days": "Mon-Fri", "time": "9:30am"}, {"days": "Sat-Sun", "time": "Closed"}], "id": "1850700007", "name": "USPS COLLECTION BOX - BLUE BOX", "address": {"city": "MOOSIC", "state": "PA", "street": "4124 BIRNEY AVE", "postcode": "18507"}}},
{"geometry": {"type": "Point", "coordinates": [-75.7308468222, 41.3554421107]}, "type": "Feature", "properties": {"collection_times": [{"days": "Mon-Sat", "time": "12:00pm"}, {"days": "Sun", "time": "Closed"}], "id": "1850700010", "name": "USPS COLLECTION BOX - BLUE BOX", "address": {"city": "MOOSIC", "state": "PA", "street": "704 MAIN ST", "postcode": "18507"}}},
{"geometry": {"type": "Point", "coordinates": [-75.6756148685, 41.359786022]}, "type": "Feature", "properties": {"collection_times": [{"days": "Mon-Sat", "time": "9:30am"}, {"days": "Sun", "time": "Closed"}], "id": "1850700014", "name": "USPS COLLECTION BOX - BLUE BOX", "address": {"city": "MOOSIC", "state": "PA", "street": "1 FLEET WAY", "postcode": "18507"}}},
{"geometry": {"type": "Point", "coordinates": [-75.7106390898, 41.370186908]}, "type": "Feature", "properties": {"collection_times": [{"days": "Mon-Fri", "time": "9:30am"}, {"days": "Sat-Sun", "time": "Closed"}], "id": "1850700015", "name": "USPS COLLECTION BOX - BLUE BOX", "address": {"city": "MOOSIC", "state": "PA", "street": "4010 BIRNEY AVE", "postcode": "18507"}}},
{"geometry": {"type": "Point", "coordinates": [-75.6760622619, 41.3600015127]}, "type": "Feature", "properties": {"collection_times": [{"days": "Mon-Sat", "time": "9:00am"}, {"days": "Sun", "time": "Closed"}], "id": "1850700016", "name": "USPS COLLECTION BOX - BLUE BOX", "address": {"city": "MOOSIC", "state": "PA", "street": "50 GLENMAURA NATIONAL BLVD", "postcode": "18507"}}},
{"geometry": {"type": "Point", "coordinates": [-75.6653581339, 41.4220132523]}, "type": "Feature", "properties": {"collection_times": [{"days": "Mon-Sat", "time": "11:15am"}, {"days": "Sun", "time": "Closed"}], "id": "1850800001", "name": "USPS COLLECTION BOX - BLUE BOX", "address": {"city": "SCRANTON", "state": "PA", "street": "908 PROVIDENCE RD", "postcode": "18508"}}},
{"geometry": {"type": "Point", "coordinates": [-75.6569104468, 41.437869354]}, "type": "Feature", "properties": {"collection_times": [{"days": "Mon-Fri", "time": "11:00am"}, {"days": "Sat-Sun", "time": "Closed"}], "id": "1850800004", "name": "USPS COLLECTION BOX - BLUE BOX", "address": {"city": "SCRANTON", "state": "PA", "street": "1902 N MAIN AVE", "postcode": "18508"}}},
{"geometry": {"type": "Point", "coordinates": [-75.6586173576, 41.4370361794]}, "type": "Feature", "properties": {"collection_times": [{"days": "Mon-Fri", "time": "11:00am"}, {"days": "Sat-Sun", "time": "Closed"}], "id": "1850800007", "name": "USPS COLLECTION BOX - BLUE BOX", "address": {"city": "SCRANTON", "state": "PA", "street": "1812 N MAIN AVE", "postcode": "18508"}}},
{"geometry": {"type": "Point", "coordinates": [-75.6446189991, 41.4462828254]}, "type": "Feature", "properties": {"collection_times": [{"days": "Mon-Sat", "time": "9:00am"}, {"days": "Sun", "time": "Closed"}], "id": "1850800008", "name": "USPS COLLECTION BOX - BLUE BOX", "address": {"city": "SCRANTON", "state": "PA", "street": "3021 N MAIN AVE", "postcode": "18508"}}},
{"geometry": {"type": "Point", "coordinates": [-75.6744654391, 41.4489028969]}, "type": "Feature", "properties": {"collection_times": [{"days": "Mon-Sat", "time": "9:00am"}, {"days": "Sun", "time": "Closed"}], "id": "1850800011", "name": "USPS COLLECTION BOX - BLUE BOX", "address": {"city": "SCRANTON", "state": "PA", "street": "100 SMALLACOMBE DR", "postcode": "18508"}}},
{"geometry": {"type": "Point", "coordinates": [-75.6785308418, 41.4543356795]}, "type": "Feature", "properties": {"collection_times": [{"days": "Mon-Sat", "time": "9:00am"}, {"days": "Sun", "time": "Closed"}], "id": "1850800013", "name": "USPS COLLECTION BOX - BLUE BOX", "address": {"city": "SCRANTON", "state": "PA", "street": "475 MORGAN HWY", "postcode": "18508"}}},
{"geometry": {"type": "Point", "coordinates": [-75.6614788427, 41.4405012316]}, "type": "Feature", "properties": {"collection_times": [{"days": "Mon-Fri", "time": "2:00pm"}, {"days": "Sat-Sun", "time": "Closed"}], "id": "1850800015", "name": "USPS COLLECTION BOX - BLUE BOX", "address": {"city": "SCRANTON", "state": "PA", "street": "1803 BRICK AVE", "postcode": "18508"}}},
{"geometry": {"type": "Point", "coordinates": [-75.6677570852, 41.445203609]}, "type": "Feature", "properties": {"collection_times": [{"days": "Mon-Sat", "time": "11:00am"}, {"days": "Sun", "time": "Closed"}], "id": "1850800017", "name": "USPS COLLECTION BOX - BLUE BOX", "address": {"city": "SCRANTON", "state": "PA", "street": "1760 N KEYSER AVE", "postcode": "18508"}}},
{"geometry": {"type": "Point", "coordinates": [-75.6606291248, 41.4408239006]}, "type": "Feature", "properties": {"collection_times": [{"days": "Mon-Sat", "time": "1:00pm"}, {"days": "Sun", "time": "Closed"}], "id": "1850800019", "name": "USPS COLLECTION BOX - BLUE BOX", "address": {"city": "SCRANTON", "state": "PA", "street": "245 SCRANTON CARBONDALE HWY", "postcode": "18508"}}},
{"geometry": {"type": "Point", "coordinates": [-75.6588470238, 41.4600768541]}, "type": "Feature", "properties": {"collection_times": [{"days": "Mon-Sat", "time": "9:00am"}, {"days": "Sun", "time": "Closed"}], "id": "1850800024", "name": "USPS COLLECTION BOX - BLUE BOX", "address": {"city": "SCRANTON", "state": "PA", "street": "108 SUMMIT POINTE", "postcode": "18508"}}},
{"geometry": {"type": "Point", "coordinates": [-75.6569926442, 41.4607558559]}, "type": "Feature", "properties": {"collection_times": [{"days": "Mon-Sat", "time": "12:45pm"}, {"days": "Sun", "time": "Closed"}], "id": "1850800029", "name": "USPS COLLECTION BOX - BLUE BOX", "address": {"city": "SCRANTON", "state": "PA", "street": "74 VIEWMONT MALL", "postcode": "18508"}}},
{"geometry": {"type": "Point", "coordinates": [-75.647941092, 41.433043907]}, "type": "Feature", "properties": {"collection_times": [{"days": "Mon-Sat", "time": "11:45am"}, {"days": "Sun", "time": "Closed"}], "id": "1850900001", "name": "USPS COLLECTION BOX - BLUE BOX", "address": {"city": "SCRANTON", "state": "PA", "street": "700 E MARKET ST", "postcode": "18509"}}},
{"geometry": {"type": "Point", "coordinates": [-75.6529963288, 41.4274879518]}, "type": "Feature", "properties": {"collection_times": [{"days": "Mon-Sat", "time": "1:00pm"}, {"days": "Sun", "time": "Closed"}], "id": "1850900007", "name": "USPS COLLECTION BOX - BLUE BOX", "address": {"city": "SCRANTON", "state": "PA", "street": "1501 SANDERSON AVE", "postcode": "18509"}}},
{"geometry": {"type": "Point", "coordinates": [-75.649340201, 41.4231248259]}, "type": "Feature", "properties": {"collection_times": [{"days": "Mon-Sat", "time": "12:00pm"}, {"days": "Sun", "time": "Closed"}], "id": "1850900013", "name": "USPS COLLECTION BOX - BLUE BOX", "address": {"city": "SCRANTON", "state": "PA", "street": "1371 WYOMING AVE", "postcode": "18509"}}},
{"geometry": {"type": "Point", "coordinates": [-75.6527592153, 41.417834186]}, "type": "Feature", "properties": {"collection_times": [{"days": "Mon-Sat", "time": "11:00am"}, {"days": "Sun", "time": "Closed"}], "id": "1850900014", "name": "USPS COLLECTION BOX - BLUE BOX", "address": {"city": "SCRANTON", "state": "PA", "street": "1035 N WASHINGTON AVE", "postcode": "18509"}}},
{"geometry": {"type": "Point", "coordinates": [-75.6595147292, 41.4331591443]}, "type": "Feature", "properties": {"collection_times": [{"days": "Mon-Sat", "time": "11:45am"}, {"days": "Sun", "time": "Closed"}], "id": "1850900020", "name": "USPS COLLECTION BOX - BLUE BOX", "address": {"city": "SCRANTON", "state": "PA", "street": "1610 NAY AUG AVE", "postcode": "18509"}}},
{"geometry": {"type": "Point", "coordinates": [-75.6465703697, 41.4380418405]}, "type": "Feature", "properties": {"collection_times": [{"days": "Mon-Sat", "time": "10:30am"}, {"days": "Sun", "time": "Closed"}], "id": "1850900025", "name": "USPS COLLECTION BOX - BLUE BOX", "address": {"city": "SCRANTON", "state": "PA", "street": "428 DEPOT ST", "postcode": "18509"}}},
{"geometry": {"type": "Point", "coordinates": [-75.6434897881, 41.42730854]}, "type": "Feature", "properties": {"collection_times": [{"days": "Mon-Fri", "time": "12:30pm"}, {"days": "Sat-Sun", "time": "Closed"}], "id": "1850900035", "name": "USPS COLLECTION BOX - BLUE BOX", "address": {"city": "SCRANTON", "state": "PA", "street": "1217 DELAWARE ST", "postcode": "18509"}}},
{"geometry": {"type": "Point", "coordinates": [-75.642113914, 41.420611009]}, "type": "Feature", "properties": {"collection_times": [{"days": "Mon-Fri", "time": "9:45am"}, {"days": "Sat-Sun", "time": "Closed"}], "id": "1850900037", "name": "USPS COLLECTION BOX - BLUE BOX", "address": {"city": "SCRANTON", "state": "PA", "street": "1414 MONROE AVE", "postcode": "18509"}}},
{"geometry": {"type": "Point", "coordinates": [-75.6370697398, 41.4329045533]}, "type": "Feature", "properties": {"collection_times": [{"days": "Mon-Sat", "time": "9:00am"}, {"days": "Sun", "time": "Closed"}], "id": "1850900047", "name": "USPS COLLECTION BOX - BLUE BOX", "address": {"city": "SCRANTON", "state": "PA", "street": "2300 ADAMS AVE", "postcode": "18509"}}},
{"geometry": {"type": "Point", "coordinates": [-75.6480263304, 41.4199315444]}, "type": "Feature", "properties": {"collection_times": [{"days": "Mon-Sat", "time": "10:15am"}, {"days": "Sun", "time": "Closed"}], "id": "1850900048", "name": "USPS COLLECTION BOX - BLUE BOX", "address": {"city": "SCRANTON", "state": "PA", "street": "600 LARCH ST", "postcode": "18509"}}},
{"geometry": {"type": "Point", "coordinates": [-75.6370697398, 41.4329045533]}, "type": "Feature", "properties": {"collection_times": [{"days": "Mon-Sat", "time": "9:00am"}, {"days": "Sun", "time": "Closed"}], "id": "1850900049", "name": "USPS COLLECTION BOX - BLUE BOX", "address": {"city": "SCRANTON", "state": "PA", "street": "2300 ADAMS AVE", "postcode": "18509"}}},
{"geometry": {"type": "Point", "coordinates": [-75.6579465141, 41.4092660389]}, "type": "Feature", "properties": {"collection_times": [{"days": "Mon-Fri", "time": "2:00pm"}, {"days": "Sat-Sun", "time": "Closed"}], "id": "1851000003", "name": "USPS COLLECTION BOX - BLUE BOX", "address": {"city": "SCRANTON", "state": "PA", "street": "444 JEFFERSON AVE", "postcode": "18510"}}},
{"geometry": {"type": "Point", "coordinates": [-75.655892297, 41.4111119787]}, "type": "Feature", "properties": {"collection_times": [{"days": "Mon-Fri", "time": "2:00pm"}, {"days": "Sat-Sun", "time": "Closed"}], "id": "1851000004", "name": "USPS COLLECTION BOX - BLUE BOX", "address": {"city": "SCRANTON", "state": "PA", "street": "600 JEFFERSON AVE", "postcode": "18510"}}},
{"geometry": {"type": "Point", "coordinates": [-75.6420357161, 41.4110440527]}, "type": "Feature", "properties": {"collection_times": [{"days": "Mon-Sat", "time": "10:45am"}, {"days": "Sun", "time": "Closed"}], "id": "1851000016", "name": "USPS COLLECTION BOX - BLUE BOX", "address": {"city": "SCRANTON", "state": "PA", "street": "1428 ASH ST", "postcode": "18510"}}},
{"geometry": {"type": "Point", "coordinates": [-75.6496111598, 41.4032020994]}, "type": "Feature", "properties": {"collection_times": [{"days": "Mon-Fri", "time": "9:30am"}, {"days": "Sat-Sun", "time": "Closed"}], "id": "1851000017", "name": "USPS COLLECTION BOX - BLUE BOX", "address": {"city": "SCRANTON", "state": "PA", "street": "402 PRESCOTT AVE", "postcode": "18510"}}},
{"geometry": {"type": "Point", "coordinates": [-75.6422790328, 41.4065582094]}, "type": "Feature", "properties": {"collection_times": [{"days": "Mon-Sat", "time": "1:15pm"}, {"days": "Sun", "time": "Closed"}], "id": "1851000021", "name": "USPS COLLECTION BOX - BLUE BOX", "address": {"city": "SCRANTON", "state": "PA", "street": "801 WHEELER AVE", "postcode": "18510"}}},
{"geometry": {"type": "Point", "coordinates": [-75.6438176785, 41.4034900729]}, "type": "Feature", "properties": {"collection_times": [{"days": "Mon-Sat", "time": "2:30pm"}, {"days": "Sun", "time": "Closed"}], "id": "1851000023", "name": "USPS COLLECTION BOX - BLUE BOX", "address": {"city": "SCRANTON", "state": "PA", "street": "601 COLFAX AVE", "postcode": "18510"}}},
{"geometry": {"type": "Point", "coordinates": [-75.6464505706, 41.4010085955]}, "type": "Feature", "properties": {"collection_times": [{"days": "Mon-Fri", "time": "9:15am"}, {"days": "Sat-Sun", "time": "Closed"}], "id": "1851000024", "name": "USPS COLLECTION BOX - BLUE BOX", "address": {"city": "SCRANTON", "state": "PA", "street": "1800 MULBERRY ST", "postcode": "18510"}}},
{"geometry": {"type": "Point", "coordinates": [-75.6541469442, 41.4128410944]}, "type": "Feature", "properties": {"collection_times": [{"days": "Mon-Fri", "time": "3:00pm"}, {"days": "Sat", "time": "10:00am"}, {"days": "Sun", "time": "Closed"}], "id": "1851000033", "name": "USPS COLLECTION BOX - BLUE BOX", "address": {"city": "SCRANTON", "state": "PA", "street": "743 JEFFERSON AVE", "postcode": "18510"}}},
{"geometry": {"type": "Point", "coordinates": [-75.6541469442, 41.4128410944]}, "type": "Feature", "properties": {"collection_times": [{"days": "Mon-Fri", "time": "3:00pm"}, {"days": "Sat", "time": "10:00am"}, {"days": "Sun", "time": "Closed"}], "id": "1851000034", "name": "USPS COLLECTION BOX - BLUE BOX", "address": {"city": "SCRANTON", "state": "PA", "street": "743 JEFFERSON AVE", "postcode": "18510"}}},
{"geometry": {"type": "Point", "coordinates": [-75.6607785958, 41.4101537921]}, "type": "Feature", "properties": {"collection_times": [{"days": "Mon-Sat", "time": "2:00pm"}, {"days": "Sun", "time": "Closed"}], "id": "1851000036", "name": "USPS COLLECTION BOX - BLUE BOX", "address": {"city": "SCRANTON", "state": "PA", "street": "HITCHCOCK CT", "postcode": "18510"}}},
{"geometry": {"type": "Point", "coordinates": [-75.6570530447, 41.4138679048]}, "type": "Feature", "properties": {"collection_times": [{"days": "Mon-Fri", "time": "12:45pm"}, {"days": "Sat-Sun", "time": "Closed"}], "id": "1851000040", "name": "USPS COLLECTION BOX - BLUE BOX", "address": {"city": "SCRANTON", "state": "PA", "street": "501 PINE ST", "postcode": "18510"}}},
{"geometry": {"type": "Point", "coordinates": [-75.6597116008, 41.4095188806]}, "type": "Feature", "properties": {"collection_times": [{"days": "Mon-Fri", "time": "10:00am"}, {"days": "Sat-Sun", "time": "Closed"}], "id": "1851000041", "name": "USPS COLLECTION BOX - BLUE BOX", "address": {"city": "SCRANTON", "state": "PA", "street": "401 ADAMS AVE", "postcode": "18510"}}},
{"geometry": {"type": "Point", "coordinates": [-75.6541469442, 41.4128410944]}, "type": "Feature", "properties": {"collection_times": [{"days": "Mon-Fri", "time": "3:00pm"}, {"days": "Sat", "time": "10:00am"}, {"days": "Sun", "time": "Closed"}], "id": "1851000043", "name": "USPS COLLECTION BOX - BLUE BOX", "address": {"city": "SCRANTON", "state": "PA", "street": "743 JEFFERSON AVE", "postcode": "18510"}}},
{"geometry": {"type": "Point", "coordinates": [-75.6521405354, 41.4077029442]}, "type": "Feature", "properties": {"collection_times": [{"days": "Mon-Sat", "time": "3:15pm"}, {"days": "Sun", "time": "Closed"}], "id": "1851000044", "name": "USPS COLLECTION BOX - BLUE BOX", "address": {"city": "SCRANTON", "state": "PA", "street": "550 CLAY AVE", "postcode": "18510"}}},
{"geometry": {"type": "Point", "coordinates": [-75.6302342106, 41.4219916474]}, "type": "Feature", "properties": {"collection_times": [{"days": "Mon-Fri", "time": "4:45pm"}, {"days": "Sat", "time": "3:00pm"}, {"days": "Sun", "time": "Closed"}], "id": "1851200001", "name": "USPS COLLECTION BOX - BLUE BOX", "address": {"city": "DUNMORE", "state": "PA", "street": "114 N BLAKELY ST", "postcode": "18512"}}},
{"geometry": {"type": "Point", "coordinates": [-75.6192443091, 41.440679164]}, "type": "Feature", "properties": {"collection_times": [{"days": "Mon-Sat", "time": "10:15am"}, {"days": "Sun", "time": "Closed"}], "id": "1851200020", "name": "USPS COLLECTION BOX - BLUE BOX", "address": {"city": "DUNMORE", "state": "PA", "street": "120 RIDGEVIEW DR", "postcode": "18512"}}},
{"geometry": {"type": "Point", "coordinates": [-75.6346042847, 41.41794952]}, "type": "Feature", "properties": {"collection_times": [{"days": "Mon-Sat", "time": "10:45am"}, {"days": "Sun", "time": "Closed"}], "id": "1851200021", "name": "USPS COLLECTION BOX - BLUE BOX", "address": {"city": "DUNMORE", "state": "PA", "street": "401 S BLAKELY ST", "postcode": "18512"}}},
{"geometry": {"type": "Point", "coordinates": [-75.6187627226, 41.4454940888]}, "type": "Feature", "properties": {"collection_times": [{"days": "Mon-Fri", "time": "3:30pm"}, {"days": "Sat", "time": "12:00pm"}, {"days": "Sun", "time": "Closed"}], "id": "1851200023", "name": "USPS COLLECTION BOX - BLUE BOX", "address": {"city": "DUNMORE", "state": "PA", "street": "319 GEORGE ST", "postcode": "18512"}}},
{"geometry": {"type": "Point", "coordinates": [-75.6304416567, 41.42179312]}, "type": "Feature", "properties": {"collection_times": [{"days": "Mon-Sat", "time": "10:30am"}, {"days": "Sun", "time": "Closed"}], "id": "1851200031", "name": "USPS COLLECTION BOX - BLUE BOX", "address": {"city": "DUNMORE", "state": "PA", "street": "108 E DRINKER ST", "postcode": "18512"}}},
{"geometry": {"type": "Point", "coordinates": [-75.6174861214, 41.4364076673]}, "type": "Feature", "properties": {"collection_times": [{"days": "Mon-Sat", "time": "9:30am"}, {"days": "Sun", "time": "Closed"}], "id": "1851200032", "name": "USPS COLLECTION BOX - BLUE BOX", "address": {"city": "DUNMORE", "state": "PA", "street": "85 KEYSTONE INDUSTRIAL PARK", "postcode": "18512"}}},
{"geometry": {"type": "Point", "coordinates": [-75.6302342106, 41.4219916474]}, "type": "Feature", "properties": {"collection_times": [{"days": "Mon-Fri", "time": "4:45pm"}, {"days": "Sat", "time": "3:00pm"}, {"days": "Sun", "time": "Closed"}], "id": "1851200033", "name": "USPS COLLECTION BOX - BLUE BOX", "address": {"city": "DUNMORE", "state": "PA", "street": "114 N BLAKELY ST", "postcode": "18512"}}},
{"geometry": {"type": "Point", "coordinates": [-75.6179488793, 41.4386305727]}, "type": "Feature", "properties": {"collection_times": [{"days": "Mon-Sat", "time": "9:30am"}, {"days": "Sun", "time": "Closed"}], "id": "1851200039", "name": "USPS COLLECTION BOX - BLUE BOX", "address": {"city": "DUNMORE", "state": "PA", "street": "1228 ONEILL HWY", "postcode": "18512"}}},
{"geometry": {"type": "Point", "coordinates": [-75.6304951902, 41.4218914972]}, "type": "Feature", "properties": {"collection_times": [{"days": "Mon-Sat", "time": "9:30am"}, {"days": "Sun", "time": "Closed"}], "id": "1851200041", "name": "USPS COLLECTION BOX - BLUE BOX", "address": {"city": "DUNMORE", "state": "PA", "street": "101 N BLAKELY ST", "postcode": "18512"}}},
{"geometry": {"type": "Point", "coordinates": [-75.6140877278, 41.4187210781]}, "type": "Feature", "properties": {"collection_times": [{"days": "Mon-Sat", "time": "12:45pm"}, {"days": "Sun", "time": "Closed"}], "id": "1851200043", "name": "USPS COLLECTION BOX - BLUE BOX", "address": {"city": "DUNMORE", "state": "PA", "street": "771 E DRINKER ST", "postcode": "18512"}}},
{"geometry": {"type": "Point", "coordinates": [-75.6302342106, 41.4219916474]}, "type": "Feature", "properties": {"collection_times": [{"days": "Mon-Fri", "time": "4:45pm"}, {"days": "Sat", "time": "3:00pm"}, {"days": "Sun", "time": "Closed"}], "id": "1851200045", "name": "USPS COLLECTION BOX - BLUE BOX", "address": {"city": "DUNMORE", "state": "PA", "street": "114 N BLAKELY ST", "postcode": "18512"}}},
{"geometry": {"type": "Point", "coordinates": [-75.6219759561, 41.4260725612]}, "type": "Feature", "properties": {"collection_times": [{"days": "Mon-Fri", "time": "5:00pm"}, {"days": "Sat", "time": "4:00pm"}, {"days": "Sun", "time": "Closed"}], "id": "1851200046", "name": "USPS COLLECTION BOX - PO LOBBY", "address": {"city": "DUNMORE", "state": "PA", "street": "114 N BLAKELY ST", "postcode": "18512"}}},
{"geometry": {"type": "Point", "coordinates": [-75.7148870012, 41.3840346493]}, "type": "Feature", "properties": {"collection_times": [{"days": "Mon-Fri", "time": "11:00am"}, {"days": "Sat-Sun", "time": "Closed"}], "id": "1851700003", "name": "USPS COLLECTION BOX - BLUE BOX", "address": {"city": "TAYLOR", "state": "PA", "street": "400 W GROVE ST", "postcode": "18517"}}},
{"geometry": {"type": "Point", "coordinates": [-75.7222301097, 41.3772340962]}, "type": "Feature", "properties": {"collection_times": [{"days": "Mon-Fri", "time": "4:30pm"}, {"days": "Sat", "time": "3:30pm"}, {"days": "Sun", "time": "Closed"}], "id": "1851700009", "name": "USPS COLLECTION BOX - BLUE BOX", "address": {"city": "TAYLOR", "state": "PA", "street": "910 S MAIN ST", "postcode": "18517"}}},
{"geometry": {"type": "Point", "coordinates": [-75.7222301097, 41.3772340962]}, "type": "Feature", "properties": {"collection_times": [{"days": "Mon-Fri", "time": "4:30pm"}, {"days": "Sat", "time": "3:30pm"}, {"days": "Sun", "time": "Closed"}], "id": "1851700010", "name": "USPS COLLECTION BOX - BLUE BOX", "address": {"city": "TAYLOR", "state": "PA", "street": "910 S MAIN ST", "postcode": "18517"}}},
{"geometry": {"type": "Point", "coordinates": [-75.7222301097, 41.3772340962]}, "type": "Feature", "properties": {"collection_times": [{"days": "Mon-Fri", "time": "4:30pm"}, {"days": "Sat", "time": "3:30pm"}, {"days": "Sun", "time": "Closed"}], "id": "1851700012", "name": "USPS COLLECTION BOX - PO LOBBY", "address": {"city": "TAYLOR", "state": "PA", "street": "910 S MAIN ST", "postcode": "18517"}}},
{"geometry": {"type": "Point", "coordinates": [-75.737577888, 41.3684325203]}, "type": "Feature", "properties": {"collection_times": [{"days": "Mon-Fri", "time": "9:15am"}, {"days": "Sat-Sun", "time": "Closed"}], "id": "1851800002", "name": "USPS COLLECTION BOX - BLUE BOX", "address": {"city": "OLD FORGE", "state": "PA", "street": "445 S MAIN ST", "postcode": "18518"}}},
{"geometry": {"type": "Point", "coordinates": [-75.7352198965, 41.3706993031]}, "type": "Feature", "properties": {"collection_times": [{"days": "Mon-Sat", "time": "9:00am"}, {"days": "Sun", "time": "Closed"}], "id": "1851800003", "name": "USPS COLLECTION BOX - BLUE BOX", "address": {"city": "OLD FORGE", "state": "PA", "street": "216 S MAIN ST", "postcode": "18518"}}},
{"geometry": {"type": "Point", "coordinates": [-75.7348435324, 41.3712242669]}, "type": "Feature", "properties": {"collection_times": [{"days": "Mon-Sat", "time": "9:30am"}, {"days": "Sun", "time": "Closed"}], "id": "1851800004", "name": "USPS COLLECTION BOX - BLUE BOX", "address": {"city": "OLD FORGE", "state": "PA", "street": "101 S MAIN ST", "postcode": "18518"}}},
{"geometry": {"type": "Point", "coordinates": [-75.7345557225, 41.3706083886]}, "type": "Feature", "properties": {"collection_times": [{"days": "Mon-Sat", "time": "10:30am"}, {"days": "Sun", "time": "Closed"}], "id": "1851800010", "name": "USPS COLLECTION BOX - BLUE BOX", "address": {"city": "OLD FORGE", "state": "PA", "street": "133 MOOSIC RD", "postcode": "18518"}}},
{"geometry": {"type": "Point", "coordinates": [-75.7413671935, 41.3642826795]}, "type": "Feature", "properties": {"collection_times": [{"days": "Mon-Sat", "time": "9:00am"}, {"days": "Sun", "time": "Closed"}], "id": "1851800014", "name": "USPS COLLECTION BOX - BLUE BOX", "address": {"city": "OLD FORGE", "state": "PA", "street": "730 S MAIN ST", "postcode": "18518"}}},
{"geometry": {"type": "Point", "coordinates": [-75.748089836, 41.3556667759]}, "type": "Feature", "properties": {"collection_times": [{"days": "Mon-Sat", "time": "11:00am"}, {"days": "Sun", "time": "Closed"}], "id": "1851800017", "name": "USPS COLLECTION BOX - BLUE BOX", "address": {"city": "OLD FORGE", "state": "PA", "street": "401 BRIDGE ST", "postcode": "18518"}}},
{"geometry": {"type": "Point", "coordinates": [-75.6249741721, 41.4531233068]}, "type": "Feature", "properties": {"collection_times": [{"days": "Mon-Sat", "time": "11:45am"}, {"days": "Sun", "time": "Closed"}], "id": "1851900001", "name": "USPS COLLECTION BOX - BLUE BOX", "address": {"city": "SCRANTON", "state": "PA", "street": "548 BOULEVARD AVE", "postcode": "18519"}}},
{"geometry": {"type": "Point", "coordinates": [-75.6344970013, 41.4527308691]}, "type": "Feature", "properties": {"collection_times": [{"days": "Mon-Sat", "time": "10:30am"}, {"days": "Sun", "time": "Closed"}], "id": "1851900004", "name": "USPS COLLECTION BOX - BLUE BOX", "address": {"city": "SCRANTON", "state": "PA", "street": "330 MAIN ST", "postcode": "18519"}}},
{"geometry": {"type": "Point", "coordinates": [-75.6359803475, 41.4521182475]}, "type": "Feature", "properties": {"collection_times": [{"days": "Mon-Sat", "time": "10:15am"}, {"days": "Sun", "time": "Closed"}], "id": "1851900009", "name": "USPS COLLECTION BOX - BLUE BOX", "address": {"city": "SCRANTON", "state": "PA", "street": "235 MAIN ST", "postcode": "18519"}}}
]}
