{"type": "FeatureCollection", "features": [
{"geometry": {"type": "Point", "coordinates": [-76.175619291, 41.0674874066]}, "type": "Feature", "properties": {"collection_times": [{"days": "Mon-Fri", "time": "4:15pm"}, {"days": "Sat", "time": "10:15am"}, {"days": "Sun", "time": "Closed"}], "id": "1860100001", "name": "USPS COLLECTION BOX - BLUE BOX", "address": {"city": "BEACH HAVEN", "state": "PA", "street": "207 MAIN ST", "postcode": "18601"}}},
{"geometry": {"type": "Point", "coordinates": [-76.175619291, 41.0674874066]}, "type": "Feature", "properties": {"collection_times": [{"days": "Mon-Fri", "time": "4:15pm"}, {"days": "Sat", "time": "10:15am"}, {"days": "Sun", "time": "Closed"}], "id": "1860100002", "name": "USPS COLLECTION BOX - PO LOBBY", "address": {"city": "BEACH HAVEN", "state": "PA", "street": "207 MAIN ST", "postcode": "18601"}}},
{"geometry": {"type": "Point", "coordinates": [-75.7565402814, 41.1787547645]}, "type": "Feature", "properties": {"collection_times": [{"days": "Mon-Fri", "time": "4:00pm"}, {"days": "Sat", "time": "2:30pm"}, {"days": "Sun", "time": "Closed"}], "id": "1860200000", "name": "USPS COLLECTION BOX - BLUE BOX", "address": {"city": "WILKES BARRE", "state": "PA", "street": "90 WHITE HAVEN RD", "postcode": "18602"}}},
{"geometry": {"type": "Point", "coordinates": [-76.2331798929, 41.0573017748]}, "type": "Feature", "properties": {"collection_times": [{"days": "Mon-Fri", "time": "5:00pm"}, {"days": "Sat", "time": "4:00pm"}, {"days": "Sun", "time": "Closed"}], "id": "1860300001", "name": "USPS COLLECTION BOX - BLUE BOX", "address": {"city": "BERWICK", "state": "PA", "street": "200 WYANDOTTE AVE", "postcode": "18603"}}},
{"geometry": {"type": "Point", "coordinates": [-76.2257890686, 41.0601334553]}, "type": "Feature", "properties": {"collection_times": [{"days": "Mon-Sat", "time": "3:00pm"}, {"days": "Sun", "time": "Closed"}], "id": "1860300007", "name": "USPS COLLECTION BOX - BLUE BOX", "address": {"city": "BERWICK", "state": "PA", "street": "400 FOWLER AVE", "postcode": "18603"}}},
{"geometry": {"type": "Point", "coordinates": [-76.2382063645, 41.0657693165]}, "type": "Feature", "properties": {"collection_times": [{"days": "Mon-Sat", "time": "3:00pm"}, {"days": "Sun", "time": "Closed"}], "id": "1860300014", "name": "USPS COLLECTION BOX - BLUE BOX", "address": {"city": "BERWICK", "state": "PA", "street": "1205 CHESTNUT ST", "postcode": "18603"}}},
{"geometry": {"type": "Point", "coordinates": [-76.2357040405, 41.0538394961]}, "type": "Feature", "properties": {"collection_times": [{"days": "Mon-Fri", "time": "3:30pm"}, {"days": "Sat", "time": "12:00pm"}, {"days": "Sun", "time": "Closed"}], "id": "1860300023", "name": "USPS COLLECTION BOX - BLUE BOX", "address": {"city": "BERWICK", "state": "PA", "street": "317 W FRONT ST", "postcode": "18603"}}},
{"geometry": {"type": "Point", "coordinates": [-76.2651383849, 41.0475281869]}, "type": "Feature", "properties": {"collection_times": [{"days": "Mon-Fri", "time": "3:45pm"}, {"days": "Sat", "time": "9:45am"}, {"days": "Sun", "time": "Closed"}], "id": "1860300024", "name": "USPS COLLECTION BOX - BLUE BOX", "address": {"city": "BERWICK", "state": "PA", "street": "123 W FRONT ST", "postcode": "18603"}}},
{"geometry": {"type": "Point", "coordinates": [-76.2651570353, 41.0480416949]}, "type": "Feature", "properties": {"collection_times": [{"days": "Mon-Fri", "time": "3:45pm"}, {"days": "Sat", "time": "9:45am"}, {"days": "Sun", "time": "Closed"}], "id": "1860300025", "name": "USPS COLLECTION BOX - BLUE BOX", "address": {"city": "BERWICK", "state": "PA", "street": "101 W FRONT ST", "postcode": "18603"}}},
{"geometry": {"type": "Point", "coordinates": [-76.2532058028, 41.0596960225]}, "type": "Feature", "properties": {"collection_times": [{"days": "Mon-Sat", "time": "12:00pm"}, {"days": "Sun", "time": "Closed"}], "id": "1860300031", "name": "USPS COLLECTION BOX - BLUE BOX", "address": {"city": "BERWICK", "state": "PA", "street": "1147 FREAS AVE", "postcode": "18603"}}},
{"geometry": {"type": "Point", "coordinates": [-76.2407575142, 41.0514675406]}, "type": "Feature", "properties": {"collection_times": [{"days": "Mon-Sat", "time": "2:00pm"}, {"days": "Sun", "time": "Closed"}], "id": "1860300039", "name": "USPS COLLECTION BOX - BLUE BOX", "address": {"city": "BERWICK", "state": "PA", "street": "543 W FRONT ST", "postcode": "18603"}}},
{"geometry": {"type": "Point", "coordinates": [-76.2310329939, 41.0701539837]}, "type": "Feature", "properties": {"collection_times": [{"days": "Mon-Sat", "time": "3:00pm"}, {"days": "Sun", "time": "Closed"}], "id": "1860300045", "name": "USPS COLLECTION BOX - BLUE BOX", "address": {"city": "BERWICK", "state": "PA", "street": "701 E 16TH ST", "postcode": "18603"}}},
{"geometry": {"type": "Point", "coordinates": [-76.2331798929, 41.0573017748]}, "type": "Feature", "properties": {"collection_times": [{"days": "Mon-Fri", "time": "5:00pm"}, {"days": "Sat", "time": "4:00pm"}, {"days": "Sun", "time": "Closed"}], "id": "1860300046", "name": "USPS COLLECTION BOX - BLUE BOX", "address": {"city": "BERWICK", "state": "PA", "street": "200 WYANDOTTE AVE", "postcode": "18603"}}},
{"geometry": {"type": "Point", "coordinates": [-76.2473960476, 41.064850575]}, "type": "Feature", "properties": {"collection_times": [{"days": "Mon-Fri", "time": "5:00pm"}, {"days": "Sat", "time": "4:00pm"}, {"days": "Sun", "time": "Closed"}], "id": "1860300049", "name": "USPS COLLECTION BOX - BLUE BOX", "address": {"city": "BERWICK", "state": "PA", "street": "200 WYANDOTTE AVE", "postcode": "18603"}}},
{"geometry": {"type": "Point", "coordinates": [-76.2337706067, 41.0580170879]}, "type": "Feature", "properties": {"collection_times": [{"days": "Mon-Fri", "time": "4:45pm"}, {"days": "Sat", "time": "4:00pm"}, {"days": "Sun", "time": "Closed"}], "id": "1860300050", "name": "USPS COLLECTION BOX - PO LOBBY", "address": {"city": "BERWICK", "state": "PA", "street": "330 PINE ST", "postcode": "18603"}}},
{"geometry": {"type": "Point", "coordinates": [-76.2746876954, 41.047267474]}, "type": "Feature", "properties": {"collection_times": [{"days": "Mon-Sat", "time": "9:45am"}, {"days": "Sun", "time": "Closed"}], "id": "1860300052", "name": "USPS COLLECTION BOX - BLUE BOX", "address": {"city": "BERWICK", "state": "PA", "street": "45 BRIAR CREEK PLZ", "postcode": "18603"}}},
{"geometry": {"type": "Point", "coordinates": [-76.2337706067, 41.0580170879]}, "type": "Feature", "properties": {"collection_times": [{"days": "Mon-Fri", "time": "5:00pm"}, {"days": "Sat", "time": "4:00pm"}, {"days": "Sun", "time": "Closed"}], "id": "1860300053", "name": "USPS COLLECTION BOX - BLUE BOX", "address": {"city": "BERWICK", "state": "PA", "street": "330 PINE ST", "postcode": "18603"}}},
{"geometry": {"type": "Point", "coordinates": [-76.3592919777, 41.0488896669]}, "type": "Feature", "properties": {"collection_times": [{"days": "Mon-Sat", "time": "11:30am"}, {"days": "Sun", "time": "Closed"}], "id": "1860300055", "name": "USPS COLLECTION BOX - BLUE BOX", "address": {"city": "BERWICK", "state": "PA", "street": "202 SKYLINE DR", "postcode": "18603"}}},
{"geometry": {"type": "Point", "coordinates": [-76.1870285728, 41.088403663]}, "type": "Feature", "properties": {"collection_times": [{"days": "Mon-Sat", "time": "9:30am"}, {"days": "Sun", "time": "Closed"}], "id": "1860300056", "name": "USPS COLLECTION BOX - BLUE BOX", "address": {"city": "BERWICK", "state": "PA", "street": "384 STONE CHURCH RD", "postcode": "18603"}}},
{"geometry": {"type": "Point", "coordinates": [-76.2371699813, 41.0531077308]}, "type": "Feature", "properties": {"collection_times": [{"days": "Mon-Sat", "time": "9:00am"}, {"days": "Sun", "time": "Closed"}], "id": "1860300057", "name": "USPS COLLECTION BOX - BLUE BOX", "address": {"city": "BERWICK", "state": "PA", "street": "107 S MARKET ST", "postcode": "18603"}}},
{"geometry": {"type": "Point", "coordinates": [-75.4732073128, 41.0191627962]}, "type": "Feature", "properties": {"collection_times": [{"days": "Mon-Fri", "time": "4:00pm"}, {"days": "Sat", "time": "1:00pm"}, {"days": "Sun", "time": "Closed"}], "id": "1861000001", "name": "USPS COLLECTION BOX - BLUE BOX", "address": {"city": "BLAKESLEE", "state": "PA", "street": "5677 ROUTE 115", "postcode": "18610"}}},
{"geometry": {"type": "Point", "coordinates": [-75.4732073128, 41.0191627962]}, "type": "Feature", "properties": {"collection_times": [{"days": "Mon-Fri", "time": "4:00pm"}, {"days": "Sat", "time": "1:00pm"}, {"days": "Sun", "time": "Closed"}], "id": "1861000004", "name": "USPS COLLECTION BOX - PO LOBBY", "address": {"city": "BLAKESLEE", "state": "PA", "street": "5677 ROUTE 115", "postcode": "18610"}}},
{"geometry": {"type": "Point", "coordinates": [-76.3055600259, 41.1969322876]}, "type": "Feature", "properties": {"collection_times": [{"days": "Mon-Fri", "time": "4:15pm"}, {"days": "Sat", "time": "12:00pm"}, {"days": "Sun", "time": "Closed"}], "id": "1861100001", "name": "USPS COLLECTION BOX - BLUE BOX", "address": {"city": "CAMBRA", "state": "PA", "street": "1334 OLD TIOGA TPKE", "postcode": "18611"}}},
{"geometry": {"type": "Point", "coordinates": [-76.3055600259, 41.1969322876]}, "type": "Feature", "properties": {"collection_times": [{"days": "Mon-Fri", "time": "4:15pm"}, {"days": "Sat", "time": "12:00pm"}, {"days": "Sun", "time": "Closed"}], "id": "1861100002", "name": "USPS COLLECTION BOX - PO LOBBY", "address": {"city": "CAMBRA", "state": "PA", "street": "1334 OLD TIOGA TPKE", "postcode": "18611"}}},
{"geometry": {"type": "Point", "coordinates": [-75.9740778218, 41.344490738]}, "type": "Feature", "properties": {"collection_times": [{"days": "Mon-Sat", "time": "11:00am"}, {"days": "Sun", "time": "Closed"}], "id": "1861200004", "name": "USPS COLLECTION BOX - BLUE BOX", "address": {"city": "DALLAS", "state": "PA", "street": "2525 MEMORIAL HWY", "postcode": "18612"}}},
{"geometry": {"type": "Point", "coordinates": [-75.9674843047, 41.3415497402]}, "type": "Feature", "properties": {"collection_times": [{"days": "Mon-Fri", "time": "1:30pm"}, {"days": "Sat", "time": "9:30am"}, {"days": "Sun", "time": "Closed"}], "id": "1861200010", "name": "USPS COLLECTION BOX - BLUE BOX", "address": {"city": "DALLAS", "state": "PA", "street": "220 LAKE ST", "postcode": "18612"}}},
{"geometry": {"type": "Point", "coordinates": [-75.9630210623, 41.3362591022]}, "type": "Feature", "properties": {"collection_times": [{"days": "Mon-Fri", "time": "5:00pm"}, {"days": "Sat", "time": "4:00pm"}, {"days": "Sun", "time": "Closed"}], "id": "1861200011", "name": "USPS COLLECTION BOX - BLUE BOX", "address": {"city": "DALLAS", "state": "PA", "street": "2759 MEMORIAL HWY", "postcode": "18612"}}},
{"geometry": {"type": "Point", "coordinates": [-75.9630210623, 41.3362591022]}, "type": "Feature", "properties": {"collection_times": [{"days": "Mon-Fri", "time": "4:45pm"}, {"days": "Sat", "time": "4:00pm"}, {"days": "Sun", "time": "Closed"}], "id": "1861200013", "name": "USPS COLLECTION BOX - PO LOBBY", "address": {"city": "DALLAS", "state": "PA", "street": "2759 MEMORIAL HWY", "postcode": "18612"}}},
{"geometry": {"type": "Point", "coordinates": [-76.4020251642, 41.5236777423]}, "type": "Feature", "properties": {"collection_times": [{"days": "Mon-Fri", "time": "4:00pm"}, {"days": "Sat", "time": "11:00am"}, {"days": "Sun", "time": "Closed"}], "id": "1861400001", "name": "USPS COLLECTION BOX - BLUE BOX", "address": {"city": "DUSHORE", "state": "PA", "street": "205 CENTER ST", "postcode": "18614"}}},
{"geometry": {"type": "Point", "coordinates": [-76.4020251642, 41.5236777423]}, "type": "Feature", "properties": {"collection_times": [{"days": "Mon-Fri", "time": "4:00pm"}, {"days": "Sat", "time": "11:00am"}, {"days": "Sun", "time": "Closed"}], "id": "1861400005", "name": "USPS COLLECTION BOX - PO LOBBY", "address": {"city": "DUSHORE", "state": "PA", "street": "205 CENTER ST", "postcode": "18614"}}},
{"geometry": {"type": "Point", "coordinates": [-75.8523793343, 41.4802666555]}, "type": "Feature", "properties": {"collection_times": [{"days": "Mon-Fri", "time": "4:15pm"}, {"days": "Sat", "time": "11:30am"}, {"days": "Sun", "time": "Closed"}], "id": "1861500001", "name": "USPS COLLECTION BOX - BLUE BOX", "address": {"city": "FALLS", "state": "PA", "street": "26 WOODSIDE DR", "postcode": "18615"}}},
{"geometry": {"type": "Point", "coordinates": [-75.8523793343, 41.4802666555]}, "type": "Feature", "properties": {"collection_times": [{"days": "Mon-Fri", "time": "4:15pm"}, {"days": "Sat", "time": "11:30am"}, {"days": "Sun", "time": "Closed"}], "id": "1861500002", "name": "USPS COLLECTION BOX - PO LOBBY", "address": {"city": "FALLS", "state": "PA", "street": "26 WOODSIDE DR", "postcode": "18615"}}},
{"geometry": {"type": "Point", "coordinates": [-76.6395067244, 41.5287928825]}, "type": "Feature", "properties": {"collection_times": [{"days": "Mon-Fri", "time": "1:30pm"}, {"days": "Sat", "time": "9:00am"}, {"days": "Sun", "time": "Closed"}], "id": "1861600002", "name": "USPS COLLECTION BOX - PO LOBBY", "address": {"city": "FORKSVILLE", "state": "PA", "street": "53 BRIDGE ST", "postcode": "18616"}}},
{"geometry": {"type": "Point", "coordinates": [-76.0679188006, 41.1751524098]}, "type": "Feature", "properties": {"collection_times": [{"days": "Mon-Sat", "time": "9:00am"}, {"days": "Sun", "time": "Closed"}], "id": "1861700002", "name": "USPS COLLECTION BOX - BLUE BOX", "address": {"city": "GLEN LYON", "state": "PA", "street": "64 E MAIN ST", "postcode": "18617"}}},
{"geometry": {"type": "Point", "coordinates": [-76.0752064873, 41.1755903525]}, "type": "Feature", "properties": {"collection_times": [{"days": "Mon-Fri", "time": "4:00pm"}, {"days": "Sat", "time": "12:00pm"}, {"days": "Sun", "time": "Closed"}], "id": "1861700005", "name": "USPS COLLECTION BOX - BLUE BOX", "address": {"city": "GLEN LYON", "state": "PA", "street": "45 N MARKET ST", "postcode": "18617"}}},
{"geometry": {"type": "Point", "coordinates": [-76.0752064873, 41.1755903525]}, "type": "Feature", "properties": {"collection_times": [{"days": "Mon-Fri", "time": "4:00pm"}, {"days": "Sat", "time": "12:00pm"}, {"days": "Sun", "time": "Closed"}], "id": "1861700006", "name": "USPS COLLECTION BOX - PO LOBBY", "address": {"city": "GLEN LYON", "state": "PA", "street": "45 N MARKET ST", "postcode": "18617"}}},
{"geometry": {"type": "Point", "coordinates": [-76.0412385716, 41.3750839681]}, "type": "Feature", "properties": {"collection_times": [{"days": "Mon-Fri", "time": "3:45pm"}, {"days": "Sat", "time": "10:45am"}, {"days": "Sun", "time": "Closed"}], "id": "1861800001", "name": "USPS COLLECTION BOX - BLUE BOX", "address": {"city": "HARVEYS LAKE", "state": "PA", "street": "2115 LAKESIDE DR", "postcode": "18618"}}},
{"geometry": {"type": "Point", "coordinates": [-76.0412385716, 41.3750839681]}, "type": "Feature", "properties": {"collection_times": [{"days": "Mon-Fri", "time": "3:45pm"}, {"days": "Sat", "time": "10:45am"}, {"days": "Sun", "time": "Closed"}], "id": "1861800003", "name": "USPS COLLECTION BOX - PO LOBBY", "address": {"city": "HARVEYS LAKE", "state": "PA", "street": "2115 LAKESIDE DR", "postcode": "18618"}}},
{"geometry": {"type": "Point", "coordinates": [-76.7104354477, 41.4336805358]}, "type": "Feature", "properties": {"collection_times": [{"days": "Mon-Sat", "time": "10:30am"}, {"days": "Sun", "time": "Closed"}], "id": "1861900003", "name": "USPS COLLECTION BOX - PO LOBBY", "address": {"city": "HILLSGROVE", "state": "PA", "street": "1 MAIN ST", "postcode": "18619"}}},
{"geometry": {"type": "Point", "coordinates": [-76.095839873, 41.2169209115]}, "type": "Feature", "properties": {"collection_times": [{"days": "Mon-Fri", "time": "3:30pm"}, {"days": "Sat", "time": "11:30am"}, {"days": "Sun", "time": "Closed"}], "id": "1862100001", "name": "USPS COLLECTION BOX - BLUE BOX", "address": {"city": "HUNLOCK CREEK", "state": "PA", "street": "1623 MAIN RD", "postcode": "18621"}}},
{"geometry": {"type": "Point", "coordinates": [-76.0906932876, 41.2470149592]}, "type": "Feature", "properties": {"collection_times": [{"days": "Mon-Sat", "time": "11:00am"}, {"days": "Sun", "time": "Closed"}], "id": "1862100002", "name": "USPS COLLECTION BOX - BLUE BOX", "address": {"city": "HUNLOCK CREEK", "state": "PA", "street": "2203 STATE ROUTE 118", "postcode": "18621"}}},
{"geometry": {"type": "Point", "coordinates": [-76.0906932876, 41.2470149592]}, "type": "Feature", "properties": {"collection_times": [{"days": "Mon-Sat", "time": "10:30am"}, {"days": "Sun", "time": "Closed"}], "id": "1862100003", "name": "USPS COLLECTION BOX - BLUE BOX", "address": {"city": "HUNLOCK CREEK", "state": "PA", "street": "2399 STATE ROUTE 118", "postcode": "18621"}}},
{"geometry": {"type": "Point", "coordinates": [-76.095839873, 41.2169209115]}, "type": "Feature", "properties": {"collection_times": [{"days": "Mon-Fri", "time": "3:30pm"}, {"days": "Sat", "time": "11:30am"}, {"days": "Sun", "time": "Closed"}], "id": "1862100004", "name": "USPS COLLECTION BOX - PO LOBBY", "address": {"city": "HUNLOCK CREEK", "state": "PA", "street": "1623 MAIN RD", "postcode": "18621"}}},
{"geometry": {"type": "Point", "coordinates": [-76.2431008959, 41.2042493304]}, "type": "Feature", "properties": {"collection_times": [{"days": "Mon-Fri", "time": "4:15pm"}, {"days": "Sat", "time": "10:30am"}, {"days": "Sun", "time": "Closed"}], "id": "1862200001", "name": "USPS COLLECTION BOX - BLUE BOX", "address": {"city": "HUNTINGTON ML", "state": "PA", "street": "1059 STATE ROUTE 239", "postcode": "18622"}}},
{"geometry": {"type": "Point", "coordinates": [-76.2431008959, 41.2042493304]}, "type": "Feature", "properties": {"collection_times": [{"days": "Mon-Fri", "time": "4:15pm"}, {"days": "Sat", "time": "10:30am"}, {"days": "Sun", "time": "Closed"}], "id": "1862200002", "name": "USPS COLLECTION BOX - PO LOBBY", "address": {"city": "HUNTINGTON ML", "state": "PA", "street": "1059 STATE ROUTE 239", "postcode": "18622"}}},
{"geometry": {"type": "Point", "coordinates": [-76.1469328879, 41.6415674992]}, "type": "Feature", "properties": {"collection_times": [{"days": "Mon-Fri", "time": "4:00pm"}, {"days": "Sat", "time": "11:30am"}, {"days": "Sun", "time": "Closed"}], "id": "1862300001", "name": "USPS COLLECTION BOX - BLUE BOX", "address": {"city": "LACEYVILLE", "state": "PA", "street": "1 E MAIN ST", "postcode": "18623"}}},
{"geometry": {"type": "Point", "coordinates": [-76.1469328879, 41.6415674992]}, "type": "Feature", "properties": {"collection_times": [{"days": "Mon-Fri", "time": "4:00pm"}, {"days": "Sat", "time": "11:30am"}, {"days": "Sun", "time": "Closed"}], "id": "1862300002", "name": "USPS COLLECTION BOX - PO LOBBY", "address": {"city": "LACEYVILLE", "state": "PA", "street": "1 E MAIN ST", "postcode": "18623"}}},
{"geometry": {"type": "Point", "coordinates": [-75.8540913803, 41.5091327446]}, "type": "Feature", "properties": {"collection_times": [{"days": "Mon-Fri", "time": "4:00pm"}, {"days": "Sat", "time": "10:30am"}, {"days": "Sun", "time": "Closed"}], "id": "1862500001", "name": "USPS COLLECTION BOX - BLUE BOX", "address": {"city": "LAKE WINOLA", "state": "PA", "street": "104 POST OFFICE LN", "postcode": "18625"}}},
{"geometry": {"type": "Point", "coordinates": [-75.8540913803, 41.5091327446]}, "type": "Feature", "properties": {"collection_times": [{"days": "Mon-Fri", "time": "4:00pm"}, {"days": "Sat", "time": "10:30am"}, {"days": "Sun", "time": "Closed"}], "id": "1862500002", "name": "USPS COLLECTION BOX - PO LOBBY", "address": {"city": "LAKE WINOLA", "state": "PA", "street": "104 POST OFFICE LN", "postcode": "18625"}}},
{"geometry": {"type": "Point", "coordinates": [-76.4941271851, 41.4229007072]}, "type": "Feature", "properties": {"collection_times": [{"days": "Mon-Fri", "time": "4:00pm"}, {"days": "Sat", "time": "11:00am"}, {"days": "Sun", "time": "Closed"}], "id": "1862600001", "name": "USPS COLLECTION BOX - BLUE BOX", "address": {"city": "LAPORTE", "state": "PA", "street": "1 MAIN ST", "postcode": "18626"}}},
{"geometry": {"type": "Point", "coordinates": [-76.4941271851, 41.4229007072]}, "type": "Feature", "properties": {"collection_times": [{"days": "Mon-Fri", "time": "4:00pm"}, {"days": "Sat", "time": "11:00am"}, {"days": "Sun", "time": "Closed"}], "id": "1862600002", "name": "USPS COLLECTION BOX - PO LOBBY", "address": {"city": "LAPORTE", "state": "PA", "street": "1 MAIN ST", "postcode": "18626"}}},
{"geometry": {"type": "Point", "coordinates": [-76.0220196441, 41.3161560411]}, "type": "Feature", "properties": {"collection_times": [{"days": "Mon-Fri", "time": "4:45pm"}, {"days": "Sat", "time": "12:00pm"}, {"days": "Sun", "time": "Closed"}], "id": "1862700001", "name": "USPS COLLECTION BOX - BLUE BOX", "address": {"city": "LEHMAN", "state": "PA", "street": "1010 MOUNTAINVIEW DR", "postcode": "18627"}}},
{"geometry": {"type": "Point", "coordinates": [-76.0220196441, 41.3161560411]}, "type": "Feature", "properties": {"collection_times": [{"days": "Mon-Fri", "time": "4:45pm"}, {"days": "Sat", "time": "12:00pm"}, {"days": "Sun", "time": "Closed"}], "id": "1862700002", "name": "USPS COLLECTION BOX - PO LOBBY", "address": {"city": "LEHMAN", "state": "PA", "street": "1010 MOUNTAINVIEW DR", "postcode": "18627"}}},
{"geometry": {"type": "Point", "coordinates": [-76.2948913512, 41.4577230597]}, "type": "Feature", "properties": {"collection_times": [{"days": "Mon-Fri", "time": "4:15pm"}, {"days": "Sat", "time": "9:45am"}, {"days": "Sun", "time": "Closed"}], "id": "1862800001", "name": "USPS COLLECTION BOX - BLUE BOX", "address": {"city": "LOPEZ", "state": "PA", "street": "61 MAIN ST", "postcode": "18628"}}},
{"geometry": {"type": "Point", "coordinates": [-76.2948913512, 41.4577230597]}, "type": "Feature", "properties": {"collection_times": [{"days": "Mon-Fri", "time": "4:15pm"}, {"days": "Sat", "time": "9:45am"}, {"days": "Sun", "time": "Closed"}], "id": "1862800002", "name": "USPS COLLECTION BOX - PO LOBBY", "address": {"city": "LOPEZ", "state": "PA", "street": "61 MAIN ST", "postcode": "18628"}}},
{"geometry": {"type": "Point", "coordinates": [-76.161284991, 41.4851967795]}, "type": "Feature", "properties": {"collection_times": [{"days": "Mon-Fri", "time": "4:15pm"}, {"days": "Sat", "time": "11:30am"}, {"days": "Sun", "time": "Closed"}], "id": "1862900001", "name": "USPS COLLECTION BOX - BLUE BOX", "address": {"city": "MEHOOPANY", "state": "PA", "street": "1 PEARL RD", "postcode": "18629"}}},
{"geometry": {"type": "Point", "coordinates": [-76.161284991, 41.4851967795]}, "type": "Feature", "properties": {"collection_times": [{"days": "Mon-Fri", "time": "4:15pm"}, {"days": "Sat", "time": "11:30am"}, {"days": "Sun", "time": "Closed"}], "id": "1862900002", "name": "USPS COLLECTION BOX - PO LOBBY", "address": {"city": "MEHOOPANY", "state": "PA", "street": "9999 TOWNSHIP RD 439", "postcode": "18629"}}},
{"geometry": {"type": "Point", "coordinates": [-76.0308757337, 41.6198815316]}, "type": "Feature", "properties": {"collection_times": [{"days": "Mon-Fri", "time": "11:00am"}, {"days": "Sat", "time": "11:15am"}, {"days": "Sun", "time": "Closed"}], "id": "1863000001", "name": "USPS COLLECTION BOX - BLUE BOX", "address": {"city": "MESHOPPEN", "state": "PA", "street": "149 CANAL ST", "postcode": "18630"}}},
{"geometry": {"type": "Point", "coordinates": [-76.0308757337, 41.6198815316]}, "type": "Feature", "properties": {"collection_times": [{"days": "Mon-Fri", "time": "4:15pm"}, {"days": "Sat", "time": "11:15am"}, {"days": "Sun", "time": "Closed"}], "id": "1863000002", "name": "USPS COLLECTION BOX - BLUE BOX", "address": {"city": "MESHOPPEN", "state": "PA", "street": "149 CANAL ST", "postcode": "18630"}}},
{"geometry": {"type": "Point", "coordinates": [-76.0308757337, 41.6198815316]}, "type": "Feature", "properties": {"collection_times": [{"days": "Mon-Fri", "time": "4:15pm"}, {"days": "Sat", "time": "11:00am"}, {"days": "Sun", "time": "Closed"}], "id": "1863000003", "name": "USPS COLLECTION BOX - PO LOBBY", "address": {"city": "MESHOPPEN", "state": "PA", "street": "149 CANAL ST", "postcode": "18630"}}},
{"geometry": {"type": "Point", "coordinates": [-76.3083032042, 41.0327152152]}, "type": "Feature", "properties": {"collection_times": [{"days": "Mon-Fri", "time": "3:30pm"}, {"days": "Sat", "time": "11:30am"}, {"days": "Sun", "time": "Closed"}], "id": "1863100001", "name": "USPS COLLECTION BOX - BLUE BOX", "address": {"city": "MIFFLINVILLE", "state": "PA", "street": "206 MARKET ST", "postcode": "18631"}}},
{"geometry": {"type": "Point", "coordinates": [-76.3083032042, 41.0327152152]}, "type": "Feature", "properties": {"collection_times": [{"days": "Mon-Fri", "time": "4:00pm"}, {"days": "Sat", "time": "12:00pm"}, {"days": "Sun", "time": "Closed"}], "id": "1863100002", "name": "USPS COLLECTION BOX - PO LOBBY", "address": {"city": "MIFFLINVILLE", "state": "PA", "street": "206 MARKET ST", "postcode": "18631"}}},
{"geometry": {"type": "Point", "coordinates": [-76.380248936, 41.476422485]}, "type": "Feature", "properties": {"collection_times": [{"days": "Mon-Fri", "time": "4:00pm"}, {"days": "Sat", "time": "8:15am"}, {"days": "Sun", "time": "Closed"}], "id": "1863200001", "name": "USPS COLLECTION BOX - BLUE BOX", "address": {"city": "MILDRED", "state": "PA", "street": "54 JACKSON ST", "postcode": "18632"}}},
{"geometry": {"type": "Point", "coordinates": [-76.380248936, 41.476422485]}, "type": "Feature", "properties": {"collection_times": [{"days": "Mon-Fri", "time": "4:30pm"}, {"days": "Sat", "time": "10:00am"}, {"days": "Sun", "time": "Closed"}], "id": "1863200002", "name": "USPS COLLECTION BOX - PO LOBBY", "address": {"city": "MILDRED", "state": "PA", "street": "54 JACKSON ST", "postcode": "18632"}}},
{"geometry": {"type": "Point", "coordinates": [-75.9834759583, 41.187153213]}, "type": "Feature", "properties": {"collection_times": [{"days": "Mon-Sat", "time": "2:00pm"}, {"days": "Sun", "time": "Closed"}], "id": "1863400012", "name": "USPS COLLECTION BOX - BLUE BOX", "address": {"city": "NANTICOKE", "state": "PA", "street": "201 CENTER ST", "postcode": "18634"}}},
{"geometry": {"type": "Point", "coordinates": [-76.0028746753, 41.2016919293]}, "type": "Feature", "properties": {"collection_times": [{"days": "Mon-Sat", "time": "9:30am"}, {"days": "Sun", "time": "Closed"}], "id": "1863400014", "name": "USPS COLLECTION BOX - BLUE BOX", "address": {"city": "NANTICOKE", "state": "PA", "street": "1 E GREEN ST", "postcode": "18634"}}},
{"geometry": {"type": "Point", "coordinates": [-76.0035256123, 41.1954945722]}, "type": "Feature", "properties": {"collection_times": [{"days": "Mon-Fri", "time": "2:45pm"}, {"days": "Sat", "time": "2:30pm"}, {"days": "Sun", "time": "Closed"}], "id": "1863400020", "name": "USPS COLLECTION BOX - BLUE BOX", "address": {"city": "NANTICOKE", "state": "PA", "street": "126 W WASHINGTON ST", "postcode": "18634"}}},
{"geometry": {"type": "Point", "coordinates": [-76.0006652175, 41.203486643]}, "type": "Feature", "properties": {"collection_times": [{"days": "Mon-Sat", "time": "10:45am"}, {"days": "Sun", "time": "Closed"}], "id": "1863400028", "name": "USPS COLLECTION BOX - BLUE BOX", "address": {"city": "NANTICOKE", "state": "PA", "street": "173 E BROAD ST", "postcode": "18634"}}},
{"geometry": {"type": "Point", "coordinates": [-76.0084621322, 41.2060381144]}, "type": "Feature", "properties": {"collection_times": [{"days": "Mon-Fri", "time": "4:30pm"}, {"days": "Sat", "time": "2:30pm"}, {"days": "Sun", "time": "Closed"}], "id": "1863400030", "name": "USPS COLLECTION BOX - BLUE BOX", "address": {"city": "NANTICOKE", "state": "PA", "street": "70 N MARKET ST", "postcode": "18634"}}},
{"geometry": {"type": "Point", "coordinates": [-76.0084621322, 41.2060381144]}, "type": "Feature", "properties": {"collection_times": [{"days": "Mon-Fri", "time": "4:30pm"}, {"days": "Sat", "time": "2:30pm"}, {"days": "Sun", "time": "Closed"}], "id": "1863400035", "name": "USPS COLLECTION BOX - PO LOBBY", "address": {"city": "NANTICOKE", "state": "PA", "street": "70 N MARKET ST", "postcode": "18634"}}},
{"geometry": {"type": "Point", "coordinates": [-76.0084621322, 41.2060381144]}, "type": "Feature", "properties": {"collection_times": [{"days": "Mon-Fri", "time": "4:30pm"}, {"days": "Sat", "time": "2:30pm"}, {"days": "Sun", "time": "Closed"}], "id": "1863400037", "name": "USPS COLLECTION BOX - BLUE BOX", "address": {"city": "NANTICOKE", "state": "PA", "street": "70 N MARKET ST", "postcode": "18634"}}},
{"geometry": {"type": "Point", "coordinates": [-76.220730041, 41.0519715421]}, "type": "Feature", "properties": {"collection_times": [{"days": "Mon-Fri", "time": "4:00pm"}, {"days": "Sat", "time": "11:00am"}, {"days": "Sun", "time": "Closed"}], "id": "1863500001", "name": "USPS COLLECTION BOX - BLUE BOX", "address": {"city": "NESCOPECK", "state": "PA", "street": "311 BROAD ST", "postcode": "18635"}}},
{"geometry": {"type": "Point", "coordinates": [-76.220730041, 41.0519715421]}, "type": "Feature", "properties": {"collection_times": [{"days": "Mon-Fri", "time": "4:00pm"}, {"days": "Sat", "time": "11:00am"}, {"days": "Sun", "time": "Closed"}], "id": "1863500003", "name": "USPS COLLECTION BOX - PO LOBBY", "address": {"city": "NESCOPECK", "state": "PA", "street": "311 BROAD ST", "postcode": "18635"}}},
{"geometry": {"type": "Point", "coordinates": [-76.0764655465, 41.4166751599]}, "type": "Feature", "properties": {"collection_times": [{"days": "Mon-Fri", "time": "1:00pm"}, {"days": "Sat", "time": "10:45am"}, {"days": "Sun", "time": "Closed"}], "id": "1863600001", "name": "USPS COLLECTION BOX - BLUE BOX", "address": {"city": "NOXEN", "state": "PA", "street": "3592 SR 29 S", "postcode": "18636"}}},
{"geometry": {"type": "Point", "coordinates": [-75.7935596252, 41.320606938]}, "type": "Feature", "properties": {"collection_times": [{"days": "Mon-Sat", "time": "9:00am"}, {"days": "Sun", "time": "Closed"}], "id": "1864000008", "name": "USPS COLLECTION BOX - BLUE BOX", "address": {"city": "PITTSTON", "state": "PA", "street": "500 KENNEDY BLVD", "postcode": "18640"}}},
{"geometry": {"type": "Point", "coordinates": [-75.7865936646, 41.3357505225]}, "type": "Feature", "properties": {"collection_times": [{"days": "Mon-Sat", "time": "10:00am"}, {"days": "Sun", "time": "Closed"}], "id": "1864000011", "name": "USPS COLLECTION BOX - BLUE BOX", "address": {"city": "PITTSTON", "state": "PA", "street": "490 N MAIN ST", "postcode": "18640"}}},
{"geometry": {"type": "Point", "coordinates": [-75.7929053531, 41.3193298877]}, "type": "Feature", "properties": {"collection_times": [{"days": "Mon-Sat", "time": "8:45am"}, {"days": "Sun", "time": "Closed"}], "id": "1864000012", "name": "USPS COLLECTION BOX - BLUE BOX", "address": {"city": "PITTSTON", "state": "PA", "street": "161 S MAIN ST", "postcode": "18640"}}},
{"geometry": {"type": "Point", "coordinates": [-75.7922947397, 41.3220173306]}, "type": "Feature", "properties": {"collection_times": [{"days": "Mon-Fri", "time": "5:00pm"}, {"days": "Sat", "time": "4:30pm"}, {"days": "Sun", "time": "Closed"}], "id": "1864000015", "name": "USPS COLLECTION BOX - BLUE BOX", "address": {"city": "PITTSTON", "state": "PA", "street": "11 DOCK ST", "postcode": "18640"}}},
{"geometry": {"type": "Point", "coordinates": [-75.7892870669, 41.3253440811]}, "type": "Feature", "properties": {"collection_times": [{"days": "Mon-Sat", "time": "9:30am"}, {"days": "Sun", "time": "Closed"}], "id": "1864000022", "name": "USPS COLLECTION BOX - BLUE BOX", "address": {"city": "PITTSTON", "state": "PA", "street": "101 N MAIN ST", "postcode": "18640"}}},
{"geometry": {"type": "Point", "coordinates": [-75.7840635388, 41.3038829539]}, "type": "Feature", "properties": {"collection_times": [{"days": "Mon-Sat", "time": "10:00am"}, {"days": "Sun", "time": "Closed"}], "id": "1864000025", "name": "USPS COLLECTION BOX - BLUE BOX", "address": {"city": "PITTSTON", "state": "PA", "street": "39 PITTSTON AVE", "postcode": "18640"}}},
{"geometry": {"type": "Point", "coordinates": [-75.7732250826, 41.3268152521]}, "type": "Feature", "properties": {"collection_times": [{"days": "Mon-Sat", "time": "12:30pm"}, {"days": "Sun", "time": "Closed"}], "id": "1864000026", "name": "USPS COLLECTION BOX - BLUE BOX", "address": {"city": "PITTSTON", "state": "PA", "street": "82 CENTER ST", "postcode": "18640"}}},
{"geometry": {"type": "Point", "coordinates": [-75.7888966337, 41.3220049467]}, "type": "Feature", "properties": {"collection_times": [{"days": "Mon-Sat", "time": "9:00am"}, {"days": "Sun", "time": "Closed"}], "id": "1864000029", "name": "USPS COLLECTION BOX - BLUE BOX", "address": {"city": "PITTSTON", "state": "PA", "street": "37 BROAD ST", "postcode": "18640"}}},
{"geometry": {"type": "Point", "coordinates": [-75.8130931158, 41.2987545419]}, "type": "Feature", "properties": {"collection_times": [{"days": "Mon-Sat", "time": "10:00am"}, {"days": "Sun", "time": "Closed"}], "id": "1864000031", "name": "USPS COLLECTION BOX - BLUE BOX", "address": {"city": "PITTSTON", "state": "PA", "street": "46 MAIN ST", "postcode": "18640"}}},
{"geometry": {"type": "Point", "coordinates": [-75.8196865805, 41.2960708257]}, "type": "Feature", "properties": {"collection_times": [{"days": "Mon-Sat", "time": "11:00am"}, {"days": "Sun", "time": "Closed"}], "id": "1864000032", "name": "USPS COLLECTION BOX - BLUE BOX", "address": {"city": "PITTSTON", "state": "PA", "street": "109 MAIN ST", "postcode": "18640"}}},
{"geometry": {"type": "Point", "coordinates": [-75.817400186, 41.2953736688]}, "type": "Feature", "properties": {"collection_times": [{"days": "Mon-Sat", "time": "9:30am"}, {"days": "Sun", "time": "Closed"}], "id": "1864000033", "name": "USPS COLLECTION BOX - BLUE BOX", "address": {"city": "PITTSTON", "state": "PA", "street": "211 ROBERTS RD", "postcode": "18640"}}},
{"geometry": {"type": "Point", "coordinates": [-75.7799728695, 41.318400655]}, "type": "Feature", "properties": {"collection_times": [{"days": "Mon-Sat", "time": "9:00am"}, {"days": "Sun", "time": "Closed"}], "id": "1864000034", "name": "USPS COLLECTION BOX - BLUE BOX", "address": {"city": "PITTSTON", "state": "PA", "street": "2030 N TOWNSHIP BLVD", "postcode": "18640"}}},
{"geometry": {"type": "Point", "coordinates": [-75.7922947397, 41.3220173306]}, "type": "Feature", "properties": {"collection_times": [{"days": "Mon-Fri", "time": "5:00pm"}, {"days": "Sat", "time": "4:30pm"}, {"days": "Sun", "time": "Closed"}], "id": "1864000036", "name": "USPS COLLECTION BOX - BLUE BOX", "address": {"city": "PITTSTON", "state": "PA", "street": "11 DOCK ST", "postcode": "18640"}}},
{"geometry": {"type": "Point", "coordinates": [-75.7922947397, 41.3220173306]}, "type": "Feature", "properties": {"collection_times": [{"days": "Mon-Fri", "time": "5:00pm"}, {"days": "Sat", "time": "4:30pm"}, {"days": "Sun", "time": "Closed"}], "id": "1864000037", "name": "USPS COLLECTION BOX - BLUE BOX", "address": {"city": "PITTSTON", "state": "PA", "street": "11 DOCK ST", "postcode": "18640"}}},
{"geometry": {"type": "Point", "coordinates": [-75.8086358033, 41.3142403575]}, "type": "Feature", "properties": {"collection_times": [{"days": "Mon-Sat", "time": "9:30am"}, {"days": "Sun", "time": "Closed"}], "id": "1864000040", "name": "USPS COLLECTION BOX - BLUE BOX", "address": {"city": "PITTSTON", "state": "PA", "street": "200 OVERLOOK DR", "postcode": "18640"}}},
{"geometry": {"type": "Point", "coordinates": [-75.7922947397, 41.3220173306]}, "type": "Feature", "properties": {"collection_times": [{"days": "Mon-Fri", "time": "5:00pm"}, {"days": "Sat", "time": "4:30pm"}, {"days": "Sun", "time": "Closed"}], "id": "1864000042", "name": "USPS COLLECTION BOX - PO LOBBY", "address": {"city": "PITTSTON", "state": "PA", "street": "11 DOCK ST", "postcode": "18640"}}},
{"geometry": {"type": "Point", "coordinates": [-75.7418988587, 41.3378660496]}, "type": "Feature", "properties": {"collection_times": [{"days": "Mon-Fri", "time": "2:00pm"}, {"days": "Sat", "time": "12:30pm"}, {"days": "Sun", "time": "Closed"}], "id": "1864100001", "name": "USPS COLLECTION BOX - BLUE BOX", "address": {"city": "DUPONT", "state": "PA", "street": "701 MAIN ST", "postcode": "18641"}}},
{"geometry": {"type": "Point", "coordinates": [-75.7491592729, 41.3209602753]}, "type": "Feature", "properties": {"collection_times": [{"days": "Mon-Sat", "time": "9:30am"}, {"days": "Sun", "time": "Closed"}], "id": "1864100003", "name": "USPS COLLECTION BOX - BLUE BOX", "address": {"city": "DUPONT", "state": "PA", "street": "100 TERMINAL DR", "postcode": "18641"}}},
{"geometry": {"type": "Point", "coordinates": [-75.74546504, 41.3276780743]}, "type": "Feature", "properties": {"collection_times": [{"days": "Mon-Sat", "time": "9:30am"}, {"days": "Sun", "time": "Closed"}], "id": "1864100007", "name": "USPS COLLECTION BOX - BLUE BOX", "address": {"city": "DUPONT", "state": "PA", "street": "603 MAIN ST", "postcode": "18641"}}},
{"geometry": {"type": "Point", "coordinates": [-75.7504474867, 41.3196462026]}, "type": "Feature", "properties": {"collection_times": [{"days": "Mon-Sat", "time": "9:00am"}, {"days": "Sun", "time": "Closed"}], "id": "1864100008", "name": "USPS COLLECTION BOX - BLUE BOX", "address": {"city": "DUPONT", "state": "PA", "street": "237 ZIEGLER ST", "postcode": "18641"}}},
{"geometry": {"type": "Point", "coordinates": [-75.745455437, 41.3242245624]}, "type": "Feature", "properties": {"collection_times": [{"days": "Mon-Sat", "time": "1:00pm"}, {"days": "Sun", "time": "Closed"}], "id": "1864100009", "name": "USPS COLLECTION BOX - BLUE BOX", "address": {"city": "DUPONT", "state": "PA", "street": "225 CHESTNUT ST", "postcode": "18641"}}},
{"geometry": {"type": "Point", "coordinates": [-75.7493667349, 41.3209208539]}, "type": "Feature", "properties": {"collection_times": [{"days": "Mon-Sat", "time": "1:00pm"}, {"days": "Sun", "time": "Closed"}], "id": "1864100010", "name": "USPS COLLECTION BOX - BLUE BOX", "address": {"city": "DUPONT", "state": "PA", "street": "278 MAIN ST", "postcode": "18641"}}},
{"geometry": {"type": "Point", "coordinates": [-75.743889835, 41.3292829428]}, "type": "Feature", "properties": {"collection_times": [{"days": "Mon-Sat", "time": "8:45am"}, {"days": "Sun", "time": "Closed"}], "id": "1864100011", "name": "USPS COLLECTION BOX - BLUE BOX", "address": {"city": "DUPONT", "state": "PA", "street": "98 GROVE ST", "postcode": "18641"}}},
{"geometry": {"type": "Point", "coordinates": [-75.7594563357, 41.3497181154]}, "type": "Feature", "properties": {"collection_times": [{"days": "Mon-Fri", "time": "4:45pm"}, {"days": "Sat", "time": "12:15pm"}, {"days": "Sun", "time": "Closed"}], "id": "1864200002", "name": "USPS COLLECTION BOX - BLUE BOX", "address": {"city": "PITTSTON", "state": "PA", "street": "450 STEPHENSON ST", "postcode": "18642"}}},
{"geometry": {"type": "Point", "coordinates": [-75.7690225034, 41.3491936969]}, "type": "Feature", "properties": {"collection_times": [{"days": "Mon-Sat", "time": "10:00am"}, {"days": "Sun", "time": "Closed"}], "id": "1864200004", "name": "USPS COLLECTION BOX - BLUE BOX", "address": {"city": "PITTSTON", "state": "PA", "street": "121 MAIN ST", "postcode": "18642"}}},
{"geometry": {"type": "Point", "coordinates": [-75.7510880839, 41.3214122733]}, "type": "Feature", "properties": {"collection_times": [{"days": "Mon-Sat", "time": "11:00am"}, {"days": "Sun", "time": "Closed"}], "id": "1864200005", "name": "USPS COLLECTION BOX - BLUE BOX", "address": {"city": "PITTSTON", "state": "PA", "street": "335 MAIN ST", "postcode": "18642"}}},
{"geometry": {"type": "Point", "coordinates": [-75.7470416131, 41.3478354339]}, "type": "Feature", "properties": {"collection_times": [{"days": "Mon-Sat", "time": "1:00pm"}, {"days": "Sun", "time": "Closed"}], "id": "1864200007", "name": "USPS COLLECTION BOX - BLUE BOX", "address": {"city": "PITTSTON", "state": "PA", "street": "400 YORK AVE", "postcode": "18642"}}},
{"geometry": {"type": "Point", "coordinates": [-75.7618296493, 41.3425253627]}, "type": "Feature", "properties": {"collection_times": [{"days": "Mon-Sat", "time": "9:00am"}, {"days": "Sun", "time": "Closed"}], "id": "1864200010", "name": "USPS COLLECTION BOX - BLUE BOX", "address": {"city": "PITTSTON", "state": "PA", "street": "201 FOOTE AVE", "postcode": "18642"}}},
{"geometry": {"type": "Point", "coordinates": [-75.7594563357, 41.3497181154]}, "type": "Feature", "properties": {"collection_times": [{"days": "Mon-Fri", "time": "4:45pm"}, {"days": "Sat", "time": "12:00pm"}, {"days": "Sun", "time": "Closed"}], "id": "1864200011", "name": "USPS COLLECTION BOX - PO LOBBY", "address": {"city": "PITTSTON", "state": "PA", "street": "450 STEPHENSON ST", "postcode": "18642"}}},
{"geometry": {"type": "Point", "coordinates": [-75.8192123248, 41.3203925627]}, "type": "Feature", "properties": {"collection_times": [{"days": "Mon-Sat", "time": "9:30am"}, {"days": "Sun", "time": "Closed"}], "id": "1864300002", "name": "USPS COLLECTION BOX - BLUE BOX", "address": {"city": "WEST PITTSTON", "state": "PA", "street": "1251 WYOMING AVE", "postcode": "18643"}}},
{"geometry": {"type": "Point", "coordinates": [-75.8249999365, 41.3173445051]}, "type": "Feature", "properties": {"collection_times": [{"days": "Mon-Sat", "time": "10:30am"}, {"days": "Sun", "time": "Closed"}], "id": "1864300004", "name": "USPS COLLECTION BOX - BLUE BOX", "address": {"city": "WEST PITTSTON", "state": "PA", "street": "1701 WYOMING AVE", "postcode": "18643"}}},
{"geometry": {"type": "Point", "coordinates": [-75.8148992219, 41.3222753204]}, "type": "Feature", "properties": {"collection_times": [{"days": "Mon-Sat", "time": "9:00am"}, {"days": "Sun", "time": "Closed"}], "id": "1864300008", "name": "USPS COLLECTION BOX - BLUE BOX", "address": {"city": "WEST PITTSTON", "state": "PA", "street": "1091 WYOMING AVE", "postcode": "18643"}}},
{"geometry": {"type": "Point", "coordinates": [-75.8151896607, 41.3386640856]}, "type": "Feature", "properties": {"collection_times": [{"days": "Mon-Sat", "time": "9:00am"}, {"days": "Sun", "time": "Closed"}], "id": "1864300010", "name": "USPS COLLECTION BOX - BLUE BOX", "address": {"city": "WEST PITTSTON", "state": "PA", "street": "542 LUZERNE AVE", "postcode": "18643"}}},
{"geometry": {"type": "Point", "coordinates": [-75.8151896607, 41.3386640856]}, "type": "Feature", "properties": {"collection_times": [{"days": "Mon-Sat", "time": "8:00am"}, {"days": "Sun", "time": "Closed"}], "id": "1864300015", "name": "USPS COLLECTION BOX - BLUE BOX", "address": {"city": "WEST PITTSTON", "state": "PA", "street": "341 WYOMING AVE", "postcode": "18643"}}},
{"geometry": {"type": "Point", "coordinates": [-75.8036164953, 41.3273894917]}, "type": "Feature", "properties": {"collection_times": [{"days": "Mon-Sat", "time": "2:00pm"}, {"days": "Sun", "time": "Closed"}], "id": "1864300020", "name": "USPS COLLECTION BOX - BLUE BOX", "address": {"city": "WEST PITTSTON", "state": "PA", "street": "300 PHILADELPHIA AVE", "postcode": "18643"}}},
{"geometry": {"type": "Point", "coordinates": [-75.806387121, 41.325546727]}, "type": "Feature", "properties": {"collection_times": [{"days": "Mon-Fri", "time": "4:45pm"}, {"days": "Sat", "time": "12:30pm"}, {"days": "Sun", "time": "Closed"}], "id": "1864300022", "name": "USPS COLLECTION BOX - BLUE BOX", "address": {"city": "WEST PITTSTON", "state": "PA", "street": "801 WYOMING AVE", "postcode": "18643"}}},
{"geometry": {"type": "Point", "coordinates": [-75.806387121, 41.325546727]}, "type": "Feature", "properties": {"collection_times": [{"days": "Mon-Fri", "time": "4:45pm"}, {"days": "Sat", "time": "12:30pm"}, {"days": "Sun", "time": "Closed"}], "id": "1864300023", "name": "USPS COLLECTION BOX - BLUE BOX", "address": {"city": "WEST PITTSTON", "state": "PA", "street": "801 WYOMING AVE", "postcode": "18643"}}},
{"geometry": {"type": "Point", "coordinates": [-75.8073118645, 41.3253710649]}, "type": "Feature", "properties": {"collection_times": [{"days": "Mon-Fri", "time": "4:45pm"}, {"days": "Sat", "time": "12:00pm"}, {"days": "Sun", "time": "Closed"}], "id": "1864300025", "name": "USPS COLLECTION BOX - PO LOBBY", "address": {"city": "WEST PITTSTON", "state": "PA", "street": "811 WYOMING AVE", "postcode": "18643"}}},
{"geometry": {"type": "Point", "coordinates": [-75.7934374712, 41.3278001752]}, "type": "Feature", "properties": {"collection_times": [{"days": "Mon-Sat", "time": "10:30am"}, {"days": "Sun", "time": "Closed"}], "id": "1864300026", "name": "USPS COLLECTION BOX - BLUE BOX", "address": {"city": "WEST PITTSTON", "state": "PA", "street": "1424 STATE ROUTE 92 HWY", "postcode": "18643"}}},
{"geometry": {"type": "Point", "coordinates": [-75.8494570367, 41.3177711256]}, "type": "Feature", "properties": {"collection_times": [{"days": "Mon-Sat", "time": "9:00am"}, {"days": "Sun", "time": "Closed"}], "id": "1864400001", "name": "USPS COLLECTION BOX - BLUE BOX", "address": {"city": "PITTSTON", "state": "PA", "street": "926 SHOEMAKER AVE", "postcode": "18644"}}},
{"geometry": {"type": "Point", "coordinates": [-75.8347670146, 41.3135301989]}, "type": "Feature", "properties": {"collection_times": [{"days": "Mon-Fri", "time": "4:30pm"}, {"days": "Sat", "time": "12:00pm"}, {"days": "Sun", "time": "Closed"}], "id": "1864400005", "name": "USPS COLLECTION BOX - PO LOBBY", "address": {"city": "PITTSTON", "state": "PA", "street": "200 WYOMING AVE", "postcode": "18644"}}},
{"geometry": {"type": "Point", "coordinates": [-75.8575299136, 41.299798165]}, "type": "Feature", "properties": {"collection_times": [{"days": "Mon-Sat", "time": "11:00am"}, {"days": "Sun", "time": "Closed"}], "id": "1864400006", "name": "USPS COLLECTION BOX - BLUE BOX", "address": {"city": "PITTSTON", "state": "PA", "street": "1056 WYOMING AVE", "postcode": "18644"}}},
{"geometry": {"type": "Point", "coordinates": [-75.840626248, 41.3091781117]}, "type": "Feature", "properties": {"collection_times": [{"days": "Mon-Sat", "time": "9:30am"}, {"days": "Sun", "time": "Closed"}], "id": "1864400007", "name": "USPS COLLECTION BOX - BLUE BOX", "address": {"city": "PITTSTON", "state": "PA", "street": "475 WYOMING AVE", "postcode": "18644"}}},
{"geometry": {"type": "Point", "coordinates": [-75.8371697895, 41.3116240951]}, "type": "Feature", "properties": {"collection_times": [{"days": "Mon-Sat", "time": "9:00am"}, {"days": "Sun", "time": "Closed"}], "id": "1864400010", "name": "USPS COLLECTION BOX - BLUE BOX", "address": {"city": "PITTSTON", "state": "PA", "street": "324 WYOMING AVE", "postcode": "18644"}}},
{"geometry": {"type": "Point", "coordinates": [-75.7458274654, 41.3233558749]}, "type": "Feature", "properties": {"collection_times": [{"days": "Mon-Fri", "time": "4:30pm"}, {"days": "Sat", "time": "12:30pm"}, {"days": "Sun", "time": "Closed"}], "id": "1864400012", "name": "USPS COLLECTION BOX - BLUE BOX", "address": {"city": "PITTSTON", "state": "PA", "street": "200 WYOMING AVE", "postcode": "18644"}}},
{"geometry": {"type": "Point", "coordinates": [-75.7458274654, 41.3233558749]}, "type": "Feature", "properties": {"collection_times": [{"days": "Mon-Fri", "time": "4:30pm"}, {"days": "Sat", "time": "12:30pm"}, {"days": "Sun", "time": "Closed"}], "id": "1864400014", "name": "USPS COLLECTION BOX - BLUE BOX", "address": {"city": "PITTSTON", "state": "PA", "street": "200 WYOMING AVE", "postcode": "18644"}}},
{"geometry": {"type": "Point", "coordinates": [-75.9493069455, 41.2455506177]}, "type": "Feature", "properties": {"collection_times": [{"days": "Mon-Fri", "time": "3:30pm"}, {"days": "Sat", "time": "3:00pm"}, {"days": "Sun", "time": "Closed"}], "id": "1865100001", "name": "USPS COLLECTION BOX - BLUE BOX", "address": {"city": "PLYMOUTH", "state": "PA", "street": "150 W MAIN ST", "postcode": "18651"}}},
{"geometry": {"type": "Point", "coordinates": [-75.9493069455, 41.2455506177]}, "type": "Feature", "properties": {"collection_times": [{"days": "Mon-Sat", "time": "2:00pm"}, {"days": "Sun", "time": "Closed"}], "id": "1865100010", "name": "USPS COLLECTION BOX - BLUE BOX", "address": {"city": "PLYMOUTH", "state": "PA", "street": "30 W SHAWNEE AVE", "postcode": "18651"}}},
{"geometry": {"type": "Point", "coordinates": [-75.9493069455, 41.2455506177]}, "type": "Feature", "properties": {"collection_times": [{"days": "Mon-Sat", "time": "9:00am"}, {"days": "Sun", "time": "Closed"}], "id": "1865100012", "name": "USPS COLLECTION BOX - BLUE BOX", "address": {"city": "PLYMOUTH", "state": "PA", "street": "2 NESBITT ST", "postcode": "18651"}}},
{"geometry": {"type": "Point", "coordinates": [-75.9493069455, 41.2455506177]}, "type": "Feature", "properties": {"collection_times": [{"days": "Mon-Sat", "time": "1:30pm"}, {"days": "Sun", "time": "Closed"}], "id": "1865100015", "name": "USPS COLLECTION BOX - BLUE BOX", "address": {"city": "PLYMOUTH", "state": "PA", "street": "550 WASHINGTON AVE", "postcode": "18651"}}},
{"geometry": {"type": "Point", "coordinates": [-75.9493069455, 41.2455506177]}, "type": "Feature", "properties": {"collection_times": [{"days": "Mon-Sat", "time": "3:00pm"}, {"days": "Sun", "time": "Closed"}], "id": "1865100017", "name": "USPS COLLECTION BOX - BLUE BOX", "address": {"city": "PLYMOUTH", "state": "PA", "street": "101 E MAIN ST", "postcode": "18651"}}},
{"geometry": {"type": "Point", "coordinates": [-75.9493069455, 41.2455506177]}, "type": "Feature", "properties": {"collection_times": [{"days": "Mon-Sat", "time": "9:00am"}, {"days": "Sun", "time": "Closed"}], "id": "1865100019", "name": "USPS COLLECTION BOX - BLUE BOX", "address": {"city": "PLYMOUTH", "state": "PA", "street": "200 E MAIN ST", "postcode": "18651"}}},
{"geometry": {"type": "Point", "coordinates": [-75.9493069455, 41.2455506177]}, "type": "Feature", "properties": {"collection_times": [{"days": "Mon-Sat", "time": "9:00am"}, {"days": "Sun", "time": "Closed"}], "id": "1865100020", "name": "USPS COLLECTION BOX - BLUE BOX", "address": {"city": "PLYMOUTH", "state": "PA", "street": "535 W MAIN ST", "postcode": "18651"}}},
{"geometry": {"type": "Point", "coordinates": [-75.9493069455, 41.2455506177]}, "type": "Feature", "properties": {"collection_times": [{"days": "Mon-Sat", "time": "9:30am"}, {"days": "Sun", "time": "Closed"}], "id": "1865100024", "name": "USPS COLLECTION BOX - BLUE BOX", "address": {"city": "PLYMOUTH", "state": "PA", "street": "1 MIDTOWN VLG", "postcode": "18651"}}},
{"geometry": {"type": "Point", "coordinates": [-75.9493069455, 41.2455506177]}, "type": "Feature", "properties": {"collection_times": [{"days": "Mon-Fri", "time": "3:30pm"}, {"days": "Sat", "time": "3:00pm"}, {"days": "Sun", "time": "Closed"}], "id": "1865100027", "name": "USPS COLLECTION BOX - BLUE BOX", "address": {"city": "PLYMOUTH", "state": "PA", "street": "150 W MAIN ST", "postcode": "18651"}}},
{"geometry": {"type": "Point", "coordinates": [-75.9493069455, 41.2455506177]}, "type": "Feature", "properties": {"collection_times": [{"days": "Mon-Fri", "time": "3:30pm"}, {"days": "Sat", "time": "3:00pm"}, {"days": "Sun", "time": "Closed"}], "id": "1865100030", "name": "USPS COLLECTION BOX - PO LOBBY", "address": {"city": "PLYMOUTH", "state": "PA", "street": "150 W MAIN ST", "postcode": "18651"}}},
{"geometry": {"type": "Point", "coordinates": [-75.8219532233, 41.3943404195]}, "type": "Feature", "properties": {"collection_times": [{"days": "Mon-Fri", "time": "3:45pm"}, {"days": "Sat", "time": "10:45am"}, {"days": "Sun", "time": "Closed"}], "id": "1865300001", "name": "USPS COLLECTION BOX - BLUE BOX", "address": {"city": "RANSOM", "state": "PA", "street": "3063 MAIN ST", "postcode": "18653"}}},
{"geometry": {"type": "Point", "coordinates": [-75.8219532233, 41.3943404195]}, "type": "Feature", "properties": {"collection_times": [{"days": "Mon-Fri", "time": "11:00am"}, {"days": "Sat", "time": "10:45am"}, {"days": "Sun", "time": "Closed"}], "id": "1865300002", "name": "USPS COLLECTION BOX - PO LOBBY", "address": {"city": "RANSOM", "state": "PA", "street": "3063 MAIN ST", "postcode": "18653"}}},
{"geometry": {"type": "Point", "coordinates": [-76.1524220673, 41.1530113013]}, "type": "Feature", "properties": {"collection_times": [{"days": "Mon-Sat", "time": "9:30am"}, {"days": "Sun", "time": "Closed"}], "id": "1865500001", "name": "USPS COLLECTION BOX - BLUE BOX", "address": {"city": "SHICKSHINNY", "state": "PA", "street": "19 W VINE ST", "postcode": "18655"}}},
{"geometry": {"type": "Point", "coordinates": [-76.1507969061, 41.1533090723]}, "type": "Feature", "properties": {"collection_times": [{"days": "Mon-Sat", "time": "10:00am"}, {"days": "Sun", "time": "Closed"}], "id": "1865500003", "name": "USPS COLLECTION BOX - BLUE BOX", "address": {"city": "SHICKSHINNY", "state": "PA", "street": "16 W UNION ST", "postcode": "18655"}}},
{"geometry": {"type": "Point", "coordinates": [-76.1995792623, 41.1792501788]}, "type": "Feature", "properties": {"collection_times": [{"days": "Mon-Fri", "time": "4:45pm"}, {"days": "Sat", "time": "2:30pm"}, {"days": "Sun", "time": "Closed"}], "id": "1865500004", "name": "USPS COLLECTION BOX - BLUE BOX", "address": {"city": "SHICKSHINNY", "state": "PA", "street": "40 N CANAL ST", "postcode": "18655"}}},
{"geometry": {"type": "Point", "coordinates": [-76.1414614828, 41.1423508241]}, "type": "Feature", "properties": {"collection_times": [{"days": "Mon-Sat", "time": "11:00am"}, {"days": "Sun", "time": "Closed"}], "id": "1865500006", "name": "USPS COLLECTION BOX - BLUE BOX", "address": {"city": "SHICKSHINNY", "state": "PA", "street": "132 MAIN ST", "postcode": "18655"}}},
{"geometry": {"type": "Point", "coordinates": [-76.1995792623, 41.1792501788]}, "type": "Feature", "properties": {"collection_times": [{"days": "Mon-Fri", "time": "4:45pm"}, {"days": "Sat", "time": "2:30pm"}, {"days": "Sun", "time": "Closed"}], "id": "1865500008", "name": "USPS COLLECTION BOX - PO LOBBY", "address": {"city": "SHICKSHINNY", "state": "PA", "street": "40 N CANAL ST", "postcode": "18655"}}},
{"geometry": {"type": "Point", "coordinates": [-76.1376447875, 41.2873176945]}, "type": "Feature", "properties": {"collection_times": [{"days": "Mon-Fri", "time": "4:15pm"}, {"days": "Sat", "time": "11:30am"}, {"days": "Sun", "time": "Closed"}], "id": "1865600001", "name": "USPS COLLECTION BOX - BLUE BOX", "address": {"city": "SWEET VALLEY", "state": "PA", "street": "5319 MAIN RD", "postcode": "18656"}}},
{"geometry": {"type": "Point", "coordinates": [-76.1376447875, 41.2873176945]}, "type": "Feature", "properties": {"collection_times": [{"days": "Mon-Fri", "time": "4:15pm"}, {"days": "Sat", "time": "11:30am"}, {"days": "Sun", "time": "Closed"}], "id": "1865600002", "name": "USPS COLLECTION BOX - PO LOBBY", "address": {"city": "SWEET VALLEY", "state": "PA", "street": "5319 MAIN RD", "postcode": "18656"}}},
{"geometry": {"type": "Point", "coordinates": [-75.9482989042, 41.5371830419]}, "type": "Feature", "properties": {"collection_times": [{"days": "Mon-Sat", "time": "9:00am"}, {"days": "Sun", "time": "Closed"}], "id": "1865700005", "name": "USPS COLLECTION BOX - BLUE BOX", "address": {"city": "TUNKHANNOCK", "state": "PA", "street": "512 TOWNE PLZ STE 120", "postcode": "18657"}}},
{"geometry": {"type": "Point", "coordinates": [-75.9482989042, 41.5371830419]}, "type": "Feature", "properties": {"collection_times": [{"days": "Mon-Fri", "time": "4:30pm"}, {"days": "Sat", "time": "4:00pm"}, {"days": "Sun", "time": "Closed"}], "id": "1865700007", "name": "USPS COLLECTION BOX - BLUE BOX", "address": {"city": "TUNKHANNOCK", "state": "PA", "street": "109 BRIDGE ST", "postcode": "18657"}}},
{"geometry": {"type": "Point", "coordinates": [-75.9482989042, 41.5371830419]}, "type": "Feature", "properties": {"collection_times": [{"days": "Mon-Fri", "time": "4:30pm"}, {"days": "Sat", "time": "4:00pm"}, {"days": "Sun", "time": "Closed"}], "id": "1865700009", "name": "USPS COLLECTION BOX - BLUE BOX", "address": {"city": "TUNKHANNOCK", "state": "PA", "street": "109 BRIDGE ST", "postcode": "18657"}}},
{"geometry": {"type": "Point", "coordinates": [-75.9482989042, 41.5371830419]}, "type": "Feature", "properties": {"collection_times": [{"days": "Mon-Sat", "time": "1:00pm"}, {"days": "Sun", "time": "Closed"}], "id": "1865700010", "name": "USPS COLLECTION BOX - BLUE BOX", "address": {"city": "TUNKHANNOCK", "state": "PA", "street": "808 SR 29 S", "postcode": "18657"}}},
{"geometry": {"type": "Point", "coordinates": [-75.9482989042, 41.5371830419]}, "type": "Feature", "properties": {"collection_times": [{"days": "Mon-Fri", "time": "4:30pm"}, {"days": "Sat", "time": "4:00pm"}, {"days": "Sun", "time": "Closed"}], "id": "1865700012", "name": "USPS COLLECTION BOX - PO LOBBY", "address": {"city": "TUNKHANNOCK", "state": "PA", "street": "109 BRIDGE ST", "postcode": "18657"}}},
{"geometry": {"type": "Point", "coordinates": [-75.9482989042, 41.5371830419]}, "type": "Feature", "properties": {"collection_times": [{"days": "Mon-Sat", "time": "10:00am"}, {"days": "Sun", "time": "Closed"}], "id": "1865700014", "name": "USPS COLLECTION BOX - BLUE BOX", "address": {"city": "TUNKHANNOCK", "state": "PA", "street": "6453 SR 309", "postcode": "18657"}}},
{"geometry": {"type": "Point", "coordinates": [-76.0909461874, 41.0913565948]}, "type": "Feature", "properties": {"collection_times": [{"days": "Mon-Fri", "time": "4:15pm"}, {"days": "Sat", "time": "11:45am"}, {"days": "Sun", "time": "Closed"}], "id": "1866000001", "name": "USPS COLLECTION BOX - BLUE BOX", "address": {"city": "WAPWALLOPEN", "state": "PA", "street": "435 S MAIN ST", "postcode": "18660"}}},
{"geometry": {"type": "Point", "coordinates": [-76.0909461874, 41.0913565948]}, "type": "Feature", "properties": {"collection_times": [{"days": "Mon-Fri", "time": "4:15pm"}, {"days": "Sat", "time": "11:45am"}, {"days": "Sun", "time": "Closed"}], "id": "1866000002", "name": "USPS COLLECTION BOX - PO LOBBY", "address": {"city": "WAPWALLOPEN", "state": "PA", "street": "435 S MAIN ST", "postcode": "18660"}}},
{"geometry": {"type": "Point", "coordinates": [-75.7740983332, 41.0606529469]}, "type": "Feature", "properties": {"collection_times": [{"days": "Mon-Fri", "time": "4:30pm"}, {"days": "Sat", "time": "11:00am"}, {"days": "Sun", "time": "Closed"}], "id": "1866100005", "name": "USPS COLLECTION BOX - BLUE BOX", "address": {"city": "WHITE HAVEN", "state": "PA", "street": "425 TOWANDA ST", "postcode": "18661"}}},
{"geometry": {"type": "Point", "coordinates": [-75.7729090619, 41.0599059717]}, "type": "Feature", "properties": {"collection_times": [{"days": "Mon-Sat", "time": "9:15am"}, {"days": "Sun", "time": "Closed"}], "id": "1866100008", "name": "USPS COLLECTION BOX - BLUE BOX", "address": {"city": "WHITE HAVEN", "state": "PA", "street": "501 MAIN ST", "postcode": "18661"}}},
{"geometry": {"type": "Point", "coordinates": [-75.7740983332, 41.0606529469]}, "type": "Feature", "properties": {"collection_times": [{"days": "Mon-Fri", "time": "4:30pm"}, {"days": "Sat", "time": "11:00am"}, {"days": "Sun", "time": "Closed"}], "id": "1866100009", "name": "USPS COLLECTION BOX - PO LOBBY", "address": {"city": "WHITE HAVEN", "state": "PA", "street": "425 TOWANDA ST", "postcode": "18661"}}},
{"geometry": {"type": "Point", "coordinates": [-75.8144599778, 41.0409460236]}, "type": "Feature", "properties": {"collection_times": [{"days": "Mon-Sat", "time": "11:00am"}, {"days": "Sun", "time": "Closed"}], "id": "1866100011", "name": "USPS COLLECTION BOX - BLUE BOX", "address": {"city": "WHITE HAVEN", "state": "PA", "street": "20 HICKORY HILLS DR", "postcode": "18661"}}}
]}
