{"type": "FeatureCollection", "features": [
{"geometry": {"type": "Point", "coordinates": [-75.8757553974, 41.2474241049]}, "type": "Feature", "properties": {"collection_times": [{"days": "Mon-Sat", "time": "9:30am"}, {"days": "Sun", "time": "Closed"}], "id": "1870100004", "name": "USPS COLLECTION BOX - BLUE BOX", "address": {"city": "WILKES BARRE", "state": "PA", "street": "163 S WASHINGTON ST", "postcode": "18701"}}},
{"geometry": {"type": "Point", "coordinates": [-75.8841970381, 41.2435606052]}, "type": "Feature", "properties": {"collection_times": [{"days": "Mon-Fri", "time": "4:30pm"}, {"days": "Sat-Sun", "time": "Closed"}], "id": "1870100005", "name": "USPS COLLECTION BOX - EXPRESS", "address": {"city": "WILKES BARRE", "state": "PA", "street": "2 PUBLIC SQ", "postcode": "18701"}}},
{"geometry": {"type": "Point", "coordinates": [-75.8822087682, 41.2464010848]}, "type": "Feature", "properties": {"collection_times": [{"days": "Mon-Fri", "time": "4:30pm"}, {"days": "Sat-Sun", "time": "Closed"}], "id": "1870100006", "name": "USPS COLLECTION BOX - BLUE BOX", "address": {"city": "WILKES BARRE", "state": "PA", "street": "2 PUBLIC SQ", "postcode": "18701"}}},
{"geometry": {"type": "Point", "coordinates": [-75.8835358196, 41.2427928445]}, "type": "Feature", "properties": {"collection_times": [{"days": "Mon-Sat", "time": "2:00pm"}, {"days": "Sun", "time": "Closed"}], "id": "1870100007", "name": "USPS COLLECTION BOX - BLUE BOX", "address": {"city": "WILKES BARRE", "state": "PA", "street": "63 E NORTHAMPTON ST", "postcode": "18701"}}},
{"geometry": {"type": "Point", "coordinates": [-75.8505690181, 41.275469696]}, "type": "Feature", "properties": {"collection_times": [{"days": "Mon-Fri", "time": "4:30pm"}, {"days": "Sat", "time": "12:00pm"}, {"days": "Sun", "time": "Closed"}], "id": "1870100010", "name": "USPS COLLECTION BOX - BLUE BOX", "address": {"city": "WILKES BARRE", "state": "PA", "street": "1 N MAIN ST", "postcode": "18701"}}},
{"geometry": {"type": "Point", "coordinates": [-75.9080714704, 41.2062571329]}, "type": "Feature", "properties": {"collection_times": [{"days": "Mon-Fri", "time": "6:30pm"}, {"days": "Sat", "time": "5:30pm"}, {"days": "Sun", "time": "Closed"}], "id": "1870100013", "name": "USPS COLLECTION BOX - BLUE BOX", "address": {"city": "WILKES BARRE", "state": "PA", "street": "300 S MAIN ST", "postcode": "18701"}}},
{"geometry": {"type": "Point", "coordinates": [-75.897250596, 41.2371969541]}, "type": "Feature", "properties": {"collection_times": [{"days": "Mon-Sat", "time": "10:00am"}, {"days": "Sun", "time": "Closed"}], "id": "1870100019", "name": "USPS COLLECTION BOX - BLUE BOX", "address": {"city": "WILKES BARRE", "state": "PA", "street": "566 S MAIN ST", "postcode": "18701"}}},
{"geometry": {"type": "Point", "coordinates": [-75.8830012919, 41.245275537]}, "type": "Feature", "properties": {"collection_times": [{"days": "Mon-Fri", "time": "1:00pm"}, {"days": "Sat-Sun", "time": "Closed"}], "id": "1870100021", "name": "USPS COLLECTION BOX - BLUE BOX", "address": {"city": "WILKES BARRE", "state": "PA", "street": "15 S MAIN ST", "postcode": "18701"}}},
{"geometry": {"type": "Point", "coordinates": [-75.8882947624, 41.2422782334]}, "type": "Feature", "properties": {"collection_times": [{"days": "Mon-Fri", "time": "10:00am"}, {"days": "Sat-Sun", "time": "Closed"}], "id": "1870100023", "name": "USPS COLLECTION BOX - BLUE BOX", "address": {"city": "WILKES BARRE", "state": "PA", "street": "197 S MAIN ST", "postcode": "18701"}}},
{"geometry": {"type": "Point", "coordinates": [-75.881803692, 41.2453861939]}, "type": "Feature", "properties": {"collection_times": [{"days": "Mon-Fri", "time": "4:30pm"}, {"days": "Sat-Sun", "time": "Closed"}], "id": "1870100024", "name": "USPS COLLECTION BOX - BLUE BOX", "address": {"city": "WILKES BARRE", "state": "PA", "street": "60 PUBLIC SQ", "postcode": "18701"}}},
{"geometry": {"type": "Point", "coordinates": [-75.8808436238, 41.2482438497]}, "type": "Feature", "properties": {"collection_times": [{"days": "Mon-Sat", "time": "11:45am"}, {"days": "Sun", "time": "Closed"}], "id": "1870100029", "name": "USPS COLLECTION BOX - BLUE BOX", "address": {"city": "WILKES BARRE", "state": "PA", "street": "64 N FRANKLIN ST", "postcode": "18701"}}},
{"geometry": {"type": "Point", "coordinates": [-75.8841970381, 41.2435606052]}, "type": "Feature", "properties": {"collection_times": [{"days": "Mon-Fri", "time": "10:00am"}, {"days": "Sat-Sun", "time": "Closed"}], "id": "1870100033", "name": "USPS COLLECTION BOX - BLUE BOX", "address": {"city": "WILKES BARRE", "state": "PA", "street": "15 S FRANKLIN ST", "postcode": "18701"}}},
{"geometry": {"type": "Point", "coordinates": [-75.8839426564, 41.2432742848]}, "type": "Feature", "properties": {"collection_times": [{"days": "Mon-Sat", "time": "12:30pm"}, {"days": "Sun", "time": "Closed"}], "id": "1870100035", "name": "USPS COLLECTION BOX - BLUE BOX", "address": {"city": "WILKES BARRE", "state": "PA", "street": "40 W NORTHAMPTON ST", "postcode": "18701"}}},
{"geometry": {"type": "Point", "coordinates": [-75.8781540509, 41.2471104994]}, "type": "Feature", "properties": {"collection_times": [{"days": "Mon-Sat", "time": "1:00pm"}, {"days": "Sun", "time": "Closed"}], "id": "1870100043", "name": "USPS COLLECTION BOX - BLUE BOX", "address": {"city": "WILKES BARRE", "state": "PA", "street": "22 E UNION ST", "postcode": "18701"}}},
{"geometry": {"type": "Point", "coordinates": [-75.8810278455, 41.2451173349]}, "type": "Feature", "properties": {"collection_times": [{"days": "Mon-Fri", "time": "4:30pm"}, {"days": "Sat-Sun", "time": "Closed"}], "id": "1870100045", "name": "USPS COLLECTION BOX - BLUE BOX", "address": {"city": "WILKES BARRE", "state": "PA", "street": "40 E MARKET ST", "postcode": "18701"}}},
{"geometry": {"type": "Point", "coordinates": [-75.8790558529, 41.2479528875]}, "type": "Feature", "properties": {"collection_times": [{"days": "Mon-Fri", "time": "1:00pm"}, {"days": "Sat-Sun", "time": "Closed"}], "id": "1870100053", "name": "USPS COLLECTION BOX - BLUE BOX", "address": {"city": "WILKES BARRE", "state": "PA", "street": "85 E UNION ST", "postcode": "18701"}}},
{"geometry": {"type": "Point", "coordinates": [-75.8819732949, 41.2455206235]}, "type": "Feature", "properties": {"collection_times": [{"days": "Mon-Sat", "time": "11:30am"}, {"days": "Sun", "time": "Closed"}], "id": "1870100055", "name": "USPS COLLECTION BOX - BLUE BOX", "address": {"city": "WILKES BARRE", "state": "PA", "street": "67 PUBLIC SQ", "postcode": "18701"}}},
{"geometry": {"type": "Point", "coordinates": [-75.881803692, 41.2453861939]}, "type": "Feature", "properties": {"collection_times": [{"days": "Mon-Fri", "time": "4:30pm"}, {"days": "Sat-Sun", "time": "Closed"}], "id": "1870100056", "name": "USPS COLLECTION BOX - BLUE BOX", "address": {"city": "WILKES BARRE", "state": "PA", "street": "60 PUBLIC SQ", "postcode": "18701"}}},
{"geometry": {"type": "Point", "coordinates": [-75.8822101244, 41.246291444]}, "type": "Feature", "properties": {"collection_times": [{"days": "Mon-Fri", "time": "4:30pm"}, {"days": "Sat", "time": "12:30pm"}, {"days": "Sun", "time": "Closed"}], "id": "1870100057", "name": "USPS COLLECTION BOX - BLUE BOX", "address": {"city": "WILKES BARRE", "state": "PA", "street": "1 PUBLIC SQ", "postcode": "18701"}}},
{"geometry": {"type": "Point", "coordinates": [-75.9080714704, 41.2062571329]}, "type": "Feature", "properties": {"collection_times": [{"days": "Mon-Fri", "time": "6:30pm"}, {"days": "Sat", "time": "5:30pm"}, {"days": "Sun", "time": "Closed"}], "id": "1870100059", "name": "USPS COLLECTION BOX - BLUE BOX", "address": {"city": "WILKES BARRE", "state": "PA", "street": "300 S MAIN ST", "postcode": "18701"}}},
{"geometry": {"type": "Point", "coordinates": [-75.9080714704, 41.2062571329]}, "type": "Feature", "properties": {"collection_times": [{"days": "Mon-Fri", "time": "6:30pm"}, {"days": "Sat", "time": "5:30pm"}, {"days": "Sun", "time": "Closed"}], "id": "1870100060", "name": "USPS COLLECTION BOX - BLUE BOX", "address": {"city": "WILKES BARRE", "state": "PA", "street": "300 S MAIN ST", "postcode": "18701"}}},
{"geometry": {"type": "Point", "coordinates": [-75.8841970381, 41.2435606052]}, "type": "Feature", "properties": {"collection_times": [{"days": "Mon-Fri", "time": "6:30pm"}, {"days": "Sat", "time": "5:30pm"}, {"days": "Sun", "time": "Closed"}], "id": "1870100061", "name": "USPS COLLECTION BOX - EXPRESS", "address": {"city": "WILKES BARRE", "state": "PA", "street": "300 S MAIN ST", "postcode": "18701"}}},
{"geometry": {"type": "Point", "coordinates": [-75.8841970381, 41.2435606052]}, "type": "Feature", "properties": {"collection_times": [{"days": "Mon-Sat", "time": "11:45am"}, {"days": "Sun", "time": "Closed"}], "id": "1870100062", "name": "USPS COLLECTION BOX - EXPRESS", "address": {"city": "WILKES BARRE", "state": "PA", "street": "64 N FRANKLIN ST", "postcode": "18701"}}},
{"geometry": {"type": "Point", "coordinates": [-75.8822087682, 41.2464010848]}, "type": "Feature", "properties": {"collection_times": [{"days": "Mon-Fri", "time": "4:30pm"}, {"days": "Sat-Sun", "time": "Closed"}], "id": "1870100066", "name": "USPS COLLECTION BOX - BLUE BOX", "address": {"city": "WILKES BARRE", "state": "PA", "street": "2 PUBLIC SQ", "postcode": "18701"}}},
{"geometry": {"type": "Point", "coordinates": [-75.8505690181, 41.275469696]}, "type": "Feature", "properties": {"collection_times": [{"days": "Mon-Fri", "time": "4:30pm"}, {"days": "Sat", "time": "12:00pm"}, {"days": "Sun", "time": "Closed"}], "id": "1870100067", "name": "USPS COLLECTION BOX - BLUE BOX", "address": {"city": "WILKES BARRE", "state": "PA", "street": "1 N MAIN ST", "postcode": "18701"}}},
{"geometry": {"type": "Point", "coordinates": [-75.8789721745, 41.2438659612]}, "type": "Feature", "properties": {"collection_times": [{"days": "Mon-Fri", "time": "10:30am"}, {"days": "Sat-Sun", "time": "Closed"}], "id": "1870100070", "name": "USPS COLLECTION BOX - BLUE BOX", "address": {"city": "WILKES BARRE", "state": "PA", "street": "20 N PENNSYLVANIA AVE", "postcode": "18701"}}},
{"geometry": {"type": "Point", "coordinates": [-75.8868512427, 41.2413272083]}, "type": "Feature", "properties": {"collection_times": [{"days": "Mon-Sat", "time": "2:15pm"}, {"days": "Sun", "time": "Closed"}], "id": "1870100071", "name": "USPS COLLECTION BOX - BLUE BOX", "address": {"city": "WILKES BARRE", "state": "PA", "street": "205 S WASHINGTON ST", "postcode": "18701"}}},
{"geometry": {"type": "Point", "coordinates": [-75.9080714704, 41.2062571329]}, "type": "Feature", "properties": {"collection_times": [{"days": "Mon-Fri", "time": "6:30pm"}, {"days": "Sat", "time": "5:30pm"}, {"days": "Sun", "time": "Closed"}], "id": "1870100073", "name": "USPS COLLECTION BOX - PO LOBBY", "address": {"city": "WILKES BARRE", "state": "PA", "street": "300 S MAIN ST", "postcode": "18701"}}},
{"geometry": {"type": "Point", "coordinates": [-75.9080714704, 41.2062571329]}, "type": "Feature", "properties": {"collection_times": [{"days": "Mon-Fri", "time": "6:30pm"}, {"days": "Sat", "time": "5:30pm"}, {"days": "Sun", "time": "Closed"}], "id": "1870100074", "name": "USPS COLLECTION BOX - APC", "address": {"city": "WILKES BARRE", "state": "PA", "street": "300 S MAIN ST", "postcode": "18701"}}},
{"geometry": {"type": "Point", "coordinates": [-75.7782669257, 41.2290093508]}, "type": "Feature", "properties": {"collection_times": [{"days": "Mon-Sat", "time": "11:30am"}, {"days": "Sun", "time": "Closed"}], "id": "1870200004", "name": "USPS COLLECTION BOX - BLUE BOX", "address": {"city": "BEAR CREEK TW", "state": "PA", "street": "665 CAREY AVE", "postcode": "18702"}}},
{"geometry": {"type": "Point", "coordinates": [-75.9026227614, 41.2455065284]}, "type": "Feature", "properties": {"collection_times": [{"days": "Mon-Sat", "time": "11:00am"}, {"days": "Sun", "time": "Closed"}], "id": "1870200011", "name": "USPS COLLECTION BOX - BLUE BOX", "address": {"city": "BEAR CREEK TW", "state": "PA", "street": "39 OLD RIVER RD", "postcode": "18702"}}},
{"geometry": {"type": "Point", "coordinates": [-75.8673587547, 41.2265259518]}, "type": "Feature", "properties": {"collection_times": [{"days": "Mon-Sat", "time": "12:30pm"}, {"days": "Sun", "time": "Closed"}], "id": "1870200023", "name": "USPS COLLECTION BOX - BLUE BOX", "address": {"city": "BEAR CREEK TW", "state": "PA", "street": "25 CHURCH ST", "postcode": "18702"}}},
{"geometry": {"type": "Point", "coordinates": [-75.9007722252, 41.2396115529]}, "type": "Feature", "properties": {"collection_times": [{"days": "Mon-Sat", "time": "12:30pm"}, {"days": "Sun", "time": "Closed"}], "id": "1870200030", "name": "USPS COLLECTION BOX - BLUE BOX", "address": {"city": "BEAR CREEK TW", "state": "PA", "street": "60 MONROE ST", "postcode": "18702"}}},
{"geometry": {"type": "Point", "coordinates": [-75.9035307861, 41.2336899793]}, "type": "Feature", "properties": {"collection_times": [{"days": "Mon-Sat", "time": "12:15pm"}, {"days": "Sun", "time": "Closed"}], "id": "1870200036", "name": "USPS COLLECTION BOX - BLUE BOX", "address": {"city": "BEAR CREEK TW", "state": "PA", "street": "730 S MAIN ST", "postcode": "18702"}}},
{"geometry": {"type": "Point", "coordinates": [-75.8693461572, 41.2379036699]}, "type": "Feature", "properties": {"collection_times": [{"days": "Mon-Sat", "time": "9:30am"}, {"days": "Sun", "time": "Closed"}], "id": "1870200046", "name": "USPS COLLECTION BOX - BLUE BOX", "address": {"city": "BEAR CREEK TW", "state": "PA", "street": "127 CUSTER ST", "postcode": "18702"}}},
{"geometry": {"type": "Point", "coordinates": [-75.885729075, 41.2351896696]}, "type": "Feature", "properties": {"collection_times": [{"days": "Mon-Sat", "time": "11:15am"}, {"days": "Sun", "time": "Closed"}], "id": "1870200051", "name": "USPS COLLECTION BOX - BLUE BOX", "address": {"city": "BEAR CREEK TW", "state": "PA", "street": "211 PARK AVE", "postcode": "18702"}}},
{"geometry": {"type": "Point", "coordinates": [-75.8617072896, 41.2403235761]}, "type": "Feature", "properties": {"collection_times": [{"days": "Mon-Sat", "time": "10:00am"}, {"days": "Sun", "time": "Closed"}], "id": "1870200052", "name": "USPS COLLECTION BOX - BLUE BOX", "address": {"city": "BEAR CREEK TW", "state": "PA", "street": "723 METCALF ST", "postcode": "18702"}}},
{"geometry": {"type": "Point", "coordinates": [-75.8686860346, 41.2271777622]}, "type": "Feature", "properties": {"collection_times": [{"days": "Mon-Sat", "time": "9:30am"}, {"days": "Sun", "time": "Closed"}], "id": "1870200053", "name": "USPS COLLECTION BOX - BLUE BOX", "address": {"city": "BEAR CREEK TW", "state": "PA", "street": "729 E NORTHAMPTON ST", "postcode": "18702"}}},
{"geometry": {"type": "Point", "coordinates": [-75.7782669257, 41.2290093508]}, "type": "Feature", "properties": {"collection_times": [{"days": "Mon-Sat", "time": "11:00am"}, {"days": "Sun", "time": "Closed"}], "id": "1870200056", "name": "USPS COLLECTION BOX - BLUE BOX", "address": {"city": "BEAR CREEK TW", "state": "PA", "street": "910 WLKES BAR TWP BLVD", "postcode": "18702"}}},
{"geometry": {"type": "Point", "coordinates": [-75.8573585698, 41.2495509294]}, "type": "Feature", "properties": {"collection_times": [{"days": "Mon-Sat", "time": "1:30pm"}, {"days": "Sun", "time": "Closed"}], "id": "1870200059", "name": "USPS COLLECTION BOX - BLUE BOX", "address": {"city": "BEAR CREEK TW", "state": "PA", "street": "341 KIDDER ST", "postcode": "18702"}}},
{"geometry": {"type": "Point", "coordinates": [-75.8732144917, 41.2386998396]}, "type": "Feature", "properties": {"collection_times": [{"days": "Mon-Sat", "time": "10:00am"}, {"days": "Sun", "time": "Closed"}], "id": "1870200063", "name": "USPS COLLECTION BOX - BLUE BOX", "address": {"city": "BEAR CREEK TW", "state": "PA", "street": "5 N SHERMAN ST", "postcode": "18702"}}},
{"geometry": {"type": "Point", "coordinates": [-75.8983386227, 41.233988002]}, "type": "Feature", "properties": {"collection_times": [{"days": "Mon-Sat", "time": "9:00am"}, {"days": "Sun", "time": "Closed"}], "id": "1870200070", "name": "USPS COLLECTION BOX - BLUE BOX", "address": {"city": "BEAR CREEK TW", "state": "PA", "street": "215 HIGH BLVD", "postcode": "18702"}}},
{"geometry": {"type": "Point", "coordinates": [-75.8680314585, 41.258418805]}, "type": "Feature", "properties": {"collection_times": [{"days": "Mon-Sat", "time": "9:00am"}, {"days": "Sun", "time": "Closed"}], "id": "1870200074", "name": "USPS COLLECTION BOX - BLUE BOX", "address": {"city": "BEAR CREEK TW", "state": "PA", "street": "575 N RIVER ST", "postcode": "18702"}}},
{"geometry": {"type": "Point", "coordinates": [-75.8365582649, 41.2464998492]}, "type": "Feature", "properties": {"collection_times": [{"days": "Mon-Fri", "time": "10:00am"}, {"days": "Sat-Sun", "time": "Closed"}], "id": "1870200080", "name": "USPS COLLECTION BOX - BLUE BOX", "address": {"city": "BEAR CREEK TW", "state": "PA", "street": "9 PRINCETON CT", "postcode": "18702"}}},
{"geometry": {"type": "Point", "coordinates": [-75.8442251645, 41.2500887669]}, "type": "Feature", "properties": {"collection_times": [{"days": "Mon-Sat", "time": "10:00am"}, {"days": "Sun", "time": "Closed"}], "id": "1870200081", "name": "USPS COLLECTION BOX - BLUE BOX", "address": {"city": "BEAR CREEK TW", "state": "PA", "street": "34 WYOMING VALLEY MALL", "postcode": "18702"}}},
{"geometry": {"type": "Point", "coordinates": [-75.8443379201, 41.2502965538]}, "type": "Feature", "properties": {"collection_times": [{"days": "Mon-Sat", "time": "10:00am"}, {"days": "Sun", "time": "Closed"}], "id": "1870200082", "name": "USPS COLLECTION BOX - BLUE BOX", "address": {"city": "BEAR CREEK TW", "state": "PA", "street": "1 WYOMING VALLEY MALL", "postcode": "18702"}}},
{"geometry": {"type": "Point", "coordinates": [-75.8515426317, 41.2487983605]}, "type": "Feature", "properties": {"collection_times": [{"days": "Mon-Sat", "time": "10:00am"}, {"days": "Sun", "time": "Closed"}], "id": "1870200085", "name": "USPS COLLECTION BOX - BLUE BOX", "address": {"city": "BEAR CREEK TW", "state": "PA", "street": "230 E END CTR", "postcode": "18702"}}},
{"geometry": {"type": "Point", "coordinates": [-75.8215397622, 41.2583380418]}, "type": "Feature", "properties": {"collection_times": [{"days": "Mon-Fri", "time": "3:00pm"}, {"days": "Sat-Sun", "time": "Closed"}], "id": "1870200086", "name": "USPS COLLECTION BOX - BLUE BOX", "address": {"city": "BEAR CREEK TW", "state": "PA", "street": "1065 HIGHWAY 315", "postcode": "18702"}}},
{"geometry": {"type": "Point", "coordinates": [-75.8617072896, 41.2403235761]}, "type": "Feature", "properties": {"collection_times": [{"days": "Mon-Sat", "time": "11:15am"}, {"days": "Sun", "time": "Closed"}], "id": "1870200087", "name": "USPS COLLECTION BOX - BLUE BOX", "address": {"city": "BEAR CREEK TW", "state": "PA", "street": "581 HAZLE ST", "postcode": "18702"}}},
{"geometry": {"type": "Point", "coordinates": [-75.8793497359, 41.2336989646]}, "type": "Feature", "properties": {"collection_times": [{"days": "Mon-Sat", "time": "9:30am"}, {"days": "Sun", "time": "Closed"}], "id": "1870200092", "name": "USPS COLLECTION BOX - BLUE BOX", "address": {"city": "BEAR CREEK TW", "state": "PA", "street": "200 S MEADE ST", "postcode": "18702"}}},
{"geometry": {"type": "Point", "coordinates": [-75.8568163066, 41.2459403451]}, "type": "Feature", "properties": {"collection_times": [{"days": "Mon-Sat", "time": "9:30am"}, {"days": "Sun", "time": "Closed"}], "id": "1870200098", "name": "USPS COLLECTION BOX - BLUE BOX", "address": {"city": "BEAR CREEK TW", "state": "PA", "street": "150 MUNDY ST", "postcode": "18702"}}},
{"geometry": {"type": "Point", "coordinates": [-75.8848090281, 41.2191312163]}, "type": "Feature", "properties": {"collection_times": [{"days": "Mon-Sat", "time": "10:00am"}, {"days": "Sun", "time": "Closed"}], "id": "1870200099", "name": "USPS COLLECTION BOX - BLUE BOX", "address": {"city": "BEAR CREEK TW", "state": "PA", "street": "245 WILKES BARRE TOWNSHIP BLVD", "postcode": "18702"}}},
{"geometry": {"type": "Point", "coordinates": [-75.8731808691, 41.2370383411]}, "type": "Feature", "properties": {"collection_times": [{"days": "Mon-Sat", "time": "9:30am"}, {"days": "Sun", "time": "Closed"}], "id": "1870200104", "name": "USPS COLLECTION BOX - BLUE BOX", "address": {"city": "BEAR CREEK TW", "state": "PA", "street": "374 NEW MARKET ST", "postcode": "18702"}}},
{"geometry": {"type": "Point", "coordinates": [-75.8708047622, 41.2356120217]}, "type": "Feature", "properties": {"collection_times": [{"days": "Mon-Sat", "time": "9:45am"}, {"days": "Sun", "time": "Closed"}], "id": "1870200105", "name": "USPS COLLECTION BOX - BLUE BOX", "address": {"city": "BEAR CREEK TW", "state": "PA", "street": "2 S EMPIRE ST", "postcode": "18702"}}},
{"geometry": {"type": "Point", "coordinates": [-75.8617072896, 41.2403235761]}, "type": "Feature", "properties": {"collection_times": [{"days": "Mon-Sat", "time": "12:15pm"}, {"days": "Sun", "time": "Closed"}], "id": "1870200113", "name": "USPS COLLECTION BOX - BLUE BOX", "address": {"city": "BEAR CREEK TW", "state": "PA", "street": "47 LAFLIN RD", "postcode": "18702"}}},
{"geometry": {"type": "Point", "coordinates": [-75.8617072896, 41.2403235761]}, "type": "Feature", "properties": {"collection_times": [{"days": "Mon-Sat", "time": "10:00am"}, {"days": "Sun", "time": "Closed"}], "id": "1870200114", "name": "USPS COLLECTION BOX - BLUE BOX", "address": {"city": "BEAR CREEK TW", "state": "PA", "street": "100 LAUREL RUN RD", "postcode": "18702"}}},
{"geometry": {"type": "Point", "coordinates": [-75.8777905595, 41.2417450385]}, "type": "Feature", "properties": {"collection_times": [{"days": "Mon-Sat", "time": "9:30am"}, {"days": "Sun", "time": "Closed"}], "id": "1870200117", "name": "USPS COLLECTION BOX - BLUE BOX", "address": {"city": "BEAR CREEK TW", "state": "PA", "street": "50 LINCOLN PLZ", "postcode": "18702"}}},
{"geometry": {"type": "Point", "coordinates": [-75.8998977793, 41.230446274]}, "type": "Feature", "properties": {"collection_times": [{"days": "Mon-Sat", "time": "9:30am"}, {"days": "Sun", "time": "Closed"}], "id": "1870200119", "name": "USPS COLLECTION BOX - BLUE BOX", "address": {"city": "BEAR CREEK TW", "state": "PA", "street": "161 BLACKMAN ST", "postcode": "18702"}}},
{"geometry": {"type": "Point", "coordinates": [-75.8150689489, 41.2534475346]}, "type": "Feature", "properties": {"collection_times": [{"days": "Mon-Sat", "time": "10:00am"}, {"days": "Sun", "time": "Closed"}], "id": "1870200120", "name": "USPS COLLECTION BOX - BLUE BOX", "address": {"city": "BEAR CREEK TW", "state": "PA", "street": "680 WILDFLOWER DR", "postcode": "18702"}}},
{"geometry": {"type": "Point", "coordinates": [-75.8116474162, 41.2598154098]}, "type": "Feature", "properties": {"collection_times": [{"days": "Mon-Sat", "time": "9:00am"}, {"days": "Sun", "time": "Closed"}], "id": "1870200121", "name": "USPS COLLECTION BOX - BLUE BOX", "address": {"city": "BEAR CREEK TW", "state": "PA", "street": "1010 E MOUNTAIN DR", "postcode": "18702"}}},
{"geometry": {"type": "Point", "coordinates": [-75.8022314068, 41.2517457848]}, "type": "Feature", "properties": {"collection_times": [{"days": "Mon-Fri", "time": "3:00pm"}, {"days": "Sat", "time": "10:00am"}, {"days": "Sun", "time": "Closed"}], "id": "1870200122", "name": "USPS COLLECTION BOX - BLUE BOX", "address": {"city": "BEAR CREEK TW", "state": "PA", "street": "605 BALTIMORE DR", "postcode": "18702"}}},
{"geometry": {"type": "Point", "coordinates": [-75.8295345804, 41.257152879]}, "type": "Feature", "properties": {"collection_times": [{"days": "Mon-Sat", "time": "10:00am"}, {"days": "Sun", "time": "Closed"}], "id": "1870200124", "name": "USPS COLLECTION BOX - BLUE BOX", "address": {"city": "BEAR CREEK TW", "state": "PA", "street": "300 LAIRD ST", "postcode": "18702"}}},
{"geometry": {"type": "Point", "coordinates": [-75.8089596422, 41.2486875367]}, "type": "Feature", "properties": {"collection_times": [{"days": "Mon-Sat", "time": "10:00am"}, {"days": "Sun", "time": "Closed"}], "id": "1870200125", "name": "USPS COLLECTION BOX - BLUE BOX", "address": {"city": "BEAR CREEK TW", "state": "PA", "street": "100 E MOUNTAIN RIDGE MHP", "postcode": "18702"}}},
{"geometry": {"type": "Point", "coordinates": [-75.8101271524, 41.2698611594]}, "type": "Feature", "properties": {"collection_times": [{"days": "Mon-Sat", "time": "10:00am"}, {"days": "Sun", "time": "Closed"}], "id": "1870200126", "name": "USPS COLLECTION BOX - BLUE BOX", "address": {"city": "BEAR CREEK TW", "state": "PA", "street": "1230 HIGHWAY 315 BLVD", "postcode": "18702"}}},
{"geometry": {"type": "Point", "coordinates": [-75.8770594567, 41.2428005509]}, "type": "Feature", "properties": {"collection_times": [{"days": "Mon-Fri", "time": "3:45pm"}, {"days": "Sat", "time": "2:00pm"}, {"days": "Sun", "time": "Closed"}], "id": "1870200127", "name": "USPS COLLECTION BOX - BLUE BOX", "address": {"city": "BEAR CREEK TW", "state": "PA", "street": "100 N WILKES BARRE BLVD", "postcode": "18702"}}},
{"geometry": {"type": "Point", "coordinates": [-75.7956623229, 41.2777802212]}, "type": "Feature", "properties": {"collection_times": [{"days": "Mon-Fri", "time": "10:00am"}, {"days": "Sat-Sun", "time": "Closed"}], "id": "1870200128", "name": "USPS COLLECTION BOX - BLUE BOX", "address": {"city": "BEAR CREEK TW", "state": "PA", "street": "1550 HIGHWAY 315 BLVD", "postcode": "18702"}}},
{"geometry": {"type": "Point", "coordinates": [-75.8779178761, 41.2422350957]}, "type": "Feature", "properties": {"collection_times": [{"days": "Mon-Fri", "time": "2:45pm"}, {"days": "Sat-Sun", "time": "Closed"}], "id": "1870200129", "name": "USPS COLLECTION BOX - BLUE BOX", "address": {"city": "BEAR CREEK TW", "state": "PA", "street": "7 N WILKES BARRE BLVD", "postcode": "18702"}}},
{"geometry": {"type": "Point", "coordinates": [-75.8770594567, 41.2428005509]}, "type": "Feature", "properties": {"collection_times": [{"days": "Mon-Fri", "time": "3:45pm"}, {"days": "Sat", "time": "2:00pm"}, {"days": "Sun", "time": "Closed"}], "id": "1870200134", "name": "USPS COLLECTION BOX - BLUE BOX", "address": {"city": "BEAR CREEK TW", "state": "PA", "street": "100 N WILKES BARRE BLVD", "postcode": "18702"}}},
{"geometry": {"type": "Point", "coordinates": [-75.8215397622, 41.2583380418]}, "type": "Feature", "properties": {"collection_times": [{"days": "Mon-Fri", "time": "3:00pm"}, {"days": "Sat-Sun", "time": "Closed"}], "id": "1870200135", "name": "USPS COLLECTION BOX - BLUE BOX", "address": {"city": "BEAR CREEK TW", "state": "PA", "street": "1065 HIGHWAY 315", "postcode": "18702"}}},
{"geometry": {"type": "Point", "coordinates": [-75.8022314068, 41.2517457848]}, "type": "Feature", "properties": {"collection_times": [{"days": "Mon-Fri", "time": "3:00pm"}, {"days": "Sat", "time": "10:00am"}, {"days": "Sun", "time": "Closed"}], "id": "1870200136", "name": "USPS COLLECTION BOX - BLUE BOX", "address": {"city": "BEAR CREEK TW", "state": "PA", "street": "605 BALTIMORE DR", "postcode": "18702"}}},
{"geometry": {"type": "Point", "coordinates": [-75.8137822809, 41.260788349]}, "type": "Feature", "properties": {"collection_times": [{"days": "Mon-Sat", "time": "9:00am"}, {"days": "Sun", "time": "Closed"}], "id": "1870200137", "name": "USPS COLLECTION BOX - BLUE BOX", "address": {"city": "BEAR CREEK TW", "state": "PA", "street": "1150 E MOUNTAIN DR", "postcode": "18702"}}},
{"geometry": {"type": "Point", "coordinates": [-75.8632446111, 41.2469310832]}, "type": "Feature", "properties": {"collection_times": [{"days": "Mon-Sat", "time": "10:00am"}, {"days": "Sun", "time": "Closed"}], "id": "1870200139", "name": "USPS COLLECTION BOX - BLUE BOX", "address": {"city": "BEAR CREEK TW", "state": "PA", "street": "295 SCOTT ST", "postcode": "18702"}}},
{"geometry": {"type": "Point", "coordinates": [-75.8916227588, 41.2666984213]}, "type": "Feature", "properties": {"collection_times": [{"days": "Mon-Sat", "time": "4:30pm"}, {"days": "Sun", "time": "Closed"}], "id": "1870400002", "name": "USPS COLLECTION BOX - BLUE BOX", "address": {"city": "EDWARDSVILLE", "state": "PA", "street": "435 WYOMING AVE", "postcode": "18704"}}},
{"geometry": {"type": "Point", "coordinates": [-75.8877183101, 41.2706423314]}, "type": "Feature", "properties": {"collection_times": [{"days": "Mon-Sat", "time": "12:00pm"}, {"days": "Sun", "time": "Closed"}], "id": "1870400003", "name": "USPS COLLECTION BOX - BLUE BOX", "address": {"city": "EDWARDSVILLE", "state": "PA", "street": "618 WYOMING AVE", "postcode": "18704"}}},
{"geometry": {"type": "Point", "coordinates": [-75.8865050924, 41.271755351]}, "type": "Feature", "properties": {"collection_times": [{"days": "Mon-Sat", "time": "12:00pm"}, {"days": "Sun", "time": "Closed"}], "id": "1870400004", "name": "USPS COLLECTION BOX - BLUE BOX", "address": {"city": "EDWARDSVILLE", "state": "PA", "street": "664 WYOMING AVE", "postcode": "18704"}}},
{"geometry": {"type": "Point", "coordinates": [-75.8918164313, 41.2667749476]}, "type": "Feature", "properties": {"collection_times": [{"days": "Mon-Sat", "time": "4:30pm"}, {"days": "Sun", "time": "Closed"}], "id": "1870400005", "name": "USPS COLLECTION BOX - BLUE BOX", "address": {"city": "EDWARDSVILLE", "state": "PA", "street": "424 WYOMING AVE", "postcode": "18704"}}},
{"geometry": {"type": "Point", "coordinates": [-75.8905615154, 41.2679928082]}, "type": "Feature", "properties": {"collection_times": [{"days": "Mon-Sat", "time": "12:00pm"}, {"days": "Sun", "time": "Closed"}], "id": "1870400006", "name": "USPS COLLECTION BOX - BLUE BOX", "address": {"city": "EDWARDSVILLE", "state": "PA", "street": "500 WYOMING AVE", "postcode": "18704"}}},
{"geometry": {"type": "Point", "coordinates": [-75.8837502453, 41.2739588151]}, "type": "Feature", "properties": {"collection_times": [{"days": "Mon-Sat", "time": "12:15pm"}, {"days": "Sun", "time": "Closed"}], "id": "1870400007", "name": "USPS COLLECTION BOX - BLUE BOX", "address": {"city": "EDWARDSVILLE", "state": "PA", "street": "777 WYOMING AVE", "postcode": "18704"}}},
{"geometry": {"type": "Point", "coordinates": [-75.8907188913, 41.2738800536]}, "type": "Feature", "properties": {"collection_times": [{"days": "Mon-Sat", "time": "4:30pm"}, {"days": "Sun", "time": "Closed"}], "id": "1870400009", "name": "USPS COLLECTION BOX - EXPRESS", "address": {"city": "EDWARDSVILLE", "state": "PA", "street": "435 WYOMING AVE", "postcode": "18704"}}},
{"geometry": {"type": "Point", "coordinates": [-75.8898407005, 41.2683304004]}, "type": "Feature", "properties": {"collection_times": [{"days": "Mon-Sat", "time": "11:00am"}, {"days": "Sun", "time": "Closed"}], "id": "1870400010", "name": "USPS COLLECTION BOX - BLUE BOX", "address": {"city": "EDWARDSVILLE", "state": "PA", "street": "527 WYOMING AVE", "postcode": "18704"}}},
{"geometry": {"type": "Point", "coordinates": [-75.876422919, 41.2685422678]}, "type": "Feature", "properties": {"collection_times": [{"days": "Mon-Sat", "time": "10:30am"}, {"days": "Sun", "time": "Closed"}], "id": "1870400016", "name": "USPS COLLECTION BOX - BLUE BOX", "address": {"city": "EDWARDSVILLE", "state": "PA", "street": "255 CHURCH ST", "postcode": "18704"}}},
{"geometry": {"type": "Point", "coordinates": [-75.8844793835, 41.2587822652]}, "type": "Feature", "properties": {"collection_times": [{"days": "Mon-Fri", "time": "3:00pm"}, {"days": "Sat", "time": "11:30am"}, {"days": "Sun", "time": "Closed"}], "id": "1870400017", "name": "USPS COLLECTION BOX - BLUE BOX", "address": {"city": "EDWARDSVILLE", "state": "PA", "street": "480 PIERCE ST", "postcode": "18704"}}},
{"geometry": {"type": "Point", "coordinates": [-75.8819073824, 41.2597428239]}, "type": "Feature", "properties": {"collection_times": [{"days": "Mon-Sat", "time": "11:30am"}, {"days": "Sun", "time": "Closed"}], "id": "1870400018", "name": "USPS COLLECTION BOX - BLUE BOX", "address": {"city": "EDWARDSVILLE", "state": "PA", "street": "400 3RD AVE", "postcode": "18704"}}},
{"geometry": {"type": "Point", "coordinates": [-75.8847537328, 41.2555250094]}, "type": "Feature", "properties": {"collection_times": [{"days": "Mon-Sat", "time": "11:00am"}, {"days": "Sun", "time": "Closed"}], "id": "1870400019", "name": "USPS COLLECTION BOX - BLUE BOX", "address": {"city": "EDWARDSVILLE", "state": "PA", "street": "250 1ST AVE", "postcode": "18704"}}},
{"geometry": {"type": "Point", "coordinates": [-75.8907188913, 41.2738800536]}, "type": "Feature", "properties": {"collection_times": [{"days": "Mon-Fri", "time": "3:00pm"}, {"days": "Sat", "time": "11:30am"}, {"days": "Sun", "time": "Closed"}], "id": "1870400020", "name": "USPS COLLECTION BOX - EXPRESS", "address": {"city": "EDWARDSVILLE", "state": "PA", "street": "480 PIERCE ST", "postcode": "18704"}}},
{"geometry": {"type": "Point", "coordinates": [-75.8646336612, 41.2993293196]}, "type": "Feature", "properties": {"collection_times": [{"days": "Mon-Sat", "time": "12:30pm"}, {"days": "Sun", "time": "Closed"}], "id": "1870400029", "name": "USPS COLLECTION BOX - BLUE BOX", "address": {"city": "EDWARDSVILLE", "state": "PA", "street": "144 LACKAWANNA AVE", "postcode": "18704"}}},
{"geometry": {"type": "Point", "coordinates": [-75.9122322017, 41.2798117814]}, "type": "Feature", "properties": {"collection_times": [{"days": "Mon-Sat", "time": "11:00am"}, {"days": "Sun", "time": "Closed"}], "id": "1870400038", "name": "USPS COLLECTION BOX - BLUE BOX", "address": {"city": "EDWARDSVILLE", "state": "PA", "street": "257 COURTDALE AVE", "postcode": "18704"}}},
{"geometry": {"type": "Point", "coordinates": [-75.9034706873, 41.2761833188]}, "type": "Feature", "properties": {"collection_times": [{"days": "Mon-Sat", "time": "11:00am"}, {"days": "Sun", "time": "Closed"}], "id": "1870400039", "name": "USPS COLLECTION BOX - BLUE BOX", "address": {"city": "EDWARDSVILLE", "state": "PA", "street": "418 PRINGLE ST", "postcode": "18704"}}},
{"geometry": {"type": "Point", "coordinates": [-75.8892233852, 41.258145262]}, "type": "Feature", "properties": {"collection_times": [{"days": "Mon-Sat", "time": "11:00am"}, {"days": "Sun", "time": "Closed"}], "id": "1870400040", "name": "USPS COLLECTION BOX - BLUE BOX", "address": {"city": "EDWARDSVILLE", "state": "PA", "street": "98 N THOMAS AVE", "postcode": "18704"}}},
{"geometry": {"type": "Point", "coordinates": [-75.8853599656, 41.2596769107]}, "type": "Feature", "properties": {"collection_times": [{"days": "Mon-Sat", "time": "10:00am"}, {"days": "Sun", "time": "Closed"}], "id": "1870400041", "name": "USPS COLLECTION BOX - BLUE BOX", "address": {"city": "EDWARDSVILLE", "state": "PA", "street": "390 PIERCE ST", "postcode": "18704"}}},
{"geometry": {"type": "Point", "coordinates": [-75.892721795, 41.2567577041]}, "type": "Feature", "properties": {"collection_times": [{"days": "Mon-Sat", "time": "10:00am"}, {"days": "Sun", "time": "Closed"}], "id": "1870400042", "name": "USPS COLLECTION BOX - BLUE BOX", "address": {"city": "EDWARDSVILLE", "state": "PA", "street": "390 MARKET ST", "postcode": "18704"}}},
{"geometry": {"type": "Point", "coordinates": [-75.8945060809, 41.2589980174]}, "type": "Feature", "properties": {"collection_times": [{"days": "Mon-Sat", "time": "10:00am"}, {"days": "Sun", "time": "Closed"}], "id": "1870400043", "name": "USPS COLLECTION BOX - BLUE BOX", "address": {"city": "EDWARDSVILLE", "state": "PA", "street": "503 MARKET ST", "postcode": "18704"}}},
{"geometry": {"type": "Point", "coordinates": [-75.888898107, 41.2633201555]}, "type": "Feature", "properties": {"collection_times": [{"days": "Mon-Sat", "time": "11:30am"}, {"days": "Sun", "time": "Closed"}], "id": "1870400045", "name": "USPS COLLECTION BOX - BLUE BOX", "address": {"city": "EDWARDSVILLE", "state": "PA", "street": "250 PIERCE ST", "postcode": "18704"}}},
{"geometry": {"type": "Point", "coordinates": [-75.888898107, 41.2633201555]}, "type": "Feature", "properties": {"collection_times": [{"days": "Mon-Sat", "time": "11:30am"}, {"days": "Sun", "time": "Closed"}], "id": "1870400046", "name": "USPS COLLECTION BOX - BLUE BOX", "address": {"city": "EDWARDSVILLE", "state": "PA", "street": "250 PIERCE ST", "postcode": "18704"}}},
{"geometry": {"type": "Point", "coordinates": [-75.9007489544, 41.2688439428]}, "type": "Feature", "properties": {"collection_times": [{"days": "Mon-Sat", "time": "10:00am"}, {"days": "Sun", "time": "Closed"}], "id": "1870400050", "name": "USPS COLLECTION BOX - BLUE BOX", "address": {"city": "EDWARDSVILLE", "state": "PA", "street": "220 ZERBY AVE", "postcode": "18704"}}},
{"geometry": {"type": "Point", "coordinates": [-75.8903376801, 41.2714951072]}, "type": "Feature", "properties": {"collection_times": [{"days": "Mon-Sat", "time": "12:00pm"}, {"days": "Sun", "time": "Closed"}], "id": "1870400055", "name": "USPS COLLECTION BOX - BLUE BOX", "address": {"city": "EDWARDSVILLE", "state": "PA", "street": "73 SHARPE ST", "postcode": "18704"}}},
{"geometry": {"type": "Point", "coordinates": [-75.9064509805, 41.265704962]}, "type": "Feature", "properties": {"collection_times": [{"days": "Mon-Sat", "time": "11:45am"}, {"days": "Sun", "time": "Closed"}], "id": "1870400063", "name": "USPS COLLECTION BOX - BLUE BOX", "address": {"city": "EDWARDSVILLE", "state": "PA", "street": "531 MAIN ST", "postcode": "18704"}}},
{"geometry": {"type": "Point", "coordinates": [-75.9054204641, 41.2644969634]}, "type": "Feature", "properties": {"collection_times": [{"days": "Mon-Sat", "time": "11:00am"}, {"days": "Sun", "time": "Closed"}], "id": "1870400065", "name": "USPS COLLECTION BOX - BLUE BOX", "address": {"city": "EDWARDSVILLE", "state": "PA", "street": "470 MAIN ST", "postcode": "18704"}}},
{"geometry": {"type": "Point", "coordinates": [-75.87900917, 41.2783532288]}, "type": "Feature", "properties": {"collection_times": [{"days": "Mon-Sat", "time": "12:15pm"}, {"days": "Sun", "time": "Closed"}], "id": "1870400067", "name": "USPS COLLECTION BOX - BLUE BOX", "address": {"city": "EDWARDSVILLE", "state": "PA", "street": "983 WYOMING AVE", "postcode": "18704"}}},
{"geometry": {"type": "Point", "coordinates": [-75.8857278005, 41.2682154275]}, "type": "Feature", "properties": {"collection_times": [{"days": "Mon-Sat", "time": "12:00pm"}, {"days": "Sun", "time": "Closed"}], "id": "1870400070", "name": "USPS COLLECTION BOX - BLUE BOX", "address": {"city": "EDWARDSVILLE", "state": "PA", "street": "589 CHARLES AVE", "postcode": "18704"}}},
{"geometry": {"type": "Point", "coordinates": [-75.8933507291, 41.2628250476]}, "type": "Feature", "properties": {"collection_times": [{"days": "Mon-Sat", "time": "10:00am"}, {"days": "Sun", "time": "Closed"}], "id": "1870400071", "name": "USPS COLLECTION BOX - BLUE BOX", "address": {"city": "EDWARDSVILLE", "state": "PA", "street": "310 RUTTER AVE", "postcode": "18704"}}},
{"geometry": {"type": "Point", "coordinates": [-75.8969709612, 41.2618233927]}, "type": "Feature", "properties": {"collection_times": [{"days": "Mon-Sat", "time": "11:45am"}, {"days": "Sun", "time": "Closed"}], "id": "1870400074", "name": "USPS COLLECTION BOX - BLUE BOX", "address": {"city": "EDWARDSVILLE", "state": "PA", "street": "201 WYOMING AVE", "postcode": "18704"}}},
{"geometry": {"type": "Point", "coordinates": [-75.8960589521, 41.2630021998]}, "type": "Feature", "properties": {"collection_times": [{"days": "Mon-Sat", "time": "10:00am"}, {"days": "Sun", "time": "Closed"}], "id": "1870400075", "name": "USPS COLLECTION BOX - BLUE BOX", "address": {"city": "EDWARDSVILLE", "state": "PA", "street": "250 WYOMING AVE", "postcode": "18704"}}},
{"geometry": {"type": "Point", "coordinates": [-75.8946047995, 41.2639948238]}, "type": "Feature", "properties": {"collection_times": [{"days": "Mon-Sat", "time": "10:00am"}, {"days": "Sun", "time": "Closed"}], "id": "1870400076", "name": "USPS COLLECTION BOX - BLUE BOX", "address": {"city": "EDWARDSVILLE", "state": "PA", "street": "303 WYOMING AVE", "postcode": "18704"}}},
{"geometry": {"type": "Point", "coordinates": [-75.9024233194, 41.2565994304]}, "type": "Feature", "properties": {"collection_times": [{"days": "Mon-Sat", "time": "9:45am"}, {"days": "Sun", "time": "Closed"}], "id": "1870400078", "name": "USPS COLLECTION BOX - BLUE BOX", "address": {"city": "EDWARDSVILLE", "state": "PA", "street": "25 GATEWAY SHOPPING CTR", "postcode": "18704"}}},
{"geometry": {"type": "Point", "coordinates": [-75.9006490841, 41.2658417813]}, "type": "Feature", "properties": {"collection_times": [{"days": "Mon-Sat", "time": "11:45am"}, {"days": "Sun", "time": "Closed"}], "id": "1870400080", "name": "USPS COLLECTION BOX - BLUE BOX", "address": {"city": "EDWARDSVILLE", "state": "PA", "street": "14 W SIDE MALL", "postcode": "18704"}}},
{"geometry": {"type": "Point", "coordinates": [-75.9009622351, 41.2727532669]}, "type": "Feature", "properties": {"collection_times": [{"days": "Mon-Sat", "time": "10:00am"}, {"days": "Sun", "time": "Closed"}], "id": "1870400087", "name": "USPS COLLECTION BOX - BLUE BOX", "address": {"city": "EDWARDSVILLE", "state": "PA", "street": "276 PRINGLE ST", "postcode": "18704"}}},
{"geometry": {"type": "Point", "coordinates": [-75.8777321576, 41.2859615099]}, "type": "Feature", "properties": {"collection_times": [{"days": "Mon-Sat", "time": "10:00am"}, {"days": "Sun", "time": "Closed"}], "id": "1870400094", "name": "USPS COLLECTION BOX - BLUE BOX", "address": {"city": "EDWARDSVILLE", "state": "PA", "street": "1223 MURRAY ST", "postcode": "18704"}}},
{"geometry": {"type": "Point", "coordinates": [-75.8826115573, 41.2821264976]}, "type": "Feature", "properties": {"collection_times": [{"days": "Mon-Sat", "time": "10:00am"}, {"days": "Sun", "time": "Closed"}], "id": "1870400096", "name": "USPS COLLECTION BOX - BLUE BOX", "address": {"city": "EDWARDSVILLE", "state": "PA", "street": "161 SLOCUM ST", "postcode": "18704"}}},
{"geometry": {"type": "Point", "coordinates": [-75.8814429267, 41.2892916415]}, "type": "Feature", "properties": {"collection_times": [{"days": "Mon-Sat", "time": "10:00am"}, {"days": "Sun", "time": "Closed"}], "id": "1870400097", "name": "USPS COLLECTION BOX - BLUE BOX", "address": {"city": "EDWARDSVILLE", "state": "PA", "street": "534 CHURCH ST", "postcode": "18704"}}},
{"geometry": {"type": "Point", "coordinates": [-75.8907188913, 41.2738800536]}, "type": "Feature", "properties": {"collection_times": [{"days": "Mon-Sat", "time": "10:00am"}, {"days": "Sun", "time": "Closed"}], "id": "1870400098", "name": "USPS COLLECTION BOX - BLUE BOX", "address": {"city": "EDWARDSVILLE", "state": "PA", "street": "675 MAIN ST", "postcode": "18704"}}},
{"geometry": {"type": "Point", "coordinates": [-75.8793858985, 41.2923800941]}, "type": "Feature", "properties": {"collection_times": [{"days": "Mon-Sat", "time": "10:30am"}, {"days": "Sun", "time": "Closed"}], "id": "1870400100", "name": "USPS COLLECTION BOX - BLUE BOX", "address": {"city": "EDWARDSVILLE", "state": "PA", "street": "283 SHOEMAKER ST", "postcode": "18704"}}},
{"geometry": {"type": "Point", "coordinates": [-75.8946385396, 41.2665481538]}, "type": "Feature", "properties": {"collection_times": [{"days": "Mon-Sat", "time": "11:00am"}, {"days": "Sun", "time": "Closed"}], "id": "1870400103", "name": "USPS COLLECTION BOX - BLUE BOX", "address": {"city": "EDWARDSVILLE", "state": "PA", "street": "350 N MAPLE AVE", "postcode": "18704"}}},
{"geometry": {"type": "Point", "coordinates": [-75.8759208518, 41.2750123185]}, "type": "Feature", "properties": {"collection_times": [{"days": "Mon-Sat", "time": "11:00am"}, {"days": "Sun", "time": "Closed"}], "id": "1870400110", "name": "USPS COLLECTION BOX - BLUE BOX", "address": {"city": "EDWARDSVILLE", "state": "PA", "street": "190 WELLES ST", "postcode": "18704"}}},
{"geometry": {"type": "Point", "coordinates": [-75.8826603289, 41.2650679378]}, "type": "Feature", "properties": {"collection_times": [{"days": "Mon-Sat", "time": "10:30am"}, {"days": "Sun", "time": "Closed"}], "id": "1870400113", "name": "USPS COLLECTION BOX - BLUE BOX", "address": {"city": "EDWARDSVILLE", "state": "PA", "street": "597 WARREN AVE", "postcode": "18704"}}},
{"geometry": {"type": "Point", "coordinates": [-75.8790265837, 41.2709252601]}, "type": "Feature", "properties": {"collection_times": [{"days": "Mon-Sat", "time": "10:00am"}, {"days": "Sun", "time": "Closed"}], "id": "1870400116", "name": "USPS COLLECTION BOX - BLUE BOX", "address": {"city": "EDWARDSVILLE", "state": "PA", "street": "790 RUTTER AVE", "postcode": "18704"}}},
{"geometry": {"type": "Point", "coordinates": [-75.8984732931, 41.2574627247]}, "type": "Feature", "properties": {"collection_times": [{"days": "Mon-Sat", "time": "9:45am"}, {"days": "Sun", "time": "Closed"}], "id": "1870400122", "name": "USPS COLLECTION BOX - BLUE BOX", "address": {"city": "EDWARDSVILLE", "state": "PA", "street": "512 NORTHAMPTON ST", "postcode": "18704"}}},
{"geometry": {"type": "Point", "coordinates": [-75.8813516654, 41.2599924263]}, "type": "Feature", "properties": {"collection_times": [{"days": "Mon-Sat", "time": "11:00am"}, {"days": "Sun", "time": "Closed"}], "id": "1870400123", "name": "USPS COLLECTION BOX - BLUE BOX", "address": {"city": "EDWARDSVILLE", "state": "PA", "street": "423 3RD AVE", "postcode": "18704"}}},
{"geometry": {"type": "Point", "coordinates": [-75.8844793835, 41.2587822652]}, "type": "Feature", "properties": {"collection_times": [{"days": "Mon-Fri", "time": "3:00pm"}, {"days": "Sat", "time": "11:30am"}, {"days": "Sun", "time": "Closed"}], "id": "1870400124", "name": "USPS COLLECTION BOX - BLUE BOX", "address": {"city": "EDWARDSVILLE", "state": "PA", "street": "480 PIERCE ST", "postcode": "18704"}}},
{"geometry": {"type": "Point", "coordinates": [-75.8952334418, 41.2735013916]}, "type": "Feature", "properties": {"collection_times": [{"days": "Mon-Sat", "time": "11:00am"}, {"days": "Sun", "time": "Closed"}], "id": "1870400125", "name": "USPS COLLECTION BOX - BLUE BOX", "address": {"city": "EDWARDSVILLE", "state": "PA", "street": "210 DIVISION ST", "postcode": "18704"}}},
{"geometry": {"type": "Point", "coordinates": [-75.8819342834, 41.2557436687]}, "type": "Feature", "properties": {"collection_times": [{"days": "Mon-Fri", "time": "4:00pm"}, {"days": "Sat", "time": "11:00am"}, {"days": "Sun", "time": "Closed"}], "id": "1870400126", "name": "USPS COLLECTION BOX - BLUE BOX", "address": {"city": "EDWARDSVILLE", "state": "PA", "street": "575 PIERCE ST", "postcode": "18704"}}},
{"geometry": {"type": "Point", "coordinates": [-75.8916227588, 41.2666984213]}, "type": "Feature", "properties": {"collection_times": [{"days": "Mon-Sat", "time": "4:30pm"}, {"days": "Sun", "time": "Closed"}], "id": "1870400127", "name": "USPS COLLECTION BOX - BLUE BOX", "address": {"city": "EDWARDSVILLE", "state": "PA", "street": "435 WYOMING AVE", "postcode": "18704"}}},
{"geometry": {"type": "Point", "coordinates": [-75.8916227588, 41.2666984213]}, "type": "Feature", "properties": {"collection_times": [{"days": "Mon-Fri", "time": "4:30pm"}, {"days": "Sat", "time": "3:00pm"}, {"days": "Sun", "time": "Closed"}], "id": "1870400128", "name": "USPS COLLECTION BOX - PO LOBBY", "address": {"city": "EDWARDSVILLE", "state": "PA", "street": "435 WYOMING AVE", "postcode": "18704"}}},
{"geometry": {"type": "Point", "coordinates": [-75.8967062822, 41.2554886236]}, "type": "Feature", "properties": {"collection_times": [{"days": "Mon-Sat", "time": "10:00am"}, {"days": "Sun", "time": "Closed"}], "id": "1870400130", "name": "USPS COLLECTION BOX - BLUE BOX", "address": {"city": "EDWARDSVILLE", "state": "PA", "street": "10 HEISZ ST", "postcode": "18704"}}},
{"geometry": {"type": "Point", "coordinates": [-75.8562497765, 41.2786626762]}, "type": "Feature", "properties": {"collection_times": [{"days": "Mon-Fri", "time": "4:00pm"}, {"days": "Sat", "time": "1:00pm"}, {"days": "Sun", "time": "Closed"}], "id": "1870500006", "name": "USPS COLLECTION BOX - BLUE BOX", "address": {"city": "PLAINS", "state": "PA", "street": "29 N RIVER ST", "postcode": "18705"}}},
{"geometry": {"type": "Point", "coordinates": [-75.846226035, 41.2691005475]}, "type": "Feature", "properties": {"collection_times": [{"days": "Mon-Fri", "time": "4:00pm"}, {"days": "Sat", "time": "1:00pm"}, {"days": "Sun", "time": "Closed"}], "id": "1870500008", "name": "USPS COLLECTION BOX - EXPRESS", "address": {"city": "PLAINS", "state": "PA", "street": "29 N RIVER ST", "postcode": "18705"}}},
{"geometry": {"type": "Point", "coordinates": [-75.844049889, 41.2863181347]}, "type": "Feature", "properties": {"collection_times": [{"days": "Mon-Sat", "time": "9:00am"}, {"days": "Sun", "time": "Closed"}], "id": "1870500013", "name": "USPS COLLECTION BOX - BLUE BOX", "address": {"city": "PLAINS", "state": "PA", "street": "453 N MAIN ST", "postcode": "18705"}}},
{"geometry": {"type": "Point", "coordinates": [-75.8516030912, 41.2610427164]}, "type": "Feature", "properties": {"collection_times": [{"days": "Mon-Sat", "time": "10:00am"}, {"days": "Sun", "time": "Closed"}], "id": "1870500020", "name": "USPS COLLECTION BOX - BLUE BOX", "address": {"city": "PLAINS", "state": "PA", "street": "1037 N WASHINGTON ST", "postcode": "18705"}}},
{"geometry": {"type": "Point", "coordinates": [-75.8383383286, 41.2694071176]}, "type": "Feature", "properties": {"collection_times": [{"days": "Mon-Sat", "time": "1:30pm"}, {"days": "Sun", "time": "Closed"}], "id": "1870500026", "name": "USPS COLLECTION BOX - BLUE BOX", "address": {"city": "PLAINS", "state": "PA", "street": "174 E MAIN ST", "postcode": "18705"}}},
{"geometry": {"type": "Point", "coordinates": [-75.846226035, 41.2691005475]}, "type": "Feature", "properties": {"collection_times": [{"days": "Mon-Sat", "time": "12:30pm"}, {"days": "Sun", "time": "Closed"}], "id": "1870500027", "name": "USPS COLLECTION BOX - BLUE BOX", "address": {"city": "PLAINS", "state": "PA", "street": "49 SCHOOL ST", "postcode": "18705"}}},
{"geometry": {"type": "Point", "coordinates": [-75.8676591846, 41.2599164754]}, "type": "Feature", "properties": {"collection_times": [{"days": "Mon-Fri", "time": "3:00pm"}, {"days": "Sat-Sun", "time": "Closed"}], "id": "1870500036", "name": "USPS COLLECTION BOX - BLUE BOX", "address": {"city": "PLAINS", "state": "PA", "street": "670 N RIVER ST", "postcode": "18705"}}},
{"geometry": {"type": "Point", "coordinates": [-75.846226035, 41.2691005475]}, "type": "Feature", "properties": {"collection_times": [{"days": "Mon-Fri", "time": "3:00pm"}, {"days": "Sat-Sun", "time": "Closed"}], "id": "1870500043", "name": "USPS COLLECTION BOX - EXPRESS", "address": {"city": "PLAINS", "state": "PA", "street": "670 N RIVER ST", "postcode": "18705"}}},
{"geometry": {"type": "Point", "coordinates": [-75.8562497765, 41.2786626762]}, "type": "Feature", "properties": {"collection_times": [{"days": "Mon-Fri", "time": "4:00pm"}, {"days": "Sat", "time": "12:00pm"}, {"days": "Sun", "time": "Closed"}], "id": "1870500044", "name": "USPS COLLECTION BOX - PO LOBBY", "address": {"city": "PLAINS", "state": "PA", "street": "29 N RIVER ST", "postcode": "18705"}}},
{"geometry": {"type": "Point", "coordinates": [-75.8988046207, 41.2148378766]}, "type": "Feature", "properties": {"collection_times": [{"days": "Mon-Fri", "time": "4:00pm"}, {"days": "Sat", "time": "11:30am"}, {"days": "Sun", "time": "Closed"}], "id": "1870600005", "name": "USPS COLLECTION BOX - BLUE BOX", "address": {"city": "HANOVER TWP", "state": "PA", "street": "31 N MAIN ST", "postcode": "18706"}}},
{"geometry": {"type": "Point", "coordinates": [-75.9201997536, 41.2153441395]}, "type": "Feature", "properties": {"collection_times": [{"days": "Mon-Fri", "time": "4:00pm"}, {"days": "Sat", "time": "11:30am"}, {"days": "Sun", "time": "Closed"}], "id": "1870600006", "name": "USPS COLLECTION BOX - EXPRESS", "address": {"city": "HANOVER TWP", "state": "PA", "street": "31 N MAIN ST", "postcode": "18706"}}},
{"geometry": {"type": "Point", "coordinates": [-75.8867736895, 41.2191445828]}, "type": "Feature", "properties": {"collection_times": [{"days": "Mon-Sat", "time": "9:30am"}, {"days": "Sun", "time": "Closed"}], "id": "1870600015", "name": "USPS COLLECTION BOX - BLUE BOX", "address": {"city": "HANOVER TWP", "state": "PA", "street": "141 EAGLE CT", "postcode": "18706"}}},
{"geometry": {"type": "Point", "coordinates": [-75.9217208843, 41.1985881455]}, "type": "Feature", "properties": {"collection_times": [{"days": "Mon-Sat", "time": "11:30am"}, {"days": "Sun", "time": "Closed"}], "id": "1870600017", "name": "USPS COLLECTION BOX - BLUE BOX", "address": {"city": "HANOVER TWP", "state": "PA", "street": "585 MAIN ST", "postcode": "18706"}}},
{"geometry": {"type": "Point", "coordinates": [-75.9362601996, 41.2050493318]}, "type": "Feature", "properties": {"collection_times": [{"days": "Mon-Sat", "time": "11:30am"}, {"days": "Sun", "time": "Closed"}], "id": "1870600021", "name": "USPS COLLECTION BOX - BLUE BOX", "address": {"city": "HANOVER TWP", "state": "PA", "street": "1 ALLENBERRY DR", "postcode": "18706"}}},
{"geometry": {"type": "Point", "coordinates": [-75.924366886, 41.2243797312]}, "type": "Feature", "properties": {"collection_times": [{"days": "Mon-Sat", "time": "12:00pm"}, {"days": "Sun", "time": "Closed"}], "id": "1870600023", "name": "USPS COLLECTION BOX - BLUE BOX", "address": {"city": "HANOVER TWP", "state": "PA", "street": "250 COLONELS RD", "postcode": "18706"}}},
{"geometry": {"type": "Point", "coordinates": [-75.9058196553, 41.2283001899]}, "type": "Feature", "properties": {"collection_times": [{"days": "Mon-Sat", "time": "11:30am"}, {"days": "Sun", "time": "Closed"}], "id": "1870600024", "name": "USPS COLLECTION BOX - BLUE BOX", "address": {"city": "HANOVER TWP", "state": "PA", "street": "143 W DIVISION ST", "postcode": "18706"}}},
{"geometry": {"type": "Point", "coordinates": [-75.9168460275, 41.2284614596]}, "type": "Feature", "properties": {"collection_times": [{"days": "Mon-Sat", "time": "11:30am"}, {"days": "Sun", "time": "Closed"}], "id": "1870600026", "name": "USPS COLLECTION BOX - BLUE BOX", "address": {"city": "HANOVER TWP", "state": "PA", "street": "140 LEE PARK AVE", "postcode": "18706"}}},
{"geometry": {"type": "Point", "coordinates": [-75.9497294987, 41.2182817378]}, "type": "Feature", "properties": {"collection_times": [{"days": "Mon-Sat", "time": "10:00am"}, {"days": "Sun", "time": "Closed"}], "id": "1870600027", "name": "USPS COLLECTION BOX - BLUE BOX", "address": {"city": "HANOVER TWP", "state": "PA", "street": "437 MAIN RD", "postcode": "18706"}}},
{"geometry": {"type": "Point", "coordinates": [-75.9162279725, 41.2314967454]}, "type": "Feature", "properties": {"collection_times": [{"days": "Mon-Sat", "time": "9:30am"}, {"days": "Sun", "time": "Closed"}], "id": "1870600029", "name": "USPS COLLECTION BOX - BLUE BOX", "address": {"city": "HANOVER TWP", "state": "PA", "street": "65 OXFORD ST", "postcode": "18706"}}},
{"geometry": {"type": "Point", "coordinates": [-75.9300827879, 41.2348078475]}, "type": "Feature", "properties": {"collection_times": [{"days": "Mon-Sat", "time": "10:00am"}, {"days": "Sun", "time": "Closed"}], "id": "1870600030", "name": "USPS COLLECTION BOX - BLUE BOX", "address": {"city": "HANOVER TWP", "state": "PA", "street": "240 PHILLIPS ST", "postcode": "18706"}}},
{"geometry": {"type": "Point", "coordinates": [-75.9452861124, 41.2195905533]}, "type": "Feature", "properties": {"collection_times": [{"days": "Mon-Sat", "time": "9:00am"}, {"days": "Sun", "time": "Closed"}], "id": "1870600031", "name": "USPS COLLECTION BOX - BLUE BOX", "address": {"city": "HANOVER TWP", "state": "PA", "street": "1548 SANS SOUCI PKWY", "postcode": "18706"}}},
{"geometry": {"type": "Point", "coordinates": [-75.9686532113, 41.2097997501]}, "type": "Feature", "properties": {"collection_times": [{"days": "Mon-Sat", "time": "9:30am"}, {"days": "Sun", "time": "Closed"}], "id": "1870600032", "name": "USPS COLLECTION BOX - BLUE BOX", "address": {"city": "HANOVER TWP", "state": "PA", "street": "2250 SANS SOUCI PKWY", "postcode": "18706"}}},
{"geometry": {"type": "Point", "coordinates": [-75.9347366016, 41.2326364564]}, "type": "Feature", "properties": {"collection_times": [{"days": "Mon-Sat", "time": "11:30am"}, {"days": "Sun", "time": "Closed"}], "id": "1870600034", "name": "USPS COLLECTION BOX - BLUE BOX", "address": {"city": "HANOVER TWP", "state": "PA", "street": "567 FELLOWS AVE", "postcode": "18706"}}},
{"geometry": {"type": "Point", "coordinates": [-75.8879483753, 41.1598454172]}, "type": "Feature", "properties": {"collection_times": [{"days": "Mon-Fri", "time": "5:00pm"}, {"days": "Sat", "time": "1:00pm"}, {"days": "Sun", "time": "Closed"}], "id": "1870700001", "name": "USPS COLLECTION BOX - BLUE BOX", "address": {"city": "WILKES BARRE", "state": "PA", "street": "42 S MOUNTAIN BLVD", "postcode": "18707"}}},
{"geometry": {"type": "Point", "coordinates": [-75.9103757073, 41.1193634905]}, "type": "Feature", "properties": {"collection_times": [{"days": "Mon-Sat", "time": "9:30am"}, {"days": "Sun", "time": "Closed"}], "id": "1870700007", "name": "USPS COLLECTION BOX - BLUE BOX", "address": {"city": "WILKES BARRE", "state": "PA", "street": "432 S MOUNTAIN BLVD", "postcode": "18707"}}},
{"geometry": {"type": "Point", "coordinates": [-75.9325960543, 41.1390501879]}, "type": "Feature", "properties": {"collection_times": [{"days": "Mon-Sat", "time": "11:00am"}, {"days": "Sun", "time": "Closed"}], "id": "1870700009", "name": "USPS COLLECTION BOX - BLUE BOX", "address": {"city": "WILKES BARRE", "state": "PA", "street": "237 S MOUNTAIN BLVD", "postcode": "18707"}}},
{"geometry": {"type": "Point", "coordinates": [-75.8907354729, 41.1563659804]}, "type": "Feature", "properties": {"collection_times": [{"days": "Mon-Sat", "time": "10:00am"}, {"days": "Sun", "time": "Closed"}], "id": "1870700010", "name": "USPS COLLECTION BOX - BLUE BOX", "address": {"city": "WILKES BARRE", "state": "PA", "street": "101 S MOUNTAIN BLVD", "postcode": "18707"}}},
{"geometry": {"type": "Point", "coordinates": [-75.9192894703, 41.1411494374]}, "type": "Feature", "properties": {"collection_times": [{"days": "Mon-Sat", "time": "9:30am"}, {"days": "Sun", "time": "Closed"}], "id": "1870700011", "name": "USPS COLLECTION BOX - BLUE BOX", "address": {"city": "WILKES BARRE", "state": "PA", "street": "4 PATRIOT WAY", "postcode": "18707"}}},
{"geometry": {"type": "Point", "coordinates": [-75.8879483753, 41.1598454172]}, "type": "Feature", "properties": {"collection_times": [{"days": "Mon-Fri", "time": "4:00pm"}, {"days": "Sat", "time": "12:00pm"}, {"days": "Sun", "time": "Closed"}], "id": "1870700012", "name": "USPS COLLECTION BOX - PO LOBBY", "address": {"city": "WILKES BARRE", "state": "PA", "street": "42 S MOUNTAIN BLVD", "postcode": "18707"}}},
{"geometry": {"type": "Point", "coordinates": [-75.9400250318, 41.310828354]}, "type": "Feature", "properties": {"collection_times": [{"days": "Mon-Sat", "time": "11:00am"}, {"days": "Sun", "time": "Closed"}], "id": "1870800001", "name": "USPS COLLECTION BOX - BLUE BOX", "address": {"city": "WILKES BARRE", "state": "PA", "street": "64 DAVIS ST", "postcode": "18708"}}},
{"geometry": {"type": "Point", "coordinates": [-75.9288324003, 41.3029853215]}, "type": "Feature", "properties": {"collection_times": [{"days": "Mon-Sat", "time": "11:00am"}, {"days": "Sun", "time": "Closed"}], "id": "1870800002", "name": "USPS COLLECTION BOX - BLUE BOX", "address": {"city": "WILKES BARRE", "state": "PA", "street": "16 CARVERTON RD", "postcode": "18708"}}},
{"geometry": {"type": "Point", "coordinates": [-75.9408624266, 41.3197568924]}, "type": "Feature", "properties": {"collection_times": [{"days": "Mon-Fri", "time": "5:00pm"}, {"days": "Sat", "time": "12:30pm"}, {"days": "Sun", "time": "Closed"}], "id": "1870800004", "name": "USPS COLLECTION BOX - BLUE BOX", "address": {"city": "WILKES BARRE", "state": "PA", "street": "171 N MEMORIAL HWY", "postcode": "18708"}}},
{"geometry": {"type": "Point", "coordinates": [-75.9450742154, 41.3255721948]}, "type": "Feature", "properties": {"collection_times": [{"days": "Mon-Sat", "time": "10:30am"}, {"days": "Sun", "time": "Closed"}], "id": "1870800005", "name": "USPS COLLECTION BOX - BLUE BOX", "address": {"city": "WILKES BARRE", "state": "PA", "street": "1900 MEMORIAL HWY STE 4", "postcode": "18708"}}},
{"geometry": {"type": "Point", "coordinates": [-75.9408624266, 41.3197568924]}, "type": "Feature", "properties": {"collection_times": [{"days": "Mon-Fri", "time": "5:00pm"}, {"days": "Sat", "time": "12:30pm"}, {"days": "Sun", "time": "Closed"}], "id": "1870800009", "name": "USPS COLLECTION BOX - BLUE BOX", "address": {"city": "WILKES BARRE", "state": "PA", "street": "171 N MEMORIAL HWY", "postcode": "18708"}}},
{"geometry": {"type": "Point", "coordinates": [-75.9408624266, 41.3197568924]}, "type": "Feature", "properties": {"collection_times": [{"days": "Mon-Fri", "time": "4:00pm"}, {"days": "Sat-Sun", "time": "Closed"}], "id": "1870800010", "name": "USPS COLLECTION BOX - PO LOBBY", "address": {"city": "WILKES BARRE", "state": "PA", "street": "171 N MEMORIAL HWY", "postcode": "18708"}}},
{"geometry": {"type": "Point", "coordinates": [-75.8942910014, 41.2855629512]}, "type": "Feature", "properties": {"collection_times": [{"days": "Mon-Sat", "time": "10:00am"}, {"days": "Sun", "time": "Closed"}], "id": "1870900010", "name": "USPS COLLECTION BOX - BLUE BOX", "address": {"city": "WILKES BARRE", "state": "PA", "street": "600 BENNETT ST", "postcode": "18709"}}},
{"geometry": {"type": "Point", "coordinates": [-75.8972070273, 41.2833980661]}, "type": "Feature", "properties": {"collection_times": [{"days": "Mon-Sat", "time": "10:30am"}, {"days": "Sun", "time": "Closed"}], "id": "1870900012", "name": "USPS COLLECTION BOX - BLUE BOX", "address": {"city": "WILKES BARRE", "state": "PA", "street": "556 UNION ST", "postcode": "18709"}}},
{"geometry": {"type": "Point", "coordinates": [-75.8909175532, 41.2761180878]}, "type": "Feature", "properties": {"collection_times": [{"days": "Mon-Sat", "time": "10:00am"}, {"days": "Sun", "time": "Closed"}], "id": "1870900014", "name": "USPS COLLECTION BOX - BLUE BOX", "address": {"city": "WILKES BARRE", "state": "PA", "street": "221 UNION ST", "postcode": "18709"}}},
{"geometry": {"type": "Point", "coordinates": [-75.9043723577, 41.2089684748]}, "type": "Feature", "properties": {"collection_times": [{"days": "Mon-Sat", "time": "4:00pm"}, {"days": "Sun", "time": "Closed"}], "id": "1870900015", "name": "USPS COLLECTION BOX - BLUE BOX", "address": {"city": "WILKES BARRE", "state": "PA", "street": "122 MAIN ST", "postcode": "18709"}}},
{"geometry": {"type": "Point", "coordinates": [-75.9043723577, 41.2089684748]}, "type": "Feature", "properties": {"collection_times": [{"days": "Mon-Sat", "time": "4:00pm"}, {"days": "Sun", "time": "Closed"}], "id": "1870900017", "name": "USPS COLLECTION BOX - BLUE BOX", "address": {"city": "WILKES BARRE", "state": "PA", "street": "122 MAIN ST", "postcode": "18709"}}},
{"geometry": {"type": "Point", "coordinates": [-75.9043723577, 41.2089684748]}, "type": "Feature", "properties": {"collection_times": [{"days": "Mon-Sat", "time": "4:00pm"}, {"days": "Sun", "time": "Closed"}], "id": "1870900018", "name": "USPS COLLECTION BOX - BLUE BOX", "address": {"city": "WILKES BARRE", "state": "PA", "street": "122 MAIN ST", "postcode": "18709"}}},
{"geometry": {"type": "Point", "coordinates": [-75.9043723577, 41.2089684748]}, "type": "Feature", "properties": {"collection_times": [{"days": "Mon-Fri", "time": "4:00pm"}, {"days": "Sat-Sun", "time": "Closed"}], "id": "1870900019", "name": "USPS COLLECTION BOX - PO LOBBY", "address": {"city": "WILKES BARRE", "state": "PA", "street": "122 MAIN ST", "postcode": "18709"}}}
]}
