{"type": "FeatureCollection", "features": [
{"geometry": {"type": "Point", "coordinates": [-75.9166281591, 41.8241923802]}, "type": "Feature", "properties": {"collection_times": [{"days": "Mon-Fri", "time": "5:00pm"}, {"days": "Sat", "time": "2:00pm"}, {"days": "Sun", "time": "Closed"}], "id": "1880100008", "name": "USPS COLLECTION BOX - BLUE BOX", "address": {"city": "MONTROSE", "state": "PA", "street": "38 MONUMENT SQ", "postcode": "18801"}}},
{"geometry": {"type": "Point", "coordinates": [-75.8804816998, 41.8337880072]}, "type": "Feature", "properties": {"collection_times": [{"days": "Mon-Sat", "time": "9:00am"}, {"days": "Sun", "time": "Closed"}], "id": "1880100009", "name": "USPS COLLECTION BOX - BLUE BOX", "address": {"city": "MONTROSE", "state": "PA", "street": "CHURCH ST", "postcode": "18801"}}},
{"geometry": {"type": "Point", "coordinates": [-75.9166281591, 41.8241923802]}, "type": "Feature", "properties": {"collection_times": [{"days": "Mon-Fri", "time": "5:00pm"}, {"days": "Sat", "time": "2:00pm"}, {"days": "Sun", "time": "Closed"}], "id": "1880100019", "name": "USPS COLLECTION BOX - PO LOBBY", "address": {"city": "MONTROSE", "state": "PA", "street": "38 MONUMENT SQ", "postcode": "18801"}}},
{"geometry": {"type": "Point", "coordinates": [-75.8781113901, 41.8332170089]}, "type": "Feature", "properties": {"collection_times": [{"days": "Mon-Sat", "time": "12:00pm"}, {"days": "Sun", "time": "Closed"}], "id": "1880100021", "name": "USPS COLLECTION BOX - BLUE BOX", "address": {"city": "MONTROSE", "state": "PA", "street": "29 PUBLIC AVE", "postcode": "18801"}}},
{"geometry": {"type": "Point", "coordinates": [-76.5214485797, 41.9495240638]}, "type": "Feature", "properties": {"collection_times": [{"days": "Mon-Fri", "time": "4:30pm"}, {"days": "Sat", "time": "12:00pm"}, {"days": "Sun", "time": "Closed"}], "id": "1881000010", "name": "USPS COLLECTION BOX - BLUE BOX", "address": {"city": "ATHENS", "state": "PA", "street": "301 S MAIN ST", "postcode": "18810"}}},
{"geometry": {"type": "Point", "coordinates": [-76.5214485797, 41.9495240638]}, "type": "Feature", "properties": {"collection_times": [{"days": "Mon-Fri", "time": "3:30pm"}, {"days": "Sat", "time": "12:00pm"}, {"days": "Sun", "time": "Closed"}], "id": "1881000017", "name": "USPS COLLECTION BOX - BLUE BOX", "address": {"city": "ATHENS", "state": "PA", "street": "103 CENTRAL AVE", "postcode": "18810"}}},
{"geometry": {"type": "Point", "coordinates": [-76.5214485797, 41.9495240638]}, "type": "Feature", "properties": {"collection_times": [{"days": "Mon-Fri", "time": "4:30pm"}, {"days": "Sat", "time": "12:00pm"}, {"days": "Sun", "time": "Closed"}], "id": "1881000035", "name": "USPS COLLECTION BOX - PO LOBBY", "address": {"city": "ATHENS", "state": "PA", "street": "301 S MAIN ST", "postcode": "18810"}}},
{"geometry": {"type": "Point", "coordinates": [-75.9510188777, 41.9689114784]}, "type": "Feature", "properties": {"collection_times": [{"days": "Mon-Fri", "time": "4:00pm"}, {"days": "Sat", "time": "11:00am"}, {"days": "Sun", "time": "Closed"}], "id": "1881200001", "name": "USPS COLLECTION BOX - BLUE BOX", "address": {"city": "BRACKNEY", "state": "PA", "street": "3566 QUAKER LAKE RD", "postcode": "18812"}}},
{"geometry": {"type": "Point", "coordinates": [-75.9510188777, 41.9689114784]}, "type": "Feature", "properties": {"collection_times": [{"days": "Mon-Fri", "time": "4:00pm"}, {"days": "Sat", "time": "11:00am"}, {"days": "Sun", "time": "Closed"}], "id": "1881200003", "name": "USPS COLLECTION BOX - PO LOBBY", "address": {"city": "BRACKNEY", "state": "PA", "street": "3566 QUAKER LAKE RD", "postcode": "18812"}}},
{"geometry": {"type": "Point", "coordinates": [-76.6055765762, 41.7816938814]}, "type": "Feature", "properties": {"collection_times": [{"days": "Mon-Fri", "time": "4:00pm"}, {"days": "Sat", "time": "11:45am"}, {"days": "Sun", "time": "Closed"}], "id": "1881400001", "name": "USPS COLLECTION BOX - BLUE BOX", "address": {"city": "BURLINGTON", "state": "PA", "street": "16658 ROUTE 6", "postcode": "18814"}}},
{"geometry": {"type": "Point", "coordinates": [-76.6055765762, 41.7816938814]}, "type": "Feature", "properties": {"collection_times": [{"days": "Mon-Fri", "time": "4:00pm"}, {"days": "Sat", "time": "11:45am"}, {"days": "Sun", "time": "Closed"}], "id": "1881400002", "name": "USPS COLLECTION BOX - PO LOBBY", "address": {"city": "BURLINGTON", "state": "PA", "street": "16658 ROUTE 6 ST", "postcode": "18814"}}},
{"geometry": {"type": "Point", "coordinates": [-75.8984397637, 41.7456280931]}, "type": "Feature", "properties": {"collection_times": [{"days": "Mon-Fri", "time": "4:30pm"}, {"days": "Sat", "time": "11:15am"}, {"days": "Sun", "time": "Closed"}], "id": "1881600001", "name": "USPS COLLECTION BOX - BLUE BOX", "address": {"city": "DIMOCK", "state": "PA", "street": "7473 STATE ROUTE 29", "postcode": "18816"}}},
{"geometry": {"type": "Point", "coordinates": [-75.8984397637, 41.7456280931]}, "type": "Feature", "properties": {"collection_times": [{"days": "Mon-Fri", "time": "4:30pm"}, {"days": "Sat", "time": "11:15am"}, {"days": "Sun", "time": "Closed"}], "id": "1881600002", "name": "USPS COLLECTION BOX - PO LOBBY", "address": {"city": "DIMOCK", "state": "PA", "street": "7473 STATE ROUTE 29", "postcode": "18816"}}},
{"geometry": {"type": "Point", "coordinates": [-76.6249987505, 41.8672340511]}, "type": "Feature", "properties": {"collection_times": [{"days": "Mon-Fri", "time": "4:00pm"}, {"days": "Sat", "time": "11:45am"}, {"days": "Sun", "time": "Closed"}], "id": "1881700001", "name": "USPS COLLECTION BOX - BLUE BOX", "address": {"city": "EAST SMITHFIELD", "state": "PA", "street": "30 VILLAGE GREEN WAY", "postcode": "18817"}}},
{"geometry": {"type": "Point", "coordinates": [-76.6249987505, 41.8672340511]}, "type": "Feature", "properties": {"collection_times": [{"days": "Mon-Fri", "time": "4:00pm"}, {"days": "Sat", "time": "11:45am"}, {"days": "Sun", "time": "Closed"}], "id": "1881700002", "name": "USPS COLLECTION BOX - PO LOBBY", "address": {"city": "EAST SMITHFIELD", "state": "PA", "street": "30 VILLAGE GREEN WAY", "postcode": "18817"}}},
{"geometry": {"type": "Point", "coordinates": [-76.0240584201, 41.9254614234]}, "type": "Feature", "properties": {"collection_times": [{"days": "Mon-Fri", "time": "4:15pm"}, {"days": "Sat", "time": "1:30pm"}, {"days": "Sun", "time": "Closed"}], "id": "1881800001", "name": "USPS COLLECTION BOX - BLUE BOX", "address": {"city": "FRIENDSVILLE", "state": "PA", "street": "61 CROSS ST", "postcode": "18818"}}},
{"geometry": {"type": "Point", "coordinates": [-76.0240584201, 41.9254614234]}, "type": "Feature", "properties": {"collection_times": [{"days": "Mon-Sat", "time": "11:30am"}, {"days": "Sun", "time": "Closed"}], "id": "1881800003", "name": "USPS COLLECTION BOX - BLUE BOX", "address": {"city": "FRIENDSVILLE", "state": "PA", "street": "26555 STATE ROUTE 267", "postcode": "18818"}}},
{"geometry": {"type": "Point", "coordinates": [-76.0240584201, 41.9254614234]}, "type": "Feature", "properties": {"collection_times": [{"days": "Mon-Fri", "time": "4:15pm"}, {"days": "Sat", "time": "1:30pm"}, {"days": "Sun", "time": "Closed"}], "id": "1881800004", "name": "USPS COLLECTION BOX - PO LOBBY", "address": {"city": "FRIENDSVILLE", "state": "PA", "street": "61 CROSS ST", "postcode": "18818"}}},
{"geometry": {"type": "Point", "coordinates": [-75.7432839087, 41.9713348989]}, "type": "Feature", "properties": {"collection_times": [{"days": "Mon-Fri", "time": "12:30pm"}, {"days": "Sat", "time": "10:00am"}, {"days": "Sun", "time": "Closed"}], "id": "1882100001", "name": "USPS COLLECTION BOX - BLUE BOX", "address": {"city": "GREAT BEND", "state": "PA", "street": "260 MAIN ST", "postcode": "18821"}}},
{"geometry": {"type": "Point", "coordinates": [-75.7432839087, 41.9713348989]}, "type": "Feature", "properties": {"collection_times": [{"days": "Mon-Fri", "time": "12:30pm"}, {"days": "Sat", "time": "10:00am"}, {"days": "Sun", "time": "Closed"}], "id": "1882100002", "name": "USPS COLLECTION BOX - PO LOBBY", "address": {"city": "GREAT BEND", "state": "PA", "street": "260 MAIN ST", "postcode": "18821"}}},
{"geometry": {"type": "Point", "coordinates": [-75.8098197193, 41.9576333703]}, "type": "Feature", "properties": {"collection_times": [{"days": "Mon-Fri", "time": "5:00pm"}, {"days": "Sat", "time": "12:15pm"}, {"days": "Sun", "time": "Closed"}], "id": "1882200001", "name": "USPS COLLECTION BOX - BLUE BOX", "address": {"city": "HALLSTEAD", "state": "PA", "street": "587 MAIN ST", "postcode": "18822"}}},
{"geometry": {"type": "Point", "coordinates": [-75.8098197193, 41.9576333703]}, "type": "Feature", "properties": {"collection_times": [{"days": "Mon-Sat", "time": "1:30pm"}, {"days": "Sun", "time": "Closed"}], "id": "1882200003", "name": "USPS COLLECTION BOX - BLUE BOX", "address": {"city": "HALLSTEAD", "state": "PA", "street": "25109 SR 11", "postcode": "18822"}}},
{"geometry": {"type": "Point", "coordinates": [-75.8098197193, 41.9576333703]}, "type": "Feature", "properties": {"collection_times": [{"days": "Mon-Fri", "time": "5:00pm"}, {"days": "Sat", "time": "12:15pm"}, {"days": "Sun", "time": "Closed"}], "id": "1882200004", "name": "USPS COLLECTION BOX - PO LOBBY", "address": {"city": "HALLSTEAD", "state": "PA", "street": "587 MAIN ST", "postcode": "18822"}}},
{"geometry": {"type": "Point", "coordinates": [-75.8098197193, 41.9576333703]}, "type": "Feature", "properties": {"collection_times": [{"days": "Mon-Sat", "time": "1:15pm"}, {"days": "Sun", "time": "Closed"}], "id": "1882200005", "name": "USPS COLLECTION BOX - BLUE BOX", "address": {"city": "HALLSTEAD", "state": "PA", "street": "25066 SR 11 STE 7", "postcode": "18822"}}},
{"geometry": {"type": "Point", "coordinates": [-75.7791869451, 41.7022715258]}, "type": "Feature", "properties": {"collection_times": [{"days": "Mon-Fri", "time": "3:45pm"}, {"days": "Sat", "time": "11:30am"}, {"days": "Sun", "time": "Closed"}], "id": "1882400001", "name": "USPS COLLECTION BOX - BLUE BOX", "address": {"city": "HOP BOTTOM", "state": "PA", "street": "84 MAIN ST", "postcode": "18824"}}},
{"geometry": {"type": "Point", "coordinates": [-75.7791869451, 41.7022715258]}, "type": "Feature", "properties": {"collection_times": [{"days": "Mon-Fri", "time": "3:45pm"}, {"days": "Sat", "time": "11:30am"}, {"days": "Sun", "time": "Closed"}], "id": "1882400002", "name": "USPS COLLECTION BOX - PO LOBBY", "address": {"city": "HOP BOTTOM", "state": "PA", "street": "84 MAIN ST", "postcode": "18824"}}},
{"geometry": {"type": "Point", "coordinates": [-75.6098797484, 41.8699808805]}, "type": "Feature", "properties": {"collection_times": [{"days": "Mon-Fri", "time": "1:00pm"}, {"days": "Sat", "time": "12:00pm"}, {"days": "Sun", "time": "Closed"}], "id": "1882500001", "name": "USPS COLLECTION BOX - BLUE BOX", "address": {"city": "JACKSON", "state": "PA", "street": "362 OLD MILL RD", "postcode": "18825"}}},
{"geometry": {"type": "Point", "coordinates": [-75.6098797484, 41.8699808805]}, "type": "Feature", "properties": {"collection_times": [{"days": "Mon-Fri", "time": "1:00pm"}, {"days": "Sat", "time": "12:15pm"}, {"days": "Sun", "time": "Closed"}], "id": "1882500002", "name": "USPS COLLECTION BOX - PO LOBBY", "address": {"city": "JACKSON", "state": "PA", "street": "362 OLD MILL RD", "postcode": "18825"}}},
{"geometry": {"type": "Point", "coordinates": [-75.7349156841, 41.745030725]}, "type": "Feature", "properties": {"collection_times": [{"days": "Mon-Fri", "time": "3:45pm"}, {"days": "Sat", "time": "12:00pm"}, {"days": "Sun", "time": "Closed"}], "id": "1882600001", "name": "USPS COLLECTION BOX - BLUE BOX", "address": {"city": "KINGSLEY", "state": "PA", "street": "9560 MAIN ST", "postcode": "18826"}}},
{"geometry": {"type": "Point", "coordinates": [-75.7784544694, 41.7686149738]}, "type": "Feature", "properties": {"collection_times": [{"days": "Mon-Sat", "time": "11:00am"}, {"days": "Sun", "time": "Closed"}], "id": "1882600002", "name": "USPS COLLECTION BOX - BLUE BOX", "address": {"city": "KINGSLEY", "state": "PA", "street": "5879 STATE ROUTE 92", "postcode": "18826"}}},
{"geometry": {"type": "Point", "coordinates": [-75.7349156841, 41.745030725]}, "type": "Feature", "properties": {"collection_times": [{"days": "Mon-Fri", "time": "4:00pm"}, {"days": "Sat", "time": "12:00pm"}, {"days": "Sun", "time": "Closed"}], "id": "1882600003", "name": "USPS COLLECTION BOX - PO LOBBY", "address": {"city": "KINGSLEY", "state": "PA", "street": "9560 MAIN ST", "postcode": "18826"}}},
{"geometry": {"type": "Point", "coordinates": [-76.1113582706, 41.7976400516]}, "type": "Feature", "properties": {"collection_times": [{"days": "Mon-Fri", "time": "1:00pm"}, {"days": "Sat", "time": "11:45am"}, {"days": "Sun", "time": "Closed"}], "id": "1882800001", "name": "USPS COLLECTION BOX - BLUE BOX", "address": {"city": "LAWTON", "state": "PA", "street": "10727 STATE ROUTE 267", "postcode": "18828"}}},
{"geometry": {"type": "Point", "coordinates": [-76.1722665577, 41.8415506772]}, "type": "Feature", "properties": {"collection_times": [{"days": "Mon-Fri", "time": "12:00pm"}, {"days": "Sat", "time": "11:30am"}, {"days": "Sun", "time": "Closed"}], "id": "1882900001", "name": "USPS COLLECTION BOX - BLUE BOX", "address": {"city": "LE RAYSVILLE", "state": "PA", "street": "981 MAIN ST", "postcode": "18829"}}},
{"geometry": {"type": "Point", "coordinates": [-76.1722665577, 41.8415506772]}, "type": "Feature", "properties": {"collection_times": [{"days": "Mon-Fri", "time": "12:00pm"}, {"days": "Sat", "time": "11:30am"}, {"days": "Sun", "time": "Closed"}], "id": "1882900002", "name": "USPS COLLECTION BOX - PO LOBBY", "address": {"city": "LE RAYSVILLE", "state": "PA", "street": "981 MAIN ST", "postcode": "18829"}}},
{"geometry": {"type": "Point", "coordinates": [-76.1273696159, 41.9620811297]}, "type": "Feature", "properties": {"collection_times": [{"days": "Mon-Fri", "time": "3:30pm"}, {"days": "Sat", "time": "11:30am"}, {"days": "Sun", "time": "Closed"}], "id": "1883000001", "name": "USPS COLLECTION BOX - BLUE BOX", "address": {"city": "LITTLE MEADOWS", "state": "PA", "street": "1033 MAPLE ST STE 2", "postcode": "18830"}}},
{"geometry": {"type": "Point", "coordinates": [-76.1273696159, 41.9620811297]}, "type": "Feature", "properties": {"collection_times": [{"days": "Mon-Fri", "time": "3:30pm"}, {"days": "Sat", "time": "11:30am"}, {"days": "Sun", "time": "Closed"}], "id": "1883000002", "name": "USPS COLLECTION BOX - PO LOBBY", "address": {"city": "LITTLE MEADOWS", "state": "PA", "street": "1033 MAPLE ST STE 2", "postcode": "18830"}}},
{"geometry": {"type": "Point", "coordinates": [-76.5233777622, 41.9060522838]}, "type": "Feature", "properties": {"collection_times": [{"days": "Mon-Fri", "time": "4:00pm"}, {"days": "Sat", "time": "11:30am"}, {"days": "Sun", "time": "Closed"}], "id": "1883100001", "name": "USPS COLLECTION BOX - BLUE BOX", "address": {"city": "MILAN", "state": "PA", "street": "28364 ROUTE 220", "postcode": "18831"}}},
{"geometry": {"type": "Point", "coordinates": [-76.523453393, 41.907740851]}, "type": "Feature", "properties": {"collection_times": [{"days": "Mon-Fri", "time": "4:00pm"}, {"days": "Sat", "time": "11:45am"}, {"days": "Sun", "time": "Closed"}], "id": "1883100003", "name": "USPS COLLECTION BOX - PO LOBBY", "address": {"city": "MILAN", "state": "PA", "street": "28364 ROUTE 220", "postcode": "18831"}}},
{"geometry": {"type": "Point", "coordinates": [-76.5368559692, 41.7065600925]}, "type": "Feature", "properties": {"collection_times": [{"days": "Mon-Fri", "time": "4:15pm"}, {"days": "Sat", "time": "11:15am"}, {"days": "Sun", "time": "Closed"}], "id": "1883200001", "name": "USPS COLLECTION BOX - BLUE BOX", "address": {"city": "MONROETON", "state": "PA", "street": "264 SHAW BLVD", "postcode": "18832"}}},
{"geometry": {"type": "Point", "coordinates": [-76.5368559692, 41.7065600925]}, "type": "Feature", "properties": {"collection_times": [{"days": "Mon-Fri", "time": "4:15pm"}, {"days": "Sat", "time": "11:15am"}, {"days": "Sun", "time": "Closed"}], "id": "1883200002", "name": "USPS COLLECTION BOX - PO LOBBY", "address": {"city": "MONROETON", "state": "PA", "street": "264 SHAW BLVD", "postcode": "18832"}}},
{"geometry": {"type": "Point", "coordinates": [-76.4331276529, 41.6015238833]}, "type": "Feature", "properties": {"collection_times": [{"days": "Mon-Fri", "time": "4:15pm"}, {"days": "Sat", "time": "11:45am"}, {"days": "Sun", "time": "Closed"}], "id": "1883300001", "name": "USPS COLLECTION BOX - BLUE BOX", "address": {"city": "NEW ALBANY", "state": "PA", "street": "360 FRONT ST", "postcode": "18833"}}},
{"geometry": {"type": "Point", "coordinates": [-76.4331276529, 41.6015238833]}, "type": "Feature", "properties": {"collection_times": [{"days": "Mon-Fri", "time": "4:15pm"}, {"days": "Sat", "time": "11:45am"}, {"days": "Sun", "time": "Closed"}], "id": "1883300002", "name": "USPS COLLECTION BOX - PO LOBBY", "address": {"city": "NEW ALBANY", "state": "PA", "street": "360 FRONT ST", "postcode": "18833"}}},
{"geometry": {"type": "Point", "coordinates": [-75.7273743264, 41.8766402952]}, "type": "Feature", "properties": {"collection_times": [{"days": "Mon-Fri", "time": "4:45pm"}, {"days": "Sat", "time": "11:45am"}, {"days": "Sun", "time": "Closed"}], "id": "1883400001", "name": "USPS COLLECTION BOX - BLUE BOX", "address": {"city": "NEW MILFORD", "state": "PA", "street": "667 MAIN ST", "postcode": "18834"}}},
{"geometry": {"type": "Point", "coordinates": [-75.7273743264, 41.8766402952]}, "type": "Feature", "properties": {"collection_times": [{"days": "Mon-Fri", "time": "4:45pm"}, {"days": "Sat", "time": "11:45am"}, {"days": "Sun", "time": "Closed"}], "id": "1883400004", "name": "USPS COLLECTION BOX - PO LOBBY", "address": {"city": "NEW MILFORD", "state": "PA", "street": "667 MAIN ST", "postcode": "18834"}}},
{"geometry": {"type": "Point", "coordinates": [-76.3458278024, 41.9983706157]}, "type": "Feature", "properties": {"collection_times": [{"days": "Mon-Fri", "time": "3:30pm"}, {"days": "Sat", "time": "11:30am"}, {"days": "Sun", "time": "Closed"}], "id": "1883700001", "name": "USPS COLLECTION BOX - BLUE BOX", "address": {"city": "ROME", "state": "PA", "street": "28075 MAIN ST", "postcode": "18837"}}},
{"geometry": {"type": "Point", "coordinates": [-76.3458278024, 41.9983706157]}, "type": "Feature", "properties": {"collection_times": [{"days": "Mon-Fri", "time": "3:30pm"}, {"days": "Sat", "time": "11:30am"}, {"days": "Sun", "time": "Closed"}], "id": "1883700002", "name": "USPS COLLECTION BOX - PO LOBBY", "address": {"city": "ROME", "state": "PA", "street": "28075 MAIN ST", "postcode": "18837"}}},
{"geometry": {"type": "Point", "coordinates": [-76.5155584135, 41.9799236672]}, "type": "Feature", "properties": {"collection_times": [{"days": "Mon-Fri", "time": "4:30pm"}, {"days": "Sat", "time": "3:30pm"}, {"days": "Sun", "time": "Closed"}], "id": "1884000001", "name": "USPS COLLECTION BOX - BLUE BOX", "address": {"city": "SAYRE", "state": "PA", "street": "240 DESMOND ST", "postcode": "18840"}}},
{"geometry": {"type": "Point", "coordinates": [-76.5290516258, 41.9925133687]}, "type": "Feature", "properties": {"collection_times": [{"days": "Mon-Sat", "time": "10:00am"}, {"days": "Sun", "time": "Closed"}], "id": "1884000002", "name": "USPS COLLECTION BOX - BLUE BOX", "address": {"city": "SAYRE", "state": "PA", "street": "448 N KEYSTONE AVE", "postcode": "18840"}}},
{"geometry": {"type": "Point", "coordinates": [-76.5165238927, 41.9822493074]}, "type": "Feature", "properties": {"collection_times": [{"days": "Mon-Sat", "time": "3:00pm"}, {"days": "Sun", "time": "Closed"}], "id": "1884000007", "name": "USPS COLLECTION BOX - BLUE BOX", "address": {"city": "SAYRE", "state": "PA", "street": "101 S ELMER AVE", "postcode": "18840"}}},
{"geometry": {"type": "Point", "coordinates": [-76.4063050495, 41.9770924418]}, "type": "Feature", "properties": {"collection_times": [{"days": "Mon-Sat", "time": "11:00am"}, {"days": "Sun", "time": "Closed"}], "id": "1884000009", "name": "USPS COLLECTION BOX - BLUE BOX", "address": {"city": "SAYRE", "state": "PA", "street": "2954 ELMIRA ST", "postcode": "18840"}}},
{"geometry": {"type": "Point", "coordinates": [-76.5155584135, 41.9799236672]}, "type": "Feature", "properties": {"collection_times": [{"days": "Mon-Fri", "time": "4:30pm"}, {"days": "Sat", "time": "3:30pm"}, {"days": "Sun", "time": "Closed"}], "id": "1884000022", "name": "USPS COLLECTION BOX - BLUE BOX", "address": {"city": "SAYRE", "state": "PA", "street": "240 DESMOND ST", "postcode": "18840"}}},
{"geometry": {"type": "Point", "coordinates": [-76.5411238468, 41.9758188964]}, "type": "Feature", "properties": {"collection_times": [{"days": "Mon-Sat", "time": "9:00am"}, {"days": "Sun", "time": "Closed"}], "id": "1884000026", "name": "USPS COLLECTION BOX - BLUE BOX", "address": {"city": "SAYRE", "state": "PA", "street": "1887 ELMIRA ST", "postcode": "18840"}}},
{"geometry": {"type": "Point", "coordinates": [-76.5366503177, 41.9886238276]}, "type": "Feature", "properties": {"collection_times": [{"days": "Mon-Sat", "time": "11:00am"}, {"days": "Sun", "time": "Closed"}], "id": "1884000027", "name": "USPS COLLECTION BOX - BLUE BOX", "address": {"city": "SAYRE", "state": "PA", "street": "CESSNA ST", "postcode": "18840"}}},
{"geometry": {"type": "Point", "coordinates": [-76.5155584135, 41.9799236672]}, "type": "Feature", "properties": {"collection_times": [{"days": "Mon-Fri", "time": "4:30pm"}, {"days": "Sat", "time": "3:30pm"}, {"days": "Sun", "time": "Closed"}], "id": "1884000028", "name": "USPS COLLECTION BOX - PO LOBBY", "address": {"city": "SAYRE", "state": "PA", "street": "240 DESMOND ST", "postcode": "18840"}}},
{"geometry": {"type": "Point", "coordinates": [-75.6198469035, 41.7451219701]}, "type": "Feature", "properties": {"collection_times": [{"days": "Mon-Fri", "time": "3:30pm"}, {"days": "Sat", "time": "11:30am"}, {"days": "Sun", "time": "Closed"}], "id": "1884200001", "name": "USPS COLLECTION BOX - BLUE BOX", "address": {"city": "SOUTH GIBSON", "state": "PA", "street": "8917 ROUTE 92", "postcode": "18842"}}},
{"geometry": {"type": "Point", "coordinates": [-75.6198469035, 41.7451219701]}, "type": "Feature", "properties": {"collection_times": [{"days": "Mon-Fri", "time": "12:00pm"}, {"days": "Sat", "time": "11:30am"}, {"days": "Sun", "time": "Closed"}], "id": "1884200002", "name": "USPS COLLECTION BOX - PO LOBBY", "address": {"city": "SOUTH GIBSON", "state": "PA", "street": "8917 ROUTE 92", "postcode": "18842"}}},
{"geometry": {"type": "Point", "coordinates": [-75.892009358, 41.8021936173]}, "type": "Feature", "properties": {"collection_times": [{"days": "Mon-Fri", "time": "4:30pm"}, {"days": "Sat", "time": "11:45am"}, {"days": "Sun", "time": "Closed"}], "id": "1884300001", "name": "USPS COLLECTION BOX - BLUE BOX", "address": {"city": "SOUTH MONTROSE", "state": "PA", "street": "11187 STATE ROUTE 29", "postcode": "18843"}}},
{"geometry": {"type": "Point", "coordinates": [-75.892009358, 41.8021936173]}, "type": "Feature", "properties": {"collection_times": [{"days": "Mon-Fri", "time": "4:30pm"}, {"days": "Sat", "time": "11:45am"}, {"days": "Sun", "time": "Closed"}], "id": "1884300002", "name": "USPS COLLECTION BOX - PO LOBBY", "address": {"city": "SOUTH MONTROSE", "state": "PA", "street": "11187 STATE ROUTE 29", "postcode": "18843"}}},
{"geometry": {"type": "Point", "coordinates": [-75.9179881458, 41.6963536284]}, "type": "Feature", "properties": {"collection_times": [{"days": "Mon-Fri", "time": "4:15pm"}, {"days": "Sat", "time": "11:45am"}, {"days": "Sun", "time": "Closed"}], "id": "1884400001", "name": "USPS COLLECTION BOX - BLUE BOX", "address": {"city": "SPRINGVILLE", "state": "PA", "street": "12180 STATE ROUTE 3004", "postcode": "18844"}}},
{"geometry": {"type": "Point", "coordinates": [-75.9179881458, 41.6963536284]}, "type": "Feature", "properties": {"collection_times": [{"days": "Mon-Fri", "time": "4:15pm"}, {"days": "Sat", "time": "11:45am"}, {"days": "Sun", "time": "Closed"}], "id": "1884400002", "name": "USPS COLLECTION BOX - PO LOBBY", "address": {"city": "SPRINGVILLE", "state": "PA", "street": "12180 STATE ROUTE 3004", "postcode": "18844"}}},
{"geometry": {"type": "Point", "coordinates": [-76.1768157785, 41.7767840252]}, "type": "Feature", "properties": {"collection_times": [{"days": "Mon-Fri", "time": "3:30pm"}, {"days": "Sat", "time": "11:15am"}, {"days": "Sun", "time": "Closed"}], "id": "1884500001", "name": "USPS COLLECTION BOX - BLUE BOX", "address": {"city": "STEVENSVILLE", "state": "PA", "street": "9305 ROUTE 706", "postcode": "18845"}}},
{"geometry": {"type": "Point", "coordinates": [-76.1768157785, 41.7767840252]}, "type": "Feature", "properties": {"collection_times": [{"days": "Mon-Fri", "time": "11:00am"}, {"days": "Sat", "time": "11:15am"}, {"days": "Sun", "time": "Closed"}], "id": "1884500002", "name": "USPS COLLECTION BOX - PO LOBBY", "address": {"city": "STEVENSVILLE", "state": "PA", "street": "9305 ROUTE 706", "postcode": "18845"}}},
{"geometry": {"type": "Point", "coordinates": [-76.266276741, 41.5951712226]}, "type": "Feature", "properties": {"collection_times": [{"days": "Mon-Fri", "time": "4:00pm"}, {"days": "Sat", "time": "11:00am"}, {"days": "Sun", "time": "Closed"}], "id": "1884600001", "name": "USPS COLLECTION BOX - BLUE BOX", "address": {"city": "SUGAR RUN", "state": "PA", "street": "4873 ROUTE 187", "postcode": "18846"}}},
{"geometry": {"type": "Point", "coordinates": [-76.266276741, 41.5951712226]}, "type": "Feature", "properties": {"collection_times": [{"days": "Mon-Fri", "time": "4:00pm"}, {"days": "Sat", "time": "11:00am"}, {"days": "Sun", "time": "Closed"}], "id": "1884600002", "name": "USPS COLLECTION BOX - PO LOBBY", "address": {"city": "SUGAR RUN", "state": "PA", "street": "4873 ROUTE 187", "postcode": "18846"}}},
{"geometry": {"type": "Point", "coordinates": [-75.6010512577, 41.9451709494]}, "type": "Feature", "properties": {"collection_times": [{"days": "Mon-Sat", "time": "1:00pm"}, {"days": "Sun", "time": "Closed"}], "id": "1884700008", "name": "USPS COLLECTION BOX - BLUE BOX", "address": {"city": "SUSQUEHANNA", "state": "PA", "street": "191 ERIE BLVD", "postcode": "18847"}}},
{"geometry": {"type": "Point", "coordinates": [-75.4096740907, 41.9711805554]}, "type": "Feature", "properties": {"collection_times": [{"days": "Mon-Fri", "time": "4:45pm"}, {"days": "Sat", "time": "12:00pm"}, {"days": "Sun", "time": "Closed"}], "id": "1884700009", "name": "USPS COLLECTION BOX - BLUE BOX", "address": {"city": "SUSQUEHANNA", "state": "PA", "street": "1186 MAIN ST", "postcode": "18847"}}},
{"geometry": {"type": "Point", "coordinates": [-75.4096740907, 41.9711805554]}, "type": "Feature", "properties": {"collection_times": [{"days": "Mon-Fri", "time": "4:45pm"}, {"days": "Sat", "time": "12:00pm"}, {"days": "Sun", "time": "Closed"}], "id": "1884700012", "name": "USPS COLLECTION BOX - PO LOBBY", "address": {"city": "SUSQUEHANNA", "state": "PA", "street": "1186 MAIN ST", "postcode": "18847"}}},
{"geometry": {"type": "Point", "coordinates": [-76.4486954757, 41.7814239894]}, "type": "Feature", "properties": {"collection_times": [{"days": "Mon-Sat", "time": "12:30pm"}, {"days": "Sun", "time": "Closed"}], "id": "1884800007", "name": "USPS COLLECTION BOX - BLUE BOX", "address": {"city": "TOWANDA", "state": "PA", "street": "387 YORK AVE", "postcode": "18848"}}},
{"geometry": {"type": "Point", "coordinates": [-76.4485865435, 41.7837403024]}, "type": "Feature", "properties": {"collection_times": [{"days": "Mon-Sat", "time": "12:30pm"}, {"days": "Sun", "time": "Closed"}], "id": "1884800008", "name": "USPS COLLECTION BOX - BLUE BOX", "address": {"city": "TOWANDA", "state": "PA", "street": "91 HOSPITAL DR", "postcode": "18848"}}},
{"geometry": {"type": "Point", "coordinates": [-76.4432409553, 41.769934367]}, "type": "Feature", "properties": {"collection_times": [{"days": "Mon-Sat", "time": "11:00am"}, {"days": "Sun", "time": "Closed"}], "id": "1884800012", "name": "USPS COLLECTION BOX - BLUE BOX", "address": {"city": "TOWANDA", "state": "PA", "street": "116 MAIN ST", "postcode": "18848"}}},
{"geometry": {"type": "Point", "coordinates": [-76.4430727916, 41.7677697777]}, "type": "Feature", "properties": {"collection_times": [{"days": "Mon-Sat", "time": "10:30am"}, {"days": "Sun", "time": "Closed"}], "id": "1884800013", "name": "USPS COLLECTION BOX - BLUE BOX", "address": {"city": "TOWANDA", "state": "PA", "street": "301 MAIN ST", "postcode": "18848"}}},
{"geometry": {"type": "Point", "coordinates": [-76.4432100129, 41.7661696379]}, "type": "Feature", "properties": {"collection_times": [{"days": "Mon-Sat", "time": "11:00am"}, {"days": "Sun", "time": "Closed"}], "id": "1884800016", "name": "USPS COLLECTION BOX - BLUE BOX", "address": {"city": "TOWANDA", "state": "PA", "street": "428 MAIN ST", "postcode": "18848"}}},
{"geometry": {"type": "Point", "coordinates": [-76.4431440521, 41.7626579482]}, "type": "Feature", "properties": {"collection_times": [{"days": "Mon-Fri", "time": "4:45pm"}, {"days": "Sat", "time": "4:30pm"}, {"days": "Sun", "time": "Closed"}], "id": "1884800018", "name": "USPS COLLECTION BOX - BLUE BOX", "address": {"city": "TOWANDA", "state": "PA", "street": "700 MAIN ST", "postcode": "18848"}}},
{"geometry": {"type": "Point", "coordinates": [-76.5387960935, 41.759176699]}, "type": "Feature", "properties": {"collection_times": [{"days": "Mon-Sat", "time": "9:30am"}, {"days": "Sun", "time": "Closed"}], "id": "1884800020", "name": "USPS COLLECTION BOX - BLUE BOX", "address": {"city": "TOWANDA", "state": "PA", "street": "RR 6 BOX 1", "postcode": "18848"}}},
{"geometry": {"type": "Point", "coordinates": [-76.4430727916, 41.7677697777]}, "type": "Feature", "properties": {"collection_times": [{"days": "Mon-Sat", "time": "10:30am"}, {"days": "Sun", "time": "Closed"}], "id": "1884800022", "name": "USPS COLLECTION BOX - BLUE BOX", "address": {"city": "TOWANDA", "state": "PA", "street": "301 MAIN ST", "postcode": "18848"}}},
{"geometry": {"type": "Point", "coordinates": [-76.443055492, 41.7653557201]}, "type": "Feature", "properties": {"collection_times": [{"days": "Mon-Sat", "time": "10:00am"}, {"days": "Sun", "time": "Closed"}], "id": "1884800023", "name": "USPS COLLECTION BOX - BLUE BOX", "address": {"city": "TOWANDA", "state": "PA", "street": "507 MAIN ST", "postcode": "18848"}}},
{"geometry": {"type": "Point", "coordinates": [-76.4431440521, 41.7626579482]}, "type": "Feature", "properties": {"collection_times": [{"days": "Mon-Fri", "time": "5:00pm"}, {"days": "Sat", "time": "4:30pm"}, {"days": "Sun", "time": "Closed"}], "id": "1884800024", "name": "USPS COLLECTION BOX - PO LOBBY", "address": {"city": "TOWANDA", "state": "PA", "street": "700 MAIN ST", "postcode": "18848"}}},
{"geometry": {"type": "Point", "coordinates": [-76.4657634815, 41.8419246389]}, "type": "Feature", "properties": {"collection_times": [{"days": "Mon-Fri", "time": "4:00pm"}, {"days": "Sat", "time": "11:30am"}, {"days": "Sun", "time": "Closed"}], "id": "1885000001", "name": "USPS COLLECTION BOX - BLUE BOX", "address": {"city": "ULSTER", "state": "PA", "street": "23848 ROUTE 220", "postcode": "18850"}}},
{"geometry": {"type": "Point", "coordinates": [-76.4657634815, 41.8419246389]}, "type": "Feature", "properties": {"collection_times": [{"days": "Mon-Fri", "time": "4:00pm"}, {"days": "Sat", "time": "11:30am"}, {"days": "Sun", "time": "Closed"}], "id": "1885000002", "name": "USPS COLLECTION BOX - PO LOBBY", "address": {"city": "ULSTER", "state": "PA", "street": "23848 ROUTE 220", "postcode": "18850"}}},
{"geometry": {"type": "Point", "coordinates": [-76.1973893795, 41.9475123263]}, "type": "Feature", "properties": {"collection_times": [{"days": "Mon-Fri", "time": "3:30pm"}, {"days": "Sat", "time": "12:00pm"}, {"days": "Sun", "time": "Closed"}], "id": "1885100001", "name": "USPS COLLECTION BOX - BLUE BOX", "address": {"city": "WARREN CENTER", "state": "PA", "street": "1 SCHOOL HOUSE RD", "postcode": "18851"}}},
{"geometry": {"type": "Point", "coordinates": [-76.1973893795, 41.9475123263]}, "type": "Feature", "properties": {"collection_times": [{"days": "Mon-Fri", "time": "3:45pm"}, {"days": "Sat", "time": "12:00pm"}, {"days": "Sun", "time": "Closed"}], "id": "1885100002", "name": "USPS COLLECTION BOX - PO LOBBY", "address": {"city": "WARREN CENTER", "state": "PA", "street": "1 SCHOOLHOUSE RD", "postcode": "18851"}}},
{"geometry": {"type": "Point", "coordinates": [-76.2643372243, 41.6665816507]}, "type": "Feature", "properties": {"collection_times": [{"days": "Mon-Fri", "time": "4:45pm"}, {"days": "Sat", "time": "11:45am"}, {"days": "Sun", "time": "Closed"}], "id": "1885300001", "name": "USPS COLLECTION BOX - BLUE BOX", "address": {"city": "WYALUSING", "state": "PA", "street": "58 CHURCH ST", "postcode": "18853"}}},
{"geometry": {"type": "Point", "coordinates": [-76.2643372243, 41.6665816507]}, "type": "Feature", "properties": {"collection_times": [{"days": "Mon-Fri", "time": "5:00pm"}, {"days": "Sat", "time": "12:00pm"}, {"days": "Sun", "time": "Closed"}], "id": "1885300003", "name": "USPS COLLECTION BOX - PO LOBBY", "address": {"city": "WYALUSING", "state": "PA", "street": "58 CHURCH ST", "postcode": "18853"}}},
{"geometry": {"type": "Point", "coordinates": [-76.2643372243, 41.6665816507]}, "type": "Feature", "properties": {"collection_times": [{"days": "Mon-Sat", "time": "12:45pm"}, {"days": "Sun", "time": "Closed"}], "id": "1885300004", "name": "USPS COLLECTION BOX - BLUE BOX", "address": {"city": "WYALUSING", "state": "PA", "street": "42621 ROUTE 6", "postcode": "18853"}}},
{"geometry": {"type": "Point", "coordinates": [-76.3612746893, 41.7840830603]}, "type": "Feature", "properties": {"collection_times": [{"days": "Mon-Fri", "time": "4:30pm"}, {"days": "Sat", "time": "12:00pm"}, {"days": "Sun", "time": "Closed"}], "id": "1885400001", "name": "USPS COLLECTION BOX - BLUE BOX", "address": {"city": "WYSOX", "state": "PA", "street": "1800 GOLDEN MILE RD", "postcode": "18854"}}},
{"geometry": {"type": "Point", "coordinates": [-76.3507376586, 41.786942648]}, "type": "Feature", "properties": {"collection_times": [{"days": "Mon-Fri", "time": "4:30pm"}, {"days": "Sat", "time": "12:00pm"}, {"days": "Sun", "time": "Closed"}], "id": "1885400002", "name": "USPS COLLECTION BOX - PO LOBBY", "address": {"city": "WYSOX", "state": "PA", "street": "1800 GOLDEN MILE RD", "postcode": "18854"}}}
]}
