{"type": "FeatureCollection", "features": [
{"geometry": {"type": "Point", "coordinates": [-75.1306272898, 40.31604384]}, "type": "Feature", "properties": {"collection_times": [{"days": "Mon-Fri", "time": "3:30pm"}, {"days": "Sat", "time": "1:15pm"}, {"days": "Sun", "time": "Closed"}], "id": "1890100004", "name": "USPS COLLECTION BOX - BLUE BOX", "address": {"city": "DOYLESTOWN", "state": "PA", "street": "275 S MAIN ST", "postcode": "18901"}}},
{"geometry": {"type": "Point", "coordinates": [-75.125670943, 40.3122434372]}, "type": "Feature", "properties": {"collection_times": [{"days": "Mon-Fri", "time": "11:30am"}, {"days": "Sat", "time": "1:15pm"}, {"days": "Sun", "time": "Closed"}], "id": "1890100006", "name": "USPS COLLECTION BOX - BLUE BOX", "address": {"city": "DOYLESTOWN", "state": "PA", "street": "209 E STATE ST", "postcode": "18901"}}},
{"geometry": {"type": "Point", "coordinates": [-75.130648583, 40.3176881529]}, "type": "Feature", "properties": {"collection_times": [{"days": "Mon-Fri", "time": "3:30pm"}, {"days": "Sat", "time": "1:15pm"}, {"days": "Sun", "time": "Closed"}], "id": "1890100007", "name": "USPS COLLECTION BOX - BLUE BOX", "address": {"city": "DOYLESTOWN", "state": "PA", "street": "350 S MAIN ST", "postcode": "18901"}}},
{"geometry": {"type": "Point", "coordinates": [-75.1305941669, 40.3117496989]}, "type": "Feature", "properties": {"collection_times": [{"days": "Mon-Fri", "time": "11:00am"}, {"days": "Sat", "time": "1:30pm"}, {"days": "Sun", "time": "Closed"}], "id": "1890100009", "name": "USPS COLLECTION BOX - BLUE BOX", "address": {"city": "DOYLESTOWN", "state": "PA", "street": "72 N MAIN ST", "postcode": "18901"}}},
{"geometry": {"type": "Point", "coordinates": [-75.129496381, 40.3080150975]}, "type": "Feature", "properties": {"collection_times": [{"days": "Mon-Fri", "time": "11:30am"}, {"days": "Sat", "time": "1:00pm"}, {"days": "Sun", "time": "Closed"}], "id": "1890100010", "name": "USPS COLLECTION BOX - BLUE BOX", "address": {"city": "DOYLESTOWN", "state": "PA", "street": "88 S MAIN ST", "postcode": "18901"}}},
{"geometry": {"type": "Point", "coordinates": [-75.1300066626, 40.3114589638]}, "type": "Feature", "properties": {"collection_times": [{"days": "Mon-Fri", "time": "11:30am"}, {"days": "Sat", "time": "1:30pm"}, {"days": "Sun", "time": "Closed"}], "id": "1890100012", "name": "USPS COLLECTION BOX - BLUE BOX", "address": {"city": "DOYLESTOWN", "state": "PA", "street": "30 E COURT ST", "postcode": "18901"}}},
{"geometry": {"type": "Point", "coordinates": [-75.1445944863, 40.3041042351]}, "type": "Feature", "properties": {"collection_times": [{"days": "Mon-Fri", "time": "1:30pm"}, {"days": "Sat", "time": "12:15pm"}, {"days": "Sun", "time": "Closed"}], "id": "1890100014", "name": "USPS COLLECTION BOX - BLUE BOX", "address": {"city": "DOYLESTOWN", "state": "PA", "street": "595 W STATE ST", "postcode": "18901"}}},
{"geometry": {"type": "Point", "coordinates": [-75.1307610654, 40.3194839749]}, "type": "Feature", "properties": {"collection_times": [{"days": "Mon-Fri", "time": "12:30pm"}, {"days": "Sat", "time": "2:00pm"}, {"days": "Sun", "time": "Closed"}], "id": "1890100015", "name": "USPS COLLECTION BOX - BLUE BOX", "address": {"city": "DOYLESTOWN", "state": "PA", "street": "420 N MAIN ST", "postcode": "18901"}}},
{"geometry": {"type": "Point", "coordinates": [-75.1298700383, 40.2708936751]}, "type": "Feature", "properties": {"collection_times": [{"days": "Mon-Fri", "time": "11:30am"}, {"days": "Sat", "time": "12:15pm"}, {"days": "Sun", "time": "Closed"}], "id": "1890100018", "name": "USPS COLLECTION BOX - BLUE BOX", "address": {"city": "DOYLESTOWN", "state": "PA", "street": "1263 ALMSHOUSE RD", "postcode": "18901"}}},
{"geometry": {"type": "Point", "coordinates": [-75.1290787965, 40.3135383329]}, "type": "Feature", "properties": {"collection_times": [{"days": "Mon-Fri", "time": "12:00pm"}, {"days": "Sat", "time": "1:15pm"}, {"days": "Sun", "time": "Closed"}], "id": "1890100025", "name": "USPS COLLECTION BOX - BLUE BOX", "address": {"city": "DOYLESTOWN", "state": "PA", "street": "125 MECHANICS ST", "postcode": "18901"}}},
{"geometry": {"type": "Point", "coordinates": [-75.1373961472, 40.3328838753]}, "type": "Feature", "properties": {"collection_times": [{"days": "Mon-Fri", "time": "3:30pm"}, {"days": "Sat", "time": "2:00pm"}, {"days": "Sun", "time": "Closed"}], "id": "1890100029", "name": "USPS COLLECTION BOX - BLUE BOX", "address": {"city": "DOYLESTOWN", "state": "PA", "street": "252 W SWAMP RD", "postcode": "18901"}}},
{"geometry": {"type": "Point", "coordinates": [-75.1326915531, 40.3175982481]}, "type": "Feature", "properties": {"collection_times": [{"days": "Mon-Fri", "time": "5:00pm"}, {"days": "Sat", "time": "4:30pm"}, {"days": "Sun", "time": "Closed"}], "id": "1890100030", "name": "USPS COLLECTION BOX - BLUE BOX", "address": {"city": "DOYLESTOWN", "state": "PA", "street": "8 ATKINSON DR", "postcode": "18901"}}},
{"geometry": {"type": "Point", "coordinates": [-75.1279857424, 40.274790512]}, "type": "Feature", "properties": {"collection_times": [{"days": "Mon-Fri", "time": "11:30am"}, {"days": "Sat", "time": "12:15pm"}, {"days": "Sun", "time": "Closed"}], "id": "1890100039", "name": "USPS COLLECTION BOX - BLUE BOX", "address": {"city": "DOYLESTOWN", "state": "PA", "street": "1745 S EASTON RD", "postcode": "18901"}}},
{"geometry": {"type": "Point", "coordinates": [-75.1373961472, 40.3328838753]}, "type": "Feature", "properties": {"collection_times": [{"days": "Mon-Fri", "time": "3:30pm"}, {"days": "Sat", "time": "2:00pm"}, {"days": "Sun", "time": "Closed"}], "id": "1890100048", "name": "USPS COLLECTION BOX - BLUE BOX", "address": {"city": "DOYLESTOWN", "state": "PA", "street": "252 W SWAMP RD", "postcode": "18901"}}},
{"geometry": {"type": "Point", "coordinates": [-75.1294833684, 40.3094902473]}, "type": "Feature", "properties": {"collection_times": [{"days": "Mon-Fri", "time": "12:00pm"}, {"days": "Sat", "time": "1:15pm"}, {"days": "Sun", "time": "Closed"}], "id": "1890100049", "name": "USPS COLLECTION BOX - BLUE BOX", "address": {"city": "DOYLESTOWN", "state": "PA", "street": "20 E OAKLAND AVE", "postcode": "18901"}}},
{"geometry": {"type": "Point", "coordinates": [-75.1315346193, 40.3081972732]}, "type": "Feature", "properties": {"collection_times": [{"days": "Mon-Fri", "time": "12:00pm"}, {"days": "Sat", "time": "1:00pm"}, {"days": "Sun", "time": "Closed"}], "id": "1890100051", "name": "USPS COLLECTION BOX - BLUE BOX", "address": {"city": "DOYLESTOWN", "state": "PA", "street": "70 W OAKLAND AVE", "postcode": "18901"}}},
{"geometry": {"type": "Point", "coordinates": [-75.1350046034, 40.3084834349]}, "type": "Feature", "properties": {"collection_times": [{"days": "Mon-Fri", "time": "1:00pm"}, {"days": "Sat", "time": "12:00pm"}, {"days": "Sun", "time": "Closed"}], "id": "1890100055", "name": "USPS COLLECTION BOX - BLUE BOX", "address": {"city": "DOYLESTOWN", "state": "PA", "street": "16 N FRANKLIN ST", "postcode": "18901"}}},
{"geometry": {"type": "Point", "coordinates": [-75.1295640755, 40.321382353]}, "type": "Feature", "properties": {"collection_times": [{"days": "Mon-Fri", "time": "12:00pm"}, {"days": "Sat", "time": "1:30pm"}, {"days": "Sun", "time": "Closed"}], "id": "1890100057", "name": "USPS COLLECTION BOX - BLUE BOX", "address": {"city": "DOYLESTOWN", "state": "PA", "street": "495 EAST ST", "postcode": "18901"}}},
{"geometry": {"type": "Point", "coordinates": [-75.1272570397, 40.3127812392]}, "type": "Feature", "properties": {"collection_times": [{"days": "Mon-Fri", "time": "12:30pm"}, {"days": "Sat", "time": "1:15pm"}, {"days": "Sun", "time": "Closed"}], "id": "1890100058", "name": "USPS COLLECTION BOX - BLUE BOX", "address": {"city": "DOYLESTOWN", "state": "PA", "street": "53 N CHURCH ST", "postcode": "18901"}}},
{"geometry": {"type": "Point", "coordinates": [-75.1747776842, 40.3183470611]}, "type": "Feature", "properties": {"collection_times": [{"days": "Mon-Fri", "time": "12:00pm"}, {"days": "Sat", "time": "2:00pm"}, {"days": "Sun", "time": "Closed"}], "id": "1890100061", "name": "USPS COLLECTION BOX - BLUE BOX", "address": {"city": "DOYLESTOWN", "state": "PA", "street": "777 FERRY RD", "postcode": "18901"}}},
{"geometry": {"type": "Point", "coordinates": [-75.1331978596, 40.3125706725]}, "type": "Feature", "properties": {"collection_times": [{"days": "Mon-Fri", "time": "1:30pm"}, {"days": "Sat", "time": "12:00pm"}, {"days": "Sun", "time": "Closed"}], "id": "1890100062", "name": "USPS COLLECTION BOX - BLUE BOX", "address": {"city": "DOYLESTOWN", "state": "PA", "street": "156 SHEWELL AVE", "postcode": "18901"}}},
{"geometry": {"type": "Point", "coordinates": [-75.1326915531, 40.3175982481]}, "type": "Feature", "properties": {"collection_times": [{"days": "Mon-Fri", "time": "5:00pm"}, {"days": "Sat", "time": "4:30pm"}, {"days": "Sun", "time": "Closed"}], "id": "1890100064", "name": "USPS COLLECTION BOX - PO LOBBY", "address": {"city": "DOYLESTOWN", "state": "PA", "street": "8 ATKINSON DR", "postcode": "18901"}}},
{"geometry": {"type": "Point", "coordinates": [-75.1326915531, 40.3175982481]}, "type": "Feature", "properties": {"collection_times": [{"days": "Mon-Fri", "time": "5:00pm"}, {"days": "Sat", "time": "4:30pm"}, {"days": "Sun", "time": "Closed"}], "id": "1890100066", "name": "USPS COLLECTION BOX - PO LOBBY", "address": {"city": "DOYLESTOWN", "state": "PA", "street": "8 ATKINSON DR", "postcode": "18901"}}},
{"geometry": {"type": "Point", "coordinates": [-75.1328843755, 40.3085604416]}, "type": "Feature", "properties": {"collection_times": [{"days": "Mon-Fri", "time": "3:30pm"}, {"days": "Sat", "time": "1:00pm"}, {"days": "Sun", "time": "Closed"}], "id": "1890100080", "name": "USPS COLLECTION BOX - BLUE BOX", "address": {"city": "DOYLESTOWN", "state": "PA", "street": "10 S CLINTON ST", "postcode": "18901"}}},
{"geometry": {"type": "Point", "coordinates": [-75.1290492225, 40.3238998705]}, "type": "Feature", "properties": {"collection_times": [{"days": "Mon-Fri", "time": "12:30pm"}, {"days": "Sat", "time": "1:30pm"}, {"days": "Sun", "time": "Closed"}], "id": "1890100081", "name": "USPS COLLECTION BOX - BLUE BOX", "address": {"city": "DOYLESTOWN", "state": "PA", "street": "100 FONTHILL DR", "postcode": "18901"}}},
{"geometry": {"type": "Point", "coordinates": [-75.1278012008, 40.3112918938]}, "type": "Feature", "properties": {"collection_times": [{"days": "Mon-Fri", "time": "12:00pm"}, {"days": "Sat", "time": "1:15pm"}, {"days": "Sun", "time": "Closed"}], "id": "1890100082", "name": "USPS COLLECTION BOX - BLUE BOX", "address": {"city": "DOYLESTOWN", "state": "PA", "street": "106 E STATE ST", "postcode": "18901"}}},
{"geometry": {"type": "Point", "coordinates": [-75.1359636176, 40.3060383731]}, "type": "Feature", "properties": {"collection_times": [{"days": "Mon-Fri", "time": "1:30pm"}, {"days": "Sat", "time": "1:00pm"}, {"days": "Sun", "time": "Closed"}], "id": "1890100083", "name": "USPS COLLECTION BOX - BLUE BOX", "address": {"city": "DOYLESTOWN", "state": "PA", "street": "295 W COURT ST", "postcode": "18901"}}},
{"geometry": {"type": "Point", "coordinates": [-75.1885391309, 40.2972330628]}, "type": "Feature", "properties": {"collection_times": [{"days": "Mon-Fri", "time": "11:30am"}, {"days": "Sat", "time": "12:45pm"}, {"days": "Sun", "time": "Closed"}], "id": "1890100084", "name": "USPS COLLECTION BOX - BLUE BOX", "address": {"city": "DOYLESTOWN", "state": "PA", "street": "398 TOWN CTR", "postcode": "18901"}}},
{"geometry": {"type": "Point", "coordinates": [-75.1301269859, 40.3115197395]}, "type": "Feature", "properties": {"collection_times": [{"days": "Mon-Fri", "time": "3:30pm"}, {"days": "Sat", "time": "1:30pm"}, {"days": "Sun", "time": "Closed"}], "id": "1890100085", "name": "USPS COLLECTION BOX - BLUE BOX", "address": {"city": "DOYLESTOWN", "state": "PA", "street": "35 E COURT ST", "postcode": "18901"}}},
{"geometry": {"type": "Point", "coordinates": [-75.1328382401, 40.3233770026]}, "type": "Feature", "properties": {"collection_times": [{"days": "Mon-Fri", "time": "12:30pm"}, {"days": "Sat", "time": "2:00pm"}, {"days": "Sun", "time": "Closed"}], "id": "1890100086", "name": "USPS COLLECTION BOX - BLUE BOX", "address": {"city": "DOYLESTOWN", "state": "PA", "street": "73 OLD DUBLIN PIKE", "postcode": "18901"}}},
{"geometry": {"type": "Point", "coordinates": [-75.1305823373, 40.3102012057]}, "type": "Feature", "properties": {"collection_times": [{"days": "Mon-Fri", "time": "3:30pm"}, {"days": "Sat", "time": "1:30pm"}, {"days": "Sun", "time": "Closed"}], "id": "1890100087", "name": "USPS COLLECTION BOX - BLUE BOX", "address": {"city": "DOYLESTOWN", "state": "PA", "street": "1 S MAIN ST", "postcode": "18901"}}},
{"geometry": {"type": "Point", "coordinates": [-75.1850552317, 40.2976784021]}, "type": "Feature", "properties": {"collection_times": [{"days": "Mon-Fri", "time": "3:30pm"}, {"days": "Sat", "time": "12:45pm"}, {"days": "Sun", "time": "Closed"}], "id": "1890100089", "name": "USPS COLLECTION BOX - BLUE BOX", "address": {"city": "DOYLESTOWN", "state": "PA", "street": "85 W BUTLER AVE", "postcode": "18901"}}},
{"geometry": {"type": "Point", "coordinates": [-75.1306119113, 40.3103514414]}, "type": "Feature", "properties": {"collection_times": [{"days": "Mon-Fri", "time": "3:30pm"}, {"days": "Sat", "time": "1:30pm"}, {"days": "Sun", "time": "Closed"}], "id": "1890100091", "name": "USPS COLLECTION BOX - BLUE BOX", "address": {"city": "DOYLESTOWN", "state": "PA", "street": "10 N MAIN ST", "postcode": "18901"}}},
{"geometry": {"type": "Point", "coordinates": [-75.130648583, 40.3176881529]}, "type": "Feature", "properties": {"collection_times": [{"days": "Mon-Fri", "time": "3:30pm"}, {"days": "Sat", "time": "1:15pm"}, {"days": "Sun", "time": "Closed"}], "id": "1890100092", "name": "USPS COLLECTION BOX - BLUE BOX", "address": {"city": "DOYLESTOWN", "state": "PA", "street": "350 S MAIN ST", "postcode": "18901"}}},
{"geometry": {"type": "Point", "coordinates": [-75.1276023271, 40.2928474143]}, "type": "Feature", "properties": {"collection_times": [{"days": "Mon-Fri", "time": "3:30pm"}, {"days": "Sat", "time": "12:30pm"}, {"days": "Sun", "time": "Closed"}], "id": "1890100093", "name": "USPS COLLECTION BOX - BLUE BOX", "address": {"city": "DOYLESTOWN", "state": "PA", "street": "2005 S EASTON RD", "postcode": "18901"}}},
{"geometry": {"type": "Point", "coordinates": [-75.1182156843, 40.3220556374]}, "type": "Feature", "properties": {"collection_times": [{"days": "Mon-Fri", "time": "12:00pm"}, {"days": "Sat", "time": "1:30pm"}, {"days": "Sun", "time": "Closed"}], "id": "1890200001", "name": "USPS COLLECTION BOX - BLUE BOX", "address": {"city": "DOYLESTOWN", "state": "PA", "street": "607 N CHUBB DR", "postcode": "18902"}}},
{"geometry": {"type": "Point", "coordinates": [-75.0972832485, 40.3545843733]}, "type": "Feature", "properties": {"collection_times": [{"days": "Mon-Fri", "time": "3:30pm"}, {"days": "Sat", "time": "1:45pm"}, {"days": "Sun", "time": "Closed"}], "id": "1890200002", "name": "USPS COLLECTION BOX - BLUE BOX", "address": {"city": "DOYLESTOWN", "state": "PA", "street": "450 SKY RUN DR", "postcode": "18902"}}},
{"geometry": {"type": "Point", "coordinates": [-75.1344460041, 40.33131521]}, "type": "Feature", "properties": {"collection_times": [{"days": "Mon-Fri", "time": "12:30pm"}, {"days": "Sat", "time": "1:45pm"}, {"days": "Sun", "time": "Closed"}], "id": "1890200003", "name": "USPS COLLECTION BOX - BLUE BOX", "address": {"city": "DOYLESTOWN", "state": "PA", "street": "4387 W SWAMP RD", "postcode": "18902"}}},
{"geometry": {"type": "Point", "coordinates": [-75.1799430997, 40.4269335877]}, "type": "Feature", "properties": {"collection_times": [{"days": "Mon-Fri", "time": "4:30pm"}, {"days": "Sat", "time": "11:30am"}, {"days": "Sun", "time": "Closed"}], "id": "1891000001", "name": "USPS COLLECTION BOX - BLUE BOX", "address": {"city": "BEDMINSTER", "state": "PA", "street": "3102 BEDMINSTER RD", "postcode": "18910"}}},
{"geometry": {"type": "Point", "coordinates": [-75.1799430997, 40.4269335877]}, "type": "Feature", "properties": {"collection_times": [{"days": "Mon-Fri", "time": "4:30pm"}, {"days": "Sat", "time": "11:30am"}, {"days": "Sun", "time": "Closed"}], "id": "1891000002", "name": "USPS COLLECTION BOX - PO LOBBY", "address": {"city": "BEDMINSTER", "state": "PA", "street": "3102 BEDMINSTER RD", "postcode": "18910"}}},
{"geometry": {"type": "Point", "coordinates": [-75.2808387266, 40.3869342272]}, "type": "Feature", "properties": {"collection_times": [{"days": "Mon-Fri", "time": "4:00pm"}, {"days": "Sat", "time": "11:00am"}, {"days": "Sun", "time": "Closed"}], "id": "1891100002", "name": "USPS COLLECTION BOX - PO LOBBY", "address": {"city": "BLOOMING GLEN", "state": "PA", "street": "818 BLOOMING GLEN RD", "postcode": "18911"}}},
{"geometry": {"type": "Point", "coordinates": [-75.2808387266, 40.3869342272]}, "type": "Feature", "properties": {"collection_times": [{"days": "Mon-Fri", "time": "4:00pm"}, {"days": "Sat", "time": "11:00am"}, {"days": "Sun", "time": "Closed"}], "id": "1891100006", "name": "USPS COLLECTION BOX - PO LOBBY", "address": {"city": "BLOOMING GLEN", "state": "PA", "street": "818 BLOOMING GLEN RD", "postcode": "18911"}}},
{"geometry": {"type": "Point", "coordinates": [-75.2808387266, 40.3869342272]}, "type": "Feature", "properties": {"collection_times": [{"days": "Mon-Fri", "time": "4:15pm"}, {"days": "Sat", "time": "11:15am"}, {"days": "Sun", "time": "Closed"}], "id": "1891100007", "name": "USPS COLLECTION BOX - BLUE BOX", "address": {"city": "BLOOMING GLEN", "state": "PA", "street": "818 BLOOMING GLEN RD", "postcode": "18911"}}},
{"geometry": {"type": "Point", "coordinates": [-75.0617835141, 40.3224192214]}, "type": "Feature", "properties": {"collection_times": [{"days": "Mon-Fri", "time": "4:30pm"}, {"days": "Sat", "time": "11:30am"}, {"days": "Sun", "time": "Closed"}], "id": "1891200002", "name": "USPS COLLECTION BOX - BLUE BOX", "address": {"city": "BUCKINGHAM", "state": "PA", "street": "4657 YORK RD", "postcode": "18912"}}},
{"geometry": {"type": "Point", "coordinates": [-75.0617835141, 40.3224192214]}, "type": "Feature", "properties": {"collection_times": [{"days": "Mon-Fri", "time": "4:30pm"}, {"days": "Sat", "time": "11:30am"}, {"days": "Sun", "time": "Closed"}], "id": "1891200003", "name": "USPS COLLECTION BOX - PO LOBBY", "address": {"city": "BUCKINGHAM", "state": "PA", "street": "4657 YORK RD", "postcode": "18912"}}},
{"geometry": {"type": "Point", "coordinates": [-75.0617835141, 40.3224192214]}, "type": "Feature", "properties": {"collection_times": [{"days": "Mon-Fri", "time": "4:30pm"}, {"days": "Sat", "time": "11:30am"}, {"days": "Sun", "time": "Closed"}], "id": "1891200004", "name": "USPS COLLECTION BOX - PO LOBBY", "address": {"city": "BUCKINGHAM", "state": "PA", "street": "4657 YORK RD", "postcode": "18912"}}},
{"geometry": {"type": "Point", "coordinates": [-75.0627715806, 40.3868794228]}, "type": "Feature", "properties": {"collection_times": [{"days": "Mon-Fri", "time": "4:30pm"}, {"days": "Sat", "time": "11:30am"}, {"days": "Sun", "time": "Closed"}], "id": "1891300001", "name": "USPS COLLECTION BOX - BLUE BOX", "address": {"city": "CARVERSVILLE", "state": "PA", "street": "6208 FLEECYDALE RD", "postcode": "18913"}}},
{"geometry": {"type": "Point", "coordinates": [-75.0627715806, 40.3868794228]}, "type": "Feature", "properties": {"collection_times": [{"days": "Mon-Fri", "time": "4:30pm"}, {"days": "Sat", "time": "11:30am"}, {"days": "Sun", "time": "Closed"}], "id": "1891300002", "name": "USPS COLLECTION BOX - PO LOBBY", "address": {"city": "CARVERSVILLE", "state": "PA", "street": "6208 FLEECYDALE RD", "postcode": "18913"}}},
{"geometry": {"type": "Point", "coordinates": [-75.0627715806, 40.3868794228]}, "type": "Feature", "properties": {"collection_times": [{"days": "Mon-Fri", "time": "4:30pm"}, {"days": "Sat", "time": "11:30am"}, {"days": "Sun", "time": "Closed"}], "id": "1891300003", "name": "USPS COLLECTION BOX - PO LOBBY", "address": {"city": "CARVERSVILLE", "state": "PA", "street": "6208 FLEECYDALE RD", "postcode": "18913"}}},
{"geometry": {"type": "Point", "coordinates": [-75.2139366788, 40.2914718359]}, "type": "Feature", "properties": {"collection_times": [{"days": "Mon-Fri", "time": "4:30pm"}, {"days": "Sat", "time": "3:00pm"}, {"days": "Sun", "time": "Closed"}], "id": "1891400001", "name": "USPS COLLECTION BOX - BLUE BOX", "address": {"city": "CHALFONT", "state": "PA", "street": "300 N MAIN ST", "postcode": "18914"}}},
{"geometry": {"type": "Point", "coordinates": [-75.2484925892, 40.2842186949]}, "type": "Feature", "properties": {"collection_times": [{"days": "Mon-Fri", "time": "1:00pm"}, {"days": "Sat-Sun", "time": "Closed"}], "id": "1891400004", "name": "USPS COLLECTION BOX - BLUE BOX", "address": {"city": "CHALFONT", "state": "PA", "street": "120 NEW BRITAIN BLVD", "postcode": "18914"}}},
{"geometry": {"type": "Point", "coordinates": [-75.2112062061, 40.260278137]}, "type": "Feature", "properties": {"collection_times": [{"days": "Mon-Fri", "time": "1:00pm"}, {"days": "Sat", "time": "11:30am"}, {"days": "Sun", "time": "Closed"}], "id": "1891400005", "name": "USPS COLLECTION BOX - BLUE BOX", "address": {"city": "CHALFONT", "state": "PA", "street": "200 HIGHPOINT DR", "postcode": "18914"}}},
{"geometry": {"type": "Point", "coordinates": [-75.2219929937, 40.2719816781]}, "type": "Feature", "properties": {"collection_times": [{"days": "Mon-Fri", "time": "1:00pm"}, {"days": "Sat", "time": "11:30am"}, {"days": "Sun", "time": "Closed"}], "id": "1891400008", "name": "USPS COLLECTION BOX - BLUE BOX", "address": {"city": "CHALFONT", "state": "PA", "street": "1 HIGHLAND DR", "postcode": "18914"}}},
{"geometry": {"type": "Point", "coordinates": [-75.2270124203, 40.2650121732]}, "type": "Feature", "properties": {"collection_times": [{"days": "Mon-Fri", "time": "1:00pm"}, {"days": "Sat", "time": "11:30am"}, {"days": "Sun", "time": "Closed"}], "id": "1891400009", "name": "USPS COLLECTION BOX - BLUE BOX", "address": {"city": "CHALFONT", "state": "PA", "street": "4275 COUNTY LINE RD", "postcode": "18914"}}},
{"geometry": {"type": "Point", "coordinates": [-75.2139366788, 40.2914718359]}, "type": "Feature", "properties": {"collection_times": [{"days": "Mon-Fri", "time": "4:30pm"}, {"days": "Sat", "time": "11:30am"}, {"days": "Sun", "time": "Closed"}], "id": "1891400011", "name": "USPS COLLECTION BOX - PO LOBBY", "address": {"city": "CHALFONT", "state": "PA", "street": "300 N MAIN ST", "postcode": "18914"}}},
{"geometry": {"type": "Point", "coordinates": [-75.2139366788, 40.2914718359]}, "type": "Feature", "properties": {"collection_times": [{"days": "Mon-Fri", "time": "4:30pm"}, {"days": "Sat", "time": "11:30am"}, {"days": "Sun", "time": "Closed"}], "id": "1891400013", "name": "USPS COLLECTION BOX - PO LOBBY", "address": {"city": "CHALFONT", "state": "PA", "street": "300 N MAIN ST", "postcode": "18914"}}},
{"geometry": {"type": "Point", "coordinates": [-75.2139366788, 40.2914718359]}, "type": "Feature", "properties": {"collection_times": [{"days": "Mon-Fri", "time": "4:30pm"}, {"days": "Sat", "time": "11:30am"}, {"days": "Sun", "time": "Closed"}], "id": "1891400014", "name": "USPS COLLECTION BOX - PO LOBBY", "address": {"city": "CHALFONT", "state": "PA", "street": "300 N MAIN ST", "postcode": "18914"}}},
{"geometry": {"type": "Point", "coordinates": [-75.2548538623, 40.2677160534]}, "type": "Feature", "properties": {"collection_times": [{"days": "Mon-Fri", "time": "4:45pm"}, {"days": "Sat", "time": "11:00am"}, {"days": "Sun", "time": "Closed"}], "id": "1891500001", "name": "USPS COLLECTION BOX - BLUE BOX", "address": {"city": "COLMAR", "state": "PA", "street": "104 BETHLEHEM PIKE", "postcode": "18915"}}},
{"geometry": {"type": "Point", "coordinates": [-75.2548538623, 40.2677160534]}, "type": "Feature", "properties": {"collection_times": [{"days": "Mon-Fri", "time": "4:45pm"}, {"days": "Sat", "time": "11:00am"}, {"days": "Sun", "time": "Closed"}], "id": "1891500004", "name": "USPS COLLECTION BOX - PO LOBBY", "address": {"city": "COLMAR", "state": "PA", "street": "104 BETHLEHEM PIKE", "postcode": "18915"}}},
{"geometry": {"type": "Point", "coordinates": [-75.2548538623, 40.2677160534]}, "type": "Feature", "properties": {"collection_times": [{"days": "Mon-Fri", "time": "4:45pm"}, {"days": "Sat", "time": "11:00am"}, {"days": "Sun", "time": "Closed"}], "id": "1891500005", "name": "USPS COLLECTION BOX - PO LOBBY", "address": {"city": "COLMAR", "state": "PA", "street": "104 BETHLEHEM PIKE", "postcode": "18915"}}},
{"geometry": {"type": "Point", "coordinates": [-75.1852099497, 40.2975881617]}, "type": "Feature", "properties": {"collection_times": [{"days": "Mon-Fri", "time": "4:30pm"}, {"days": "Sat", "time": "11:30am"}, {"days": "Sun", "time": "Closed"}], "id": "1891600001", "name": "USPS COLLECTION BOX - BLUE BOX", "address": {"city": "DANBORO", "state": "PA", "street": "4317 POINT PLEASANT PIKE", "postcode": "18916"}}},
{"geometry": {"type": "Point", "coordinates": [-75.1852099497, 40.2975881617]}, "type": "Feature", "properties": {"collection_times": [{"days": "Mon-Fri", "time": "4:30pm"}, {"days": "Sat", "time": "11:30am"}, {"days": "Sun", "time": "Closed"}], "id": "1891600002", "name": "USPS COLLECTION BOX - PO LOBBY", "address": {"city": "DANBORO", "state": "PA", "street": "4317 POINT PLEASANT PIKE", "postcode": "18916"}}},
{"geometry": {"type": "Point", "coordinates": [-75.1852099497, 40.2975881617]}, "type": "Feature", "properties": {"collection_times": [{"days": "Mon-Fri", "time": "4:30pm"}, {"days": "Sat", "time": "11:30am"}, {"days": "Sun", "time": "Closed"}], "id": "1891600003", "name": "USPS COLLECTION BOX - PO LOBBY", "address": {"city": "DANBORO", "state": "PA", "street": "4317 POINT PLEASANT PIKE", "postcode": "18916"}}},
{"geometry": {"type": "Point", "coordinates": [-75.2051643512, 40.3730790235]}, "type": "Feature", "properties": {"collection_times": [{"days": "Mon-Fri", "time": "4:30pm"}, {"days": "Sat", "time": "11:30am"}, {"days": "Sun", "time": "Closed"}], "id": "1891700001", "name": "USPS COLLECTION BOX - BLUE BOX", "address": {"city": "DUBLIN", "state": "PA", "street": "133 N MAIN ST", "postcode": "18917"}}},
{"geometry": {"type": "Point", "coordinates": [-75.2051643512, 40.3730790235]}, "type": "Feature", "properties": {"collection_times": [{"days": "Mon-Fri", "time": "4:30pm"}, {"days": "Sat", "time": "11:30am"}, {"days": "Sun", "time": "Closed"}], "id": "1891700002", "name": "USPS COLLECTION BOX - PO LOBBY", "address": {"city": "DUBLIN", "state": "PA", "street": "133 N MAIN ST", "postcode": "18917"}}},
{"geometry": {"type": "Point", "coordinates": [-75.2051643512, 40.3730790235]}, "type": "Feature", "properties": {"collection_times": [{"days": "Mon-Fri", "time": "4:30pm"}, {"days": "Sat", "time": "11:30am"}, {"days": "Sun", "time": "Closed"}], "id": "1891700003", "name": "USPS COLLECTION BOX - PO LOBBY", "address": {"city": "DUBLIN", "state": "PA", "street": "133 N MAIN ST", "postcode": "18917"}}},
{"geometry": {"type": "Point", "coordinates": [-75.370647968, 40.322150693]}, "type": "Feature", "properties": {"collection_times": [{"days": "Mon-Fri", "time": "4:30pm"}, {"days": "Sat", "time": "12:00pm"}, {"days": "Sun", "time": "Closed"}], "id": "1891800001", "name": "USPS COLLECTION BOX - BLUE BOX", "address": {"city": "EARLINGTON", "state": "PA", "street": "403 MORWOOD RD", "postcode": "18918"}}},
{"geometry": {"type": "Point", "coordinates": [-75.370647968, 40.322150693]}, "type": "Feature", "properties": {"collection_times": [{"days": "Mon-Fri", "time": "4:00pm"}, {"days": "Sat", "time": "11:00am"}, {"days": "Sun", "time": "Closed"}], "id": "1891800002", "name": "USPS COLLECTION BOX - PO LOBBY", "address": {"city": "EARLINGTON", "state": "PA", "street": "403 MORWOOD RD", "postcode": "18918"}}},
{"geometry": {"type": "Point", "coordinates": [-75.0726504709, 40.5006315739]}, "type": "Feature", "properties": {"collection_times": [{"days": "Mon-Fri", "time": "4:00pm"}, {"days": "Sat", "time": "11:30am"}, {"days": "Sun", "time": "Closed"}], "id": "1892000001", "name": "USPS COLLECTION BOX - BLUE BOX", "address": {"city": "ERWINNA", "state": "PA", "street": "39 HEADQUARTERS RD", "postcode": "18920"}}},
{"geometry": {"type": "Point", "coordinates": [-75.0726504709, 40.5006315739]}, "type": "Feature", "properties": {"collection_times": [{"days": "Mon-Fri", "time": "4:00pm"}, {"days": "Sat", "time": "11:30am"}, {"days": "Sun", "time": "Closed"}], "id": "1892000002", "name": "USPS COLLECTION BOX - PO LOBBY", "address": {"city": "ERWINNA", "state": "PA", "street": "39 HEADQUARTERS RD", "postcode": "18920"}}},
{"geometry": {"type": "Point", "coordinates": [-75.1777394621, 40.5321853414]}, "type": "Feature", "properties": {"collection_times": [{"days": "Mon-Fri", "time": "4:00pm"}, {"days": "Sat", "time": "11:30am"}, {"days": "Sun", "time": "Closed"}], "id": "1892100001", "name": "USPS COLLECTION BOX - BLUE BOX", "address": {"city": "FERNDALE", "state": "PA", "street": "9110 EASTON RD", "postcode": "18921"}}},
{"geometry": {"type": "Point", "coordinates": [-75.1777394621, 40.5321853414]}, "type": "Feature", "properties": {"collection_times": [{"days": "Mon-Fri", "time": "4:00pm"}, {"days": "Sat", "time": "11:30am"}, {"days": "Sun", "time": "Closed"}], "id": "1892100002", "name": "USPS COLLECTION BOX - PO LOBBY", "address": {"city": "FERNDALE", "state": "PA", "street": "9110 EASTON RD", "postcode": "18921"}}},
{"geometry": {"type": "Point", "coordinates": [-75.0606880889, 40.2932931286]}, "type": "Feature", "properties": {"collection_times": [{"days": "Mon-Fri", "time": "4:00pm"}, {"days": "Sat", "time": "11:30am"}, {"days": "Sun", "time": "Closed"}], "id": "1892200002", "name": "USPS COLLECTION BOX - PO LOBBY", "address": {"city": "FOREST GROVE", "state": "PA", "street": "1809 FOREST GROVE RD", "postcode": "18922"}}},
{"geometry": {"type": "Point", "coordinates": [-75.0606880889, 40.2932931286]}, "type": "Feature", "properties": {"collection_times": [{"days": "Mon-Fri", "time": "4:00pm"}, {"days": "Sat", "time": "11:30am"}, {"days": "Sun", "time": "Closed"}], "id": "1892200003", "name": "USPS COLLECTION BOX - PO LOBBY", "address": {"city": "FOREST GROVE", "state": "PA", "street": "1809 FOREST GROVE RD", "postcode": "18922"}}},
{"geometry": {"type": "Point", "coordinates": [-75.1525605319, 40.3421020601]}, "type": "Feature", "properties": {"collection_times": [{"days": "Mon-Fri", "time": "5:00pm"}, {"days": "Sat", "time": "12:00pm"}, {"days": "Sun", "time": "Closed"}], "id": "1892300001", "name": "USPS COLLECTION BOX - BLUE BOX", "address": {"city": "FOUNTAINVILLE", "state": "PA", "street": "5045 SWAMP RD SUITE #102", "postcode": "18923"}}},
{"geometry": {"type": "Point", "coordinates": [-75.1525605319, 40.3421020601]}, "type": "Feature", "properties": {"collection_times": [{"days": "Mon-Fri", "time": "5:00pm"}, {"days": "Sat", "time": "12:00pm"}, {"days": "Sun", "time": "Closed"}], "id": "1892300002", "name": "USPS COLLECTION BOX - PO LOBBY", "address": {"city": "FOUNTAINVILLE", "state": "PA", "street": "5045 SWAMP RD SUITE #102", "postcode": "18923"}}},
{"geometry": {"type": "Point", "coordinates": [-75.1525605319, 40.3421020601]}, "type": "Feature", "properties": {"collection_times": [{"days": "Mon-Fri", "time": "5:00pm"}, {"days": "Sat", "time": "12:00pm"}, {"days": "Sun", "time": "Closed"}], "id": "1892300003", "name": "USPS COLLECTION BOX - PO LOBBY", "address": {"city": "FOUNTAINVILLE", "state": "PA", "street": "5045 SWAMP RD SUITE#2", "postcode": "18923"}}},
{"geometry": {"type": "Point", "coordinates": [-75.0860368345, 40.2949670601]}, "type": "Feature", "properties": {"collection_times": [{"days": "Mon-Fri", "time": "4:30pm"}, {"days": "Sat", "time": "11:00am"}, {"days": "Sun", "time": "Closed"}], "id": "1892500001", "name": "USPS COLLECTION BOX - BLUE BOX", "address": {"city": "FURLONG", "state": "PA", "street": "720 EDISON FURLONG RD", "postcode": "18925"}}},
{"geometry": {"type": "Point", "coordinates": [-75.0860368345, 40.2949670601]}, "type": "Feature", "properties": {"collection_times": [{"days": "Mon-Fri", "time": "4:30pm"}, {"days": "Sat", "time": "11:00am"}, {"days": "Sun", "time": "Closed"}], "id": "1892500002", "name": "USPS COLLECTION BOX - PO LOBBY", "address": {"city": "FURLONG", "state": "PA", "street": "720 EDISON FURLONG RD", "postcode": "18925"}}},
{"geometry": {"type": "Point", "coordinates": [-75.0860368345, 40.2949670601]}, "type": "Feature", "properties": {"collection_times": [{"days": "Mon-Fri", "time": "4:30pm"}, {"days": "Sat", "time": "11:00am"}, {"days": "Sun", "time": "Closed"}], "id": "1892500003", "name": "USPS COLLECTION BOX - PO LOBBY", "address": {"city": "FURLONG", "state": "PA", "street": "720 EDISON FURLONG RD", "postcode": "18925"}}},
{"geometry": {"type": "Point", "coordinates": [-75.2368583646, 40.3261443726]}, "type": "Feature", "properties": {"collection_times": [{"days": "Mon-Fri", "time": "4:15pm"}, {"days": "Sat", "time": "11:30am"}, {"days": "Sun", "time": "Closed"}], "id": "1892700001", "name": "USPS COLLECTION BOX - BLUE BOX", "address": {"city": "HILLTOWN", "state": "PA", "street": "1912 HILLTOWN PIKE", "postcode": "18927"}}},
{"geometry": {"type": "Point", "coordinates": [-75.2368583646, 40.3261443726]}, "type": "Feature", "properties": {"collection_times": [{"days": "Mon-Fri", "time": "4:30pm"}, {"days": "Sat", "time": "11:30am"}, {"days": "Sun", "time": "Closed"}], "id": "1892700002", "name": "USPS COLLECTION BOX - PO LOBBY", "address": {"city": "HILLTOWN", "state": "PA", "street": "1912 HILLTOWN PIKE", "postcode": "18927"}}},
{"geometry": {"type": "Point", "coordinates": [-75.2368583646, 40.3261443726]}, "type": "Feature", "properties": {"collection_times": [{"days": "Mon-Fri", "time": "4:30pm"}, {"days": "Sat", "time": "11:30am"}, {"days": "Sun", "time": "Closed"}], "id": "1892700003", "name": "USPS COLLECTION BOX - PO LOBBY", "address": {"city": "HILLTOWN", "state": "PA", "street": "1912 HILLTOWN PIKE", "postcode": "18927"}}},
{"geometry": {"type": "Point", "coordinates": [-75.0457243811, 40.3390580347]}, "type": "Feature", "properties": {"collection_times": [{"days": "Mon-Fri", "time": "4:30pm"}, {"days": "Sat", "time": "11:30am"}, {"days": "Sun", "time": "Closed"}], "id": "1892800002", "name": "USPS COLLECTION BOX - PO LOBBY", "address": {"city": "HOLICONG", "state": "PA", "street": "4950 YORK RD", "postcode": "18928"}}},
{"geometry": {"type": "Point", "coordinates": [-75.0457243811, 40.3390580347]}, "type": "Feature", "properties": {"collection_times": [{"days": "Mon-Fri", "time": "4:30pm"}, {"days": "Sat", "time": "11:30am"}, {"days": "Sun", "time": "Closed"}], "id": "1892800003", "name": "USPS COLLECTION BOX - PO LOBBY", "address": {"city": "HOLICONG", "state": "PA", "street": "4950 YORK RD", "postcode": "18928"}}},
{"geometry": {"type": "Point", "coordinates": [-75.0457243811, 40.3390580347]}, "type": "Feature", "properties": {"collection_times": [{"days": "Mon-Fri", "time": "4:30pm"}, {"days": "Sat", "time": "11:30am"}, {"days": "Sun", "time": "Closed"}], "id": "1892800004", "name": "USPS COLLECTION BOX - BLUE BOX", "address": {"city": "HOLICONG", "state": "PA", "street": "4950 YORK RD", "postcode": "18928"}}},
{"geometry": {"type": "Point", "coordinates": [-75.0884311435, 40.2561269684]}, "type": "Feature", "properties": {"collection_times": [{"days": "Mon-Fri", "time": "4:30pm"}, {"days": "Sat", "time": "11:30am"}, {"days": "Sun", "time": "Closed"}], "id": "1892900002", "name": "USPS COLLECTION BOX - BLUE BOX", "address": {"city": "JAMISON", "state": "PA", "street": "2370 YORK RD STE G1", "postcode": "18929"}}},
{"geometry": {"type": "Point", "coordinates": [-75.0884311435, 40.2561269684]}, "type": "Feature", "properties": {"collection_times": [{"days": "Mon-Fri", "time": "4:30pm"}, {"days": "Sat", "time": "11:30am"}, {"days": "Sun", "time": "Closed"}], "id": "1892900003", "name": "USPS COLLECTION BOX - PO LOBBY", "address": {"city": "JAMISON", "state": "PA", "street": "2370 YORK RD", "postcode": "18929"}}},
{"geometry": {"type": "Point", "coordinates": [-75.0884311435, 40.2561269684]}, "type": "Feature", "properties": {"collection_times": [{"days": "Mon-Fri", "time": "4:30pm"}, {"days": "Sat", "time": "11:30am"}, {"days": "Sun", "time": "Closed"}], "id": "1892900004", "name": "USPS COLLECTION BOX - PO LOBBY", "address": {"city": "JAMISON", "state": "PA", "street": "2370 YORK RD", "postcode": "18929"}}},
{"geometry": {"type": "Point", "coordinates": [-75.1793050275, 40.5581867818]}, "type": "Feature", "properties": {"collection_times": [{"days": "Mon-Fri", "time": "4:00pm"}, {"days": "Sat", "time": "11:30am"}, {"days": "Sun", "time": "Closed"}], "id": "1893000001", "name": "USPS COLLECTION BOX - BLUE BOX", "address": {"city": "KINTNERSVILLE", "state": "PA", "street": "9734 EASTON RD", "postcode": "18930"}}},
{"geometry": {"type": "Point", "coordinates": [-75.1793050275, 40.5581867818]}, "type": "Feature", "properties": {"collection_times": [{"days": "Mon-Fri", "time": "4:00pm"}, {"days": "Sat", "time": "11:30am"}, {"days": "Sun", "time": "Closed"}], "id": "1893000002", "name": "USPS COLLECTION BOX - PO LOBBY", "address": {"city": "KINTNERSVILLE", "state": "PA", "street": "9734 EASTON RD", "postcode": "18930"}}},
{"geometry": {"type": "Point", "coordinates": [-75.1793050275, 40.5581867818]}, "type": "Feature", "properties": {"collection_times": [{"days": "Mon-Fri", "time": "4:00pm"}, {"days": "Sat", "time": "11:30am"}, {"days": "Sun", "time": "Closed"}], "id": "1893000003", "name": "USPS COLLECTION BOX - PO LOBBY", "address": {"city": "KINTNERSVILLE", "state": "PA", "street": "9734 EASTON RD", "postcode": "18930"}}},
{"geometry": {"type": "Point", "coordinates": [-75.0366173151, 40.3454626816]}, "type": "Feature", "properties": {"collection_times": [{"days": "Mon-Fri", "time": "5:00pm"}, {"days": "Sat", "time": "12:00pm"}, {"days": "Sun", "time": "Closed"}], "id": "1893100001", "name": "USPS COLLECTION BOX - BLUE BOX", "address": {"city": "LAHASKA", "state": "PA", "street": "168 PEDDLERS VLG", "postcode": "18931"}}},
{"geometry": {"type": "Point", "coordinates": [-75.0366173151, 40.3454626816]}, "type": "Feature", "properties": {"collection_times": [{"days": "Mon-Fri", "time": "5:00pm"}, {"days": "Sat", "time": "12:00pm"}, {"days": "Sun", "time": "Closed"}], "id": "1893100002", "name": "USPS COLLECTION BOX - PO LOBBY", "address": {"city": "LAHASKA", "state": "PA", "street": "168 PEDDLERS VLG", "postcode": "18931"}}},
{"geometry": {"type": "Point", "coordinates": [-75.0366173151, 40.3454626816]}, "type": "Feature", "properties": {"collection_times": [{"days": "Mon-Fri", "time": "5:00pm"}, {"days": "Sat", "time": "12:00pm"}, {"days": "Sun", "time": "Closed"}], "id": "1893100003", "name": "USPS COLLECTION BOX - PO LOBBY", "address": {"city": "LAHASKA", "state": "PA", "street": "168 PEDDLERS VLG", "postcode": "18931"}}},
{"geometry": {"type": "Point", "coordinates": [-75.2632097817, 40.2862782265]}, "type": "Feature", "properties": {"collection_times": [{"days": "Mon-Fri", "time": "5:00pm"}, {"days": "Sat", "time": "11:30am"}, {"days": "Sun", "time": "Closed"}], "id": "1893200001", "name": "USPS COLLECTION BOX - BLUE BOX", "address": {"city": "LINE LEXINGTON", "state": "PA", "street": "4683 COUNTY LINE RD", "postcode": "18932"}}},
{"geometry": {"type": "Point", "coordinates": [-75.2632097817, 40.2862782265]}, "type": "Feature", "properties": {"collection_times": [{"days": "Mon-Fri", "time": "5:00pm"}, {"days": "Sat", "time": "11:30am"}, {"days": "Sun", "time": "Closed"}], "id": "1893200002", "name": "USPS COLLECTION BOX - PO LOBBY", "address": {"city": "LINE LEXINGTON", "state": "PA", "street": "4683 COUNTY LINE RD", "postcode": "18932"}}},
{"geometry": {"type": "Point", "coordinates": [-75.2636429656, 40.2933954251]}, "type": "Feature", "properties": {"collection_times": [{"days": "Mon-Fri", "time": "5:00pm"}, {"days": "Sat", "time": "11:30am"}, {"days": "Sun", "time": "Closed"}], "id": "1893200003", "name": "USPS COLLECTION BOX - PO LOBBY", "address": {"city": "LINE LEXINGTON", "state": "PA", "street": "4683 COUNTRY LINE RD", "postcode": "18932"}}},
{"geometry": {"type": "Point", "coordinates": [-75.0614283179, 40.3522471819]}, "type": "Feature", "properties": {"collection_times": [{"days": "Mon-Fri", "time": "4:00pm"}, {"days": "Sat", "time": "11:30am"}, {"days": "Sun", "time": "Closed"}], "id": "1893400001", "name": "USPS COLLECTION BOX - BLUE BOX", "address": {"city": "MECHANICSVILLE", "state": "PA", "street": "3295 DURHAM RD", "postcode": "18934"}}},
{"geometry": {"type": "Point", "coordinates": [-75.0614283179, 40.3522471819]}, "type": "Feature", "properties": {"collection_times": [{"days": "Mon-Fri", "time": "4:00pm"}, {"days": "Sat", "time": "11:30am"}, {"days": "Sun", "time": "Closed"}], "id": "1893400002", "name": "USPS COLLECTION BOX - PO LOBBY", "address": {"city": "MECHANICSVILLE", "state": "PA", "street": "3295 DURHAM RD", "postcode": "18934"}}},
{"geometry": {"type": "Point", "coordinates": [-75.0614283179, 40.3522471819]}, "type": "Feature", "properties": {"collection_times": [{"days": "Mon-Fri", "time": "4:00pm"}, {"days": "Sat", "time": "11:30am"}, {"days": "Sun", "time": "Closed"}], "id": "1893400003", "name": "USPS COLLECTION BOX - PO LOBBY", "address": {"city": "MECHANICSVILLE", "state": "PA", "street": "3295 DURHAM RD", "postcode": "18934"}}},
{"geometry": {"type": "Point", "coordinates": [-75.3990792969, 40.4373493626]}, "type": "Feature", "properties": {"collection_times": [{"days": "Mon-Fri", "time": "4:00pm"}, {"days": "Sat", "time": "11:30am"}, {"days": "Sun", "time": "Closed"}], "id": "1893500001", "name": "USPS COLLECTION BOX - BLUE BOX", "address": {"city": "MILFORD SQUARE", "state": "PA", "street": "2112 ALLENTOWN RD", "postcode": "18935"}}},
{"geometry": {"type": "Point", "coordinates": [-75.3990792969, 40.4373493626]}, "type": "Feature", "properties": {"collection_times": [{"days": "Mon-Fri", "time": "4:00pm"}, {"days": "Sat", "time": "11:30am"}, {"days": "Sun", "time": "Closed"}], "id": "1893500002", "name": "USPS COLLECTION BOX - PO LOBBY", "address": {"city": "MILFORD SQUARE", "state": "PA", "street": "2112 ALLENTOWN RD", "postcode": "18935"}}},
{"geometry": {"type": "Point", "coordinates": [-75.3990792969, 40.4373493626]}, "type": "Feature", "properties": {"collection_times": [{"days": "Mon-Fri", "time": "4:00pm"}, {"days": "Sat", "time": "11:30am"}, {"days": "Sun", "time": "Closed"}], "id": "1893500003", "name": "USPS COLLECTION BOX - PO LOBBY", "address": {"city": "MILFORD SQUARE", "state": "PA", "street": "2112 ALLENTOWN RD", "postcode": "18935"}}},
{"geometry": {"type": "Point", "coordinates": [-75.2419464742, 40.2492104899]}, "type": "Feature", "properties": {"collection_times": [{"days": "Mon-Fri", "time": "4:30pm"}, {"days": "Sat", "time": "11:00am"}, {"days": "Sun", "time": "Closed"}], "id": "1893600001", "name": "USPS COLLECTION BOX - BLUE BOX", "address": {"city": "MONTGOMERYVILLE", "state": "PA", "street": "411 DOYLESTOWN RD", "postcode": "18936"}}},
{"geometry": {"type": "Point", "coordinates": [-75.2419464742, 40.2492104899]}, "type": "Feature", "properties": {"collection_times": [{"days": "Mon-Fri", "time": "4:30pm"}, {"days": "Sat", "time": "11:00am"}, {"days": "Sun", "time": "Closed"}], "id": "1893600002", "name": "USPS COLLECTION BOX - PO LOBBY", "address": {"city": "MONTGOMERYVILLE", "state": "PA", "street": "411 DOYLESTOWN RD", "postcode": "18936"}}},
{"geometry": {"type": "Point", "coordinates": [-75.252209587, 40.2644259441]}, "type": "Feature", "properties": {"collection_times": [{"days": "Mon-Fri", "time": "12:30pm"}, {"days": "Sat", "time": "10:00am"}, {"days": "Sun", "time": "Closed"}], "id": "1893600003", "name": "USPS COLLECTION BOX - BLUE BOX", "address": {"city": "MONTGOMERYVILLE", "state": "PA", "street": "589 BETHLEHEM PIKE", "postcode": "18936"}}},
{"geometry": {"type": "Point", "coordinates": [-74.9644525944, 40.3638407891]}, "type": "Feature", "properties": {"collection_times": [{"days": "Mon-Sat", "time": "10:00am"}, {"days": "Sun", "time": "Closed"}], "id": "1893800001", "name": "USPS COLLECTION BOX - BLUE BOX", "address": {"city": "NEW HOPE", "state": "PA", "street": "300 W BRIDGE ST", "postcode": "18938"}}},
{"geometry": {"type": "Point", "coordinates": [-74.9524493827, 40.3668481563]}, "type": "Feature", "properties": {"collection_times": [{"days": "Mon-Sat", "time": "10:00am"}, {"days": "Sun", "time": "Closed"}], "id": "1893800004", "name": "USPS COLLECTION BOX - BLUE BOX", "address": {"city": "NEW HOPE", "state": "PA", "street": "71 N MAIN ST", "postcode": "18938"}}},
{"geometry": {"type": "Point", "coordinates": [-74.9512765151, 40.3635077025]}, "type": "Feature", "properties": {"collection_times": [{"days": "Mon-Fri", "time": "11:00am"}, {"days": "Sat", "time": "10:00am"}, {"days": "Sun", "time": "Closed"}], "id": "1893800005", "name": "USPS COLLECTION BOX - BLUE BOX", "address": {"city": "NEW HOPE", "state": "PA", "street": "32 S MAIN ST", "postcode": "18938"}}},
{"geometry": {"type": "Point", "coordinates": [-74.9689753385, 40.361546097]}, "type": "Feature", "properties": {"collection_times": [{"days": "Mon-Sat", "time": "10:00am"}, {"days": "Sun", "time": "Closed"}], "id": "1893800006", "name": "USPS COLLECTION BOX - BLUE BOX", "address": {"city": "NEW HOPE", "state": "PA", "street": "449 OLD YORK RD", "postcode": "18938"}}},
{"geometry": {"type": "Point", "coordinates": [-74.9509795924, 40.3619615752]}, "type": "Feature", "properties": {"collection_times": [{"days": "Mon-Sat", "time": "10:00am"}, {"days": "Sun", "time": "Closed"}], "id": "1893800008", "name": "USPS COLLECTION BOX - BLUE BOX", "address": {"city": "NEW HOPE", "state": "PA", "street": "7 W MECHANIC ST", "postcode": "18938"}}},
{"geometry": {"type": "Point", "coordinates": [-74.9591361743, 40.3581600143]}, "type": "Feature", "properties": {"collection_times": [{"days": "Mon-Sat", "time": "10:00am"}, {"days": "Sun", "time": "Closed"}], "id": "1893800009", "name": "USPS COLLECTION BOX - BLUE BOX", "address": {"city": "NEW HOPE", "state": "PA", "street": "2 RITTENHOUSE CIR", "postcode": "18938"}}},
{"geometry": {"type": "Point", "coordinates": [-74.9653505482, 40.3633015891]}, "type": "Feature", "properties": {"collection_times": [{"days": "Mon-Fri", "time": "4:30pm"}, {"days": "Sat", "time": "2:00pm"}, {"days": "Sun", "time": "Closed"}], "id": "1893800012", "name": "USPS COLLECTION BOX - BLUE BOX", "address": {"city": "NEW HOPE", "state": "PA", "street": "325 W BRIDGE ST", "postcode": "18938"}}},
{"geometry": {"type": "Point", "coordinates": [-75.0342242915, 40.3003114782]}, "type": "Feature", "properties": {"collection_times": [{"days": "Mon-Sat", "time": "10:00am"}, {"days": "Sun", "time": "Closed"}], "id": "1893800014", "name": "USPS COLLECTION BOX - BLUE BOX", "address": {"city": "NEW HOPE", "state": "PA", "street": "376 SPRING MEADOW CIR", "postcode": "18938"}}},
{"geometry": {"type": "Point", "coordinates": [-75.0006116154, 40.3495732645]}, "type": "Feature", "properties": {"collection_times": [{"days": "Mon-Sat", "time": "10:00am"}, {"days": "Sun", "time": "Closed"}], "id": "1893800015", "name": "USPS COLLECTION BOX - BLUE BOX", "address": {"city": "NEW HOPE", "state": "PA", "street": "1490 SPRING MEADOW DR", "postcode": "18938"}}},
{"geometry": {"type": "Point", "coordinates": [-75.0363373675, 40.3022243207]}, "type": "Feature", "properties": {"collection_times": [{"days": "Mon-Sat", "time": "11:00am"}, {"days": "Sun", "time": "Closed"}], "id": "1893800016", "name": "USPS COLLECTION BOX - BLUE BOX", "address": {"city": "NEW HOPE", "state": "PA", "street": "555 GREENTREE DR", "postcode": "18938"}}},
{"geometry": {"type": "Point", "coordinates": [-75.0315766331, 40.3007624104]}, "type": "Feature", "properties": {"collection_times": [{"days": "Mon-Sat", "time": "10:00am"}, {"days": "Sun", "time": "Closed"}], "id": "1893800017", "name": "USPS COLLECTION BOX - BLUE BOX", "address": {"city": "NEW HOPE", "state": "PA", "street": "143 RAVEN CT", "postcode": "18938"}}},
{"geometry": {"type": "Point", "coordinates": [-74.9653505482, 40.3633015891]}, "type": "Feature", "properties": {"collection_times": [{"days": "Mon-Fri", "time": "4:30pm"}, {"days": "Sat", "time": "2:00pm"}, {"days": "Sun", "time": "Closed"}], "id": "1893800018", "name": "USPS COLLECTION BOX - PO LOBBY", "address": {"city": "NEW HOPE", "state": "PA", "street": "325 W BRIDGE ST", "postcode": "18938"}}},
{"geometry": {"type": "Point", "coordinates": [-74.936865709, 40.2282812973]}, "type": "Feature", "properties": {"collection_times": [{"days": "Mon-Fri", "time": "4:00pm"}, {"days": "Sat", "time": "12:30pm"}, {"days": "Sun", "time": "Closed"}], "id": "1894000002", "name": "USPS COLLECTION BOX - BLUE BOX", "address": {"city": "NEWTOWN", "state": "PA", "street": "32 S STATE ST", "postcode": "18940"}}},
{"geometry": {"type": "Point", "coordinates": [-74.9531219311, 40.2209540495]}, "type": "Feature", "properties": {"collection_times": [{"days": "Mon-Sat", "time": "12:30pm"}, {"days": "Sun", "time": "Closed"}], "id": "1894000007", "name": "USPS COLLECTION BOX - BLUE BOX", "address": {"city": "NEWTOWN", "state": "PA", "street": "10 UNION ST", "postcode": "18940"}}},
{"geometry": {"type": "Point", "coordinates": [-74.9356792012, 40.223388579]}, "type": "Feature", "properties": {"collection_times": [{"days": "Mon-Fri", "time": "4:00pm"}, {"days": "Sat", "time": "12:30pm"}, {"days": "Sun", "time": "Closed"}], "id": "1894000008", "name": "USPS COLLECTION BOX - BLUE BOX", "address": {"city": "NEWTOWN", "state": "PA", "street": "301 S STATE ST", "postcode": "18940"}}},
{"geometry": {"type": "Point", "coordinates": [-74.9413386147, 40.2345721691]}, "type": "Feature", "properties": {"collection_times": [{"days": "Mon-Sat", "time": "12:30pm"}, {"days": "Sun", "time": "Closed"}], "id": "1894000010", "name": "USPS COLLECTION BOX - BLUE BOX", "address": {"city": "NEWTOWN", "state": "PA", "street": "2840 S EAGLE RD", "postcode": "18940"}}},
{"geometry": {"type": "Point", "coordinates": [-74.917291287, 40.2270107994]}, "type": "Feature", "properties": {"collection_times": [{"days": "Mon-Fri", "time": "5:00pm"}, {"days": "Sat", "time": "3:00pm"}, {"days": "Sun", "time": "Closed"}], "id": "1894000011", "name": "USPS COLLECTION BOX - BLUE BOX", "address": {"city": "NEWTOWN", "state": "PA", "street": "20 TERRY DR", "postcode": "18940"}}},
{"geometry": {"type": "Point", "coordinates": [-74.917291287, 40.2270107994]}, "type": "Feature", "properties": {"collection_times": [{"days": "Mon-Fri", "time": "5:00pm"}, {"days": "Sat", "time": "3:00pm"}, {"days": "Sun", "time": "Closed"}], "id": "1894000012", "name": "USPS COLLECTION BOX - BLUE BOX", "address": {"city": "NEWTOWN", "state": "PA", "street": "20 TERRY DR", "postcode": "18940"}}},
{"geometry": {"type": "Point", "coordinates": [-74.9384587959, 40.2439442949]}, "type": "Feature", "properties": {"collection_times": [{"days": "Mon-Sat", "time": "1:00pm"}, {"days": "Sun", "time": "Closed"}], "id": "1894000015", "name": "USPS COLLECTION BOX - EXPRESS", "address": {"city": "NEWTOWN", "state": "PA", "street": "20 TERRY DR", "postcode": "18940"}}},
{"geometry": {"type": "Point", "coordinates": [-74.9646321219, 40.2610362481]}, "type": "Feature", "properties": {"collection_times": [{"days": "Mon-Sat", "time": "11:30am"}, {"days": "Sun", "time": "Closed"}], "id": "1894000016", "name": "USPS COLLECTION BOX - BLUE BOX", "address": {"city": "NEWTOWN", "state": "PA", "street": "1 LAUREL CIR", "postcode": "18940"}}},
{"geometry": {"type": "Point", "coordinates": [-74.9124659974, 40.2285983303]}, "type": "Feature", "properties": {"collection_times": [{"days": "Mon-Fri", "time": "4:00pm"}, {"days": "Sat", "time": "12:30pm"}, {"days": "Sun", "time": "Closed"}], "id": "1894000020", "name": "USPS COLLECTION BOX - BLUE BOX", "address": {"city": "NEWTOWN", "state": "PA", "street": "78 WALKER LN", "postcode": "18940"}}},
{"geometry": {"type": "Point", "coordinates": [-74.917291287, 40.2270107994]}, "type": "Feature", "properties": {"collection_times": [{"days": "Mon-Fri", "time": "4:00pm"}, {"days": "Sat", "time": "1:00pm"}, {"days": "Sun", "time": "Closed"}], "id": "1894000021", "name": "USPS COLLECTION BOX - PO LOBBY", "address": {"city": "NEWTOWN", "state": "PA", "street": "20 TERRY DR", "postcode": "18940"}}},
{"geometry": {"type": "Point", "coordinates": [-74.917291287, 40.2270107994]}, "type": "Feature", "properties": {"collection_times": [{"days": "Mon-Fri", "time": "4:00pm"}, {"days": "Sat", "time": "1:00pm"}, {"days": "Sun", "time": "Closed"}], "id": "1894000023", "name": "USPS COLLECTION BOX - APC", "address": {"city": "NEWTOWN", "state": "PA", "street": "20 TERRY DR", "postcode": "18940"}}},
{"geometry": {"type": "Point", "coordinates": [-74.9511335998, 40.2588179856]}, "type": "Feature", "properties": {"collection_times": [{"days": "Mon-Fri", "time": "12:00pm"}, {"days": "Sat", "time": "11:30am"}, {"days": "Sun", "time": "Closed"}], "id": "1894000024", "name": "USPS COLLECTION BOX - BLUE BOX", "address": {"city": "NEWTOWN", "state": "PA", "street": "1 MARIGOLD DR", "postcode": "18940"}}},
{"geometry": {"type": "Point", "coordinates": [-75.1655196803, 40.4779074581]}, "type": "Feature", "properties": {"collection_times": [{"days": "Mon-Fri", "time": "4:45pm"}, {"days": "Sat", "time": "11:30am"}, {"days": "Sun", "time": "Closed"}], "id": "1894200001", "name": "USPS COLLECTION BOX - BLUE BOX", "address": {"city": "OTTSVILLE", "state": "PA", "street": "7790 EASTON RD", "postcode": "18942"}}},
{"geometry": {"type": "Point", "coordinates": [-75.1655196803, 40.4779074581]}, "type": "Feature", "properties": {"collection_times": [{"days": "Mon-Fri", "time": "4:45pm"}, {"days": "Sat", "time": "11:30am"}, {"days": "Sun", "time": "Closed"}], "id": "1894200002", "name": "USPS COLLECTION BOX - PO LOBBY", "address": {"city": "OTTSVILLE", "state": "PA", "street": "7790 EASTON RD", "postcode": "18942"}}},
{"geometry": {"type": "Point", "coordinates": [-75.1655196803, 40.4779074581]}, "type": "Feature", "properties": {"collection_times": [{"days": "Mon-Fri", "time": "4:45pm"}, {"days": "Sat", "time": "11:30am"}, {"days": "Sun", "time": "Closed"}], "id": "1894200003", "name": "USPS COLLECTION BOX - PO LOBBY", "address": {"city": "OTTSVILLE", "state": "PA", "street": "7790 EASTON RD", "postcode": "18942"}}},
{"geometry": {"type": "Point", "coordinates": [-74.9968252234, 40.2843265544]}, "type": "Feature", "properties": {"collection_times": [{"days": "Mon-Fri", "time": "4:30pm"}, {"days": "Sat", "time": "11:30am"}, {"days": "Sun", "time": "Closed"}], "id": "1894300001", "name": "USPS COLLECTION BOX - BLUE BOX", "address": {"city": "PENNS PARK", "state": "PA", "street": "842 DURHAM RD", "postcode": "18943"}}},
{"geometry": {"type": "Point", "coordinates": [-74.9968252234, 40.2843265544]}, "type": "Feature", "properties": {"collection_times": [{"days": "Mon-Fri", "time": "4:30pm"}, {"days": "Sat", "time": "11:30am"}, {"days": "Sun", "time": "Closed"}], "id": "1894300002", "name": "USPS COLLECTION BOX - PO LOBBY", "address": {"city": "PENNS PARK", "state": "PA", "street": "842 DURHAM RD", "postcode": "18943"}}},
{"geometry": {"type": "Point", "coordinates": [-74.9968252234, 40.2843265544]}, "type": "Feature", "properties": {"collection_times": [{"days": "Mon-Fri", "time": "4:30pm"}, {"days": "Sat", "time": "11:30am"}, {"days": "Sun", "time": "Closed"}], "id": "1894300003", "name": "USPS COLLECTION BOX - PO LOBBY", "address": {"city": "PENNS PARK", "state": "PA", "street": "842 DURHAM RD", "postcode": "18943"}}},
{"geometry": {"type": "Point", "coordinates": [-75.2757858184, 40.3524695124]}, "type": "Feature", "properties": {"collection_times": [{"days": "Mon-Sat", "time": "9:00am"}, {"days": "Sun", "time": "Closed"}], "id": "1894400004", "name": "USPS COLLECTION BOX - BLUE BOX", "address": {"city": "PERKASIE", "state": "PA", "street": "1000 E WALNUT ST", "postcode": "18944"}}},
{"geometry": {"type": "Point", "coordinates": [-75.2965928837, 40.3731689284]}, "type": "Feature", "properties": {"collection_times": [{"days": "Mon-Fri", "time": "4:45pm"}, {"days": "Sat", "time": "9:00am"}, {"days": "Sun", "time": "Closed"}], "id": "1894400014", "name": "USPS COLLECTION BOX - BLUE BOX", "address": {"city": "PERKASIE", "state": "PA", "street": "109 S 6TH ST", "postcode": "18944"}}},
{"geometry": {"type": "Point", "coordinates": [-75.2958482985, 40.3747679103]}, "type": "Feature", "properties": {"collection_times": [{"days": "Mon-Fri", "time": "4:45pm"}, {"days": "Sat", "time": "9:00am"}, {"days": "Sun", "time": "Closed"}], "id": "1894400016", "name": "USPS COLLECTION BOX - BLUE BOX", "address": {"city": "PERKASIE", "state": "PA", "street": "4 N 7TH ST", "postcode": "18944"}}},
{"geometry": {"type": "Point", "coordinates": [-75.2987677114, 40.3638044815]}, "type": "Feature", "properties": {"collection_times": [{"days": "Mon-Sat", "time": "9:00am"}, {"days": "Sun", "time": "Closed"}], "id": "1894400022", "name": "USPS COLLECTION BOX - BLUE BOX", "address": {"city": "PERKASIE", "state": "PA", "street": "541 CONSTITUTION AVE", "postcode": "18944"}}},
{"geometry": {"type": "Point", "coordinates": [-75.2784462487, 40.3823612924]}, "type": "Feature", "properties": {"collection_times": [{"days": "Mon-Sat", "time": "9:00am"}, {"days": "Sun", "time": "Closed"}], "id": "1894400027", "name": "USPS COLLECTION BOX - BLUE BOX", "address": {"city": "PERKASIE", "state": "PA", "street": "1147 N 5TH ST", "postcode": "18944"}}},
{"geometry": {"type": "Point", "coordinates": [-75.2922, 40.377876]}, "type": "Feature", "properties": {"collection_times": [{"days": "Mon-Fri", "time": "5:00pm"}, {"days": "Sat", "time": "3:00pm"}, {"days": "Sun", "time": "Closed"}], "id": "1894400028", "name": "USPS COLLECTION BOX - BLUE BOX", "address": {"city": "PERKASIE", "state": "PA", "street": "300 N 7TH ST", "postcode": "18944"}}},
{"geometry": {"type": "Point", "coordinates": [-75.2933399759, 40.3750384633]}, "type": "Feature", "properties": {"collection_times": [{"days": "Mon-Fri", "time": "9:15am"}, {"days": "Sat", "time": "9:25am"}, {"days": "Sun", "time": "Closed"}], "id": "1894400029", "name": "USPS COLLECTION BOX - BLUE BOX", "address": {"city": "PERKASIE", "state": "PA", "street": "110 N 6TH ST", "postcode": "18944"}}},
{"geometry": {"type": "Point", "coordinates": [-75.2923862816, 40.377678368]}, "type": "Feature", "properties": {"collection_times": [{"days": "Mon-Fri", "time": "5:00pm"}, {"days": "Sat", "time": "3:00pm"}, {"days": "Sun", "time": "Closed"}], "id": "1894400030", "name": "USPS COLLECTION BOX - PO LOBBY", "address": {"city": "PERKASIE", "state": "PA", "street": "300 N 7TH ST", "postcode": "18944"}}},
{"geometry": {"type": "Point", "coordinates": [-75.2923862816, 40.377678368]}, "type": "Feature", "properties": {"collection_times": [{"days": "Mon-Fri", "time": "5:00pm"}, {"days": "Sat", "time": "3:00pm"}, {"days": "Sun", "time": "Closed"}], "id": "1894400031", "name": "USPS COLLECTION BOX - PO LOBBY", "address": {"city": "PERKASIE", "state": "PA", "street": "300 N 7TH ST", "postcode": "18944"}}},
{"geometry": {"type": "Point", "coordinates": [-75.005676714, 40.2953745787]}, "type": "Feature", "properties": {"collection_times": [{"days": "Mon-Fri", "time": "4:30pm"}, {"days": "Sat", "time": "11:30am"}, {"days": "Sun", "time": "Closed"}], "id": "1894600001", "name": "USPS COLLECTION BOX - BLUE BOX", "address": {"city": "PINEVILLE", "state": "PA", "street": "1089 DURHAM RD", "postcode": "18946"}}},
{"geometry": {"type": "Point", "coordinates": [-75.005676714, 40.2953745787]}, "type": "Feature", "properties": {"collection_times": [{"days": "Mon-Fri", "time": "4:30pm"}, {"days": "Sat", "time": "11:30am"}, {"days": "Sun", "time": "Closed"}], "id": "1894600002", "name": "USPS COLLECTION BOX - PO LOBBY", "address": {"city": "PINEVILLE", "state": "PA", "street": "1089 DURHAM RD", "postcode": "18946"}}},
{"geometry": {"type": "Point", "coordinates": [-75.005676714, 40.2953745787]}, "type": "Feature", "properties": {"collection_times": [{"days": "Mon-Fri", "time": "4:30pm"}, {"days": "Sat", "time": "11:30am"}, {"days": "Sun", "time": "Closed"}], "id": "1894600003", "name": "USPS COLLECTION BOX - PO LOBBY", "address": {"city": "PINEVILLE", "state": "PA", "street": "1089 DURHAM RD", "postcode": "18946"}}},
{"geometry": {"type": "Point", "coordinates": [-75.1456887233, 40.4221919309]}, "type": "Feature", "properties": {"collection_times": [{"days": "Mon-Fri", "time": "5:00pm"}, {"days": "Sat", "time": "11:30am"}, {"days": "Sun", "time": "Closed"}], "id": "1894700001", "name": "USPS COLLECTION BOX - BLUE BOX", "address": {"city": "PIPERSVILLE", "state": "PA", "street": "6907 EASTON RD", "postcode": "18947"}}},
{"geometry": {"type": "Point", "coordinates": [-75.1456887233, 40.4221919309]}, "type": "Feature", "properties": {"collection_times": [{"days": "Mon-Fri", "time": "5:00pm"}, {"days": "Sat", "time": "11:30am"}, {"days": "Sun", "time": "Closed"}], "id": "1894700004", "name": "USPS COLLECTION BOX - PO LOBBY", "address": {"city": "PIPERSVILLE", "state": "PA", "street": "6907 EASTON RD", "postcode": "18947"}}},
{"geometry": {"type": "Point", "coordinates": [-75.1456887233, 40.4221919309]}, "type": "Feature", "properties": {"collection_times": [{"days": "Mon-Fri", "time": "5:00pm"}, {"days": "Sat", "time": "11:30am"}, {"days": "Sun", "time": "Closed"}], "id": "1894700005", "name": "USPS COLLECTION BOX - PO LOBBY", "address": {"city": "PIPERSVILLE", "state": "PA", "street": "6907 EASTON RD", "postcode": "18947"}}},
{"geometry": {"type": "Point", "coordinates": [-75.1467620865, 40.3878136931]}, "type": "Feature", "properties": {"collection_times": [{"days": "Mon-Fri", "time": "4:30pm"}, {"days": "Sat", "time": "11:30am"}, {"days": "Sun", "time": "Closed"}], "id": "1894900001", "name": "USPS COLLECTION BOX - BLUE BOX", "address": {"city": "PLUMSTEADVILLE", "state": "PA", "street": "5774 EASTON RD", "postcode": "18949"}}},
{"geometry": {"type": "Point", "coordinates": [-75.1467620865, 40.3878136931]}, "type": "Feature", "properties": {"collection_times": [{"days": "Mon-Fri", "time": "4:30pm"}, {"days": "Sat", "time": "11:30am"}, {"days": "Sun", "time": "Closed"}], "id": "1894900002", "name": "USPS COLLECTION BOX - PO LOBBY", "address": {"city": "PLUMSTEADVILLE", "state": "PA", "street": "5774 EASTON RD", "postcode": "18949"}}},
{"geometry": {"type": "Point", "coordinates": [-75.1467620865, 40.3878136931]}, "type": "Feature", "properties": {"collection_times": [{"days": "Mon-Fri", "time": "4:30pm"}, {"days": "Sat", "time": "11:30am"}, {"days": "Sun", "time": "Closed"}], "id": "1894900003", "name": "USPS COLLECTION BOX - PO LOBBY", "address": {"city": "PLUMSTEADVILLE", "state": "PA", "street": "5774 EASTON RD", "postcode": "18949"}}},
{"geometry": {"type": "Point", "coordinates": [-75.0666312326, 40.42257604]}, "type": "Feature", "properties": {"collection_times": [{"days": "Mon-Fri", "time": "4:30pm"}, {"days": "Sat", "time": "11:30am"}, {"days": "Sun", "time": "Closed"}], "id": "1895000001", "name": "USPS COLLECTION BOX - BLUE BOX", "address": {"city": "POINT PLEASANT", "state": "PA", "street": "4977 RIVER RD", "postcode": "18950"}}},
{"geometry": {"type": "Point", "coordinates": [-75.0666312326, 40.42257604]}, "type": "Feature", "properties": {"collection_times": [{"days": "Mon-Fri", "time": "4:30pm"}, {"days": "Sat", "time": "11:30am"}, {"days": "Sun", "time": "Closed"}], "id": "1895000002", "name": "USPS COLLECTION BOX - PO LOBBY", "address": {"city": "POINT PLEASANT", "state": "PA", "street": "4977 RIVER RD", "postcode": "18950"}}},
{"geometry": {"type": "Point", "coordinates": [-75.0666312326, 40.42257604]}, "type": "Feature", "properties": {"collection_times": [{"days": "Mon-Fri", "time": "4:30pm"}, {"days": "Sat", "time": "11:30am"}, {"days": "Sun", "time": "Closed"}], "id": "1895000003", "name": "USPS COLLECTION BOX - PO LOBBY", "address": {"city": "POINT PLEASANT", "state": "PA", "street": "4977 RIVER RD", "postcode": "18950"}}},
{"geometry": {"type": "Point", "coordinates": [-75.3370195512, 40.4415005244]}, "type": "Feature", "properties": {"collection_times": [{"days": "Mon-Fri", "time": "4:00pm"}, {"days": "Sat", "time": "1:15pm"}, {"days": "Sun", "time": "Closed"}], "id": "1895100001", "name": "USPS COLLECTION BOX - BLUE BOX", "address": {"city": "QUAKERTOWN", "state": "PA", "street": "1 N 3RD ST", "postcode": "18951"}}},
{"geometry": {"type": "Point", "coordinates": [-75.3581126646, 40.4437123204]}, "type": "Feature", "properties": {"collection_times": [{"days": "Mon-Fri", "time": "11:00am"}, {"days": "Sat", "time": "1:00pm"}, {"days": "Sun", "time": "Closed"}], "id": "1895100006", "name": "USPS COLLECTION BOX - BLUE BOX", "address": {"city": "QUAKERTOWN", "state": "PA", "street": "1465 W BROAD ST", "postcode": "18951"}}},
{"geometry": {"type": "Point", "coordinates": [-75.3575353807, 40.4376898763]}, "type": "Feature", "properties": {"collection_times": [{"days": "Mon-Fri", "time": "11:00am"}, {"days": "Sat", "time": "1:00pm"}, {"days": "Sun", "time": "Closed"}], "id": "1895100008", "name": "USPS COLLECTION BOX - BLUE BOX", "address": {"city": "QUAKERTOWN", "state": "PA", "street": "1611 PARK AVE", "postcode": "18951"}}},
{"geometry": {"type": "Point", "coordinates": [-75.3500153105, 40.4380128241]}, "type": "Feature", "properties": {"collection_times": [{"days": "Mon-Fri", "time": "4:00pm"}, {"days": "Sat", "time": "1:00pm"}, {"days": "Sun", "time": "Closed"}], "id": "1895100016", "name": "USPS COLLECTION BOX - BLUE BOX", "address": {"city": "QUAKERTOWN", "state": "PA", "street": "158 S 11TH ST", "postcode": "18951"}}},
{"geometry": {"type": "Point", "coordinates": [-75.3352318723, 40.4370546273]}, "type": "Feature", "properties": {"collection_times": [{"days": "Mon-Fri", "time": "11:00am"}, {"days": "Sat", "time": "1:15pm"}, {"days": "Sun", "time": "Closed"}], "id": "1895100017", "name": "USPS COLLECTION BOX - BLUE BOX", "address": {"city": "QUAKERTOWN", "state": "PA", "street": "164 PARK AVE", "postcode": "18951"}}},
{"geometry": {"type": "Point", "coordinates": [-75.3405705661, 40.4395400241]}, "type": "Feature", "properties": {"collection_times": [{"days": "Mon-Fri", "time": "11:00am"}, {"days": "Sat", "time": "1:15pm"}, {"days": "Sun", "time": "Closed"}], "id": "1895100019", "name": "USPS COLLECTION BOX - BLUE BOX", "address": {"city": "QUAKERTOWN", "state": "PA", "street": "501 JUNIPER ST", "postcode": "18951"}}},
{"geometry": {"type": "Point", "coordinates": [-75.3448528776, 40.4398700696]}, "type": "Feature", "properties": {"collection_times": [{"days": "Mon-Fri", "time": "11:00am"}, {"days": "Sat-Sun", "time": "Closed"}], "id": "1895100020", "name": "USPS COLLECTION BOX - BLUE BOX", "address": {"city": "QUAKERTOWN", "state": "PA", "street": "733 JUNIPER ST", "postcode": "18951"}}},
{"geometry": {"type": "Point", "coordinates": [-75.347176209, 40.4422549149]}, "type": "Feature", "properties": {"collection_times": [{"days": "Mon-Fri", "time": "4:00pm"}, {"days": "Sat", "time": "1:00pm"}, {"days": "Sun", "time": "Closed"}], "id": "1895100021", "name": "USPS COLLECTION BOX - BLUE BOX", "address": {"city": "QUAKERTOWN", "state": "PA", "street": "916 W BROAD ST", "postcode": "18951"}}},
{"geometry": {"type": "Point", "coordinates": [-75.3363961268, 40.4414794429]}, "type": "Feature", "properties": {"collection_times": [{"days": "Mon-Fri", "time": "2:45pm"}, {"days": "Sat", "time": "1:15pm"}, {"days": "Sun", "time": "Closed"}], "id": "1895100032", "name": "USPS COLLECTION BOX - BLUE BOX", "address": {"city": "QUAKERTOWN", "state": "PA", "street": "245 W BROAD ST", "postcode": "18951"}}},
{"geometry": {"type": "Point", "coordinates": [-75.3528701229, 40.4472571759]}, "type": "Feature", "properties": {"collection_times": [{"days": "Mon-Fri", "time": "5:00pm"}, {"days": "Sat", "time": "1:30pm"}, {"days": "Sun", "time": "Closed"}], "id": "1895100034", "name": "USPS COLLECTION BOX - BLUE BOX", "address": {"city": "QUAKERTOWN", "state": "PA", "street": "165 CALIFORNIA RD", "postcode": "18951"}}},
{"geometry": {"type": "Point", "coordinates": [-75.3528701229, 40.4472571759]}, "type": "Feature", "properties": {"collection_times": [{"days": "Mon-Fri", "time": "4:30pm"}, {"days": "Sat", "time": "1:30pm"}, {"days": "Sun", "time": "Closed"}], "id": "1895100037", "name": "USPS COLLECTION BOX - PO LOBBY", "address": {"city": "QUAKERTOWN", "state": "PA", "street": "165 CALIFORNIA RD", "postcode": "18951"}}},
{"geometry": {"type": "Point", "coordinates": [-75.3417381466, 40.4251493283]}, "type": "Feature", "properties": {"collection_times": [{"days": "Mon-Fri", "time": "11:00am"}, {"days": "Sat", "time": "1:00pm"}, {"days": "Sun", "time": "Closed"}], "id": "1895100041", "name": "USPS COLLECTION BOX - BLUE BOX", "address": {"city": "QUAKERTOWN", "state": "PA", "street": "155 QUAKERS WAY", "postcode": "18951"}}},
{"geometry": {"type": "Point", "coordinates": [-75.3397436778, 40.4415001871]}, "type": "Feature", "properties": {"collection_times": [{"days": "Mon-Fri", "time": "2:00pm"}, {"days": "Sat", "time": "1:00pm"}, {"days": "Sun", "time": "Closed"}], "id": "1895100046", "name": "USPS COLLECTION BOX - BLUE BOX", "address": {"city": "QUAKERTOWN", "state": "PA", "street": "416 W BROAD ST", "postcode": "18951"}}},
{"geometry": {"type": "Point", "coordinates": [-75.3460630446, 40.4442884214]}, "type": "Feature", "properties": {"collection_times": [{"days": "Mon-Fri", "time": "11:00am"}, {"days": "Sat", "time": "1:30pm"}, {"days": "Sun", "time": "Closed"}], "id": "1895100047", "name": "USPS COLLECTION BOX - BLUE BOX", "address": {"city": "QUAKERTOWN", "state": "PA", "street": "907 W MILL ST", "postcode": "18951"}}},
{"geometry": {"type": "Point", "coordinates": [-75.3528701229, 40.4472571759]}, "type": "Feature", "properties": {"collection_times": [{"days": "Mon-Fri", "time": "4:30pm"}, {"days": "Sat", "time": "1:30pm"}, {"days": "Sun", "time": "Closed"}], "id": "1895100048", "name": "USPS COLLECTION BOX - PO LOBBY", "address": {"city": "QUAKERTOWN", "state": "PA", "street": "165 CALIFORNIA RD", "postcode": "18951"}}},
{"geometry": {"type": "Point", "coordinates": [-75.3528701229, 40.4472571759]}, "type": "Feature", "properties": {"collection_times": [{"days": "Mon-Fri", "time": "4:30pm"}, {"days": "Sat", "time": "1:30pm"}, {"days": "Sun", "time": "Closed"}], "id": "1895100049", "name": "USPS COLLECTION BOX - PO LOBBY", "address": {"city": "QUAKERTOWN", "state": "PA", "street": "165 CALIFORNIA RD", "postcode": "18951"}}},
{"geometry": {"type": "Point", "coordinates": [-75.1608292789, 40.5153376727]}, "type": "Feature", "properties": {"collection_times": [{"days": "Mon-Fri", "time": "4:30pm"}, {"days": "Sat", "time": "11:30am"}, {"days": "Sun", "time": "Closed"}], "id": "1895300001", "name": "USPS COLLECTION BOX - BLUE BOX", "address": {"city": "REVERE", "state": "PA", "street": "8793 EASTON RD", "postcode": "18953"}}},
{"geometry": {"type": "Point", "coordinates": [-75.1608292789, 40.5153376727]}, "type": "Feature", "properties": {"collection_times": [{"days": "Mon-Fri", "time": "4:30pm"}, {"days": "Sat", "time": "11:30am"}, {"days": "Sun", "time": "Closed"}], "id": "1895300002", "name": "USPS COLLECTION BOX - PO LOBBY", "address": {"city": "REVERE", "state": "PA", "street": "8793 EASTON RD", "postcode": "18953"}}},
{"geometry": {"type": "Point", "coordinates": [-75.1608292789, 40.5153376727]}, "type": "Feature", "properties": {"collection_times": [{"days": "Mon-Fri", "time": "4:30pm"}, {"days": "Sat", "time": "11:30am"}, {"days": "Sun", "time": "Closed"}], "id": "1895300003", "name": "USPS COLLECTION BOX - PO LOBBY", "address": {"city": "REVERE", "state": "PA", "street": "8793 EASTON RD", "postcode": "18953"}}},
{"geometry": {"type": "Point", "coordinates": [-74.9991212119, 40.2226531186]}, "type": "Feature", "properties": {"collection_times": [{"days": "Mon-Fri", "time": "1:00pm"}, {"days": "Sat", "time": "12:00pm"}, {"days": "Sun", "time": "Closed"}], "id": "1895400000", "name": "USPS COLLECTION BOX - BLUE BOX", "address": {"city": "RICHBORO", "state": "PA", "street": "130 ALSMHOUSE RD", "postcode": "18954"}}},
{"geometry": {"type": "Point", "coordinates": [-75.0104370569, 40.216125741]}, "type": "Feature", "properties": {"collection_times": [{"days": "Mon-Fri", "time": "1:00pm"}, {"days": "Sat", "time": "12:00pm"}, {"days": "Sun", "time": "Closed"}], "id": "1895400001", "name": "USPS COLLECTION BOX - BLUE BOX", "address": {"city": "RICHBORO", "state": "PA", "street": "1025 2ND STREET PIKE", "postcode": "18954"}}},
{"geometry": {"type": "Point", "coordinates": [-75.0112596324, 40.2079474157]}, "type": "Feature", "properties": {"collection_times": [{"days": "Mon-Fri", "time": "1:45pm"}, {"days": "Sat", "time": "12:00pm"}, {"days": "Sun", "time": "Closed"}], "id": "1895400005", "name": "USPS COLLECTION BOX - BLUE BOX", "address": {"city": "RICHBORO", "state": "PA", "street": "800 BUSTLETON PIKE", "postcode": "18954"}}},
{"geometry": {"type": "Point", "coordinates": [-75.0109917848, 40.2099304316]}, "type": "Feature", "properties": {"collection_times": [{"days": "Mon-Fri", "time": "4:15pm"}, {"days": "Sat", "time": "12:00pm"}, {"days": "Sun", "time": "Closed"}], "id": "1895400009", "name": "USPS COLLECTION BOX - BLUE BOX", "address": {"city": "RICHBORO", "state": "PA", "street": "851 BUSTLETON PIKE", "postcode": "18954"}}},
{"geometry": {"type": "Point", "coordinates": [-75.0089422158, 40.214482081]}, "type": "Feature", "properties": {"collection_times": [{"days": "Mon-Fri", "time": "4:00pm"}, {"days": "Sat", "time": "12:00pm"}, {"days": "Sun", "time": "Closed"}], "id": "1895400010", "name": "USPS COLLECTION BOX - BLUE BOX", "address": {"city": "RICHBORO", "state": "PA", "street": "55 TOWNSHIP RD", "postcode": "18954"}}},
{"geometry": {"type": "Point", "coordinates": [-75.0109917848, 40.2099304316]}, "type": "Feature", "properties": {"collection_times": [{"days": "Mon-Fri", "time": "4:15pm"}, {"days": "Sat", "time": "12:00pm"}, {"days": "Sun", "time": "Closed"}], "id": "1895400011", "name": "USPS COLLECTION BOX - APC", "address": {"city": "RICHBORO", "state": "PA", "street": "851 BUSTLETON PIKE", "postcode": "18954"}}},
{"geometry": {"type": "Point", "coordinates": [-75.0109917848, 40.2099304316]}, "type": "Feature", "properties": {"collection_times": [{"days": "Mon-Fri", "time": "4:15pm"}, {"days": "Sat", "time": "12:00pm"}, {"days": "Sun", "time": "Closed"}], "id": "1895400012", "name": "USPS COLLECTION BOX - PO LOBBY", "address": {"city": "RICHBORO", "state": "PA", "street": "851 BUSTLETON PIKE", "postcode": "18954"}}},
{"geometry": {"type": "Point", "coordinates": [-75.0109917848, 40.2099304316]}, "type": "Feature", "properties": {"collection_times": [{"days": "Mon-Fri", "time": "4:15pm"}, {"days": "Sat", "time": "12:00pm"}, {"days": "Sun", "time": "Closed"}], "id": "1895400013", "name": "USPS COLLECTION BOX - PO LOBBY", "address": {"city": "RICHBORO", "state": "PA", "street": "851 BUSTLETON PIKE", "postcode": "18954"}}},
{"geometry": {"type": "Point", "coordinates": [-75.3147557064, 40.4966301965]}, "type": "Feature", "properties": {"collection_times": [{"days": "Mon-Fri", "time": "4:30pm"}, {"days": "Sat", "time": "12:00pm"}, {"days": "Sun", "time": "Closed"}], "id": "1895500001", "name": "USPS COLLECTION BOX - BLUE BOX", "address": {"city": "RICHLANDTOWN", "state": "PA", "street": "492 RICHLANDTOWN PIKE", "postcode": "18955"}}},
{"geometry": {"type": "Point", "coordinates": [-75.3147557064, 40.4966301965]}, "type": "Feature", "properties": {"collection_times": [{"days": "Mon-Fri", "time": "4:30pm"}, {"days": "Sat", "time": "12:00pm"}, {"days": "Sun", "time": "Closed"}], "id": "1895500003", "name": "USPS COLLECTION BOX - PO LOBBY", "address": {"city": "RICHLANDTOWN", "state": "PA", "street": "492 RICHLANDTOWN PIKE", "postcode": "18955"}}},
{"geometry": {"type": "Point", "coordinates": [-75.3147557064, 40.4966301965]}, "type": "Feature", "properties": {"collection_times": [{"days": "Mon-Fri", "time": "4:30pm"}, {"days": "Sat", "time": "12:00pm"}, {"days": "Sun", "time": "Closed"}], "id": "1895500004", "name": "USPS COLLECTION BOX - PO LOBBY", "address": {"city": "RICHLANDTOWN", "state": "PA", "street": "492 RICHLANDTOWN PIKE", "postcode": "18955"}}},
{"geometry": {"type": "Point", "coordinates": [-75.0509102464, 40.2742702381]}, "type": "Feature", "properties": {"collection_times": [{"days": "Mon-Fri", "time": "4:45pm"}, {"days": "Sat", "time": "11:30am"}, {"days": "Sun", "time": "Closed"}], "id": "1895600002", "name": "USPS COLLECTION BOX - PO LOBBY", "address": {"city": "RUSHLAND", "state": "PA", "street": "1070 SWAMP RD", "postcode": "18956"}}},
{"geometry": {"type": "Point", "coordinates": [-75.0509102464, 40.2742702381]}, "type": "Feature", "properties": {"collection_times": [{"days": "Mon-Fri", "time": "4:45pm"}, {"days": "Sat", "time": "11:30am"}, {"days": "Sun", "time": "Closed"}], "id": "1895600003", "name": "USPS COLLECTION BOX - BLUE BOX", "address": {"city": "RUSHLAND", "state": "PA", "street": "1070 SWAMP RD", "postcode": "18956"}}},
{"geometry": {"type": "Point", "coordinates": [-75.0509102464, 40.2742702381]}, "type": "Feature", "properties": {"collection_times": [{"days": "Mon-Fri", "time": "4:45pm"}, {"days": "Sat", "time": "11:30am"}, {"days": "Sun", "time": "Closed"}], "id": "1895600004", "name": "USPS COLLECTION BOX - PO LOBBY", "address": {"city": "RUSHLAND", "state": "PA", "street": "1070 SWAMP RD", "postcode": "18956"}}},
{"geometry": {"type": "Point", "coordinates": [-75.4549147271, 40.2962483614]}, "type": "Feature", "properties": {"collection_times": [{"days": "Mon-Fri", "time": "4:15pm"}, {"days": "Sat", "time": "11:15am"}, {"days": "Sun", "time": "Closed"}], "id": "1895700001", "name": "USPS COLLECTION BOX - BLUE BOX", "address": {"city": "SALFORD", "state": "PA", "street": "1623 SALFORD ST", "postcode": "18957"}}},
{"geometry": {"type": "Point", "coordinates": [-75.4549147271, 40.2962483614]}, "type": "Feature", "properties": {"collection_times": [{"days": "Mon-Fri", "time": "4:00pm"}, {"days": "Sat", "time": "11:00am"}, {"days": "Sun", "time": "Closed"}], "id": "1895700002", "name": "USPS COLLECTION BOX - PO LOBBY", "address": {"city": "SALFORD", "state": "PA", "street": "1623 SALFORD ST", "postcode": "18957"}}},
{"geometry": {"type": "Point", "coordinates": [-75.4356091003, 40.2952310794]}, "type": "Feature", "properties": {"collection_times": [{"days": "Mon-Fri", "time": "4:30pm"}, {"days": "Sat", "time": "11:30am"}, {"days": "Sun", "time": "Closed"}], "id": "1895800001", "name": "USPS COLLECTION BOX - BLUE BOX", "address": {"city": "SALFORDVILLE", "state": "PA", "street": "893 OLD SKIPPACK PIKE", "postcode": "18958"}}},
{"geometry": {"type": "Point", "coordinates": [-75.4356091003, 40.2952310794]}, "type": "Feature", "properties": {"collection_times": [{"days": "Mon-Fri", "time": "12:00pm"}, {"days": "Sat", "time": "11:15am"}, {"days": "Sun", "time": "Closed"}], "id": "1895800002", "name": "USPS COLLECTION BOX - PO LOBBY", "address": {"city": "SALFORDVILLE", "state": "PA", "street": "893 OLD SKIPPACK PIKE", "postcode": "18958"}}},
{"geometry": {"type": "Point", "coordinates": [-75.4356091003, 40.2952310794]}, "type": "Feature", "properties": {"collection_times": [{"days": "Mon-Fri", "time": "12:00pm"}, {"days": "Sat", "time": "11:15am"}, {"days": "Sun", "time": "Closed"}], "id": "1895800003", "name": "USPS COLLECTION BOX - PO LOBBY", "address": {"city": "SALFORDVILLE", "state": "PA", "street": "893 OLD SKIPPACK PIKE", "postcode": "18958"}}},
{"geometry": {"type": "Point", "coordinates": [-75.2731288926, 40.3459525915]}, "type": "Feature", "properties": {"collection_times": [{"days": "Mon-Fri", "time": "5:00pm"}, {"days": "Sat", "time": "3:00pm"}, {"days": "Sun", "time": "Closed"}], "id": "1896000006", "name": "USPS COLLECTION BOX - BLUE BOX", "address": {"city": "SELLERSVILLE", "state": "PA", "street": "130 N MAIN ST", "postcode": "18960"}}},
{"geometry": {"type": "Point", "coordinates": [-75.2731288926, 40.3459525915]}, "type": "Feature", "properties": {"collection_times": [{"days": "Mon-Fri", "time": "5:00pm"}, {"days": "Sat", "time": "3:00pm"}, {"days": "Sun", "time": "Closed"}], "id": "1896000008", "name": "USPS COLLECTION BOX - BLUE BOX", "address": {"city": "SELLERSVILLE", "state": "PA", "street": "130 N MAIN ST", "postcode": "18960"}}},
{"geometry": {"type": "Point", "coordinates": [-75.2731288926, 40.3459525915]}, "type": "Feature", "properties": {"collection_times": [{"days": "Mon-Fri", "time": "4:45pm"}, {"days": "Sat", "time": "3:00pm"}, {"days": "Sun", "time": "Closed"}], "id": "1896000010", "name": "USPS COLLECTION BOX - PO LOBBY", "address": {"city": "SELLERSVILLE", "state": "PA", "street": "130 N MAIN ST", "postcode": "18960"}}},
{"geometry": {"type": "Point", "coordinates": [-75.2692297397, 40.3500690748]}, "type": "Feature", "properties": {"collection_times": [{"days": "Mon-Fri", "time": "4:00pm"}, {"days": "Sat", "time": "11:15am"}, {"days": "Sun", "time": "Closed"}], "id": "1896200001", "name": "USPS COLLECTION BOX - BLUE BOX", "address": {"city": "SILVERDALE", "state": "PA", "street": "141 E MAIN ST", "postcode": "18962"}}},
{"geometry": {"type": "Point", "coordinates": [-75.2692297397, 40.3500690748]}, "type": "Feature", "properties": {"collection_times": [{"days": "Mon-Fri", "time": "4:15pm"}, {"days": "Sat", "time": "11:30am"}, {"days": "Sun", "time": "Closed"}], "id": "1896200002", "name": "USPS COLLECTION BOX - PO LOBBY", "address": {"city": "SILVERDALE", "state": "PA", "street": "141 E MAIN ST", "postcode": "18962"}}},
{"geometry": {"type": "Point", "coordinates": [-75.2692297397, 40.3500690748]}, "type": "Feature", "properties": {"collection_times": [{"days": "Mon-Fri", "time": "4:15pm"}, {"days": "Sat", "time": "11:30am"}, {"days": "Sun", "time": "Closed"}], "id": "1896200003", "name": "USPS COLLECTION BOX - PO LOBBY", "address": {"city": "SILVERDALE", "state": "PA", "street": "141 E MAIN ST", "postcode": "18962"}}},
{"geometry": {"type": "Point", "coordinates": [-75.0077922629, 40.3809157819]}, "type": "Feature", "properties": {"collection_times": [{"days": "Mon-Fri", "time": "4:30pm"}, {"days": "Sat", "time": "11:30am"}, {"days": "Sun", "time": "Closed"}], "id": "1896300001", "name": "USPS COLLECTION BOX - BLUE BOX", "address": {"city": "SOLEBURY", "state": "PA", "street": "2996 SUGAN RD", "postcode": "18963"}}},
{"geometry": {"type": "Point", "coordinates": [-75.0077922629, 40.3809157819]}, "type": "Feature", "properties": {"collection_times": [{"days": "Mon-Fri", "time": "4:30pm"}, {"days": "Sat", "time": "11:30am"}, {"days": "Sun", "time": "Closed"}], "id": "1896300002", "name": "USPS COLLECTION BOX - PO LOBBY", "address": {"city": "SOLEBURY", "state": "PA", "street": "2996 SUGAN RD", "postcode": "18963"}}},
{"geometry": {"type": "Point", "coordinates": [-75.0077922629, 40.3809157819]}, "type": "Feature", "properties": {"collection_times": [{"days": "Mon-Fri", "time": "4:30pm"}, {"days": "Sat", "time": "11:30am"}, {"days": "Sun", "time": "Closed"}], "id": "1896300003", "name": "USPS COLLECTION BOX - PO LOBBY", "address": {"city": "SOLEBURY", "state": "PA", "street": "2996 SUGAN RD", "postcode": "18963"}}},
{"geometry": {"type": "Point", "coordinates": [-75.3267796305, 40.3050340409]}, "type": "Feature", "properties": {"collection_times": [{"days": "Mon-Fri", "time": "12:00pm"}, {"days": "Sat", "time": "12:30pm"}, {"days": "Sun", "time": "Closed"}], "id": "1896400013", "name": "USPS COLLECTION BOX - BLUE BOX", "address": {"city": "SOUDERTON", "state": "PA", "street": "283 W BROAD ST", "postcode": "18964"}}},
{"geometry": {"type": "Point", "coordinates": [-75.3116507683, 40.3118881051]}, "type": "Feature", "properties": {"collection_times": [{"days": "Mon-Sat", "time": "12:00pm"}, {"days": "Sun", "time": "Closed"}], "id": "1896400025", "name": "USPS COLLECTION BOX - BLUE BOX", "address": {"city": "SOUDERTON", "state": "PA", "street": "564 MONTGOMERY AVE", "postcode": "18964"}}},
{"geometry": {"type": "Point", "coordinates": [-75.3102170221, 40.3142705845]}, "type": "Feature", "properties": {"collection_times": [{"days": "Mon-Fri", "time": "12:00pm"}, {"days": "Sat", "time": "11:45am"}, {"days": "Sun", "time": "Closed"}], "id": "1896400027", "name": "USPS COLLECTION BOX - BLUE BOX", "address": {"city": "SOUDERTON", "state": "PA", "street": "36 S COUNTY LINE RD", "postcode": "18964"}}},
{"geometry": {"type": "Point", "coordinates": [-75.3174922197, 40.3049465019]}, "type": "Feature", "properties": {"collection_times": [{"days": "Mon-Fri", "time": "12:00pm"}, {"days": "Sat", "time": "12:15pm"}, {"days": "Sun", "time": "Closed"}], "id": "1896400029", "name": "USPS COLLECTION BOX - BLUE BOX", "address": {"city": "SOUDERTON", "state": "PA", "street": "232 WASHINGTON AVE", "postcode": "18964"}}},
{"geometry": {"type": "Point", "coordinates": [-75.3099520393, 40.3159089827]}, "type": "Feature", "properties": {"collection_times": [{"days": "Mon-Fri", "time": "12:00pm"}, {"days": "Sat", "time": "11:45am"}, {"days": "Sun", "time": "Closed"}], "id": "1896400034", "name": "USPS COLLECTION BOX - BLUE BOX", "address": {"city": "SOUDERTON", "state": "PA", "street": "709 ROUTE 113", "postcode": "18964"}}},
{"geometry": {"type": "Point", "coordinates": [-75.30564643, 40.3196154158]}, "type": "Feature", "properties": {"collection_times": [{"days": "Mon-Fri", "time": "12:00pm"}, {"days": "Sat", "time": "11:45am"}, {"days": "Sun", "time": "Closed"}], "id": "1896400035", "name": "USPS COLLECTION BOX - BLUE BOX", "address": {"city": "SOUDERTON", "state": "PA", "street": "773 ROUTE 113", "postcode": "18964"}}},
{"geometry": {"type": "Point", "coordinates": [-75.303127714, 40.305178734]}, "type": "Feature", "properties": {"collection_times": [{"days": "Mon-Sat", "time": "12:00pm"}, {"days": "Sun", "time": "Closed"}], "id": "1896400036", "name": "USPS COLLECTION BOX - BLUE BOX", "address": {"city": "SOUDERTON", "state": "PA", "street": "102 DEERFIELD DR", "postcode": "18964"}}},
{"geometry": {"type": "Point", "coordinates": [-75.3241996942, 40.3057606881]}, "type": "Feature", "properties": {"collection_times": [{"days": "Mon-Sat", "time": "12:00pm"}, {"days": "Sun", "time": "Closed"}], "id": "1896400039", "name": "USPS COLLECTION BOX - BLUE BOX", "address": {"city": "SOUDERTON", "state": "PA", "street": "766 ROUTE 113", "postcode": "18964"}}},
{"geometry": {"type": "Point", "coordinates": [-75.3204675107, 40.3096513825]}, "type": "Feature", "properties": {"collection_times": [{"days": "Mon-Fri", "time": "12:00pm"}, {"days": "Sat", "time": "12:15pm"}, {"days": "Sun", "time": "Closed"}], "id": "1896400040", "name": "USPS COLLECTION BOX - BLUE BOX", "address": {"city": "SOUDERTON", "state": "PA", "street": "111 E BROAD ST", "postcode": "18964"}}},
{"geometry": {"type": "Point", "coordinates": [-74.9559200113, 40.2035542177]}, "type": "Feature", "properties": {"collection_times": [{"days": "Mon-Fri", "time": "1:00pm"}, {"days": "Sat", "time": "12:00pm"}, {"days": "Sun", "time": "Closed"}], "id": "1896600003", "name": "USPS COLLECTION BOX - BLUE BOX", "address": {"city": "SOUTHAMPTON", "state": "PA", "street": "1464 BUCK RD", "postcode": "18966"}}},
{"geometry": {"type": "Point", "coordinates": [-75.0475469041, 40.1743769115]}, "type": "Feature", "properties": {"collection_times": [{"days": "Mon-Fri", "time": "2:00pm"}, {"days": "Sat", "time": "12:00pm"}, {"days": "Sun", "time": "Closed"}], "id": "1896600007", "name": "USPS COLLECTION BOX - BLUE BOX", "address": {"city": "SOUTHAMPTON", "state": "PA", "street": "598 BELMONT AVE", "postcode": "18966"}}},
{"geometry": {"type": "Point", "coordinates": [-75.0356087075, 40.1698797774]}, "type": "Feature", "properties": {"collection_times": [{"days": "Mon-Fri", "time": "5:00pm"}, {"days": "Sat", "time": "1:00pm"}, {"days": "Sun", "time": "Closed"}], "id": "1896600014", "name": "USPS COLLECTION BOX - BLUE BOX", "address": {"city": "SOUTHAMPTON", "state": "PA", "street": "1050 STREET RD", "postcode": "18966"}}},
{"geometry": {"type": "Point", "coordinates": [-75.0198940857, 40.2044036421]}, "type": "Feature", "properties": {"collection_times": [{"days": "Mon-Fri", "time": "2:00pm"}, {"days": "Sat", "time": "12:00pm"}, {"days": "Sun", "time": "Closed"}], "id": "1896600017", "name": "USPS COLLECTION BOX - BLUE BOX", "address": {"city": "SOUTHAMPTON", "state": "PA", "street": "496 2ND STREET PIKE", "postcode": "18966"}}},
{"geometry": {"type": "Point", "coordinates": [-75.0209307012, 40.2034074375]}, "type": "Feature", "properties": {"collection_times": [{"days": "Mon-Fri", "time": "2:00pm"}, {"days": "Sat", "time": "12:00pm"}, {"days": "Sun", "time": "Closed"}], "id": "1896600018", "name": "USPS COLLECTION BOX - BLUE BOX", "address": {"city": "SOUTHAMPTON", "state": "PA", "street": "380 2ND STREET PIKE", "postcode": "18966"}}},
{"geometry": {"type": "Point", "coordinates": [-75.043935325, 40.1623076758]}, "type": "Feature", "properties": {"collection_times": [{"days": "Mon-Fri", "time": "2:00pm"}, {"days": "Sat", "time": "12:00pm"}, {"days": "Sun", "time": "Closed"}], "id": "1896600020", "name": "USPS COLLECTION BOX - BLUE BOX", "address": {"city": "SOUTHAMPTON", "state": "PA", "street": "1005 INDUSTRIAL BLVD", "postcode": "18966"}}},
{"geometry": {"type": "Point", "coordinates": [-75.0181423205, 40.1592316288]}, "type": "Feature", "properties": {"collection_times": [{"days": "Mon-Fri", "time": "4:00pm"}, {"days": "Sat", "time": "12:00pm"}, {"days": "Sun", "time": "Closed"}], "id": "1896600021", "name": "USPS COLLECTION BOX - BLUE BOX", "address": {"city": "SOUTHAMPTON", "state": "PA", "street": "106 LAKESIDE PARK", "postcode": "18966"}}},
{"geometry": {"type": "Point", "coordinates": [-75.0555188327, 40.1648224225]}, "type": "Feature", "properties": {"collection_times": [{"days": "Mon-Fri", "time": "2:00pm"}, {"days": "Sat", "time": "12:00pm"}, {"days": "Sun", "time": "Closed"}], "id": "1896600022", "name": "USPS COLLECTION BOX - BLUE BOX", "address": {"city": "SOUTHAMPTON", "state": "PA", "street": "95 JAMES WAY", "postcode": "18966"}}},
{"geometry": {"type": "Point", "coordinates": [-74.9849807168, 40.1753413392]}, "type": "Feature", "properties": {"collection_times": [{"days": "Mon-Fri", "time": "4:00pm"}, {"days": "Sat", "time": "12:00pm"}, {"days": "Sun", "time": "Closed"}], "id": "1896600025", "name": "USPS COLLECTION BOX - BLUE BOX", "address": {"city": "SOUTHAMPTON", "state": "PA", "street": "295 BUCK RD", "postcode": "18966"}}},
{"geometry": {"type": "Point", "coordinates": [-75.0181423205, 40.1592316288]}, "type": "Feature", "properties": {"collection_times": [{"days": "Mon-Fri", "time": "4:00pm"}, {"days": "Sat", "time": "12:00pm"}, {"days": "Sun", "time": "Closed"}], "id": "1896600027", "name": "USPS COLLECTION BOX - BLUE BOX", "address": {"city": "SOUTHAMPTON", "state": "PA", "street": "106 LAKESIDE PARK", "postcode": "18966"}}},
{"geometry": {"type": "Point", "coordinates": [-75.0373670006, 40.170440602]}, "type": "Feature", "properties": {"collection_times": [{"days": "Mon-Fri", "time": "2:00pm"}, {"days": "Sat", "time": "12:00pm"}, {"days": "Sun", "time": "Closed"}], "id": "1896600028", "name": "USPS COLLECTION BOX - BLUE BOX", "address": {"city": "SOUTHAMPTON", "state": "PA", "street": "1902 STEAMBOAT STA", "postcode": "18966"}}},
{"geometry": {"type": "Point", "coordinates": [-75.0479063345, 40.1802726503]}, "type": "Feature", "properties": {"collection_times": [{"days": "Mon-Fri", "time": "2:00pm"}, {"days": "Sat", "time": "12:00pm"}, {"days": "Sun", "time": "Closed"}], "id": "1896600033", "name": "USPS COLLECTION BOX - BLUE BOX", "address": {"city": "SOUTHAMPTON", "state": "PA", "street": "801 WILLOPENN DR", "postcode": "18966"}}},
{"geometry": {"type": "Point", "coordinates": [-75.0356087075, 40.1698797774]}, "type": "Feature", "properties": {"collection_times": [{"days": "Mon-Sat", "time": "5:00pm"}, {"days": "Sun", "time": "Closed"}], "id": "1896600034", "name": "USPS COLLECTION BOX - PO LOBBY", "address": {"city": "SOUTHAMPTON", "state": "PA", "street": "1050 STREET RD", "postcode": "18966"}}},
{"geometry": {"type": "Point", "coordinates": [-75.0356087075, 40.1698797774]}, "type": "Feature", "properties": {"collection_times": [{"days": "Mon-Sat", "time": "5:00pm"}, {"days": "Sun", "time": "Closed"}], "id": "1896600035", "name": "USPS COLLECTION BOX - APC", "address": {"city": "SOUTHAMPTON", "state": "PA", "street": "1050 STREET RD", "postcode": "18966"}}},
{"geometry": {"type": "Point", "coordinates": [-75.4367514115, 40.4388497116]}, "type": "Feature", "properties": {"collection_times": [{"days": "Mon-Fri", "time": "4:00pm"}, {"days": "Sat", "time": "11:30am"}, {"days": "Sun", "time": "Closed"}], "id": "1896800001", "name": "USPS COLLECTION BOX - BLUE BOX", "address": {"city": "SPINNERSTOWN", "state": "PA", "street": "2191 SPINNERSTOWN RD", "postcode": "18968"}}},
{"geometry": {"type": "Point", "coordinates": [-75.4367514115, 40.4388497116]}, "type": "Feature", "properties": {"collection_times": [{"days": "Mon-Fri", "time": "4:00pm"}, {"days": "Sat", "time": "11:30am"}, {"days": "Sun", "time": "Closed"}], "id": "1896800002", "name": "USPS COLLECTION BOX - PO LOBBY", "address": {"city": "SPINNERSTOWN", "state": "PA", "street": "2191 SPINNERSTOWN RD", "postcode": "18968"}}},
{"geometry": {"type": "Point", "coordinates": [-75.4367514115, 40.4388497116]}, "type": "Feature", "properties": {"collection_times": [{"days": "Mon-Fri", "time": "4:00pm"}, {"days": "Sat", "time": "11:30am"}, {"days": "Sun", "time": "Closed"}], "id": "1896800003", "name": "USPS COLLECTION BOX - PO LOBBY", "address": {"city": "SPINNERSTOWN", "state": "PA", "street": "2191 SPINNERSTOWN RD", "postcode": "18968"}}},
{"geometry": {"type": "Point", "coordinates": [-75.3349743382, 40.3206532875]}, "type": "Feature", "properties": {"collection_times": [{"days": "Mon-Fri", "time": "5:00pm"}, {"days": "Sat", "time": "3:00pm"}, {"days": "Sun", "time": "Closed"}], "id": "1896900002", "name": "USPS COLLECTION BOX - BLUE BOX", "address": {"city": "TELFORD", "state": "PA", "street": "99 S 4TH ST", "postcode": "18969"}}},
{"geometry": {"type": "Point", "coordinates": [-75.3357772164, 40.3294597776]}, "type": "Feature", "properties": {"collection_times": [{"days": "Mon-Fri", "time": "12:00pm"}, {"days": "Sat", "time": "11:45am"}, {"days": "Sun", "time": "Closed"}], "id": "1896900013", "name": "USPS COLLECTION BOX - BLUE BOX", "address": {"city": "TELFORD", "state": "PA", "street": "2685 COUNTY LINE RD", "postcode": "18969"}}},
{"geometry": {"type": "Point", "coordinates": [-75.3191797233, 40.3196427748]}, "type": "Feature", "properties": {"collection_times": [{"days": "Mon-Fri", "time": "12:00pm"}, {"days": "Sat", "time": "11:45am"}, {"days": "Sun", "time": "Closed"}], "id": "1896900019", "name": "USPS COLLECTION BOX - BLUE BOX", "address": {"city": "TELFORD", "state": "PA", "street": "576 S MAIN ST", "postcode": "18969"}}},
{"geometry": {"type": "Point", "coordinates": [-75.3349743382, 40.3206532875]}, "type": "Feature", "properties": {"collection_times": [{"days": "Mon-Fri", "time": "5:00pm"}, {"days": "Sat", "time": "3:00pm"}, {"days": "Sun", "time": "Closed"}], "id": "1896900020", "name": "USPS COLLECTION BOX - PO LOBBY", "address": {"city": "TELFORD", "state": "PA", "street": "99 S 4TH ST", "postcode": "18969"}}},
{"geometry": {"type": "Point", "coordinates": [-75.3290491827, 40.3248586459]}, "type": "Feature", "properties": {"collection_times": [{"days": "Mon-Fri", "time": "12:00pm"}, {"days": "Sat", "time": "11:45am"}, {"days": "Sun", "time": "Closed"}], "id": "1896900023", "name": "USPS COLLECTION BOX - BLUE BOX", "address": {"city": "TELFORD", "state": "PA", "street": "122 PENN AVE", "postcode": "18969"}}},
{"geometry": {"type": "Point", "coordinates": [-75.3349743382, 40.3206532875]}, "type": "Feature", "properties": {"collection_times": [{"days": "Mon-Fri", "time": "5:00pm"}, {"days": "Sat", "time": "3:00pm"}, {"days": "Sun", "time": "Closed"}], "id": "1896900025", "name": "USPS COLLECTION BOX - APC", "address": {"city": "TELFORD", "state": "PA", "street": "99 S 4TH ST", "postcode": "18969"}}},
{"geometry": {"type": "Point", "coordinates": [-75.3349743382, 40.3206532875]}, "type": "Feature", "properties": {"collection_times": [{"days": "Mon-Fri", "time": "5:00pm"}, {"days": "Sat", "time": "3:00pm"}, {"days": "Sun", "time": "Closed"}], "id": "1896900026", "name": "USPS COLLECTION BOX - PO LOBBY", "address": {"city": "TELFORD", "state": "PA", "street": "99 S 4TH ST", "postcode": "18969"}}},
{"geometry": {"type": "Point", "coordinates": [-75.3349743382, 40.3206532875]}, "type": "Feature", "properties": {"collection_times": [{"days": "Mon-Fri", "time": "5:00pm"}, {"days": "Sat", "time": "3:00pm"}, {"days": "Sun", "time": "Closed"}], "id": "1896900027", "name": "USPS COLLECTION BOX - PO LOBBY", "address": {"city": "TELFORD", "state": "PA", "street": "99 S 4TH ST", "postcode": "18969"}}},
{"geometry": {"type": "Point", "coordinates": [-75.3816807975, 40.4128439002]}, "type": "Feature", "properties": {"collection_times": [{"days": "Mon-Fri", "time": "4:00pm"}, {"days": "Sat", "time": "11:30am"}, {"days": "Sun", "time": "Closed"}], "id": "1897000001", "name": "USPS COLLECTION BOX - BLUE BOX", "address": {"city": "TRUMBAUERSVILLE", "state": "PA", "street": "120 N MAIN ST", "postcode": "18970"}}},
{"geometry": {"type": "Point", "coordinates": [-75.3816807975, 40.4128439002]}, "type": "Feature", "properties": {"collection_times": [{"days": "Mon-Fri", "time": "4:00pm"}, {"days": "Sat", "time": "11:30am"}, {"days": "Sun", "time": "Closed"}], "id": "1897000002", "name": "USPS COLLECTION BOX - PO LOBBY", "address": {"city": "TRUMBAUERSVILLE", "state": "PA", "street": "120 N MAIN ST", "postcode": "18970"}}},
{"geometry": {"type": "Point", "coordinates": [-75.3816807975, 40.4128439002]}, "type": "Feature", "properties": {"collection_times": [{"days": "Mon-Fri", "time": "4:00pm"}, {"days": "Sat", "time": "11:30am"}, {"days": "Sun", "time": "Closed"}], "id": "1897000003", "name": "USPS COLLECTION BOX - PO LOBBY", "address": {"city": "TRUMBAUERSVILLE", "state": "PA", "street": "120 N MAIN ST", "postcode": "18970"}}},
{"geometry": {"type": "Point", "coordinates": [-75.3807611157, 40.3496570908]}, "type": "Feature", "properties": {"collection_times": [{"days": "Mon-Fri", "time": "4:30pm"}, {"days": "Sat", "time": "12:00pm"}, {"days": "Sun", "time": "Closed"}], "id": "1897100001", "name": "USPS COLLECTION BOX - BLUE BOX", "address": {"city": "TYLERSPORT", "state": "PA", "street": "139 RIDGE RD", "postcode": "18971"}}},
{"geometry": {"type": "Point", "coordinates": [-75.3807611157, 40.3496570908]}, "type": "Feature", "properties": {"collection_times": [{"days": "Mon-Fri", "time": "12:00pm"}, {"days": "Sat", "time": "11:30am"}, {"days": "Sun", "time": "Closed"}], "id": "1897100002", "name": "USPS COLLECTION BOX - PO LOBBY", "address": {"city": "TYLERSPORT", "state": "PA", "street": "139 RIDGE RD", "postcode": "18971"}}},
{"geometry": {"type": "Point", "coordinates": [-75.3807611157, 40.3496570908]}, "type": "Feature", "properties": {"collection_times": [{"days": "Mon-Fri", "time": "12:00pm"}, {"days": "Sat", "time": "11:30am"}, {"days": "Sun", "time": "Closed"}], "id": "1897100003", "name": "USPS COLLECTION BOX - PO LOBBY", "address": {"city": "TYLERSPORT", "state": "PA", "street": "139 RIDGE RD", "postcode": "18971"}}},
{"geometry": {"type": "Point", "coordinates": [-75.1000730773, 40.565965769]}, "type": "Feature", "properties": {"collection_times": [{"days": "Mon-Fri", "time": "4:15pm"}, {"days": "Sat", "time": "11:30am"}, {"days": "Sun", "time": "Closed"}], "id": "1897200001", "name": "USPS COLLECTION BOX - BLUE BOX", "address": {"city": "UPPR BLCK EDY", "state": "PA", "street": "1704 FIREHOUSE LN", "postcode": "18972"}}},
{"geometry": {"type": "Point", "coordinates": [-75.1000730773, 40.565965769]}, "type": "Feature", "properties": {"collection_times": [{"days": "Mon-Fri", "time": "4:15pm"}, {"days": "Sat", "time": "11:30am"}, {"days": "Sun", "time": "Closed"}], "id": "1897200002", "name": "USPS COLLECTION BOX - PO LOBBY", "address": {"city": "UPPR BLCK EDY", "state": "PA", "street": "1704 FIREHOUSE LN", "postcode": "18972"}}},
{"geometry": {"type": "Point", "coordinates": [-75.1000730773, 40.565965769]}, "type": "Feature", "properties": {"collection_times": [{"days": "Mon-Fri", "time": "4:15pm"}, {"days": "Sat", "time": "11:30am"}, {"days": "Sun", "time": "Closed"}], "id": "1897200003", "name": "USPS COLLECTION BOX - PO LOBBY", "address": {"city": "UPPR BLCK EDY", "state": "PA", "street": "1704 FIREHOUSE LN", "postcode": "18972"}}},
{"geometry": {"type": "Point", "coordinates": [-75.0690275585, 40.2261116882]}, "type": "Feature", "properties": {"collection_times": [{"days": "Mon-Fri", "time": "4:00pm"}, {"days": "Sat", "time": "12:30pm"}, {"days": "Sun", "time": "Closed"}], "id": "1897400001", "name": "USPS COLLECTION BOX - BLUE BOX", "address": {"city": "WARMINSTER", "state": "PA", "street": "450 SYCAMORE DR", "postcode": "18974"}}},
{"geometry": {"type": "Point", "coordinates": [-75.056388334, 40.2239705949]}, "type": "Feature", "properties": {"collection_times": [{"days": "Mon-Sat", "time": "11:30am"}, {"days": "Sun", "time": "Closed"}], "id": "1897400002", "name": "USPS COLLECTION BOX - BLUE BOX", "address": {"city": "WARMINSTER", "state": "PA", "street": "50 INDUSTRIAL DR", "postcode": "18974"}}},
{"geometry": {"type": "Point", "coordinates": [-75.1051261723, 40.209586322]}, "type": "Feature", "properties": {"collection_times": [{"days": "Mon-Fri", "time": "4:45pm"}, {"days": "Sat", "time": "12:30pm"}, {"days": "Sun", "time": "Closed"}], "id": "1897400005", "name": "USPS COLLECTION BOX - BLUE BOX", "address": {"city": "WARMINSTER", "state": "PA", "street": "872 STREET RD", "postcode": "18974"}}},
{"geometry": {"type": "Point", "coordinates": [-75.0631513881, 40.1859232719]}, "type": "Feature", "properties": {"collection_times": [{"days": "Mon-Fri", "time": "1:00pm"}, {"days": "Sat", "time": "12:30pm"}, {"days": "Sun", "time": "Closed"}], "id": "1897400006", "name": "USPS COLLECTION BOX - BLUE BOX", "address": {"city": "WARMINSTER", "state": "PA", "street": "675 E STREET RD", "postcode": "18974"}}},
{"geometry": {"type": "Point", "coordinates": [-75.0782435374, 40.1869142744]}, "type": "Feature", "properties": {"collection_times": [{"days": "Mon-Fri", "time": "1:15pm"}, {"days": "Sat", "time": "12:30pm"}, {"days": "Sun", "time": "Closed"}], "id": "1897400007", "name": "USPS COLLECTION BOX - BLUE BOX", "address": {"city": "WARMINSTER", "state": "PA", "street": "365 NEWTOWN RD", "postcode": "18974"}}},
{"geometry": {"type": "Point", "coordinates": [-75.0796086355, 40.1856048697]}, "type": "Feature", "properties": {"collection_times": [{"days": "Mon-Fri", "time": "1:00pm"}, {"days": "Sat", "time": "12:30pm"}, {"days": "Sun", "time": "Closed"}], "id": "1897400008", "name": "USPS COLLECTION BOX - BLUE BOX", "address": {"city": "WARMINSTER", "state": "PA", "street": "225 NEWTOWN RD", "postcode": "18974"}}},
{"geometry": {"type": "Point", "coordinates": [-75.0846463913, 40.1806187635]}, "type": "Feature", "properties": {"collection_times": [{"days": "Mon-Fri", "time": "1:00pm"}, {"days": "Sat", "time": "12:30pm"}, {"days": "Sun", "time": "Closed"}], "id": "1897400009", "name": "USPS COLLECTION BOX - BLUE BOX", "address": {"city": "WARMINSTER", "state": "PA", "street": "40 NEWTOWN RD", "postcode": "18974"}}},
{"geometry": {"type": "Point", "coordinates": [-75.0841015137, 40.1941564801]}, "type": "Feature", "properties": {"collection_times": [{"days": "Mon-Fri", "time": "1:00pm"}, {"days": "Sat", "time": "12:30pm"}, {"days": "Sun", "time": "Closed"}], "id": "1897400011", "name": "USPS COLLECTION BOX - BLUE BOX", "address": {"city": "WARMINSTER", "state": "PA", "street": "65 STEAMBOAT DR", "postcode": "18974"}}},
{"geometry": {"type": "Point", "coordinates": [-75.0845956489, 40.1980912351]}, "type": "Feature", "properties": {"collection_times": [{"days": "Mon-Fri", "time": "4:45pm"}, {"days": "Sat", "time": "12:30pm"}, {"days": "Sun", "time": "Closed"}], "id": "1897400012", "name": "USPS COLLECTION BOX - BLUE BOX", "address": {"city": "WARMINSTER", "state": "PA", "street": "65 W STREET RD", "postcode": "18974"}}},
{"geometry": {"type": "Point", "coordinates": [-75.086966335, 40.1996737921]}, "type": "Feature", "properties": {"collection_times": [{"days": "Mon-Fri", "time": "4:45pm"}, {"days": "Sat", "time": "1:00pm"}, {"days": "Sun", "time": "Closed"}], "id": "1897400013", "name": "USPS COLLECTION BOX - BLUE BOX", "address": {"city": "WARMINSTER", "state": "PA", "street": "605 LOUIS DR", "postcode": "18974"}}},
{"geometry": {"type": "Point", "coordinates": [-75.0901357873, 40.2055791318]}, "type": "Feature", "properties": {"collection_times": [{"days": "Mon-Fri", "time": "4:45pm"}, {"days": "Sat", "time": "1:00pm"}, {"days": "Sun", "time": "Closed"}], "id": "1897400014", "name": "USPS COLLECTION BOX - BLUE BOX", "address": {"city": "WARMINSTER", "state": "PA", "street": "455 CONSTANCE DR", "postcode": "18974"}}},
{"geometry": {"type": "Point", "coordinates": [-75.0997746342, 40.2082440526]}, "type": "Feature", "properties": {"collection_times": [{"days": "Mon-Sat", "time": "10:30am"}, {"days": "Sun", "time": "Closed"}], "id": "1897400016", "name": "USPS COLLECTION BOX - BLUE BOX", "address": {"city": "WARMINSTER", "state": "PA", "street": "650 YORK RD", "postcode": "18974"}}},
{"geometry": {"type": "Point", "coordinates": [-75.1037115776, 40.2087345547]}, "type": "Feature", "properties": {"collection_times": [{"days": "Mon-Fri", "time": "1:30pm"}, {"days": "Sat", "time": "1:00pm"}, {"days": "Sun", "time": "Closed"}], "id": "1897400017", "name": "USPS COLLECTION BOX - BLUE BOX", "address": {"city": "WARMINSTER", "state": "PA", "street": "820 W STREET RD", "postcode": "18974"}}},
{"geometry": {"type": "Point", "coordinates": [-75.0729977702, 40.2047114454]}, "type": "Feature", "properties": {"collection_times": [{"days": "Mon-Fri", "time": "1:30pm"}, {"days": "Sat", "time": "1:00pm"}, {"days": "Sun", "time": "Closed"}], "id": "1897400019", "name": "USPS COLLECTION BOX - BLUE BOX", "address": {"city": "WARMINSTER", "state": "PA", "street": "200 VICTORIA RD", "postcode": "18974"}}},
{"geometry": {"type": "Point", "coordinates": [-75.1027224707, 40.2243562395]}, "type": "Feature", "properties": {"collection_times": [{"days": "Mon-Fri", "time": "2:15pm"}, {"days": "Sat", "time": "12:30pm"}, {"days": "Sun", "time": "Closed"}], "id": "1897400022", "name": "USPS COLLECTION BOX - BLUE BOX", "address": {"city": "WARMINSTER", "state": "PA", "street": "1166 BARNESS DR", "postcode": "18974"}}},
{"geometry": {"type": "Point", "coordinates": [-75.0940478326, 40.2136078743]}, "type": "Feature", "properties": {"collection_times": [{"days": "Mon-Fri", "time": "2:00pm"}, {"days": "Sat", "time": "1:30pm"}, {"days": "Sun", "time": "Closed"}], "id": "1897400027", "name": "USPS COLLECTION BOX - BLUE BOX", "address": {"city": "WARMINSTER", "state": "PA", "street": "901 ROBERTS RD", "postcode": "18974"}}},
{"geometry": {"type": "Point", "coordinates": [-75.0805718055, 40.2158171991]}, "type": "Feature", "properties": {"collection_times": [{"days": "Mon-Fri", "time": "5:00pm"}, {"days": "Sat", "time": "4:00pm"}, {"days": "Sun", "time": "Closed"}], "id": "1897400028", "name": "USPS COLLECTION BOX - BLUE BOX", "address": {"city": "WARMINSTER", "state": "PA", "street": "1135 MEARNS RD", "postcode": "18974"}}},
{"geometry": {"type": "Point", "coordinates": [-75.100534172, 40.2023783994]}, "type": "Feature", "properties": {"collection_times": [{"days": "Mon-Fri", "time": "5:00pm"}, {"days": "Sat", "time": "1:00pm"}, {"days": "Sun", "time": "Closed"}], "id": "1897400029", "name": "USPS COLLECTION BOX - BLUE BOX", "address": {"city": "WARMINSTER", "state": "PA", "street": "445 YORK RD", "postcode": "18974"}}},
{"geometry": {"type": "Point", "coordinates": [-75.1230317227, 40.2202246516]}, "type": "Feature", "properties": {"collection_times": [{"days": "Mon-Fri", "time": "2:00pm"}, {"days": "Sat", "time": "1:30pm"}, {"days": "Sun", "time": "Closed"}], "id": "1897400031", "name": "USPS COLLECTION BOX - BLUE BOX", "address": {"city": "WARMINSTER", "state": "PA", "street": "1501 W STREET RD", "postcode": "18974"}}},
{"geometry": {"type": "Point", "coordinates": [-75.0579320347, 40.2211032962]}, "type": "Feature", "properties": {"collection_times": [{"days": "Mon-Fri", "time": "1:00pm"}, {"days": "Sat", "time": "12:30pm"}, {"days": "Sun", "time": "Closed"}], "id": "1897400033", "name": "USPS COLLECTION BOX - BLUE BOX", "address": {"city": "WARMINSTER", "state": "PA", "street": "17 VINCENT CIR", "postcode": "18974"}}},
{"geometry": {"type": "Point", "coordinates": [-75.100534172, 40.2023783994]}, "type": "Feature", "properties": {"collection_times": [{"days": "Mon-Fri", "time": "5:00pm"}, {"days": "Sat", "time": "1:00pm"}, {"days": "Sun", "time": "Closed"}], "id": "1897400034", "name": "USPS COLLECTION BOX - BLUE BOX", "address": {"city": "WARMINSTER", "state": "PA", "street": "445 YORK RD", "postcode": "18974"}}},
{"geometry": {"type": "Point", "coordinates": [-75.0805718055, 40.2158171991]}, "type": "Feature", "properties": {"collection_times": [{"days": "Mon-Fri", "time": "5:00pm"}, {"days": "Sat", "time": "4:00pm"}, {"days": "Sun", "time": "Closed"}], "id": "1897400035", "name": "USPS COLLECTION BOX - BLUE BOX", "address": {"city": "WARMINSTER", "state": "PA", "street": "1135 MEARNS RD", "postcode": "18974"}}},
{"geometry": {"type": "Point", "coordinates": [-75.0805718055, 40.2158171991]}, "type": "Feature", "properties": {"collection_times": [{"days": "Mon-Fri", "time": "5:00pm"}, {"days": "Sat", "time": "4:00pm"}, {"days": "Sun", "time": "Closed"}], "id": "1897400036", "name": "USPS COLLECTION BOX - BLUE BOX", "address": {"city": "WARMINSTER", "state": "PA", "street": "1135 MEARNS RD", "postcode": "18974"}}},
{"geometry": {"type": "Point", "coordinates": [-75.0805718055, 40.2158171991]}, "type": "Feature", "properties": {"collection_times": [{"days": "Mon-Fri", "time": "5:00pm"}, {"days": "Sat", "time": "3:00pm"}, {"days": "Sun", "time": "Closed"}], "id": "1897400037", "name": "USPS COLLECTION BOX - PO LOBBY", "address": {"city": "WARMINSTER", "state": "PA", "street": "1135 MEARNS RD", "postcode": "18974"}}},
{"geometry": {"type": "Point", "coordinates": [-75.100534172, 40.2023783994]}, "type": "Feature", "properties": {"collection_times": [{"days": "Mon-Fri", "time": "5:00pm"}, {"days": "Sat-Sun", "time": "Closed"}], "id": "1897400038", "name": "USPS COLLECTION BOX - PO LOBBY", "address": {"city": "WARMINSTER", "state": "PA", "street": "445 YORK RD", "postcode": "18974"}}},
{"geometry": {"type": "Point", "coordinates": [-75.0729977702, 40.2047114454]}, "type": "Feature", "properties": {"collection_times": [{"days": "Mon-Fri", "time": "1:00pm"}, {"days": "Sat", "time": "1:30pm"}, {"days": "Sun", "time": "Closed"}], "id": "1897400039", "name": "USPS COLLECTION BOX - BLUE BOX", "address": {"city": "WARMINSTER", "state": "PA", "street": "1400 TULIP RD", "postcode": "18974"}}},
{"geometry": {"type": "Point", "coordinates": [-75.1084980351, 40.2049424768]}, "type": "Feature", "properties": {"collection_times": [{"days": "Mon-Fri", "time": "5:00pm"}, {"days": "Sat", "time": "1:00pm"}, {"days": "Sun", "time": "Closed"}], "id": "1897400041", "name": "USPS COLLECTION BOX - BLUE BOX", "address": {"city": "WARMINSTER", "state": "PA", "street": "401 GIBSON AVE", "postcode": "18974"}}},
{"geometry": {"type": "Point", "coordinates": [-75.0492625028, 40.2271025795]}, "type": "Feature", "properties": {"collection_times": [{"days": "Mon-Sat", "time": "11:30am"}, {"days": "Sun", "time": "Closed"}], "id": "1897400042", "name": "USPS COLLECTION BOX - BLUE BOX", "address": {"city": "WARMINSTER", "state": "PA", "street": "626 JACKSONVILLE RD", "postcode": "18974"}}},
{"geometry": {"type": "Point", "coordinates": [-75.0805718055, 40.2158171991]}, "type": "Feature", "properties": {"collection_times": [{"days": "Mon-Fri", "time": "5:00pm"}, {"days": "Sat", "time": "3:00pm"}, {"days": "Sun", "time": "Closed"}], "id": "1897400043", "name": "USPS COLLECTION BOX - APC", "address": {"city": "WARMINSTER", "state": "PA", "street": "1135 MEARNS RD", "postcode": "18974"}}},
{"geometry": {"type": "Point", "coordinates": [-75.133262492, 40.25103634]}, "type": "Feature", "properties": {"collection_times": [{"days": "Mon-Fri", "time": "4:30pm"}, {"days": "Sat", "time": "3:00pm"}, {"days": "Sun", "time": "Closed"}], "id": "1897600020", "name": "USPS COLLECTION BOX - BLUE BOX", "address": {"city": "WARRINGTON", "state": "PA", "street": "1380 EASTON RD", "postcode": "18976"}}},
{"geometry": {"type": "Point", "coordinates": [-75.1384549774, 40.230601049]}, "type": "Feature", "properties": {"collection_times": [{"days": "Mon-Fri", "time": "1:00pm"}, {"days": "Sat", "time": "11:30am"}, {"days": "Sun", "time": "Closed"}], "id": "1897600021", "name": "USPS COLLECTION BOX - BLUE BOX", "address": {"city": "WARRINGTON", "state": "PA", "street": "620 EASTON RD", "postcode": "18976"}}},
{"geometry": {"type": "Point", "coordinates": [-75.126728707, 40.2219917989]}, "type": "Feature", "properties": {"collection_times": [{"days": "Mon-Fri", "time": "1:00pm"}, {"days": "Sat", "time": "11:30am"}, {"days": "Sun", "time": "Closed"}], "id": "1897600022", "name": "USPS COLLECTION BOX - BLUE BOX", "address": {"city": "WARRINGTON", "state": "PA", "street": "1700 STREET RD", "postcode": "18976"}}},
{"geometry": {"type": "Point", "coordinates": [-75.1297909378, 40.2188105279]}, "type": "Feature", "properties": {"collection_times": [{"days": "Mon-Fri", "time": "4:00pm"}, {"days": "Sat", "time": "11:30am"}, {"days": "Sun", "time": "Closed"}], "id": "1897600023", "name": "USPS COLLECTION BOX - BLUE BOX", "address": {"city": "WARRINGTON", "state": "PA", "street": "400 VALLEY RD", "postcode": "18976"}}},
{"geometry": {"type": "Point", "coordinates": [-75.1289613778, 40.2357924209]}, "type": "Feature", "properties": {"collection_times": [{"days": "Mon-Fri", "time": "1:00pm"}, {"days": "Sat", "time": "11:30am"}, {"days": "Sun", "time": "Closed"}], "id": "1897600024", "name": "USPS COLLECTION BOX - BLUE BOX", "address": {"city": "WARRINGTON", "state": "PA", "street": "2015 PALOMINO DR", "postcode": "18976"}}},
{"geometry": {"type": "Point", "coordinates": [-75.1437463047, 40.2195380476]}, "type": "Feature", "properties": {"collection_times": [{"days": "Mon-Fri", "time": "4:00pm"}, {"days": "Sat", "time": "11:30am"}, {"days": "Sun", "time": "Closed"}], "id": "1897600025", "name": "USPS COLLECTION BOX - BLUE BOX", "address": {"city": "WARRINGTON", "state": "PA", "street": "175 TITUS AVE", "postcode": "18976"}}},
{"geometry": {"type": "Point", "coordinates": [-75.1239222783, 40.2510035731]}, "type": "Feature", "properties": {"collection_times": [{"days": "Mon-Fri", "time": "1:00pm"}, {"days": "Sat", "time": "11:30am"}, {"days": "Sun", "time": "Closed"}], "id": "1897600026", "name": "USPS COLLECTION BOX - BLUE BOX", "address": {"city": "WARRINGTON", "state": "PA", "street": "2219 ORCHARD HILL CIR", "postcode": "18976"}}},
{"geometry": {"type": "Point", "coordinates": [-75.1333043259, 40.2510260493]}, "type": "Feature", "properties": {"collection_times": [{"days": "Mon-Fri", "time": "4:30pm"}, {"days": "Sat", "time": "3:00pm"}, {"days": "Sun", "time": "Closed"}], "id": "1897600027", "name": "USPS COLLECTION BOX - PO LOBBY", "address": {"city": "WARRINGTON", "state": "PA", "street": "1380 EASTON RD", "postcode": "18976"}}},
{"geometry": {"type": "Point", "coordinates": [-75.1333043259, 40.2510260493]}, "type": "Feature", "properties": {"collection_times": [{"days": "Mon-Fri", "time": "4:30pm"}, {"days": "Sat", "time": "3:00pm"}, {"days": "Sun", "time": "Closed"}], "id": "1897600028", "name": "USPS COLLECTION BOX - PO LOBBY", "address": {"city": "WARRINGTON", "state": "PA", "street": "1380 EASTON RD", "postcode": "18976"}}},
{"geometry": {"type": "Point", "coordinates": [-74.8689390223, 40.2912691304]}, "type": "Feature", "properties": {"collection_times": [{"days": "Mon-Fri", "time": "4:00pm"}, {"days": "Sat", "time": "11:30am"}, {"days": "Sun", "time": "Closed"}], "id": "1897700002", "name": "USPS COLLECTION BOX - BLUE BOX", "address": {"city": "WSHNGTN XING", "state": "PA", "street": "1077 RIVER RD", "postcode": "18977"}}},
{"geometry": {"type": "Point", "coordinates": [-74.8689390223, 40.2912691304]}, "type": "Feature", "properties": {"collection_times": [{"days": "Mon-Fri", "time": "4:00pm"}, {"days": "Sat", "time": "11:30am"}, {"days": "Sun", "time": "Closed"}], "id": "1897700003", "name": "USPS COLLECTION BOX - PO LOBBY", "address": {"city": "WSHNGTN XING", "state": "PA", "street": "1077 RIVER RD", "postcode": "18977"}}},
{"geometry": {"type": "Point", "coordinates": [-74.8689390223, 40.2912691304]}, "type": "Feature", "properties": {"collection_times": [{"days": "Mon-Fri", "time": "4:00pm"}, {"days": "Sat", "time": "11:30am"}, {"days": "Sun", "time": "Closed"}], "id": "1897700004", "name": "USPS COLLECTION BOX - PO LOBBY", "address": {"city": "WSHNGTN XING", "state": "PA", "street": "1077 RIVER RD", "postcode": "18977"}}},
{"geometry": {"type": "Point", "coordinates": [-75.4495839417, 40.3102331483]}, "type": "Feature", "properties": {"collection_times": [{"days": "Mon-Fri", "time": "4:15pm"}, {"days": "Sat", "time": "11:15am"}, {"days": "Sun", "time": "Closed"}], "id": "1897900000", "name": "USPS COLLECTION BOX - BLUE BOX", "address": {"city": "WOXALL", "state": "PA", "street": "2040 OLD SKIPPACK PIKE", "postcode": "18979"}}},
{"geometry": {"type": "Point", "coordinates": [-75.4495839417, 40.3102331483]}, "type": "Feature", "properties": {"collection_times": [{"days": "Mon-Sat", "time": "11:00am"}, {"days": "Sun", "time": "Closed"}], "id": "1897900001", "name": "USPS COLLECTION BOX - PO LOBBY", "address": {"city": "WOXALL", "state": "PA", "street": "2040 OLD SKIPPACK PIKE", "postcode": "18979"}}},
{"geometry": {"type": "Point", "coordinates": [-75.0189994151, 40.2821967977]}, "type": "Feature", "properties": {"collection_times": [{"days": "Mon-Fri", "time": "4:00pm"}, {"days": "Sat", "time": "11:00am"}, {"days": "Sun", "time": "Closed"}], "id": "1898000001", "name": "USPS COLLECTION BOX - BLUE BOX", "address": {"city": "WYCOMBE", "state": "PA", "street": "4122 TOWNSHIP LINE RD", "postcode": "18980"}}},
{"geometry": {"type": "Point", "coordinates": [-75.0189994151, 40.2821967977]}, "type": "Feature", "properties": {"collection_times": [{"days": "Mon-Fri", "time": "4:00pm"}, {"days": "Sat", "time": "11:00am"}, {"days": "Sun", "time": "Closed"}], "id": "1898000002", "name": "USPS COLLECTION BOX - PO LOBBY", "address": {"city": "WYCOMBE", "state": "PA", "street": "4122 TOWNSHIP LINE RD", "postcode": "18980"}}},
{"geometry": {"type": "Point", "coordinates": [-75.0189994151, 40.2821967977]}, "type": "Feature", "properties": {"collection_times": [{"days": "Mon-Fri", "time": "4:00pm"}, {"days": "Sat", "time": "11:00am"}, {"days": "Sun", "time": "Closed"}], "id": "1898000003", "name": "USPS COLLECTION BOX - PO LOBBY", "address": {"city": "WYCOMBE", "state": "PA", "street": "4122 TOWNSHIP LINE RD", "postcode": "18980"}}},
{"geometry": {"type": "Point", "coordinates": [-75.3529080463, 40.4471414129]}, "type": "Feature", "properties": {"collection_times": [{"days": "Mon-Fri", "time": "12:00pm"}, {"days": "Sat", "time": "11:30am"}, {"days": "Sun", "time": "Closed"}], "id": "1898100002", "name": "USPS COLLECTION BOX - PO LOBBY", "address": {"city": "ZION HILL", "state": "PA", "street": "2985B BETHLEHEM PIKE", "postcode": "18981"}}}
]}
