{"type": "FeatureCollection", "features": [
{"geometry": {"type": "Point", "coordinates": [-75.485218521, 40.042341535]}, "type": "Feature", "properties": {"collection_times": [{"days": "Mon-Fri", "time": "5:00pm"}, {"days": "Sat", "time": "4:00pm"}, {"days": "Sun", "time": "Closed"}], "id": "1930100001", "name": "USPS COLLECTION BOX - BLUE BOX", "address": {"city": "PAOLI", "state": "PA", "street": "43 PAOLI PLZ", "postcode": "19301"}}},
{"geometry": {"type": "Point", "coordinates": [-75.4889640917, 40.0423639073]}, "type": "Feature", "properties": {"collection_times": [{"days": "Mon-Fri", "time": "4:00pm"}, {"days": "Sat", "time": "11:00am"}, {"days": "Sun", "time": "Closed"}], "id": "1930100002", "name": "USPS COLLECTION BOX - BLUE BOX", "address": {"city": "PAOLI", "state": "PA", "street": "24 PLANK AVE", "postcode": "19301"}}},
{"geometry": {"type": "Point", "coordinates": [-75.4999044921, 40.0420942029]}, "type": "Feature", "properties": {"collection_times": [{"days": "Mon-Sat", "time": "11:00am"}, {"days": "Sun", "time": "Closed"}], "id": "1930100003", "name": "USPS COLLECTION BOX - BLUE BOX", "address": {"city": "PAOLI", "state": "PA", "street": "255 W LANCASTER AVE", "postcode": "19301"}}},
{"geometry": {"type": "Point", "coordinates": [-75.4988812326, 40.0419013806]}, "type": "Feature", "properties": {"collection_times": [{"days": "Mon-Sat", "time": "10:00am"}, {"days": "Sun", "time": "Closed"}], "id": "1930100005", "name": "USPS COLLECTION BOX - BLUE BOX", "address": {"city": "PAOLI", "state": "PA", "street": "250 W LANCASTER AVE", "postcode": "19301"}}},
{"geometry": {"type": "Point", "coordinates": [-75.4893341648, 40.0403665117]}, "type": "Feature", "properties": {"collection_times": [{"days": "Mon-Sat", "time": "11:00am"}, {"days": "Sun", "time": "Closed"}], "id": "1930100006", "name": "USPS COLLECTION BOX - BLUE BOX", "address": {"city": "PAOLI", "state": "PA", "street": "56 STATE RD", "postcode": "19301"}}},
{"geometry": {"type": "Point", "coordinates": [-75.4837724807, 40.0409964169]}, "type": "Feature", "properties": {"collection_times": [{"days": "Mon-Sat", "time": "10:00am"}, {"days": "Sun", "time": "Closed"}], "id": "1930100012", "name": "USPS COLLECTION BOX - BLUE BOX", "address": {"city": "PAOLI", "state": "PA", "street": "30 S VALLEY RD", "postcode": "19301"}}},
{"geometry": {"type": "Point", "coordinates": [-75.4798609477, 40.0431204549]}, "type": "Feature", "properties": {"collection_times": [{"days": "Mon-Sat", "time": "10:00am"}, {"days": "Sun", "time": "Closed"}], "id": "1930100014", "name": "USPS COLLECTION BOX - BLUE BOX", "address": {"city": "PAOLI", "state": "PA", "street": "1 STATION SQ", "postcode": "19301"}}},
{"geometry": {"type": "Point", "coordinates": [-75.4798679989, 40.0432299675]}, "type": "Feature", "properties": {"collection_times": [{"days": "Mon-Fri", "time": "4:00pm"}, {"days": "Sat", "time": "1:00pm"}, {"days": "Sun", "time": "Closed"}], "id": "1930100015", "name": "USPS COLLECTION BOX - BLUE BOX", "address": {"city": "PAOLI", "state": "PA", "street": "2 STATION SQ", "postcode": "19301"}}},
{"geometry": {"type": "Point", "coordinates": [-75.4814385027, 40.0393923246]}, "type": "Feature", "properties": {"collection_times": [{"days": "Mon-Sat", "time": "10:00am"}, {"days": "Sun", "time": "Closed"}], "id": "1930100016", "name": "USPS COLLECTION BOX - BLUE BOX", "address": {"city": "PAOLI", "state": "PA", "street": "31 E CIRCULAR AVE", "postcode": "19301"}}},
{"geometry": {"type": "Point", "coordinates": [-75.474098458, 40.042227466]}, "type": "Feature", "properties": {"collection_times": [{"days": "Mon-Fri", "time": "4:00pm"}, {"days": "Sat", "time": "11:30am"}, {"days": "Sun", "time": "Closed"}], "id": "1930100018", "name": "USPS COLLECTION BOX - BLUE BOX", "address": {"city": "PAOLI", "state": "PA", "street": "1776 E LANCASTER AVE", "postcode": "19301"}}},
{"geometry": {"type": "Point", "coordinates": [-75.4766307427, 40.04210794]}, "type": "Feature", "properties": {"collection_times": [{"days": "Mon-Sat", "time": "11:30am"}, {"days": "Sun", "time": "Closed"}], "id": "1930100019", "name": "USPS COLLECTION BOX - BLUE BOX", "address": {"city": "PAOLI", "state": "PA", "street": "182 E LANCASTER AVE", "postcode": "19301"}}},
{"geometry": {"type": "Point", "coordinates": [-75.4828662601, 40.0422317595]}, "type": "Feature", "properties": {"collection_times": [{"days": "Mon-Fri", "time": "4:00pm"}, {"days": "Sat", "time": "11:30am"}, {"days": "Sun", "time": "Closed"}], "id": "1930100020", "name": "USPS COLLECTION BOX - EXPRESS", "address": {"city": "PAOLI", "state": "PA", "street": "41 LEOPARD RD", "postcode": "19301"}}},
{"geometry": {"type": "Point", "coordinates": [-75.4666075611, 40.0424271221]}, "type": "Feature", "properties": {"collection_times": [{"days": "Mon-Sat", "time": "10:00am"}, {"days": "Sun", "time": "Closed"}], "id": "1930100022", "name": "USPS COLLECTION BOX - BLUE BOX", "address": {"city": "PAOLI", "state": "PA", "street": "1554 E LANCASTER AVE", "postcode": "19301"}}},
{"geometry": {"type": "Point", "coordinates": [-75.4999044921, 40.0420942029]}, "type": "Feature", "properties": {"collection_times": [{"days": "Mon-Sat", "time": "10:00am"}, {"days": "Sun", "time": "Closed"}], "id": "1930100049", "name": "USPS COLLECTION BOX - BLUE BOX", "address": {"city": "PAOLI", "state": "PA", "street": "255 W LANCASTER AVE", "postcode": "19301"}}},
{"geometry": {"type": "Point", "coordinates": [-75.4999044921, 40.0420942029]}, "type": "Feature", "properties": {"collection_times": [{"days": "Mon-Sat", "time": "11:00am"}, {"days": "Sun", "time": "Closed"}], "id": "1930100050", "name": "USPS COLLECTION BOX - BLUE BOX", "address": {"city": "PAOLI", "state": "PA", "street": "255 W LANCASTER AVE", "postcode": "19301"}}},
{"geometry": {"type": "Point", "coordinates": [-75.4798679989, 40.0432299675]}, "type": "Feature", "properties": {"collection_times": [{"days": "Mon-Sat", "time": "10:00am"}, {"days": "Sun", "time": "Closed"}], "id": "1930100058", "name": "USPS COLLECTION BOX - BLUE BOX", "address": {"city": "PAOLI", "state": "PA", "street": "2 STATION SQ", "postcode": "19301"}}},
{"geometry": {"type": "Point", "coordinates": [-75.4764251226, 40.0415275655]}, "type": "Feature", "properties": {"collection_times": [{"days": "Mon-Sat", "time": "11:30am"}, {"days": "Sun", "time": "Closed"}], "id": "1930100059", "name": "USPS COLLECTION BOX - BLUE BOX", "address": {"city": "PAOLI", "state": "PA", "street": "10 LEOPARD RD", "postcode": "19301"}}},
{"geometry": {"type": "Point", "coordinates": [-75.4827563189, 40.0419297716]}, "type": "Feature", "properties": {"collection_times": [{"days": "Mon-Sat", "time": "10:00am"}, {"days": "Sun", "time": "Closed"}], "id": "1930100060", "name": "USPS COLLECTION BOX - BLUE BOX", "address": {"city": "PAOLI", "state": "PA", "street": "24 E LANCASTER AVE", "postcode": "19301"}}},
{"geometry": {"type": "Point", "coordinates": [-75.4616665265, 40.0434936433]}, "type": "Feature", "properties": {"collection_times": [{"days": "Mon-Sat", "time": "1:00pm"}, {"days": "Sun", "time": "Closed"}], "id": "1930100061", "name": "USPS COLLECTION BOX - BLUE BOX", "address": {"city": "PAOLI", "state": "PA", "street": "1410 RUSSELL RD", "postcode": "19301"}}},
{"geometry": {"type": "Point", "coordinates": [-75.4763425329, 40.0398920252]}, "type": "Feature", "properties": {"collection_times": [{"days": "Mon-Sat", "time": "11:30am"}, {"days": "Sun", "time": "Closed"}], "id": "1930100062", "name": "USPS COLLECTION BOX - BLUE BOX", "address": {"city": "PAOLI", "state": "PA", "street": "39 LEOPARD RD", "postcode": "19301"}}},
{"geometry": {"type": "Point", "coordinates": [-75.4753604595, 40.0422006692]}, "type": "Feature", "properties": {"collection_times": [{"days": "Mon-Sat", "time": "10:00am"}, {"days": "Sun", "time": "Closed"}], "id": "1930100066", "name": "USPS COLLECTION BOX - BLUE BOX", "address": {"city": "PAOLI", "state": "PA", "street": "1800 E LANCASTER AVE", "postcode": "19301"}}},
{"geometry": {"type": "Point", "coordinates": [-75.4852051625, 40.0423415196]}, "type": "Feature", "properties": {"collection_times": [{"days": "Mon-Fri", "time": "5:00pm"}, {"days": "Sat", "time": "1:00pm"}, {"days": "Sun", "time": "Closed"}], "id": "1930100067", "name": "USPS COLLECTION BOX - PO LOBBY", "address": {"city": "PAOLI", "state": "PA", "street": "43 PAOLI PLZ", "postcode": "19301"}}},
{"geometry": {"type": "Point", "coordinates": [-75.4852051625, 40.0423415196]}, "type": "Feature", "properties": {"collection_times": [{"days": "Mon-Fri", "time": "5:00pm"}, {"days": "Sat", "time": "1:00pm"}, {"days": "Sun", "time": "Closed"}], "id": "1930100068", "name": "USPS COLLECTION BOX - PO LOBBY", "address": {"city": "PAOLI", "state": "PA", "street": "43 PAOLI PLZ", "postcode": "19301"}}},
{"geometry": {"type": "Point", "coordinates": [-75.5000393494, 40.0450646128]}, "type": "Feature", "properties": {"collection_times": [{"days": "Mon-Sat", "time": "11:00am"}, {"days": "Sun", "time": "Closed"}], "id": "1930100074", "name": "USPS COLLECTION BOX - BLUE BOX", "address": {"city": "PAOLI", "state": "PA", "street": "16 INDUSTRIAL BLVD", "postcode": "19301"}}},
{"geometry": {"type": "Point", "coordinates": [-75.4816819835, 40.0407855982]}, "type": "Feature", "properties": {"collection_times": [{"days": "Mon-Sat", "time": "11:30am"}, {"days": "Sun", "time": "Closed"}], "id": "1930100075", "name": "USPS COLLECTION BOX - BLUE BOX", "address": {"city": "PAOLI", "state": "PA", "street": "43 DARBY RD", "postcode": "19301"}}},
{"geometry": {"type": "Point", "coordinates": [-75.974013152, 39.9492461196]}, "type": "Feature", "properties": {"collection_times": [{"days": "Mon-Fri", "time": "4:30pm"}, {"days": "Sat", "time": "11:00am"}, {"days": "Sun", "time": "Closed"}], "id": "1931000001", "name": "USPS COLLECTION BOX - BLUE BOX", "address": {"city": "ATGLEN", "state": "PA", "street": "316 VALLEY AVE", "postcode": "19310"}}},
{"geometry": {"type": "Point", "coordinates": [-75.974013152, 39.9492461196]}, "type": "Feature", "properties": {"collection_times": [{"days": "Mon-Fri", "time": "4:30pm"}, {"days": "Sat", "time": "11:00am"}, {"days": "Sun", "time": "Closed"}], "id": "1931000002", "name": "USPS COLLECTION BOX - PO LOBBY", "address": {"city": "ATGLEN", "state": "PA", "street": "316 VALLEY AVE", "postcode": "19310"}}},
{"geometry": {"type": "Point", "coordinates": [-75.974013152, 39.9492461196]}, "type": "Feature", "properties": {"collection_times": [{"days": "Mon-Fri", "time": "4:30pm"}, {"days": "Sat", "time": "11:00am"}, {"days": "Sun", "time": "Closed"}], "id": "1931000003", "name": "USPS COLLECTION BOX - PO LOBBY", "address": {"city": "ATGLEN", "state": "PA", "street": "316 VALLEY AVE", "postcode": "19310"}}},
{"geometry": {"type": "Point", "coordinates": [-75.974013152, 39.9492461196]}, "type": "Feature", "properties": {"collection_times": [{"days": "Mon-Fri", "time": "4:30pm"}, {"days": "Sat", "time": "11:00am"}, {"days": "Sun", "time": "Closed"}], "id": "1931000004", "name": "USPS COLLECTION BOX - PO LOBBY", "address": {"city": "ATGLEN", "state": "PA", "street": "316 VALLEY AVE", "postcode": "19310"}}},
{"geometry": {"type": "Point", "coordinates": [-75.7834250578, 39.8248985525]}, "type": "Feature", "properties": {"collection_times": [{"days": "Mon-Fri", "time": "1:00pm"}, {"days": "Sat", "time": "12:00pm"}, {"days": "Sun", "time": "Closed"}], "id": "1931100001", "name": "USPS COLLECTION BOX - BLUE BOX", "address": {"city": "AVONDALE", "state": "PA", "street": "112 PENNSYLVANIA AVE", "postcode": "19311"}}},
{"geometry": {"type": "Point", "coordinates": [-75.7834250578, 39.8248985525]}, "type": "Feature", "properties": {"collection_times": [{"days": "Mon-Fri", "time": "4:45pm"}, {"days": "Sat", "time": "12:00pm"}, {"days": "Sun", "time": "Closed"}], "id": "1931100004", "name": "USPS COLLECTION BOX - PO LOBBY", "address": {"city": "AVONDALE", "state": "PA", "street": "112 PENNSYLVANIA AVE", "postcode": "19311"}}},
{"geometry": {"type": "Point", "coordinates": [-75.7834250578, 39.8248985525]}, "type": "Feature", "properties": {"collection_times": [{"days": "Mon-Fri", "time": "4:45pm"}, {"days": "Sat", "time": "12:00pm"}, {"days": "Sun", "time": "Closed"}], "id": "1931100005", "name": "USPS COLLECTION BOX - PO LOBBY", "address": {"city": "AVONDALE", "state": "PA", "street": "112 PENNSYLVANIA AVE", "postcode": "19311"}}},
{"geometry": {"type": "Point", "coordinates": [-75.4419951113, 40.0474147445]}, "type": "Feature", "properties": {"collection_times": [{"days": "Mon-Fri", "time": "4:00pm"}, {"days": "Sat", "time": "11:30am"}, {"days": "Sun", "time": "Closed"}], "id": "1931200001", "name": "USPS COLLECTION BOX - BLUE BOX", "address": {"city": "BERWYN", "state": "PA", "street": "10 MAIN AVE", "postcode": "19312"}}},
{"geometry": {"type": "Point", "coordinates": [-75.4686980346, 40.062096856]}, "type": "Feature", "properties": {"collection_times": [{"days": "Mon-Fri", "time": "4:00pm"}, {"days": "Sat-Sun", "time": "Closed"}], "id": "1931200002", "name": "USPS COLLECTION BOX - BLUE BOX", "address": {"city": "BERWYN", "state": "PA", "street": "1000 WESTLAKES DR", "postcode": "19312"}}},
{"geometry": {"type": "Point", "coordinates": [-75.4385372278, 40.0481410167]}, "type": "Feature", "properties": {"collection_times": [{"days": "Mon-Sat", "time": "12:00pm"}, {"days": "Sun", "time": "Closed"}], "id": "1931200010", "name": "USPS COLLECTION BOX - BLUE BOX", "address": {"city": "BERWYN", "state": "PA", "street": "556 LANCASTER AVE", "postcode": "19312"}}},
{"geometry": {"type": "Point", "coordinates": [-75.442387087, 40.071043729]}, "type": "Feature", "properties": {"collection_times": [{"days": "Mon-Sat", "time": "2:30pm"}, {"days": "Sun", "time": "Closed"}], "id": "1931200011", "name": "USPS COLLECTION BOX - BLUE BOX", "address": {"city": "BERWYN", "state": "PA", "street": "260 SWEDESFORD RD", "postcode": "19312"}}},
{"geometry": {"type": "Point", "coordinates": [-75.4380607703, 40.0708732325]}, "type": "Feature", "properties": {"collection_times": [{"days": "Mon-Fri", "time": "4:00pm"}, {"days": "Sat", "time": "2:30pm"}, {"days": "Sun", "time": "Closed"}], "id": "1931200013", "name": "USPS COLLECTION BOX - BLUE BOX", "address": {"city": "BERWYN", "state": "PA", "street": "100 BERWYN PARK", "postcode": "19312"}}},
{"geometry": {"type": "Point", "coordinates": [-75.4380438753, 40.0708129137]}, "type": "Feature", "properties": {"collection_times": [{"days": "Mon-Fri", "time": "4:00pm"}, {"days": "Sat", "time": "2:00pm"}, {"days": "Sun", "time": "Closed"}], "id": "1931200014", "name": "USPS COLLECTION BOX - BLUE BOX", "address": {"city": "BERWYN", "state": "PA", "street": "200 BERWYN PARK", "postcode": "19312"}}},
{"geometry": {"type": "Point", "coordinates": [-75.4377626594, 40.0707969958]}, "type": "Feature", "properties": {"collection_times": [{"days": "Mon-Fri", "time": "4:00pm"}, {"days": "Sat", "time": "2:30pm"}, {"days": "Sun", "time": "Closed"}], "id": "1931200015", "name": "USPS COLLECTION BOX - BLUE BOX", "address": {"city": "BERWYN", "state": "PA", "street": "300 BERWYN PARK", "postcode": "19312"}}},
{"geometry": {"type": "Point", "coordinates": [-75.465784331, 40.061387647]}, "type": "Feature", "properties": {"collection_times": [{"days": "Mon-Sat", "time": "10:00am"}, {"days": "Sun", "time": "Closed"}], "id": "1931200016", "name": "USPS COLLECTION BOX - BLUE BOX", "address": {"city": "BERWYN", "state": "PA", "street": "1160 SWEDESFORD RD", "postcode": "19312"}}},
{"geometry": {"type": "Point", "coordinates": [-75.4481384131, 40.0689281714]}, "type": "Feature", "properties": {"collection_times": [{"days": "Mon-Sat", "time": "2:30pm"}, {"days": "Sun", "time": "Closed"}], "id": "1931200019", "name": "USPS COLLECTION BOX - BLUE BOX", "address": {"city": "BERWYN", "state": "PA", "street": "448 SWEDESFORD RD", "postcode": "19312"}}},
{"geometry": {"type": "Point", "coordinates": [-75.4423357941, 40.0476813181]}, "type": "Feature", "properties": {"collection_times": [{"days": "Mon-Fri", "time": "4:00pm"}, {"days": "Sat", "time": "11:30am"}, {"days": "Sun", "time": "Closed"}], "id": "1931200028", "name": "USPS COLLECTION BOX - PO LOBBY", "address": {"city": "BERWYN", "state": "PA", "street": "662 LANCASTER AVE", "postcode": "19312"}}},
{"geometry": {"type": "Point", "coordinates": [-75.4721064622, 40.0582017642]}, "type": "Feature", "properties": {"collection_times": [{"days": "Mon-Sat", "time": "10:00am"}, {"days": "Sun", "time": "Closed"}], "id": "1931200029", "name": "USPS COLLECTION BOX - BLUE BOX", "address": {"city": "BERWYN", "state": "PA", "street": "1 DAYLESFORD BLVD", "postcode": "19312"}}},
{"geometry": {"type": "Point", "coordinates": [-75.4375976294, 40.0705003299]}, "type": "Feature", "properties": {"collection_times": [{"days": "Mon-Fri", "time": "4:00pm"}, {"days": "Sat", "time": "2:00pm"}, {"days": "Sun", "time": "Closed"}], "id": "1931200032", "name": "USPS COLLECTION BOX - BLUE BOX", "address": {"city": "BERWYN", "state": "PA", "street": "400 BERWYN PARK", "postcode": "19312"}}},
{"geometry": {"type": "Point", "coordinates": [-75.8252522861, 40.0425487273]}, "type": "Feature", "properties": {"collection_times": [{"days": "Mon-Fri", "time": "4:30pm"}, {"days": "Sat", "time": "10:15am"}, {"days": "Sun", "time": "Closed"}], "id": "1931600001", "name": "USPS COLLECTION BOX - BLUE BOX", "address": {"city": "BRANDAMORE", "state": "PA", "street": "546 HIBERNIA RD STE 5", "postcode": "19316"}}},
{"geometry": {"type": "Point", "coordinates": [-75.8252522861, 40.0425487273]}, "type": "Feature", "properties": {"collection_times": [{"days": "Mon-Fri", "time": "4:30pm"}, {"days": "Sat", "time": "10:15am"}, {"days": "Sun", "time": "Closed"}], "id": "1931600002", "name": "USPS COLLECTION BOX - PO LOBBY", "address": {"city": "BRANDAMORE", "state": "PA", "street": "546 HIBERNIA RD STE 5", "postcode": "19316"}}},
{"geometry": {"type": "Point", "coordinates": [-75.5908645728, 39.8720237413]}, "type": "Feature", "properties": {"collection_times": [{"days": "Mon-Fri", "time": "4:45pm"}, {"days": "Sat", "time": "1:00pm"}, {"days": "Sun", "time": "Closed"}], "id": "1931700001", "name": "USPS COLLECTION BOX - BLUE BOX", "address": {"city": "CHADDS FORD", "state": "PA", "street": "1620 BALTIMORE PIKE", "postcode": "19317"}}},
{"geometry": {"type": "Point", "coordinates": [-75.5477871221, 39.8753975403]}, "type": "Feature", "properties": {"collection_times": [{"days": "Mon-Sat", "time": "10:00am"}, {"days": "Sun", "time": "Closed"}], "id": "1931700003", "name": "USPS COLLECTION BOX - BLUE BOX", "address": {"city": "CHADDS FORD", "state": "PA", "street": "4 HILLMAN DR", "postcode": "19317"}}},
{"geometry": {"type": "Point", "coordinates": [-75.5908645728, 39.8720237413]}, "type": "Feature", "properties": {"collection_times": [{"days": "Mon-Fri", "time": "4:45pm"}, {"days": "Sat", "time": "1:00pm"}, {"days": "Sun", "time": "Closed"}], "id": "1931700004", "name": "USPS COLLECTION BOX - PO LOBBY", "address": {"city": "CHADDS FORD", "state": "PA", "street": "1620 BALTIMORE PIKE", "postcode": "19317"}}},
{"geometry": {"type": "Point", "coordinates": [-75.5908645728, 39.8720237413]}, "type": "Feature", "properties": {"collection_times": [{"days": "Mon-Fri", "time": "4:45pm"}, {"days": "Sat", "time": "1:00pm"}, {"days": "Sun", "time": "Closed"}], "id": "1931700005", "name": "USPS COLLECTION BOX - BLUE BOX", "address": {"city": "CHADDS FORD", "state": "PA", "street": "1620 BALTIMORE PIKE", "postcode": "19317"}}},
{"geometry": {"type": "Point", "coordinates": [-75.5908645728, 39.8720237413]}, "type": "Feature", "properties": {"collection_times": [{"days": "Mon-Fri", "time": "4:45pm"}, {"days": "Sat", "time": "1:00pm"}, {"days": "Sun", "time": "Closed"}], "id": "1931700006", "name": "USPS COLLECTION BOX - PO LOBBY", "address": {"city": "CHADDS FORD", "state": "PA", "street": "1620 BALTIMORE PIKE", "postcode": "19317"}}},
{"geometry": {"type": "Point", "coordinates": [-75.5510045783, 39.8752431789]}, "type": "Feature", "properties": {"collection_times": [{"days": "Mon-Sat", "time": "9:00am"}, {"days": "Sun", "time": "Closed"}], "id": "1931700007", "name": "USPS COLLECTION BOX - BLUE BOX", "address": {"city": "CHADDS FORD", "state": "PA", "street": "1000 PAINTERS XING", "postcode": "19317"}}},
{"geometry": {"type": "Point", "coordinates": [-75.5178091418, 39.9308636651]}, "type": "Feature", "properties": {"collection_times": [{"days": "Mon-Fri", "time": "4:15pm"}, {"days": "Sat", "time": "12:30pm"}, {"days": "Sun", "time": "Closed"}], "id": "1931900001", "name": "USPS COLLECTION BOX - BLUE BOX", "address": {"city": "CHEYNEY", "state": "PA", "street": "119 STATION RD", "postcode": "19319"}}},
{"geometry": {"type": "Point", "coordinates": [-75.5178091418, 39.9308636651]}, "type": "Feature", "properties": {"collection_times": [{"days": "Mon-Fri", "time": "4:15pm"}, {"days": "Sat", "time": "12:30pm"}, {"days": "Sun", "time": "Closed"}], "id": "1931900002", "name": "USPS COLLECTION BOX - PO LOBBY", "address": {"city": "CHEYNEY", "state": "PA", "street": "119 STATION RD", "postcode": "19319"}}},
{"geometry": {"type": "Point", "coordinates": [-75.5178091418, 39.9308636651]}, "type": "Feature", "properties": {"collection_times": [{"days": "Mon-Fri", "time": "4:15pm"}, {"days": "Sat", "time": "12:30pm"}, {"days": "Sun", "time": "Closed"}], "id": "1931900003", "name": "USPS COLLECTION BOX - PO LOBBY", "address": {"city": "CHEYNEY", "state": "PA", "street": "119 STATION RD", "postcode": "19319"}}},
{"geometry": {"type": "Point", "coordinates": [-75.8092707377, 39.9855215563]}, "type": "Feature", "properties": {"collection_times": [{"days": "Mon-Fri", "time": "2:00pm"}, {"days": "Sat", "time": "9:00am"}, {"days": "Sun", "time": "Closed"}], "id": "1932000011", "name": "USPS COLLECTION BOX - BLUE BOX", "address": {"city": "COATESVILLE", "state": "PA", "street": "744 E LINCOLN HWY", "postcode": "19320"}}},
{"geometry": {"type": "Point", "coordinates": [-75.7887621081, 39.9889257822]}, "type": "Feature", "properties": {"collection_times": [{"days": "Mon-Fri", "time": "2:00pm"}, {"days": "Sat", "time": "9:00am"}, {"days": "Sun", "time": "Closed"}], "id": "1932000017", "name": "USPS COLLECTION BOX - BLUE BOX", "address": {"city": "COATESVILLE", "state": "PA", "street": "1851 E LINCOLN HWY", "postcode": "19320"}}},
{"geometry": {"type": "Point", "coordinates": [-75.7903315646, 40.0101105413]}, "type": "Feature", "properties": {"collection_times": [{"days": "Mon-Fri", "time": "2:00pm"}, {"days": "Sat", "time": "9:00am"}, {"days": "Sun", "time": "Closed"}], "id": "1932000018", "name": "USPS COLLECTION BOX - BLUE BOX", "address": {"city": "COATESVILLE", "state": "PA", "street": "213 REECEVILLE RD", "postcode": "19320"}}},
{"geometry": {"type": "Point", "coordinates": [-75.8201965467, 39.9828717282]}, "type": "Feature", "properties": {"collection_times": [{"days": "Mon-Fri", "time": "2:00pm"}, {"days": "Sat", "time": "9:00am"}, {"days": "Sun", "time": "Closed"}], "id": "1932000033", "name": "USPS COLLECTION BOX - BLUE BOX", "address": {"city": "COATESVILLE", "state": "PA", "street": "250 HARMONY ST", "postcode": "19320"}}},
{"geometry": {"type": "Point", "coordinates": [-75.8677505032, 39.9841882132]}, "type": "Feature", "properties": {"collection_times": [{"days": "Mon-Fri", "time": "4:00pm"}, {"days": "Sat", "time": "9:00am"}, {"days": "Sun", "time": "Closed"}], "id": "1932000036", "name": "USPS COLLECTION BOX - BLUE BOX", "address": {"city": "COATESVILLE", "state": "PA", "street": "128 AIRPORT RD", "postcode": "19320"}}},
{"geometry": {"type": "Point", "coordinates": [-75.8703244328, 39.9936780583]}, "type": "Feature", "properties": {"collection_times": [{"days": "Mon-Fri", "time": "4:00pm"}, {"days": "Sat", "time": "9:00am"}, {"days": "Sun", "time": "Closed"}], "id": "1932000038", "name": "USPS COLLECTION BOX - BLUE BOX", "address": {"city": "COATESVILLE", "state": "PA", "street": "855 FOX CHASE", "postcode": "19320"}}},
{"geometry": {"type": "Point", "coordinates": [-75.8214161768, 39.9844928229]}, "type": "Feature", "properties": {"collection_times": [{"days": "Mon-Fri", "time": "5:00pm"}, {"days": "Sat", "time": "4:00pm"}, {"days": "Sun", "time": "Closed"}], "id": "1932000042", "name": "USPS COLLECTION BOX - BLUE BOX", "address": {"city": "COATESVILLE", "state": "PA", "street": "230 E CHESTNUT ST", "postcode": "19320"}}},
{"geometry": {"type": "Point", "coordinates": [-75.8214031648, 39.9845065775]}, "type": "Feature", "properties": {"collection_times": [{"days": "Mon-Fri", "time": "5:00pm"}, {"days": "Sat", "time": "4:00pm"}, {"days": "Sun", "time": "Closed"}], "id": "1932000046", "name": "USPS COLLECTION BOX - PO LOBBY", "address": {"city": "COATESVILLE", "state": "PA", "street": "230 E CHESTNUT ST", "postcode": "19320"}}},
{"geometry": {"type": "Point", "coordinates": [-75.9216057039, 39.8941852946]}, "type": "Feature", "properties": {"collection_times": [{"days": "Mon-Fri", "time": "4:30pm"}, {"days": "Sat", "time": "12:00pm"}, {"days": "Sun", "time": "Closed"}], "id": "1933000001", "name": "USPS COLLECTION BOX - BLUE BOX", "address": {"city": "COCHRANVILLE", "state": "PA", "street": "1030 GAP NEWPORT PIKE", "postcode": "19330"}}},
{"geometry": {"type": "Point", "coordinates": [-75.9216057039, 39.8941852946]}, "type": "Feature", "properties": {"collection_times": [{"days": "Mon-Fri", "time": "4:30pm"}, {"days": "Sat", "time": "12:00pm"}, {"days": "Sun", "time": "Closed"}], "id": "1933000002", "name": "USPS COLLECTION BOX - PO LOBBY", "address": {"city": "COCHRANVILLE", "state": "PA", "street": "1030 GAP NEWPORT PIKE", "postcode": "19330"}}},
{"geometry": {"type": "Point", "coordinates": [-75.9216057039, 39.8941852946]}, "type": "Feature", "properties": {"collection_times": [{"days": "Mon-Fri", "time": "4:30pm"}, {"days": "Sat", "time": "12:00pm"}, {"days": "Sun", "time": "Closed"}], "id": "1933000003", "name": "USPS COLLECTION BOX - PO LOBBY", "address": {"city": "COCHRANVILLE", "state": "PA", "street": "1030 GAP NEWPORT PIKE", "postcode": "19330"}}},
{"geometry": {"type": "Point", "coordinates": [-75.4235847115, 40.0461127145]}, "type": "Feature", "properties": {"collection_times": [{"days": "Mon-Fri", "time": "4:30pm"}, {"days": "Sat", "time": "11:30am"}, {"days": "Sun", "time": "Closed"}], "id": "1933300000", "name": "USPS COLLECTION BOX - BLUE BOX", "address": {"city": "DEVON", "state": "PA", "street": "7 N WATERLOO RD", "postcode": "19333"}}},
{"geometry": {"type": "Point", "coordinates": [-75.4194751121, 40.0444139854]}, "type": "Feature", "properties": {"collection_times": [{"days": "Mon-Sat", "time": "12:30pm"}, {"days": "Sun", "time": "Closed"}], "id": "1933300001", "name": "USPS COLLECTION BOX - BLUE BOX", "address": {"city": "DEVON", "state": "PA", "street": "203 DORSET RD", "postcode": "19333"}}},
{"geometry": {"type": "Point", "coordinates": [-75.425097716, 40.0450906379]}, "type": "Feature", "properties": {"collection_times": [{"days": "Mon-Sat", "time": "1:00pm"}, {"days": "Sun", "time": "Closed"}], "id": "1933300004", "name": "USPS COLLECTION BOX - BLUE BOX", "address": {"city": "DEVON", "state": "PA", "street": "223 W LANCASTER AVE", "postcode": "19333"}}},
{"geometry": {"type": "Point", "coordinates": [-75.4270164755, 40.0444494742]}, "type": "Feature", "properties": {"collection_times": [{"days": "Mon-Sat", "time": "1:00pm"}, {"days": "Sun", "time": "Closed"}], "id": "1933300005", "name": "USPS COLLECTION BOX - BLUE BOX", "address": {"city": "DEVON", "state": "PA", "street": "237 W LANCASTER AVE", "postcode": "19333"}}},
{"geometry": {"type": "Point", "coordinates": [-75.4352096436, 40.0691390894]}, "type": "Feature", "properties": {"collection_times": [{"days": "Mon-Sat", "time": "2:30pm"}, {"days": "Sun", "time": "Closed"}], "id": "1933300006", "name": "USPS COLLECTION BOX - BLUE BOX", "address": {"city": "DEVON", "state": "PA", "street": "1027 N VALLEY FORGE RD", "postcode": "19333"}}},
{"geometry": {"type": "Point", "coordinates": [-75.4235847115, 40.0461127145]}, "type": "Feature", "properties": {"collection_times": [{"days": "Mon-Fri", "time": "4:30pm"}, {"days": "Sat", "time": "11:30am"}, {"days": "Sun", "time": "Closed"}], "id": "1933300011", "name": "USPS COLLECTION BOX - BLUE BOX", "address": {"city": "DEVON", "state": "PA", "street": "7 N WATERLOO RD", "postcode": "19333"}}},
{"geometry": {"type": "Point", "coordinates": [-75.4235847115, 40.0461127145]}, "type": "Feature", "properties": {"collection_times": [{"days": "Mon-Fri", "time": "4:30pm"}, {"days": "Sat", "time": "11:30am"}, {"days": "Sun", "time": "Closed"}], "id": "1933300012", "name": "USPS COLLECTION BOX - PO LOBBY", "address": {"city": "DEVON", "state": "PA", "street": "7 N WATERLOO RD", "postcode": "19333"}}},
{"geometry": {"type": "Point", "coordinates": [-75.4235847115, 40.0461127145]}, "type": "Feature", "properties": {"collection_times": [{"days": "Mon-Fri", "time": "4:30pm"}, {"days": "Sat", "time": "11:30am"}, {"days": "Sun", "time": "Closed"}], "id": "1933300013", "name": "USPS COLLECTION BOX - PO LOBBY", "address": {"city": "DEVON", "state": "PA", "street": "7 N WATERLOO RD", "postcode": "19333"}}},
{"geometry": {"type": "Point", "coordinates": [-75.6995186747, 40.0195130642]}, "type": "Feature", "properties": {"collection_times": [{"days": "Mon-Fri", "time": "11:30am"}, {"days": "Sat", "time": "2:30pm"}, {"days": "Sun", "time": "Closed"}], "id": "1933500052", "name": "USPS COLLECTION BOX - BLUE BOX", "address": {"city": "DOWNINGTOWN", "state": "PA", "street": "317 NORWOOD HOUSE RD", "postcode": "19335"}}},
{"geometry": {"type": "Point", "coordinates": [-75.7150068689, 40.0183038604]}, "type": "Feature", "properties": {"collection_times": [{"days": "Mon-Fri", "time": "4:30pm"}, {"days": "Sat", "time": "2:30pm"}, {"days": "Sun", "time": "Closed"}], "id": "1933500053", "name": "USPS COLLECTION BOX - BLUE BOX", "address": {"city": "DOWNINGTOWN", "state": "PA", "street": "150 E PENNSYLVANIA AVE", "postcode": "19335"}}},
{"geometry": {"type": "Point", "coordinates": [-75.6995229027, 40.0067296446]}, "type": "Feature", "properties": {"collection_times": [{"days": "Mon-Fri", "time": "11:30am"}, {"days": "Sat", "time": "2:00pm"}, {"days": "Sun", "time": "Closed"}], "id": "1933500054", "name": "USPS COLLECTION BOX - BLUE BOX", "address": {"city": "DOWNINGTOWN", "state": "PA", "street": "241 WASHINGTON AVE", "postcode": "19335"}}},
{"geometry": {"type": "Point", "coordinates": [-75.6935153705, 40.0123804628]}, "type": "Feature", "properties": {"collection_times": [{"days": "Mon-Fri", "time": "11:30am"}, {"days": "Sat", "time": "2:00pm"}, {"days": "Sun", "time": "Closed"}], "id": "1933500055", "name": "USPS COLLECTION BOX - BLUE BOX", "address": {"city": "DOWNINGTOWN", "state": "PA", "street": "604 E LANCASTER AVE", "postcode": "19335"}}},
{"geometry": {"type": "Point", "coordinates": [-75.710177814, 40.0046890404]}, "type": "Feature", "properties": {"collection_times": [{"days": "Mon-Fri", "time": "11:30am"}, {"days": "Sat", "time": "2:30pm"}, {"days": "Sun", "time": "Closed"}], "id": "1933500056", "name": "USPS COLLECTION BOX - BLUE BOX", "address": {"city": "DOWNINGTOWN", "state": "PA", "street": "122 W PENNSYLVANIA AVE", "postcode": "19335"}}},
{"geometry": {"type": "Point", "coordinates": [-75.742227303, 39.9966758663]}, "type": "Feature", "properties": {"collection_times": [{"days": "Mon-Fri", "time": "4:45pm"}, {"days": "Sat", "time": "3:00pm"}, {"days": "Sun", "time": "Closed"}], "id": "1933500057", "name": "USPS COLLECTION BOX - BLUE BOX", "address": {"city": "DOWNINGTOWN", "state": "PA", "street": "3923 W LINCOLN HWY", "postcode": "19335"}}},
{"geometry": {"type": "Point", "coordinates": [-75.6795772567, 40.0180174497]}, "type": "Feature", "properties": {"collection_times": [{"days": "Mon-Fri", "time": "4:30pm"}, {"days": "Sat", "time": "2:00pm"}, {"days": "Sun", "time": "Closed"}], "id": "1933500058", "name": "USPS COLLECTION BOX - BLUE BOX", "address": {"city": "DOWNINGTOWN", "state": "PA", "street": "1056 E LANCASTER AVE", "postcode": "19335"}}},
{"geometry": {"type": "Point", "coordinates": [-75.7242267895, 40.0011942503]}, "type": "Feature", "properties": {"collection_times": [{"days": "Mon-Fri", "time": "4:00pm"}, {"days": "Sat", "time": "3:00pm"}, {"days": "Sun", "time": "Closed"}], "id": "1933500059", "name": "USPS COLLECTION BOX - BLUE BOX", "address": {"city": "DOWNINGTOWN", "state": "PA", "street": "101 LLOYD AVE", "postcode": "19335"}}},
{"geometry": {"type": "Point", "coordinates": [-75.7024105055, 40.0067864266]}, "type": "Feature", "properties": {"collection_times": [{"days": "Mon-Fri", "time": "11:30am"}, {"days": "Sat", "time": "12:00pm"}, {"days": "Sun", "time": "Closed"}], "id": "1933500061", "name": "USPS COLLECTION BOX - BLUE BOX", "address": {"city": "DOWNINGTOWN", "state": "PA", "street": "117 E LANCASTER AVE", "postcode": "19335"}}},
{"geometry": {"type": "Point", "coordinates": [-75.7710373103, 40.0376848162]}, "type": "Feature", "properties": {"collection_times": [{"days": "Mon-Sat", "time": "12:00pm"}, {"days": "Sun", "time": "Closed"}], "id": "1933500063", "name": "USPS COLLECTION BOX - BLUE BOX", "address": {"city": "DOWNINGTOWN", "state": "PA", "street": "1257 HORSESHOE PIKE", "postcode": "19335"}}},
{"geometry": {"type": "Point", "coordinates": [-75.7169328171, 40.002359104]}, "type": "Feature", "properties": {"collection_times": [{"days": "Mon-Fri", "time": "11:30am"}, {"days": "Sat", "time": "2:45pm"}, {"days": "Sun", "time": "Closed"}], "id": "1933500064", "name": "USPS COLLECTION BOX - BLUE BOX", "address": {"city": "DOWNINGTOWN", "state": "PA", "street": "500 W PENNSYLVANIA AVE", "postcode": "19335"}}},
{"geometry": {"type": "Point", "coordinates": [-75.6884953592, 40.0146117002]}, "type": "Feature", "properties": {"collection_times": [{"days": "Mon-Fri", "time": "4:30pm"}, {"days": "Sat", "time": "2:15pm"}, {"days": "Sun", "time": "Closed"}], "id": "1933500065", "name": "USPS COLLECTION BOX - BLUE BOX", "address": {"city": "DOWNINGTOWN", "state": "PA", "street": "797 E LANCASTER AVE", "postcode": "19335"}}},
{"geometry": {"type": "Point", "coordinates": [-75.6871317489, 40.0152541272]}, "type": "Feature", "properties": {"collection_times": [{"days": "Mon-Sat", "time": "12:00pm"}, {"days": "Sun", "time": "Closed"}], "id": "1933500066", "name": "USPS COLLECTION BOX - BLUE BOX", "address": {"city": "DOWNINGTOWN", "state": "PA", "street": "871 E LANCASTER AVE", "postcode": "19335"}}},
{"geometry": {"type": "Point", "coordinates": [-75.6884196498, 40.0026839249]}, "type": "Feature", "properties": {"collection_times": [{"days": "Mon-Fri", "time": "5:00pm"}, {"days": "Sat", "time": "4:00pm"}, {"days": "Sun", "time": "Closed"}], "id": "1933500067", "name": "USPS COLLECTION BOX - BLUE BOX", "address": {"city": "DOWNINGTOWN", "state": "PA", "street": "470 BOOT RD", "postcode": "19335"}}},
{"geometry": {"type": "Point", "coordinates": [-75.6884196498, 40.0026839249]}, "type": "Feature", "properties": {"collection_times": [{"days": "Mon-Fri", "time": "5:00pm"}, {"days": "Sat", "time": "4:00pm"}, {"days": "Sun", "time": "Closed"}], "id": "1933500068", "name": "USPS COLLECTION BOX - BLUE BOX", "address": {"city": "DOWNINGTOWN", "state": "PA", "street": "470 BOOT RD", "postcode": "19335"}}},
{"geometry": {"type": "Point", "coordinates": [-75.6884196498, 40.0026839249]}, "type": "Feature", "properties": {"collection_times": [{"days": "Mon-Fri", "time": "5:00pm"}, {"days": "Sat", "time": "4:00pm"}, {"days": "Sun", "time": "Closed"}], "id": "1933500069", "name": "USPS COLLECTION BOX - PO LOBBY", "address": {"city": "DOWNINGTOWN", "state": "PA", "street": "470 BOOT RD", "postcode": "19335"}}},
{"geometry": {"type": "Point", "coordinates": [-75.6884196498, 40.0026839249]}, "type": "Feature", "properties": {"collection_times": [{"days": "Mon-Fri", "time": "5:00pm"}, {"days": "Sat", "time": "4:00pm"}, {"days": "Sun", "time": "Closed"}], "id": "1933500070", "name": "USPS COLLECTION BOX - APC", "address": {"city": "DOWNINGTOWN", "state": "PA", "street": "470 BOOT RD", "postcode": "19335"}}},
{"geometry": {"type": "Point", "coordinates": [-75.6884196498, 40.0026839249]}, "type": "Feature", "properties": {"collection_times": [{"days": "Mon-Fri", "time": "5:00pm"}, {"days": "Sat", "time": "4:00pm"}, {"days": "Sun", "time": "Closed"}], "id": "1933500071", "name": "USPS COLLECTION BOX - PO LOBBY", "address": {"city": "DOWNINGTOWN", "state": "PA", "street": "470 BOOT RD", "postcode": "19335"}}},
{"geometry": {"type": "Point", "coordinates": [-75.6884196498, 40.0026839249]}, "type": "Feature", "properties": {"collection_times": [{"days": "Mon-Fri", "time": "5:00pm"}, {"days": "Sat", "time": "4:00pm"}, {"days": "Sun", "time": "Closed"}], "id": "1933500072", "name": "USPS COLLECTION BOX - PO LOBBY", "address": {"city": "DOWNINGTOWN", "state": "PA", "street": "470 BOOT RD", "postcode": "19335"}}},
{"geometry": {"type": "Point", "coordinates": [-75.6884196498, 40.0026839249]}, "type": "Feature", "properties": {"collection_times": [{"days": "Mon-Fri", "time": "5:00pm"}, {"days": "Sat", "time": "4:00pm"}, {"days": "Sun", "time": "Closed"}], "id": "1933500073", "name": "USPS COLLECTION BOX - PO LOBBY", "address": {"city": "DOWNINGTOWN", "state": "PA", "street": "470 BOOT RD", "postcode": "19335"}}},
{"geometry": {"type": "Point", "coordinates": [-75.6370247925, 40.0510868859]}, "type": "Feature", "properties": {"collection_times": [{"days": "Mon-Fri", "time": "11:00am"}, {"days": "Sat", "time": "10:30am"}, {"days": "Sun", "time": "Closed"}], "id": "1934100001", "name": "USPS COLLECTION BOX - BLUE BOX", "address": {"city": "EXTON", "state": "PA", "street": "619 N POTTSTOWN PIKE", "postcode": "19341"}}},
{"geometry": {"type": "Point", "coordinates": [-75.6850607848, 40.0625426054]}, "type": "Feature", "properties": {"collection_times": [{"days": "Mon-Fri", "time": "11:00am"}, {"days": "Sat", "time": "10:30am"}, {"days": "Sun", "time": "Closed"}], "id": "1934100002", "name": "USPS COLLECTION BOX - BLUE BOX", "address": {"city": "EXTON", "state": "PA", "street": "540 WELLINGTON SQ", "postcode": "19341"}}},
{"geometry": {"type": "Point", "coordinates": [-75.6662480093, 40.0567417154]}, "type": "Feature", "properties": {"collection_times": [{"days": "Mon-Fri", "time": "5:00pm"}, {"days": "Sat", "time": "12:00pm"}, {"days": "Sun", "time": "Closed"}], "id": "1934100003", "name": "USPS COLLECTION BOX - BLUE BOX", "address": {"city": "EXTON", "state": "PA", "street": "256 EAGLEVIEW BLVD", "postcode": "19341"}}},
{"geometry": {"type": "Point", "coordinates": [-75.6479139519, 40.0623228012]}, "type": "Feature", "properties": {"collection_times": [{"days": "Mon-Fri", "time": "11:00am"}, {"days": "Sat", "time": "9:30am"}, {"days": "Sun", "time": "Closed"}], "id": "1934100004", "name": "USPS COLLECTION BOX - BLUE BOX", "address": {"city": "EXTON", "state": "PA", "street": "210 WELSH POOL RD", "postcode": "19341"}}},
{"geometry": {"type": "Point", "coordinates": [-75.6292917934, 40.0333971555]}, "type": "Feature", "properties": {"collection_times": [{"days": "Mon-Fri", "time": "10:00am"}, {"days": "Sat", "time": "9:30am"}, {"days": "Sun", "time": "Closed"}], "id": "1934100006", "name": "USPS COLLECTION BOX - BLUE BOX", "address": {"city": "EXTON", "state": "PA", "street": "141 E SWEDESFORD RD", "postcode": "19341"}}},
{"geometry": {"type": "Point", "coordinates": [-75.6383580712, 40.0484608635]}, "type": "Feature", "properties": {"collection_times": [{"days": "Mon-Fri", "time": "11:00am"}, {"days": "Sat", "time": "12:00pm"}, {"days": "Sun", "time": "Closed"}], "id": "1934100007", "name": "USPS COLLECTION BOX - BLUE BOX", "address": {"city": "EXTON", "state": "PA", "street": "47 MARCHWOOD RD", "postcode": "19341"}}},
{"geometry": {"type": "Point", "coordinates": [-75.6351410418, 40.0374851148]}, "type": "Feature", "properties": {"collection_times": [{"days": "Mon-Fri", "time": "11:00am"}, {"days": "Sat", "time": "12:00pm"}, {"days": "Sun", "time": "Closed"}], "id": "1934100008", "name": "USPS COLLECTION BOX - BLUE BOX", "address": {"city": "EXTON", "state": "PA", "street": "276 APPLE DR", "postcode": "19341"}}},
{"geometry": {"type": "Point", "coordinates": [-75.6318363566, 40.0274349754]}, "type": "Feature", "properties": {"collection_times": [{"days": "Mon-Fri", "time": "12:00pm"}, {"days": "Sat", "time": "10:00am"}, {"days": "Sun", "time": "Closed"}], "id": "1934100010", "name": "USPS COLLECTION BOX - BLUE BOX", "address": {"city": "EXTON", "state": "PA", "street": "201 W LINCOLN HWY", "postcode": "19341"}}},
{"geometry": {"type": "Point", "coordinates": [-75.6518697667, 40.0211700247]}, "type": "Feature", "properties": {"collection_times": [{"days": "Mon-Fri", "time": "12:00pm"}, {"days": "Sat", "time": "10:30am"}, {"days": "Sun", "time": "Closed"}], "id": "1934100011", "name": "USPS COLLECTION BOX - BLUE BOX", "address": {"city": "EXTON", "state": "PA", "street": "479 THOMAS JONES WAY", "postcode": "19341"}}},
{"geometry": {"type": "Point", "coordinates": [-75.6487786949, 40.0213309071]}, "type": "Feature", "properties": {"collection_times": [{"days": "Mon-Fri", "time": "12:00pm"}, {"days": "Sat", "time": "10:30am"}, {"days": "Sun", "time": "Closed"}], "id": "1934100012", "name": "USPS COLLECTION BOX - BLUE BOX", "address": {"city": "EXTON", "state": "PA", "street": "475 CREAMERY WAY", "postcode": "19341"}}},
{"geometry": {"type": "Point", "coordinates": [-75.6003388912, 40.0279010612]}, "type": "Feature", "properties": {"collection_times": [{"days": "Mon-Fri", "time": "12:00pm"}, {"days": "Sat", "time": "10:30am"}, {"days": "Sun", "time": "Closed"}], "id": "1934100014", "name": "USPS COLLECTION BOX - BLUE BOX", "address": {"city": "EXTON", "state": "PA", "street": "812 SPRINGDALE DR", "postcode": "19341"}}},
{"geometry": {"type": "Point", "coordinates": [-75.6272145359, 40.0371435196]}, "type": "Feature", "properties": {"collection_times": [{"days": "Mon-Fri", "time": "12:00pm"}, {"days": "Sat", "time": "9:45am"}, {"days": "Sun", "time": "Closed"}], "id": "1934100018", "name": "USPS COLLECTION BOX - BLUE BOX", "address": {"city": "EXTON", "state": "PA", "street": "317 EXTON CMNS", "postcode": "19341"}}},
{"geometry": {"type": "Point", "coordinates": [-75.6275351177, 40.0327050578]}, "type": "Feature", "properties": {"collection_times": [{"days": "Mon-Fri", "time": "5:00pm"}, {"days": "Sat", "time": "2:00pm"}, {"days": "Sun", "time": "Closed"}], "id": "1934100022", "name": "USPS COLLECTION BOX - BLUE BOX", "address": {"city": "EXTON", "state": "PA", "street": "430 EXTON SQUARE PKWY", "postcode": "19341"}}},
{"geometry": {"type": "Point", "coordinates": [-75.6555211203, 40.0583393721]}, "type": "Feature", "properties": {"collection_times": [{"days": "Mon-Fri", "time": "11:00am"}, {"days": "Sat", "time": "12:00pm"}, {"days": "Sun", "time": "Closed"}], "id": "1934100025", "name": "USPS COLLECTION BOX - BLUE BOX", "address": {"city": "EXTON", "state": "PA", "street": "64 E UWCHLAN AVE", "postcode": "19341"}}},
{"geometry": {"type": "Point", "coordinates": [-75.64097201, 40.0261766429]}, "type": "Feature", "properties": {"collection_times": [{"days": "Mon-Fri", "time": "12:00pm"}, {"days": "Sat", "time": "9:30am"}, {"days": "Sun", "time": "Closed"}], "id": "1934100027", "name": "USPS COLLECTION BOX - BLUE BOX", "address": {"city": "EXTON", "state": "PA", "street": "101 JOHN ROBERT THOMAS DR", "postcode": "19341"}}},
{"geometry": {"type": "Point", "coordinates": [-75.6557982755, 40.0582336392]}, "type": "Feature", "properties": {"collection_times": [{"days": "Mon-Fri", "time": "11:00am"}, {"days": "Sat", "time": "12:00pm"}, {"days": "Sun", "time": "Closed"}], "id": "1934100028", "name": "USPS COLLECTION BOX - BLUE BOX", "address": {"city": "EXTON", "state": "PA", "street": "55 E UWCHLAN AVE", "postcode": "19341"}}},
{"geometry": {"type": "Point", "coordinates": [-75.647478623, 40.0203052817]}, "type": "Feature", "properties": {"collection_times": [{"days": "Mon-Fri", "time": "12:00pm"}, {"days": "Sat", "time": "10:30am"}, {"days": "Sun", "time": "Closed"}], "id": "1934100029", "name": "USPS COLLECTION BOX - BLUE BOX", "address": {"city": "EXTON", "state": "PA", "street": "425 CREAMERY WAY", "postcode": "19341"}}},
{"geometry": {"type": "Point", "coordinates": [-75.6275351178, 40.0327050576]}, "type": "Feature", "properties": {"collection_times": [{"days": "Mon-Fri", "time": "5:00pm"}, {"days": "Sat", "time": "2:00pm"}, {"days": "Sun", "time": "Closed"}], "id": "1934100031", "name": "USPS COLLECTION BOX - BLUE BOX", "address": {"city": "EXTON", "state": "PA", "street": "430 EXTON SQUARE PKWY", "postcode": "19341"}}},
{"geometry": {"type": "Point", "coordinates": [-75.6275351178, 40.0327050576]}, "type": "Feature", "properties": {"collection_times": [{"days": "Mon-Fri", "time": "5:00pm"}, {"days": "Sat", "time": "2:00pm"}, {"days": "Sun", "time": "Closed"}], "id": "1934100033", "name": "USPS COLLECTION BOX - PO LOBBY", "address": {"city": "EXTON", "state": "PA", "street": "430 EXTON SQUARE PKWY", "postcode": "19341"}}},
{"geometry": {"type": "Point", "coordinates": [-75.620132439, 40.0253518372]}, "type": "Feature", "properties": {"collection_times": [{"days": "Mon-Fri", "time": "12:00pm"}, {"days": "Sat", "time": "11:30am"}, {"days": "Sun", "time": "Closed"}], "id": "1934100036", "name": "USPS COLLECTION BOX - BLUE BOX", "address": {"city": "EXTON", "state": "PA", "street": "318 CARLISLE CT", "postcode": "19341"}}},
{"geometry": {"type": "Point", "coordinates": [-75.6378933665, 40.0412728623]}, "type": "Feature", "properties": {"collection_times": [{"days": "Mon-Fri", "time": "12:00pm"}, {"days": "Sat", "time": "11:00am"}, {"days": "Sun", "time": "Closed"}], "id": "1934100037", "name": "USPS COLLECTION BOX - BLUE BOX", "address": {"city": "EXTON", "state": "PA", "street": "319 E LINCOLN HWY", "postcode": "19341"}}},
{"geometry": {"type": "Point", "coordinates": [-75.6634722141, 40.0511582377]}, "type": "Feature", "properties": {"collection_times": [{"days": "Mon-Fri", "time": "11:00am"}, {"days": "Sat", "time": "12:00pm"}, {"days": "Sun", "time": "Closed"}], "id": "1934100039", "name": "USPS COLLECTION BOX - BLUE BOX", "address": {"city": "EXTON", "state": "PA", "street": "156 EAGLEVIEW BLVD", "postcode": "19341"}}},
{"geometry": {"type": "Point", "coordinates": [-75.6275351178, 40.0327050576]}, "type": "Feature", "properties": {"collection_times": [{"days": "Mon-Fri", "time": "5:00pm"}, {"days": "Sat", "time": "2:00pm"}, {"days": "Sun", "time": "Closed"}], "id": "1934100041", "name": "USPS COLLECTION BOX - PO LOBBY", "address": {"city": "EXTON", "state": "PA", "street": "430 EXTON SQUARE PKWY", "postcode": "19341"}}},
{"geometry": {"type": "Point", "coordinates": [-75.6275351178, 40.0327050576]}, "type": "Feature", "properties": {"collection_times": [{"days": "Mon-Fri", "time": "5:00pm"}, {"days": "Sat", "time": "2:00pm"}, {"days": "Sun", "time": "Closed"}], "id": "1934100042", "name": "USPS COLLECTION BOX - APC", "address": {"city": "EXTON", "state": "PA", "street": "430 EXTON SQUARE PKWY", "postcode": "19341"}}},
{"geometry": {"type": "Point", "coordinates": [-75.6275351178, 40.0327050576]}, "type": "Feature", "properties": {"collection_times": [{"days": "Mon-Fri", "time": "5:00pm"}, {"days": "Sat", "time": "2:00pm"}, {"days": "Sun", "time": "Closed"}], "id": "1934100043", "name": "USPS COLLECTION BOX - APC", "address": {"city": "EXTON", "state": "PA", "street": "430 EXTON SQUARE PKWY", "postcode": "19341"}}},
{"geometry": {"type": "Point", "coordinates": [-75.5433540656, 39.8625418213]}, "type": "Feature", "properties": {"collection_times": [{"days": "Mon-Fri", "time": "10:00am"}, {"days": "Sat", "time": "9:00am"}, {"days": "Sun", "time": "Closed"}], "id": "1934200004", "name": "USPS COLLECTION BOX - BLUE BOX", "address": {"city": "GLEN MILLS", "state": "PA", "street": "499 WILMINGTON PIKE", "postcode": "19342"}}},
{"geometry": {"type": "Point", "coordinates": [-75.5318727752, 39.8864061564]}, "type": "Feature", "properties": {"collection_times": [{"days": "Mon-Sat", "time": "9:00am"}, {"days": "Sun", "time": "Closed"}], "id": "1934200005", "name": "USPS COLLECTION BOX - BLUE BOX", "address": {"city": "GLEN MILLS", "state": "PA", "street": "300 EVERGREEN DR", "postcode": "19342"}}},
{"geometry": {"type": "Point", "coordinates": [-75.4872938381, 39.8955481742]}, "type": "Feature", "properties": {"collection_times": [{"days": "Mon-Fri", "time": "10:30am"}, {"days": "Sat", "time": "10:00am"}, {"days": "Sun", "time": "Closed"}], "id": "1934200006", "name": "USPS COLLECTION BOX - BLUE BOX", "address": {"city": "GLEN MILLS", "state": "PA", "street": "33 DOUGHERTY BLVD", "postcode": "19342"}}},
{"geometry": {"type": "Point", "coordinates": [-75.5038314458, 39.8920327947]}, "type": "Feature", "properties": {"collection_times": [{"days": "Mon-Sat", "time": "9:00am"}, {"days": "Sun", "time": "Closed"}], "id": "1934200012", "name": "USPS COLLECTION BOX - BLUE BOX", "address": {"city": "GLEN MILLS", "state": "PA", "street": "485 BALTIMORE PIKE", "postcode": "19342"}}},
{"geometry": {"type": "Point", "coordinates": [-75.4924141355, 39.9187729948]}, "type": "Feature", "properties": {"collection_times": [{"days": "Mon-Fri", "time": "4:30pm"}, {"days": "Sat", "time": "12:00pm"}, {"days": "Sun", "time": "Closed"}], "id": "1934200016", "name": "USPS COLLECTION BOX - BLUE BOX", "address": {"city": "GLEN MILLS", "state": "PA", "street": "142 GLEN MILLS RD", "postcode": "19342"}}},
{"geometry": {"type": "Point", "coordinates": [-75.4924141355, 39.9187729948]}, "type": "Feature", "properties": {"collection_times": [{"days": "Mon-Fri", "time": "4:30pm"}, {"days": "Sat", "time": "12:00pm"}, {"days": "Sun", "time": "Closed"}], "id": "1934200017", "name": "USPS COLLECTION BOX - PO LOBBY", "address": {"city": "GLEN MILLS", "state": "PA", "street": "142 GLEN MILLS RD", "postcode": "19342"}}},
{"geometry": {"type": "Point", "coordinates": [-75.4924141355, 39.9187729948]}, "type": "Feature", "properties": {"collection_times": [{"days": "Mon-Fri", "time": "4:30pm"}, {"days": "Sat", "time": "12:00pm"}, {"days": "Sun", "time": "Closed"}], "id": "1934200019", "name": "USPS COLLECTION BOX - PO LOBBY", "address": {"city": "GLEN MILLS", "state": "PA", "street": "142 GLEN MILLS RD", "postcode": "19342"}}},
{"geometry": {"type": "Point", "coordinates": [-75.5277087596, 39.891522454]}, "type": "Feature", "properties": {"collection_times": [{"days": "Mon-Fri", "time": "3:00pm"}, {"days": "Sat", "time": "11:30am"}, {"days": "Sun", "time": "Closed"}], "id": "1934200020", "name": "USPS COLLECTION BOX - PO LOBBY", "address": {"city": "GLEN MILLS", "state": "PA", "street": "99 ALDAN AVE", "postcode": "19342"}}},
{"geometry": {"type": "Point", "coordinates": [-75.7760000168, 40.0918033215]}, "type": "Feature", "properties": {"collection_times": [{"days": "Mon-Fri", "time": "4:30pm"}, {"days": "Sat", "time": "11:30am"}, {"days": "Sun", "time": "Closed"}], "id": "1934300001", "name": "USPS COLLECTION BOX - BLUE BOX", "address": {"city": "GLENMOORE", "state": "PA", "street": "560 FAIRVIEW RD", "postcode": "19343"}}},
{"geometry": {"type": "Point", "coordinates": [-75.7760000168, 40.0918033215]}, "type": "Feature", "properties": {"collection_times": [{"days": "Mon-Fri", "time": "4:30pm"}, {"days": "Sat", "time": "11:30am"}, {"days": "Sun", "time": "Closed"}], "id": "1934300003", "name": "USPS COLLECTION BOX - PO LOBBY", "address": {"city": "GLENMOORE", "state": "PA", "street": "560 FAIRVIEW RD", "postcode": "19343"}}},
{"geometry": {"type": "Point", "coordinates": [-75.7760000168, 40.0918033215]}, "type": "Feature", "properties": {"collection_times": [{"days": "Mon-Fri", "time": "4:30pm"}, {"days": "Sat", "time": "11:30am"}, {"days": "Sun", "time": "Closed"}], "id": "1934300004", "name": "USPS COLLECTION BOX - PO LOBBY", "address": {"city": "GLENMOORE", "state": "PA", "street": "560 FAIRVIEW RD", "postcode": "19343"}}},
{"geometry": {"type": "Point", "coordinates": [-75.9139413128, 40.0954728602]}, "type": "Feature", "properties": {"collection_times": [{"days": "Mon-Fri", "time": "4:30pm"}, {"days": "Sat", "time": "12:00pm"}, {"days": "Sun", "time": "Closed"}], "id": "1934400005", "name": "USPS COLLECTION BOX - BLUE BOX", "address": {"city": "HONEYBROOK", "state": "PA", "street": "51 PEQUEA AVE", "postcode": "19344"}}},
{"geometry": {"type": "Point", "coordinates": [-75.9139413128, 40.0954728602]}, "type": "Feature", "properties": {"collection_times": [{"days": "Mon-Fri", "time": "4:30pm"}, {"days": "Sat", "time": "12:00pm"}, {"days": "Sun", "time": "Closed"}], "id": "1934400006", "name": "USPS COLLECTION BOX - BLUE BOX", "address": {"city": "HONEYBROOK", "state": "PA", "street": "51 PEQUEA AVE", "postcode": "19344"}}},
{"geometry": {"type": "Point", "coordinates": [-75.9139413128, 40.0954728602]}, "type": "Feature", "properties": {"collection_times": [{"days": "Mon-Fri", "time": "4:30pm"}, {"days": "Sat", "time": "12:00pm"}, {"days": "Sun", "time": "Closed"}], "id": "1934400009", "name": "USPS COLLECTION BOX - PO LOBBY", "address": {"city": "HONEYBROOK", "state": "PA", "street": "51 PEQUEA AVE", "postcode": "19344"}}},
{"geometry": {"type": "Point", "coordinates": [-75.8852293046, 39.8110929032]}, "type": "Feature", "properties": {"collection_times": [{"days": "Mon-Fri", "time": "4:15pm"}, {"days": "Sat", "time": "11:30am"}, {"days": "Sun", "time": "Closed"}], "id": "1934600001", "name": "USPS COLLECTION BOX - BLUE BOX", "address": {"city": "KELTON", "state": "PA", "street": "203 CORBY RD", "postcode": "19346"}}},
{"geometry": {"type": "Point", "coordinates": [-75.8852293046, 39.8110929032]}, "type": "Feature", "properties": {"collection_times": [{"days": "Mon-Fri", "time": "4:15pm"}, {"days": "Sat", "time": "11:30am"}, {"days": "Sun", "time": "Closed"}], "id": "1934600002", "name": "USPS COLLECTION BOX - PO LOBBY", "address": {"city": "KELTON", "state": "PA", "street": "203 CORBY RD", "postcode": "19346"}}},
{"geometry": {"type": "Point", "coordinates": [-75.8239721588, 39.747281186]}, "type": "Feature", "properties": {"collection_times": [{"days": "Mon-Fri", "time": "4:30pm"}, {"days": "Sat", "time": "11:30am"}, {"days": "Sun", "time": "Closed"}], "id": "1934700001", "name": "USPS COLLECTION BOX - BLUE BOX", "address": {"city": "KEMBLESVILLE", "state": "PA", "street": "1 MUNICIPAL LN", "postcode": "19347"}}},
{"geometry": {"type": "Point", "coordinates": [-75.8239721588, 39.747281186]}, "type": "Feature", "properties": {"collection_times": [{"days": "Mon-Fri", "time": "4:30pm"}, {"days": "Sat", "time": "11:30am"}, {"days": "Sun", "time": "Closed"}], "id": "1934700002", "name": "USPS COLLECTION BOX - PO LOBBY", "address": {"city": "KEMBLESVILLE", "state": "PA", "street": "1 MUNICIPAL LN", "postcode": "19347"}}},
{"geometry": {"type": "Point", "coordinates": [-75.8239721588, 39.747281186]}, "type": "Feature", "properties": {"collection_times": [{"days": "Mon-Fri", "time": "4:30pm"}, {"days": "Sat", "time": "11:30am"}, {"days": "Sun", "time": "Closed"}], "id": "1934700003", "name": "USPS COLLECTION BOX - PO LOBBY", "address": {"city": "KEMBLESVILLE", "state": "PA", "street": "1 MUNICIPAL LN", "postcode": "19347"}}},
{"geometry": {"type": "Point", "coordinates": [-75.6822014793, 39.8621548984]}, "type": "Feature", "properties": {"collection_times": [{"days": "Mon-Sat", "time": "2:00pm"}, {"days": "Sun", "time": "Closed"}], "id": "1934800005", "name": "USPS COLLECTION BOX - BLUE BOX", "address": {"city": "KENNETT SQ", "state": "PA", "street": "849 E BALTIMORE PIKE", "postcode": "19348"}}},
{"geometry": {"type": "Point", "coordinates": [-75.6933005385, 39.853381491]}, "type": "Feature", "properties": {"collection_times": [{"days": "Mon-Sat", "time": "2:00pm"}, {"days": "Sun", "time": "Closed"}], "id": "1934800007", "name": "USPS COLLECTION BOX - BLUE BOX", "address": {"city": "KENNETT SQ", "state": "PA", "street": "415 MCFARLAN RD", "postcode": "19348"}}},
{"geometry": {"type": "Point", "coordinates": [-75.7093757679, 39.8474051823]}, "type": "Feature", "properties": {"collection_times": [{"days": "Mon-Fri", "time": "4:45pm"}, {"days": "Sat", "time": "2:00pm"}, {"days": "Sun", "time": "Closed"}], "id": "1934800016", "name": "USPS COLLECTION BOX - BLUE BOX", "address": {"city": "KENNETT SQ", "state": "PA", "street": "222 E STATE ST", "postcode": "19348"}}},
{"geometry": {"type": "Point", "coordinates": [-75.7095946153, 39.846721432]}, "type": "Feature", "properties": {"collection_times": [{"days": "Mon-Fri", "time": "4:45pm"}, {"days": "Sat", "time": "2:00pm"}, {"days": "Sun", "time": "Closed"}], "id": "1934800017", "name": "USPS COLLECTION BOX - BLUE BOX", "address": {"city": "KENNETT SQ", "state": "PA", "street": "108 CHURCH ALY", "postcode": "19348"}}},
{"geometry": {"type": "Point", "coordinates": [-75.7095946153, 39.846721432]}, "type": "Feature", "properties": {"collection_times": [{"days": "Mon-Fri", "time": "4:45pm"}, {"days": "Sat", "time": "2:00pm"}, {"days": "Sun", "time": "Closed"}], "id": "1934800018", "name": "USPS COLLECTION BOX - BLUE BOX", "address": {"city": "KENNETT SQ", "state": "PA", "street": "108 CHURCH ALY", "postcode": "19348"}}},
{"geometry": {"type": "Point", "coordinates": [-75.7036099195, 39.8565522945]}, "type": "Feature", "properties": {"collection_times": [{"days": "Mon-Fri", "time": "4:00pm"}, {"days": "Sat", "time": "12:00pm"}, {"days": "Sun", "time": "Closed"}], "id": "1934800019", "name": "USPS COLLECTION BOX - EXPRESS", "address": {"city": "KENNETT SQ", "state": "PA", "street": "108 CHURCH ALY", "postcode": "19348"}}},
{"geometry": {"type": "Point", "coordinates": [-75.7280387983, 39.8392837241]}, "type": "Feature", "properties": {"collection_times": [{"days": "Mon-Sat", "time": "2:00pm"}, {"days": "Sun", "time": "Closed"}], "id": "1934800020", "name": "USPS COLLECTION BOX - BLUE BOX", "address": {"city": "KENNETT SQ", "state": "PA", "street": "350 SCARLET RD", "postcode": "19348"}}},
{"geometry": {"type": "Point", "coordinates": [-75.7093757679, 39.8474051823]}, "type": "Feature", "properties": {"collection_times": [{"days": "Mon-Sat", "time": "2:00pm"}, {"days": "Sun", "time": "Closed"}], "id": "1934800021", "name": "USPS COLLECTION BOX - PO LOBBY", "address": {"city": "KENNETT SQ", "state": "PA", "street": "222 E STATE ST", "postcode": "19348"}}},
{"geometry": {"type": "Point", "coordinates": [-75.7093757679, 39.8474051823]}, "type": "Feature", "properties": {"collection_times": [{"days": "Mon-Fri", "time": "4:45pm"}, {"days": "Sat", "time": "2:45pm"}, {"days": "Sun", "time": "Closed"}], "id": "1934800022", "name": "USPS COLLECTION BOX - PO LOBBY", "address": {"city": "KENNETT SQ", "state": "PA", "street": "222 E STATE ST", "postcode": "19348"}}},
{"geometry": {"type": "Point", "coordinates": [-75.7697539934, 39.7981858087]}, "type": "Feature", "properties": {"collection_times": [{"days": "Mon-Fri", "time": "4:45pm"}, {"days": "Sat", "time": "11:45am"}, {"days": "Sun", "time": "Closed"}], "id": "1935000002", "name": "USPS COLLECTION BOX - BLUE BOX", "address": {"city": "LANDENBERG", "state": "PA", "street": "645 PENN GREEN RD", "postcode": "19350"}}},
{"geometry": {"type": "Point", "coordinates": [-75.7697539934, 39.7981858087]}, "type": "Feature", "properties": {"collection_times": [{"days": "Mon-Fri", "time": "4:45pm"}, {"days": "Sat", "time": "11:45am"}, {"days": "Sun", "time": "Closed"}], "id": "1935000004", "name": "USPS COLLECTION BOX - PO LOBBY", "address": {"city": "LANDENBERG", "state": "PA", "street": "645 PENN GREEN RD", "postcode": "19350"}}},
{"geometry": {"type": "Point", "coordinates": [-75.7697539934, 39.7981858087]}, "type": "Feature", "properties": {"collection_times": [{"days": "Mon-Fri", "time": "4:45pm"}, {"days": "Sat", "time": "11:45am"}, {"days": "Sun", "time": "Closed"}], "id": "1935000005", "name": "USPS COLLECTION BOX - PO LOBBY", "address": {"city": "LANDENBERG", "state": "PA", "street": "645 PENN GREEN RD", "postcode": "19350"}}},
{"geometry": {"type": "Point", "coordinates": [-75.8748874105, 39.7224913291]}, "type": "Feature", "properties": {"collection_times": [{"days": "Mon-Fri", "time": "4:00pm"}, {"days": "Sat", "time": "11:30am"}, {"days": "Sun", "time": "Closed"}], "id": "1935100001", "name": "USPS COLLECTION BOX - BLUE BOX", "address": {"city": "LEWISVILLE", "state": "PA", "street": "950 CHESTERVILLE RD", "postcode": "19351"}}},
{"geometry": {"type": "Point", "coordinates": [-75.8748874105, 39.7224913291]}, "type": "Feature", "properties": {"collection_times": [{"days": "Mon-Fri", "time": "4:00pm"}, {"days": "Sat", "time": "11:30am"}, {"days": "Sun", "time": "Closed"}], "id": "1935100002", "name": "USPS COLLECTION BOX - PO LOBBY", "address": {"city": "LEWISVILLE", "state": "PA", "street": "950 CHESTERVILLE RD", "postcode": "19351"}}},
{"geometry": {"type": "Point", "coordinates": [-75.8748874105, 39.7224913291]}, "type": "Feature", "properties": {"collection_times": [{"days": "Mon-Fri", "time": "4:00pm"}, {"days": "Sat", "time": "11:30am"}, {"days": "Sun", "time": "Closed"}], "id": "1935100003", "name": "USPS COLLECTION BOX - PO LOBBY", "address": {"city": "LEWISVILLE", "state": "PA", "street": "950 CHESTERVILLE RD", "postcode": "19351"}}},
{"geometry": {"type": "Point", "coordinates": [-75.9225674496, 39.8014401288]}, "type": "Feature", "properties": {"collection_times": [{"days": "Mon-Fri", "time": "4:00pm"}, {"days": "Sat", "time": "11:30am"}, {"days": "Sun", "time": "Closed"}], "id": "1935200001", "name": "USPS COLLECTION BOX - BLUE BOX", "address": {"city": "LINCOLN UNIV", "state": "PA", "street": "301 ASHMUN AVE", "postcode": "19352"}}},
{"geometry": {"type": "Point", "coordinates": [-75.9225674496, 39.8014401288]}, "type": "Feature", "properties": {"collection_times": [{"days": "Mon-Fri", "time": "4:00pm"}, {"days": "Sat", "time": "11:30am"}, {"days": "Sun", "time": "Closed"}], "id": "1935200002", "name": "USPS COLLECTION BOX - PO LOBBY", "address": {"city": "LINCOLN UNIV", "state": "PA", "street": "301 ASHMUN AVE", "postcode": "19352"}}},
{"geometry": {"type": "Point", "coordinates": [-75.9227082476, 39.8019690309]}, "type": "Feature", "properties": {"collection_times": [{"days": "Mon-Fri", "time": "4:00pm"}, {"days": "Sat", "time": "11:30am"}, {"days": "Sun", "time": "Closed"}], "id": "1935200003", "name": "USPS COLLECTION BOX - PO LOBBY", "address": {"city": "LINCOLN UNIV", "state": "PA", "street": "301 ASHUN AVE", "postcode": "19352"}}},
{"geometry": {"type": "Point", "coordinates": [-75.6825202237, 40.0042472049]}, "type": "Feature", "properties": {"collection_times": [{"days": "Mon-Fri", "time": "4:30pm"}, {"days": "Sat", "time": "10:30am"}, {"days": "Sun", "time": "Closed"}], "id": "1935400001", "name": "USPS COLLECTION BOX - BLUE BOX", "address": {"city": "LYNDELL", "state": "PA", "street": "2 LYNDELL RD", "postcode": "19354"}}},
{"geometry": {"type": "Point", "coordinates": [-75.6825202237, 40.0042472049]}, "type": "Feature", "properties": {"collection_times": [{"days": "Mon-Fri", "time": "4:30pm"}, {"days": "Sat", "time": "10:30am"}, {"days": "Sun", "time": "Closed"}], "id": "1935400002", "name": "USPS COLLECTION BOX - PO LOBBY", "address": {"city": "LYNDELL", "state": "PA", "street": "2 LYNDELL RD", "postcode": "19354"}}},
{"geometry": {"type": "Point", "coordinates": [-75.6825202237, 40.0042472049]}, "type": "Feature", "properties": {"collection_times": [{"days": "Mon-Fri", "time": "4:30pm"}, {"days": "Sat", "time": "10:30am"}, {"days": "Sun", "time": "Closed"}], "id": "1935400003", "name": "USPS COLLECTION BOX - PO LOBBY", "address": {"city": "LYNDELL", "state": "PA", "street": "2 LYNDELL RD", "postcode": "19354"}}},
{"geometry": {"type": "Point", "coordinates": [-75.5155857961, 40.0355216829]}, "type": "Feature", "properties": {"collection_times": [{"days": "Mon-Fri", "time": "5:00pm"}, {"days": "Sat", "time": "3:30pm"}, {"days": "Sun", "time": "Closed"}], "id": "1935500001", "name": "USPS COLLECTION BOX - BLUE BOX", "address": {"city": "MALVERN", "state": "PA", "street": "33 W KING ST", "postcode": "19355"}}},
{"geometry": {"type": "Point", "coordinates": [-75.5058725201, 40.0386860981]}, "type": "Feature", "properties": {"collection_times": [{"days": "Mon-Sat", "time": "10:00am"}, {"days": "Sun", "time": "Closed"}], "id": "1935500002", "name": "USPS COLLECTION BOX - BLUE BOX", "address": {"city": "MALVERN", "state": "PA", "street": "458 E KING RD", "postcode": "19355"}}},
{"geometry": {"type": "Point", "coordinates": [-75.5182876744, 40.0423331606]}, "type": "Feature", "properties": {"collection_times": [{"days": "Mon-Fri", "time": "11:00am"}, {"days": "Sat", "time": "2:00pm"}, {"days": "Sun", "time": "Closed"}], "id": "1935500003", "name": "USPS COLLECTION BOX - BLUE BOX", "address": {"city": "MALVERN", "state": "PA", "street": "9 OLD LINCOLN HWY", "postcode": "19355"}}},
{"geometry": {"type": "Point", "coordinates": [-75.5209919186, 40.0314487551]}, "type": "Feature", "properties": {"collection_times": [{"days": "Mon-Fri", "time": "11:00am"}, {"days": "Sat", "time": "2:00pm"}, {"days": "Sun", "time": "Closed"}], "id": "1935500005", "name": "USPS COLLECTION BOX - BLUE BOX", "address": {"city": "MALVERN", "state": "PA", "street": "421 MONUMENT AVE", "postcode": "19355"}}},
{"geometry": {"type": "Point", "coordinates": [-75.5261177908, 40.0347542863]}, "type": "Feature", "properties": {"collection_times": [{"days": "Mon-Sat", "time": "10:00am"}, {"days": "Sun", "time": "Closed"}], "id": "1935500006", "name": "USPS COLLECTION BOX - BLUE BOX", "address": {"city": "MALVERN", "state": "PA", "street": "1000 CHARLESTON GRN", "postcode": "19355"}}},
{"geometry": {"type": "Point", "coordinates": [-75.5781714231, 40.0328186216]}, "type": "Feature", "properties": {"collection_times": [{"days": "Mon-Fri", "time": "11:00am"}, {"days": "Sat", "time": "2:00pm"}, {"days": "Sun", "time": "Closed"}], "id": "1935500008", "name": "USPS COLLECTION BOX - BLUE BOX", "address": {"city": "MALVERN", "state": "PA", "street": "20 MYSTIC LN", "postcode": "19355"}}},
{"geometry": {"type": "Point", "coordinates": [-75.5429866746, 40.0402665313]}, "type": "Feature", "properties": {"collection_times": [{"days": "Mon-Sat", "time": "10:00am"}, {"days": "Sun", "time": "Closed"}], "id": "1935500010", "name": "USPS COLLECTION BOX - BLUE BOX", "address": {"city": "MALVERN", "state": "PA", "street": "245 LANCASTER AVE", "postcode": "19355"}}},
{"geometry": {"type": "Point", "coordinates": [-75.5293779147, 40.0429908858]}, "type": "Feature", "properties": {"collection_times": [{"days": "Mon-Sat", "time": "10:00am"}, {"days": "Sun", "time": "Closed"}], "id": "1935500011", "name": "USPS COLLECTION BOX - BLUE BOX", "address": {"city": "MALVERN", "state": "PA", "street": "81 LANCASTER AVE", "postcode": "19355"}}},
{"geometry": {"type": "Point", "coordinates": [-75.526976508, 40.0547613275]}, "type": "Feature", "properties": {"collection_times": [{"days": "Mon-Fri", "time": "11:00am"}, {"days": "Sat", "time": "2:00pm"}, {"days": "Sun", "time": "Closed"}], "id": "1935500015", "name": "USPS COLLECTION BOX - BLUE BOX", "address": {"city": "MALVERN", "state": "PA", "street": "20 LIBERTY BLVD", "postcode": "19355"}}},
{"geometry": {"type": "Point", "coordinates": [-75.5182651982, 40.0566883676]}, "type": "Feature", "properties": {"collection_times": [{"days": "Mon-Fri", "time": "11:00am"}, {"days": "Sat", "time": "2:00pm"}, {"days": "Sun", "time": "Closed"}], "id": "1935500016", "name": "USPS COLLECTION BOX - BLUE BOX", "address": {"city": "MALVERN", "state": "PA", "street": "75 VALLEY STREAM PKWY", "postcode": "19355"}}},
{"geometry": {"type": "Point", "coordinates": [-75.5332982407, 40.0642415606]}, "type": "Feature", "properties": {"collection_times": [{"days": "Mon-Fri", "time": "12:00pm"}, {"days": "Sat-Sun", "time": "Closed"}], "id": "1935500018", "name": "USPS COLLECTION BOX - BLUE BOX", "address": {"city": "MALVERN", "state": "PA", "street": "5 GREAT VALLEY PKWY", "postcode": "19355"}}},
{"geometry": {"type": "Point", "coordinates": [-75.5462611051, 40.062299142]}, "type": "Feature", "properties": {"collection_times": [{"days": "Mon-Fri", "time": "10:00am"}, {"days": "Sat-Sun", "time": "Closed"}], "id": "1935500023", "name": "USPS COLLECTION BOX - BLUE BOX", "address": {"city": "MALVERN", "state": "PA", "street": "77 GREAT VALLEY PKWY", "postcode": "19355"}}},
{"geometry": {"type": "Point", "coordinates": [-75.577385824, 40.0421923482]}, "type": "Feature", "properties": {"collection_times": [{"days": "Mon-Fri", "time": "11:00am"}, {"days": "Sat", "time": "2:00pm"}, {"days": "Sun", "time": "Closed"}], "id": "1935500033", "name": "USPS COLLECTION BOX - BLUE BOX", "address": {"city": "MALVERN", "state": "PA", "street": "636 SWEDESFORD RD", "postcode": "19355"}}},
{"geometry": {"type": "Point", "coordinates": [-75.5638212253, 40.0366760928]}, "type": "Feature", "properties": {"collection_times": [{"days": "Mon-Fri", "time": "4:30pm"}, {"days": "Sat", "time": "2:00pm"}, {"days": "Sun", "time": "Closed"}], "id": "1935500036", "name": "USPS COLLECTION BOX - BLUE BOX", "address": {"city": "MALVERN", "state": "PA", "street": "490 LANCASTER AVE", "postcode": "19355"}}},
{"geometry": {"type": "Point", "coordinates": [-75.5091731102, 40.0528524181]}, "type": "Feature", "properties": {"collection_times": [{"days": "Mon-Fri", "time": "11:00am"}, {"days": "Sat-Sun", "time": "Closed"}], "id": "1935500038", "name": "USPS COLLECTION BOX - BLUE BOX", "address": {"city": "MALVERN", "state": "PA", "street": "50 VANGUARD BLVD", "postcode": "19355"}}},
{"geometry": {"type": "Point", "coordinates": [-75.5260325068, 40.0577589455]}, "type": "Feature", "properties": {"collection_times": [{"days": "Mon-Fri", "time": "11:00am"}, {"days": "Sat", "time": "2:00pm"}, {"days": "Sun", "time": "Closed"}], "id": "1935500039", "name": "USPS COLLECTION BOX - BLUE BOX", "address": {"city": "MALVERN", "state": "PA", "street": "20 VALLEY STREAM PKWY", "postcode": "19355"}}},
{"geometry": {"type": "Point", "coordinates": [-75.5403678594, 40.0615264113]}, "type": "Feature", "properties": {"collection_times": [{"days": "Mon-Fri", "time": "11:00am"}, {"days": "Sat-Sun", "time": "Closed"}], "id": "1935500041", "name": "USPS COLLECTION BOX - BLUE BOX", "address": {"city": "MALVERN", "state": "PA", "street": "257 GREAT VALLEY PKWY", "postcode": "19355"}}},
{"geometry": {"type": "Point", "coordinates": [-75.5403678594, 40.0615264113]}, "type": "Feature", "properties": {"collection_times": [{"days": "Mon-Fri", "time": "11:00am"}, {"days": "Sat-Sun", "time": "Closed"}], "id": "1935500042", "name": "USPS COLLECTION BOX - BLUE BOX", "address": {"city": "MALVERN", "state": "PA", "street": "257 GREAT VALLEY PKWY", "postcode": "19355"}}},
{"geometry": {"type": "Point", "coordinates": [-75.5446156091, 40.039928205]}, "type": "Feature", "properties": {"collection_times": [{"days": "Mon-Fri", "time": "11:00am"}, {"days": "Sat", "time": "2:00pm"}, {"days": "Sun", "time": "Closed"}], "id": "1935500049", "name": "USPS COLLECTION BOX - BLUE BOX", "address": {"city": "MALVERN", "state": "PA", "street": "270 LANCASTER AVE", "postcode": "19355"}}},
{"geometry": {"type": "Point", "coordinates": [-75.527583366, 40.0497928998]}, "type": "Feature", "properties": {"collection_times": [{"days": "Mon-Fri", "time": "12:00pm"}, {"days": "Sat-Sun", "time": "Closed"}], "id": "1935500054", "name": "USPS COLLECTION BOX - BLUE BOX", "address": {"city": "MALVERN", "state": "PA", "street": "101 LINDENWOOD DR", "postcode": "19355"}}},
{"geometry": {"type": "Point", "coordinates": [-75.4975007195, 40.03736355]}, "type": "Feature", "properties": {"collection_times": [{"days": "Mon-Fri", "time": "11:00am"}, {"days": "Sat", "time": "2:00pm"}, {"days": "Sun", "time": "Closed"}], "id": "1935500056", "name": "USPS COLLECTION BOX - BLUE BOX", "address": {"city": "MALVERN", "state": "PA", "street": "40 LLOYD AVE", "postcode": "19355"}}},
{"geometry": {"type": "Point", "coordinates": [-75.5601360308, 40.0639493697]}, "type": "Feature", "properties": {"collection_times": [{"days": "Mon-Fri", "time": "11:00am"}, {"days": "Sat", "time": "2:00pm"}, {"days": "Sun", "time": "Closed"}], "id": "1935500069", "name": "USPS COLLECTION BOX - BLUE BOX", "address": {"city": "MALVERN", "state": "PA", "street": "2 LEE BLVD", "postcode": "19355"}}},
{"geometry": {"type": "Point", "coordinates": [-75.5155857961, 40.0355216829]}, "type": "Feature", "properties": {"collection_times": [{"days": "Mon-Fri", "time": "5:00pm"}, {"days": "Sat", "time": "3:30pm"}, {"days": "Sun", "time": "Closed"}], "id": "1935500070", "name": "USPS COLLECTION BOX - PO LOBBY", "address": {"city": "MALVERN", "state": "PA", "street": "33 W KING ST", "postcode": "19355"}}},
{"geometry": {"type": "Point", "coordinates": [-75.5638212253, 40.0366760928]}, "type": "Feature", "properties": {"collection_times": [{"days": "Mon-Fri", "time": "4:30pm"}, {"days": "Sat", "time": "12:00pm"}, {"days": "Sun", "time": "Closed"}], "id": "1935500071", "name": "USPS COLLECTION BOX - PO LOBBY", "address": {"city": "MALVERN", "state": "PA", "street": "490 LANCASTER AVE", "postcode": "19355"}}},
{"geometry": {"type": "Point", "coordinates": [-75.5638212253, 40.0366760928]}, "type": "Feature", "properties": {"collection_times": [{"days": "Mon-Fri", "time": "4:30pm"}, {"days": "Sat", "time": "12:00pm"}, {"days": "Sun", "time": "Closed"}], "id": "1935500073", "name": "USPS COLLECTION BOX - PO LOBBY", "address": {"city": "MALVERN", "state": "PA", "street": "490 LANCASTER AVE", "postcode": "19355"}}},
{"geometry": {"type": "Point", "coordinates": [-75.5638212253, 40.0366760928]}, "type": "Feature", "properties": {"collection_times": [{"days": "Mon-Fri", "time": "4:30pm"}, {"days": "Sat", "time": "12:00pm"}, {"days": "Sun", "time": "Closed"}], "id": "1935500074", "name": "USPS COLLECTION BOX - PO LOBBY", "address": {"city": "MALVERN", "state": "PA", "street": "490 LANCASTER AVE", "postcode": "19355"}}},
{"geometry": {"type": "Point", "coordinates": [-75.5638212253, 40.0366760928]}, "type": "Feature", "properties": {"collection_times": [{"days": "Mon-Fri", "time": "4:30pm"}, {"days": "Sat", "time": "12:00pm"}, {"days": "Sun", "time": "Closed"}], "id": "1935500075", "name": "USPS COLLECTION BOX - PO LOBBY", "address": {"city": "MALVERN", "state": "PA", "street": "490 LANCASTER AVE", "postcode": "19355"}}},
{"geometry": {"type": "Point", "coordinates": [-75.5155857961, 40.0355216829]}, "type": "Feature", "properties": {"collection_times": [{"days": "Mon-Fri", "time": "5:00pm"}, {"days": "Sat", "time": "3:30pm"}, {"days": "Sun", "time": "Closed"}], "id": "1935500076", "name": "USPS COLLECTION BOX - PO LOBBY", "address": {"city": "MALVERN", "state": "PA", "street": "33 W KING ST", "postcode": "19355"}}},
{"geometry": {"type": "Point", "coordinates": [-75.6415965044, 39.8538009833]}, "type": "Feature", "properties": {"collection_times": [{"days": "Mon-Fri", "time": "4:30pm"}, {"days": "Sat", "time": "11:00am"}, {"days": "Sun", "time": "Closed"}], "id": "1935700001", "name": "USPS COLLECTION BOX - BLUE BOX", "address": {"city": "MENDENHALL", "state": "PA", "street": "330 KENNETT PIKE", "postcode": "19357"}}},
{"geometry": {"type": "Point", "coordinates": [-75.7096103316, 39.8472987677]}, "type": "Feature", "properties": {"collection_times": [{"days": "Mon-Fri", "time": "4:30pm"}, {"days": "Sat", "time": "11:00am"}, {"days": "Sun", "time": "Closed"}], "id": "1935700002", "name": "USPS COLLECTION BOX - PO LOBBY", "address": {"city": "MENDENHALL", "state": "PA", "street": "330 KENNETT PIKE", "postcode": "19357"}}},
{"geometry": {"type": "Point", "coordinates": [-75.7096103316, 39.8472987677]}, "type": "Feature", "properties": {"collection_times": [{"days": "Mon-Fri", "time": "4:30pm"}, {"days": "Sat", "time": "11:00am"}, {"days": "Sun", "time": "Closed"}], "id": "1935700003", "name": "USPS COLLECTION BOX - PO LOBBY", "address": {"city": "MENDENHALL", "state": "PA", "street": "330 KENNETT PIKE", "postcode": "19357"}}},
{"geometry": {"type": "Point", "coordinates": [-75.8062878641, 39.9641578254]}, "type": "Feature", "properties": {"collection_times": [{"days": "Mon-Fri", "time": "4:00pm"}, {"days": "Sat", "time": "12:00pm"}, {"days": "Sun", "time": "Closed"}], "id": "1935800001", "name": "USPS COLLECTION BOX - BLUE BOX", "address": {"city": "MODENA", "state": "PA", "street": "108 N BRANDYWINE AVE", "postcode": "19358"}}},
{"geometry": {"type": "Point", "coordinates": [-75.8062878641, 39.9641578254]}, "type": "Feature", "properties": {"collection_times": [{"days": "Mon-Fri", "time": "4:00pm"}, {"days": "Sat", "time": "11:30am"}, {"days": "Sun", "time": "Closed"}], "id": "1935800002", "name": "USPS COLLECTION BOX - PO LOBBY", "address": {"city": "MODENA", "state": "PA", "street": "108 N BRANDYWINE AVE", "postcode": "19358"}}},
{"geometry": {"type": "Point", "coordinates": [-75.8062878641, 39.9641578254]}, "type": "Feature", "properties": {"collection_times": [{"days": "Mon-Fri", "time": "4:00pm"}, {"days": "Sat", "time": "11:30am"}, {"days": "Sun", "time": "Closed"}], "id": "1935800003", "name": "USPS COLLECTION BOX - PO LOBBY", "address": {"city": "MODENA", "state": "PA", "street": "108 N BRANDYWINE AVE", "postcode": "19358"}}},
{"geometry": {"type": "Point", "coordinates": [-76.0172573187, 39.7512417739]}, "type": "Feature", "properties": {"collection_times": [{"days": "Mon-Fri", "time": "4:30pm"}, {"days": "Sat", "time": "12:00pm"}, {"days": "Sun", "time": "Closed"}], "id": "1936200001", "name": "USPS COLLECTION BOX - BLUE BOX", "address": {"city": "NOTTINGHAM", "state": "PA", "street": "127 BALTIMORE PIKE", "postcode": "19362"}}},
{"geometry": {"type": "Point", "coordinates": [-76.0172573187, 39.7512417739]}, "type": "Feature", "properties": {"collection_times": [{"days": "Mon-Fri", "time": "4:30pm"}, {"days": "Sat", "time": "12:00pm"}, {"days": "Sun", "time": "Closed"}], "id": "1936200003", "name": "USPS COLLECTION BOX - PO LOBBY", "address": {"city": "NOTTINGHAM", "state": "PA", "street": "127 BALTIMORE PIKE", "postcode": "19362"}}},
{"geometry": {"type": "Point", "coordinates": [-76.0172573187, 39.7512417739]}, "type": "Feature", "properties": {"collection_times": [{"days": "Mon-Fri", "time": "4:30pm"}, {"days": "Sat", "time": "12:00pm"}, {"days": "Sun", "time": "Closed"}], "id": "1936200004", "name": "USPS COLLECTION BOX - PO LOBBY", "address": {"city": "NOTTINGHAM", "state": "PA", "street": "127 BALTIMORE PIKE", "postcode": "19362"}}},
{"geometry": {"type": "Point", "coordinates": [-75.9797942725, 39.7842588328]}, "type": "Feature", "properties": {"collection_times": [{"days": "Mon-Fri", "time": "4:30pm"}, {"days": "Sat", "time": "3:30pm"}, {"days": "Sun", "time": "Closed"}], "id": "1936300009", "name": "USPS COLLECTION BOX - BLUE BOX", "address": {"city": "OXFORD", "state": "PA", "street": "215 E LOCUST ST", "postcode": "19363"}}},
{"geometry": {"type": "Point", "coordinates": [-75.9797942725, 39.7842588328]}, "type": "Feature", "properties": {"collection_times": [{"days": "Mon-Fri", "time": "4:30pm"}, {"days": "Sat", "time": "3:30pm"}, {"days": "Sun", "time": "Closed"}], "id": "1936300011", "name": "USPS COLLECTION BOX - PO LOBBY", "address": {"city": "OXFORD", "state": "PA", "street": "215 E LOCUST ST", "postcode": "19363"}}},
{"geometry": {"type": "Point", "coordinates": [-75.9797942725, 39.7842588328]}, "type": "Feature", "properties": {"collection_times": [{"days": "Mon-Fri", "time": "4:30pm"}, {"days": "Sat", "time": "3:30pm"}, {"days": "Sun", "time": "Closed"}], "id": "1936300012", "name": "USPS COLLECTION BOX - PO LOBBY", "address": {"city": "OXFORD", "state": "PA", "street": "215 E LOCUST ST", "postcode": "19363"}}},
{"geometry": {"type": "Point", "coordinates": [-75.9210473473, 39.9584530892]}, "type": "Feature", "properties": {"collection_times": [{"days": "Mon-Sat", "time": "12:00pm"}, {"days": "Sun", "time": "Closed"}], "id": "1936500005", "name": "USPS COLLECTION BOX - BLUE BOX", "address": {"city": "PARKESBURG", "state": "PA", "street": "441 W 1ST AVE", "postcode": "19365"}}},
{"geometry": {"type": "Point", "coordinates": [-75.9187441262, 39.9609337542]}, "type": "Feature", "properties": {"collection_times": [{"days": "Mon-Sat", "time": "12:00pm"}, {"days": "Sun", "time": "Closed"}], "id": "1936500007", "name": "USPS COLLECTION BOX - BLUE BOX", "address": {"city": "PARKESBURG", "state": "PA", "street": "326 MAIN ST", "postcode": "19365"}}},
{"geometry": {"type": "Point", "coordinates": [-75.9149443718, 39.9582181474]}, "type": "Feature", "properties": {"collection_times": [{"days": "Mon-Fri", "time": "5:00pm"}, {"days": "Sat", "time": "12:00pm"}, {"days": "Sun", "time": "Closed"}], "id": "1936500010", "name": "USPS COLLECTION BOX - BLUE BOX", "address": {"city": "PARKESBURG", "state": "PA", "street": "167 BRANDT ST", "postcode": "19365"}}},
{"geometry": {"type": "Point", "coordinates": [-75.9149443718, 39.9582181474]}, "type": "Feature", "properties": {"collection_times": [{"days": "Mon-Fri", "time": "4:30pm"}, {"days": "Sat", "time": "12:00pm"}, {"days": "Sun", "time": "Closed"}], "id": "1936500012", "name": "USPS COLLECTION BOX - PO LOBBY", "address": {"city": "PARKESBURG", "state": "PA", "street": "167 BRANDT ST", "postcode": "19365"}}},
{"geometry": {"type": "Point", "coordinates": [-75.9329497929, 39.9835879745]}, "type": "Feature", "properties": {"collection_times": [{"days": "Mon-Sat", "time": "12:00pm"}, {"days": "Sun", "time": "Closed"}], "id": "1936500013", "name": "USPS COLLECTION BOX - BLUE BOX", "address": {"city": "PARKESBURG", "state": "PA", "street": "3711 W LINCOLN HWY", "postcode": "19365"}}},
{"geometry": {"type": "Point", "coordinates": [-75.9149443718, 39.9582181474]}, "type": "Feature", "properties": {"collection_times": [{"days": "Mon-Fri", "time": "4:30pm"}, {"days": "Sat", "time": "12:00pm"}, {"days": "Sun", "time": "Closed"}], "id": "1936500015", "name": "USPS COLLECTION BOX - PO LOBBY", "address": {"city": "PARKESBURG", "state": "PA", "street": "167 BRANDT ST", "postcode": "19365"}}},
{"geometry": {"type": "Point", "coordinates": [-75.6267799861, 39.9017361454]}, "type": "Feature", "properties": {"collection_times": [{"days": "Mon-Fri", "time": "4:30pm"}, {"days": "Sat", "time": "11:30am"}, {"days": "Sun", "time": "Closed"}], "id": "1936600001", "name": "USPS COLLECTION BOX - BLUE BOX", "address": {"city": "POCOPSON", "state": "PA", "street": "1110 POCOPSON RD", "postcode": "19366"}}},
{"geometry": {"type": "Point", "coordinates": [-75.6267799861, 39.9017361454]}, "type": "Feature", "properties": {"collection_times": [{"days": "Mon-Fri", "time": "4:30pm"}, {"days": "Sat", "time": "11:30am"}, {"days": "Sun", "time": "Closed"}], "id": "1936600002", "name": "USPS COLLECTION BOX - PO LOBBY", "address": {"city": "POCOPSON", "state": "PA", "street": "1110 POCOPSON RD", "postcode": "19366"}}},
{"geometry": {"type": "Point", "coordinates": [-75.6267799861, 39.9017361454]}, "type": "Feature", "properties": {"collection_times": [{"days": "Mon-Fri", "time": "4:30pm"}, {"days": "Sat", "time": "11:30am"}, {"days": "Sun", "time": "Closed"}], "id": "1936600003", "name": "USPS COLLECTION BOX - PO LOBBY", "address": {"city": "POCOPSON", "state": "PA", "street": "1110 POCOPSON RD", "postcode": "19366"}}},
{"geometry": {"type": "Point", "coordinates": [-75.9152078684, 39.9585163977]}, "type": "Feature", "properties": {"collection_times": [{"days": "Mon-Fri", "time": "4:15pm"}, {"days": "Sat", "time": "11:00am"}, {"days": "Sun", "time": "Closed"}], "id": "1936700001", "name": "USPS COLLECTION BOX - BLUE BOX", "address": {"city": "POMEROY", "state": "PA", "street": "30 CHESTNUT ST", "postcode": "19367"}}},
{"geometry": {"type": "Point", "coordinates": [-75.9152078684, 39.9585163977]}, "type": "Feature", "properties": {"collection_times": [{"days": "Mon-Fri", "time": "4:15pm"}, {"days": "Sat", "time": "11:00am"}, {"days": "Sun", "time": "Closed"}], "id": "1936700002", "name": "USPS COLLECTION BOX - PO LOBBY", "address": {"city": "POMEROY", "state": "PA", "street": "30 CHESTNUT ST", "postcode": "19367"}}},
{"geometry": {"type": "Point", "coordinates": [-75.9151950813, 39.9585192393]}, "type": "Feature", "properties": {"collection_times": [{"days": "Mon-Fri", "time": "4:30pm"}, {"days": "Sat", "time": "11:00am"}, {"days": "Sun", "time": "Closed"}], "id": "1936900001", "name": "USPS COLLECTION BOX - BLUE BOX", "address": {"city": "SADSBURYVILLE", "state": "PA", "street": "2969 W LINCOLN HWY", "postcode": "19369"}}},
{"geometry": {"type": "Point", "coordinates": [-75.9151950813, 39.9585192393]}, "type": "Feature", "properties": {"collection_times": [{"days": "Mon-Fri", "time": "4:30pm"}, {"days": "Sat", "time": "11:00am"}, {"days": "Sun", "time": "Closed"}], "id": "1936900002", "name": "USPS COLLECTION BOX - PO LOBBY", "address": {"city": "SADSBURYVILLE", "state": "PA", "street": "2969 W LINCOLN HWY", "postcode": "19369"}}},
{"geometry": {"type": "Point", "coordinates": [-75.9151950813, 39.9585192393]}, "type": "Feature", "properties": {"collection_times": [{"days": "Mon-Fri", "time": "4:30pm"}, {"days": "Sat", "time": "11:00am"}, {"days": "Sun", "time": "Closed"}], "id": "1936900003", "name": "USPS COLLECTION BOX - PO LOBBY", "address": {"city": "SADSBURYVILLE", "state": "PA", "street": "2969 W LINCOLN HWY", "postcode": "19369"}}},
{"geometry": {"type": "Point", "coordinates": [-75.761118393, 39.9941867307]}, "type": "Feature", "properties": {"collection_times": [{"days": "Mon-Fri", "time": "5:00pm"}, {"days": "Sat", "time": "3:00pm"}, {"days": "Sun", "time": "Closed"}], "id": "1937200003", "name": "USPS COLLECTION BOX - BLUE BOX", "address": {"city": "DOWNINGTOWN", "state": "PA", "street": "20 N BAILEY RD", "postcode": "19372"}}},
{"geometry": {"type": "Point", "coordinates": [-75.761118393, 39.9941867307]}, "type": "Feature", "properties": {"collection_times": [{"days": "Mon-Fri", "time": "5:00pm"}, {"days": "Sat", "time": "3:00pm"}, {"days": "Sun", "time": "Closed"}], "id": "1937200004", "name": "USPS COLLECTION BOX - BLUE BOX", "address": {"city": "DOWNINGTOWN", "state": "PA", "street": "20 N BAILEY RD", "postcode": "19372"}}},
{"geometry": {"type": "Point", "coordinates": [-75.761118393, 39.9941867307]}, "type": "Feature", "properties": {"collection_times": [{"days": "Mon-Fri", "time": "4:45pm"}, {"days": "Sat", "time": "1:00pm"}, {"days": "Sun", "time": "Closed"}], "id": "1937200005", "name": "USPS COLLECTION BOX - PO LOBBY", "address": {"city": "DOWNINGTOWN", "state": "PA", "street": "20 N BAILEY RD", "postcode": "19372"}}},
{"geometry": {"type": "Point", "coordinates": [-75.761118393, 39.9941867307]}, "type": "Feature", "properties": {"collection_times": [{"days": "Mon-Fri", "time": "5:00pm"}, {"days": "Sat", "time": "3:00pm"}, {"days": "Sun", "time": "Closed"}], "id": "1937200006", "name": "USPS COLLECTION BOX - BLUE BOX", "address": {"city": "DOWNINGTOWN", "state": "PA", "street": "20 N BAILEY RD", "postcode": "19372"}}},
{"geometry": {"type": "Point", "coordinates": [-75.761118393, 39.9941867307]}, "type": "Feature", "properties": {"collection_times": [{"days": "Mon-Fri", "time": "4:45pm"}, {"days": "Sat", "time": "1:00pm"}, {"days": "Sun", "time": "Closed"}], "id": "1937200007", "name": "USPS COLLECTION BOX - PO LOBBY", "address": {"city": "DOWNINGTOWN", "state": "PA", "street": "20 N BAILEY RD", "postcode": "19372"}}},
{"geometry": {"type": "Point", "coordinates": [-75.5309808241, 39.90780825]}, "type": "Feature", "properties": {"collection_times": [{"days": "Mon-Fri", "time": "4:30pm"}, {"days": "Sat", "time": "12:00pm"}, {"days": "Sun", "time": "Closed"}], "id": "1937300001", "name": "USPS COLLECTION BOX - BLUE BOX", "address": {"city": "THORNTON", "state": "PA", "street": "378 GLEN MILLS RD", "postcode": "19373"}}},
{"geometry": {"type": "Point", "coordinates": [-75.5309808241, 39.90780825]}, "type": "Feature", "properties": {"collection_times": [{"days": "Mon-Fri", "time": "4:30pm"}, {"days": "Sat", "time": "12:00pm"}, {"days": "Sun", "time": "Closed"}], "id": "1937300002", "name": "USPS COLLECTION BOX - PO LOBBY", "address": {"city": "THORNTON", "state": "PA", "street": "378 GLEN MILLS RD", "postcode": "19373"}}},
{"geometry": {"type": "Point", "coordinates": [-75.7537367291, 39.8321781345]}, "type": "Feature", "properties": {"collection_times": [{"days": "Mon-Fri", "time": "4:30pm"}, {"days": "Sat", "time": "11:30am"}, {"days": "Sun", "time": "Closed"}], "id": "1937400001", "name": "USPS COLLECTION BOX - BLUE BOX", "address": {"city": "TOUGHKENAMON", "state": "PA", "street": "155 CENTER ST", "postcode": "19374"}}},
{"geometry": {"type": "Point", "coordinates": [-75.7537367291, 39.8321781345]}, "type": "Feature", "properties": {"collection_times": [{"days": "Mon-Fri", "time": "4:30pm"}, {"days": "Sat", "time": "11:30am"}, {"days": "Sun", "time": "Closed"}], "id": "1937400002", "name": "USPS COLLECTION BOX - PO LOBBY", "address": {"city": "TOUGHKENAMON", "state": "PA", "street": "155 CENTER ST", "postcode": "19374"}}},
{"geometry": {"type": "Point", "coordinates": [-75.7537367291, 39.8321781345]}, "type": "Feature", "properties": {"collection_times": [{"days": "Mon-Fri", "time": "4:30pm"}, {"days": "Sat", "time": "11:30am"}, {"days": "Sun", "time": "Closed"}], "id": "1937400003", "name": "USPS COLLECTION BOX - PO LOBBY", "address": {"city": "TOUGHKENAMON", "state": "PA", "street": "155 CENTER ST", "postcode": "19374"}}},
{"geometry": {"type": "Point", "coordinates": [-75.7096245394, 39.8472930846]}, "type": "Feature", "properties": {"collection_times": [{"days": "Mon-Fri", "time": "4:30pm"}, {"days": "Sat", "time": "12:00pm"}, {"days": "Sun", "time": "Closed"}], "id": "1937500001", "name": "USPS COLLECTION BOX - BLUE BOX", "address": {"city": "UNIONVILLE", "state": "PA", "street": "1752 DOE RUN RD", "postcode": "19375"}}},
{"geometry": {"type": "Point", "coordinates": [-75.7096245394, 39.8472930846]}, "type": "Feature", "properties": {"collection_times": [{"days": "Mon-Fri", "time": "4:30pm"}, {"days": "Sat", "time": "12:00pm"}, {"days": "Sun", "time": "Closed"}], "id": "1937500003", "name": "USPS COLLECTION BOX - PO LOBBY", "address": {"city": "UNIONVILLE", "state": "PA", "street": "1752 DOE RUN RD", "postcode": "19375"}}},
{"geometry": {"type": "Point", "coordinates": [-75.7096245394, 39.8472930846]}, "type": "Feature", "properties": {"collection_times": [{"days": "Mon-Fri", "time": "4:30pm"}, {"days": "Sat", "time": "12:00pm"}, {"days": "Sun", "time": "Closed"}], "id": "1937500005", "name": "USPS COLLECTION BOX - PO LOBBY", "address": {"city": "UNIONVILLE", "state": "PA", "street": "1752 DOE RUN RD", "postcode": "19375"}}},
{"geometry": {"type": "Point", "coordinates": [-75.82089758, 40.0047316926]}, "type": "Feature", "properties": {"collection_times": [{"days": "Mon-Fri", "time": "4:30pm"}, {"days": "Sat", "time": "11:30am"}, {"days": "Sun", "time": "Closed"}], "id": "1937600001", "name": "USPS COLLECTION BOX - BLUE BOX", "address": {"city": "WAGONTOWN", "state": "PA", "street": "418 W KINGS HWY", "postcode": "19376"}}},
{"geometry": {"type": "Point", "coordinates": [-75.82089758, 40.0047316926]}, "type": "Feature", "properties": {"collection_times": [{"days": "Mon-Fri", "time": "4:30pm"}, {"days": "Sat", "time": "11:30am"}, {"days": "Sun", "time": "Closed"}], "id": "1937600002", "name": "USPS COLLECTION BOX - PO LOBBY", "address": {"city": "WAGONTOWN", "state": "PA", "street": "418 W KINGS HWY", "postcode": "19376"}}},
{"geometry": {"type": "Point", "coordinates": [-75.82089758, 40.0047316926]}, "type": "Feature", "properties": {"collection_times": [{"days": "Mon-Fri", "time": "4:30pm"}, {"days": "Sat", "time": "11:30am"}, {"days": "Sun", "time": "Closed"}], "id": "1937600003", "name": "USPS COLLECTION BOX - PO LOBBY", "address": {"city": "WAGONTOWN", "state": "PA", "street": "418 W KINGS HWY", "postcode": "19376"}}},
{"geometry": {"type": "Point", "coordinates": [-75.6036831162, 39.9611762608]}, "type": "Feature", "properties": {"collection_times": [{"days": "Mon-Fri", "time": "12:00pm"}, {"days": "Sat", "time": "3:00pm"}, {"days": "Sun", "time": "Closed"}], "id": "1938000020", "name": "USPS COLLECTION BOX - BLUE BOX", "address": {"city": "WEST CHESTER", "state": "PA", "street": "101 W GAY ST", "postcode": "19380"}}},
{"geometry": {"type": "Point", "coordinates": [-75.6078705477, 39.9593982812]}, "type": "Feature", "properties": {"collection_times": [{"days": "Mon-Fri", "time": "12:00pm"}, {"days": "Sat", "time": "3:00pm"}, {"days": "Sun", "time": "Closed"}], "id": "1938000022", "name": "USPS COLLECTION BOX - BLUE BOX", "address": {"city": "WEST CHESTER", "state": "PA", "street": "205 W GAY ST", "postcode": "19380"}}},
{"geometry": {"type": "Point", "coordinates": [-75.6010243727, 39.9711443995]}, "type": "Feature", "properties": {"collection_times": [{"days": "Mon-Fri", "time": "12:00pm"}, {"days": "Sat", "time": "3:00pm"}, {"days": "Sun", "time": "Closed"}], "id": "1938000072", "name": "USPS COLLECTION BOX - BLUE BOX", "address": {"city": "WEST CHESTER", "state": "PA", "street": "600 E MARSHALL ST", "postcode": "19380"}}},
{"geometry": {"type": "Point", "coordinates": [-75.5414374144, 39.9759436723]}, "type": "Feature", "properties": {"collection_times": [{"days": "Mon-Fri", "time": "2:00pm"}, {"days": "Sat", "time": "12:00pm"}, {"days": "Sun", "time": "Closed"}], "id": "1938000077", "name": "USPS COLLECTION BOX - BLUE BOX", "address": {"city": "WEST CHESTER", "state": "PA", "street": "401 BARKER CIR", "postcode": "19380"}}},
{"geometry": {"type": "Point", "coordinates": [-75.5209295905, 39.9673273525]}, "type": "Feature", "properties": {"collection_times": [{"days": "Mon-Fri", "time": "2:00pm"}, {"days": "Sat", "time": "3:00pm"}, {"days": "Sun", "time": "Closed"}], "id": "1938000079", "name": "USPS COLLECTION BOX - BLUE BOX", "address": {"city": "WEST CHESTER", "state": "PA", "street": "1580 MCDANIEL DR", "postcode": "19380"}}},
{"geometry": {"type": "Point", "coordinates": [-75.556473816, 39.9909749688]}, "type": "Feature", "properties": {"collection_times": [{"days": "Mon-Fri", "time": "2:00pm"}, {"days": "Sat", "time": "3:00pm"}, {"days": "Sun", "time": "Closed"}], "id": "1938000082", "name": "USPS COLLECTION BOX - BLUE BOX", "address": {"city": "WEST CHESTER", "state": "PA", "street": "1450 E BOOT RD", "postcode": "19380"}}},
{"geometry": {"type": "Point", "coordinates": [-75.5258432333, 39.9667799374]}, "type": "Feature", "properties": {"collection_times": [{"days": "Mon-Fri", "time": "2:00pm"}, {"days": "Sat", "time": "3:00pm"}, {"days": "Sun", "time": "Closed"}], "id": "1938000084", "name": "USPS COLLECTION BOX - BLUE BOX", "address": {"city": "WEST CHESTER", "state": "PA", "street": "1515 WEST CHESTER PIKE", "postcode": "19380"}}},
{"geometry": {"type": "Point", "coordinates": [-75.5761343678, 39.9700413553]}, "type": "Feature", "properties": {"collection_times": [{"days": "Mon-Fri", "time": "2:00pm"}, {"days": "Sat", "time": "3:00pm"}, {"days": "Sun", "time": "Closed"}], "id": "1938000098", "name": "USPS COLLECTION BOX - BLUE BOX", "address": {"city": "WEST CHESTER", "state": "PA", "street": "9 N 5 POINTS RD", "postcode": "19380"}}},
{"geometry": {"type": "Point", "coordinates": [-75.5842841008, 39.9704107138]}, "type": "Feature", "properties": {"collection_times": [{"days": "Mon-Fri", "time": "12:00pm"}, {"days": "Sat", "time": "3:00pm"}, {"days": "Sun", "time": "Closed"}], "id": "1938000100", "name": "USPS COLLECTION BOX - BLUE BOX", "address": {"city": "WEST CHESTER", "state": "PA", "street": "975 PAOLI PIKE", "postcode": "19380"}}},
{"geometry": {"type": "Point", "coordinates": [-75.5806402585, 39.9974611611]}, "type": "Feature", "properties": {"collection_times": [{"days": "Mon-Fri", "time": "5:00pm"}, {"days": "Sat", "time": "4:45pm"}, {"days": "Sun", "time": "Closed"}], "id": "1938000105", "name": "USPS COLLECTION BOX - BLUE BOX", "address": {"city": "WEST CHESTER", "state": "PA", "street": "1050 AIRPORT RD", "postcode": "19380"}}},
{"geometry": {"type": "Point", "coordinates": [-75.5806402585, 39.9974611611]}, "type": "Feature", "properties": {"collection_times": [{"days": "Mon-Fri", "time": "5:00pm"}, {"days": "Sat", "time": "4:45pm"}, {"days": "Sun", "time": "Closed"}], "id": "1938000106", "name": "USPS COLLECTION BOX - BLUE BOX", "address": {"city": "WEST CHESTER", "state": "PA", "street": "1050 AIRPORT RD", "postcode": "19380"}}},
{"geometry": {"type": "Point", "coordinates": [-75.5806402585, 39.9974611611]}, "type": "Feature", "properties": {"collection_times": [{"days": "Mon-Fri", "time": "5:00pm"}, {"days": "Sat", "time": "4:45pm"}, {"days": "Sun", "time": "Closed"}], "id": "1938000108", "name": "USPS COLLECTION BOX - BLUE BOX", "address": {"city": "WEST CHESTER", "state": "PA", "street": "1050 AIRPORT RD", "postcode": "19380"}}},
{"geometry": {"type": "Point", "coordinates": [-75.6036831162, 39.9611762608]}, "type": "Feature", "properties": {"collection_times": [{"days": "Mon-Fri", "time": "5:00pm"}, {"days": "Sat", "time": "3:00pm"}, {"days": "Sun", "time": "Closed"}], "id": "1938000110", "name": "USPS COLLECTION BOX - BLUE BOX", "address": {"city": "WEST CHESTER", "state": "PA", "street": "101 E GAY ST", "postcode": "19380"}}},
{"geometry": {"type": "Point", "coordinates": [-75.5871607283, 39.9685366315]}, "type": "Feature", "properties": {"collection_times": [{"days": "Mon-Fri", "time": "12:00pm"}, {"days": "Sat", "time": "3:00pm"}, {"days": "Sun", "time": "Closed"}], "id": "1938000111", "name": "USPS COLLECTION BOX - BLUE BOX", "address": {"city": "WEST CHESTER", "state": "PA", "street": "844 PAOLI PIKE", "postcode": "19380"}}},
{"geometry": {"type": "Point", "coordinates": [-75.6037126902, 39.9611632482]}, "type": "Feature", "properties": {"collection_times": [{"days": "Mon-Fri", "time": "5:00pm"}, {"days": "Sat", "time": "3:00pm"}, {"days": "Sun", "time": "Closed"}], "id": "1938000116", "name": "USPS COLLECTION BOX - BLUE BOX", "address": {"city": "WEST CHESTER", "state": "PA", "street": "104 E GAY ST", "postcode": "19380"}}},
{"geometry": {"type": "Point", "coordinates": [-75.5806402585, 39.9974611611]}, "type": "Feature", "properties": {"collection_times": [{"days": "Mon-Fri", "time": "5:00pm"}, {"days": "Sat", "time": "4:00pm"}, {"days": "Sun", "time": "Closed"}], "id": "1938000119", "name": "USPS COLLECTION BOX - PO LOBBY", "address": {"city": "WEST CHESTER", "state": "PA", "street": "1050 AIRPORT RD", "postcode": "19380"}}},
{"geometry": {"type": "Point", "coordinates": [-75.6036831162, 39.9611762608]}, "type": "Feature", "properties": {"collection_times": [{"days": "Mon-Fri", "time": "5:00pm"}, {"days": "Sat", "time": "1:00pm"}, {"days": "Sun", "time": "Closed"}], "id": "1938000120", "name": "USPS COLLECTION BOX - PO LOBBY", "address": {"city": "WEST CHESTER", "state": "PA", "street": "101 E GAY ST", "postcode": "19380"}}},
{"geometry": {"type": "Point", "coordinates": [-75.5929165594, 39.9842129011]}, "type": "Feature", "properties": {"collection_times": [{"days": "Mon-Fri", "time": "5:00pm"}, {"days": "Sat", "time": "4:45pm"}, {"days": "Sun", "time": "Closed"}], "id": "1938000125", "name": "USPS COLLECTION BOX - EXPRESS", "address": {"city": "WEST CHESTER", "state": "PA", "street": "1050 AIRPORT RD", "postcode": "19380"}}},
{"geometry": {"type": "Point", "coordinates": [-75.5806402585, 39.9974611611]}, "type": "Feature", "properties": {"collection_times": [{"days": "Mon-Fri", "time": "5:00pm"}, {"days": "Sat", "time": "4:00pm"}, {"days": "Sun", "time": "Closed"}], "id": "1938000126", "name": "USPS COLLECTION BOX - APC", "address": {"city": "WEST CHESTER", "state": "PA", "street": "1050 AIRPORT RD", "postcode": "19380"}}},
{"geometry": {"type": "Point", "coordinates": [-75.5806402585, 39.9974611611]}, "type": "Feature", "properties": {"collection_times": [{"days": "Mon-Fri", "time": "5:00pm"}, {"days": "Sat", "time": "4:00pm"}, {"days": "Sun", "time": "Closed"}], "id": "1938000129", "name": "USPS COLLECTION BOX - APC", "address": {"city": "WEST CHESTER", "state": "PA", "street": "1050 AIRPORT RD", "postcode": "19380"}}},
{"geometry": {"type": "Point", "coordinates": [-75.5909601249, 39.9505472864]}, "type": "Feature", "properties": {"collection_times": [{"days": "Mon-Fri", "time": "2:00pm"}, {"days": "Sat", "time": "12:00pm"}, {"days": "Sun", "time": "Closed"}], "id": "1938200003", "name": "USPS COLLECTION BOX - BLUE BOX", "address": {"city": "WEST CHESTER", "state": "PA", "street": "201 CARTER DR", "postcode": "19382"}}},
{"geometry": {"type": "Point", "coordinates": [-75.5573111926, 39.9681317801]}, "type": "Feature", "properties": {"collection_times": [{"days": "Mon-Fri", "time": "2:00pm"}, {"days": "Sat", "time": "3:00pm"}, {"days": "Sun", "time": "Closed"}], "id": "1938200005", "name": "USPS COLLECTION BOX - BLUE BOX", "address": {"city": "WEST CHESTER", "state": "PA", "street": "1242 W CHESTER PIKE", "postcode": "19382"}}},
{"geometry": {"type": "Point", "coordinates": [-75.5974912937, 39.9531858383]}, "type": "Feature", "properties": {"collection_times": [{"days": "Mon-Fri", "time": "2:00pm"}, {"days": "Sat", "time": "12:00pm"}, {"days": "Sun", "time": "Closed"}], "id": "1938200013", "name": "USPS COLLECTION BOX - BLUE BOX", "address": {"city": "WEST CHESTER", "state": "PA", "street": "700 S HIGH ST", "postcode": "19382"}}},
{"geometry": {"type": "Point", "coordinates": [-75.6035813817, 39.9589120773]}, "type": "Feature", "properties": {"collection_times": [{"days": "Mon-Fri", "time": "2:00pm"}, {"days": "Sat", "time": "12:00pm"}, {"days": "Sun", "time": "Closed"}], "id": "1938200014", "name": "USPS COLLECTION BOX - BLUE BOX", "address": {"city": "WEST CHESTER", "state": "PA", "street": "40 S HIGH ST", "postcode": "19382"}}},
{"geometry": {"type": "Point", "coordinates": [-75.5989453655, 39.9621805929]}, "type": "Feature", "properties": {"collection_times": [{"days": "Mon-Sat", "time": "12:00pm"}, {"days": "Sun", "time": "Closed"}], "id": "1938200017", "name": "USPS COLLECTION BOX - BLUE BOX", "address": {"city": "WEST CHESTER", "state": "PA", "street": "399 E MARKET ST", "postcode": "19382"}}},
{"geometry": {"type": "Point", "coordinates": [-75.6054353196, 39.9593150079]}, "type": "Feature", "properties": {"collection_times": [{"days": "Mon-Fri", "time": "5:00pm"}, {"days": "Sat", "time": "12:00pm"}, {"days": "Sun", "time": "Closed"}], "id": "1938200018", "name": "USPS COLLECTION BOX - BLUE BOX", "address": {"city": "WEST CHESTER", "state": "PA", "street": "41 W MARKET ST", "postcode": "19382"}}},
{"geometry": {"type": "Point", "coordinates": [-75.6072568352, 39.9583773799]}, "type": "Feature", "properties": {"collection_times": [{"days": "Mon-Fri", "time": "5:00pm"}, {"days": "Sat", "time": "12:00pm"}, {"days": "Sun", "time": "Closed"}], "id": "1938200021", "name": "USPS COLLECTION BOX - BLUE BOX", "address": {"city": "WEST CHESTER", "state": "PA", "street": "200 W MARKET ST", "postcode": "19382"}}},
{"geometry": {"type": "Point", "coordinates": [-75.6045336637, 39.9596762688]}, "type": "Feature", "properties": {"collection_times": [{"days": "Mon-Fri", "time": "2:00pm"}, {"days": "Sat", "time": "12:00pm"}, {"days": "Sun", "time": "Closed"}], "id": "1938200024", "name": "USPS COLLECTION BOX - BLUE BOX", "address": {"city": "WEST CHESTER", "state": "PA", "street": "2 W MARKET ST", "postcode": "19382"}}},
{"geometry": {"type": "Point", "coordinates": [-75.5876812303, 39.9469937658]}, "type": "Feature", "properties": {"collection_times": [{"days": "Mon-Fri", "time": "2:00pm"}, {"days": "Sat", "time": "12:00pm"}, {"days": "Sun", "time": "Closed"}], "id": "1938200028", "name": "USPS COLLECTION BOX - BLUE BOX", "address": {"city": "WEST CHESTER", "state": "PA", "street": "882 S MATLACK ST", "postcode": "19382"}}},
{"geometry": {"type": "Point", "coordinates": [-75.6059993498, 39.957537479]}, "type": "Feature", "properties": {"collection_times": [{"days": "Mon-Sat", "time": "12:00pm"}, {"days": "Sun", "time": "Closed"}], "id": "1938200031", "name": "USPS COLLECTION BOX - BLUE BOX", "address": {"city": "WEST CHESTER", "state": "PA", "street": "130 W MINER ST", "postcode": "19382"}}},
{"geometry": {"type": "Point", "coordinates": [-75.5913022677, 39.9420312529]}, "type": "Feature", "properties": {"collection_times": [{"days": "Mon-Fri", "time": "2:00pm"}, {"days": "Sat", "time": "12:00pm"}, {"days": "Sun", "time": "Closed"}], "id": "1938200033", "name": "USPS COLLECTION BOX - BLUE BOX", "address": {"city": "WEST CHESTER", "state": "PA", "street": "929 S HIGH ST", "postcode": "19382"}}},
{"geometry": {"type": "Point", "coordinates": [-75.5930362749, 39.9647287323]}, "type": "Feature", "properties": {"collection_times": [{"days": "Mon-Fri", "time": "5:00pm"}, {"days": "Sat", "time": "12:00pm"}, {"days": "Sun", "time": "Closed"}], "id": "1938200044", "name": "USPS COLLECTION BOX - BLUE BOX", "address": {"city": "WEST CHESTER", "state": "PA", "street": "720 E MARKET ST", "postcode": "19382"}}},
{"geometry": {"type": "Point", "coordinates": [-75.587284939, 39.9605433777]}, "type": "Feature", "properties": {"collection_times": [{"days": "Mon-Fri", "time": "2:00pm"}, {"days": "Sat", "time": "12:00pm"}, {"days": "Sun", "time": "Closed"}], "id": "1938200047", "name": "USPS COLLECTION BOX - BLUE BOX", "address": {"city": "WEST CHESTER", "state": "PA", "street": "319 WESTTOWN RD", "postcode": "19382"}}},
{"geometry": {"type": "Point", "coordinates": [-75.5293618926, 39.9665547637]}, "type": "Feature", "properties": {"collection_times": [{"days": "Mon-Fri", "time": "2:00pm"}, {"days": "Sat", "time": "12:00pm"}, {"days": "Sun", "time": "Closed"}], "id": "1938200048", "name": "USPS COLLECTION BOX - BLUE BOX", "address": {"city": "WEST CHESTER", "state": "PA", "street": "1502 W CHESTER PIKE", "postcode": "19382"}}},
{"geometry": {"type": "Point", "coordinates": [-75.5861362859, 39.9426250983]}, "type": "Feature", "properties": {"collection_times": [{"days": "Mon-Fri", "time": "2:00pm"}, {"days": "Sat", "time": "12:00pm"}, {"days": "Sun", "time": "Closed"}], "id": "1938200051", "name": "USPS COLLECTION BOX - BLUE BOX", "address": {"city": "WEST CHESTER", "state": "PA", "street": "400 WILLOWBROOK LN", "postcode": "19382"}}},
{"geometry": {"type": "Point", "coordinates": [-75.5849769861, 39.9581573495]}, "type": "Feature", "properties": {"collection_times": [{"days": "Mon-Fri", "time": "2:00pm"}, {"days": "Sat", "time": "12:00pm"}, {"days": "Sun", "time": "Closed"}], "id": "1938200054", "name": "USPS COLLECTION BOX - BLUE BOX", "address": {"city": "WEST CHESTER", "state": "PA", "street": "601 WESTTOWN RD", "postcode": "19382"}}},
{"geometry": {"type": "Point", "coordinates": [-75.5779835849, 39.9209706165]}, "type": "Feature", "properties": {"collection_times": [{"days": "Mon-Fri", "time": "2:00pm"}, {"days": "Sat", "time": "12:00pm"}, {"days": "Sun", "time": "Closed"}], "id": "1938200063", "name": "USPS COLLECTION BOX - BLUE BOX", "address": {"city": "WEST CHESTER", "state": "PA", "street": "1169 WILMINGTON PIKE", "postcode": "19382"}}},
{"geometry": {"type": "Point", "coordinates": [-75.5871370691, 39.9466814646]}, "type": "Feature", "properties": {"collection_times": [{"days": "Mon-Fri", "time": "2:00pm"}, {"days": "Sat", "time": "12:00pm"}, {"days": "Sun", "time": "Closed"}], "id": "1938200068", "name": "USPS COLLECTION BOX - BLUE BOX", "address": {"city": "WEST CHESTER", "state": "PA", "street": "893 S MATLACK ST", "postcode": "19382"}}},
{"geometry": {"type": "Point", "coordinates": [-75.8272325009, 39.8227507171]}, "type": "Feature", "properties": {"collection_times": [{"days": "Mon-Fri", "time": "5:00pm"}, {"days": "Sat", "time": "12:00pm"}, {"days": "Sun", "time": "Closed"}], "id": "1939000001", "name": "USPS COLLECTION BOX - BLUE BOX", "address": {"city": "WEST GROVE", "state": "PA", "street": "5 PROSPECT AVE", "postcode": "19390"}}},
{"geometry": {"type": "Point", "coordinates": [-75.8884442742, 39.8226519741]}, "type": "Feature", "properties": {"collection_times": [{"days": "Mon-Fri", "time": "1:00pm"}, {"days": "Sat", "time": "12:00pm"}, {"days": "Sun", "time": "Closed"}], "id": "1939000004", "name": "USPS COLLECTION BOX - BLUE BOX", "address": {"city": "WEST GROVE", "state": "PA", "street": "1015 W BALTIMORE PIKE", "postcode": "19390"}}},
{"geometry": {"type": "Point", "coordinates": [-75.881040365, 39.8212852969]}, "type": "Feature", "properties": {"collection_times": [{"days": "Mon-Fri", "time": "1:00pm"}, {"days": "Sat", "time": "12:00pm"}, {"days": "Sun", "time": "Closed"}], "id": "1939000007", "name": "USPS COLLECTION BOX - BLUE BOX", "address": {"city": "WEST GROVE", "state": "PA", "street": "100 SYCAMORE DR", "postcode": "19390"}}},
{"geometry": {"type": "Point", "coordinates": [-75.8698841907, 39.823911153]}, "type": "Feature", "properties": {"collection_times": [{"days": "Mon-Fri", "time": "1:00pm"}, {"days": "Sat", "time": "12:00pm"}, {"days": "Sun", "time": "Closed"}], "id": "1939000008", "name": "USPS COLLECTION BOX - BLUE BOX", "address": {"city": "WEST GROVE", "state": "PA", "street": "699 W BALTIMORE PIKE", "postcode": "19390"}}},
{"geometry": {"type": "Point", "coordinates": [-75.876989428, 39.8239316488]}, "type": "Feature", "properties": {"collection_times": [{"days": "Mon-Fri", "time": "1:00pm"}, {"days": "Sat", "time": "12:00pm"}, {"days": "Sun", "time": "Closed"}], "id": "1939000009", "name": "USPS COLLECTION BOX - BLUE BOX", "address": {"city": "WEST GROVE", "state": "PA", "street": "849 W BALTIMORE PIKE", "postcode": "19390"}}},
{"geometry": {"type": "Point", "coordinates": [-75.8272325009, 39.8227507171]}, "type": "Feature", "properties": {"collection_times": [{"days": "Mon-Fri", "time": "5:00pm"}, {"days": "Sat", "time": "12:00pm"}, {"days": "Sun", "time": "Closed"}], "id": "1939000011", "name": "USPS COLLECTION BOX - BLUE BOX", "address": {"city": "WEST GROVE", "state": "PA", "street": "5 PROSPECT AVE", "postcode": "19390"}}},
{"geometry": {"type": "Point", "coordinates": [-75.8272325009, 39.8227507171]}, "type": "Feature", "properties": {"collection_times": [{"days": "Mon-Fri", "time": "4:30pm"}, {"days": "Sat", "time": "12:00pm"}, {"days": "Sun", "time": "Closed"}], "id": "1939000012", "name": "USPS COLLECTION BOX - PO LOBBY", "address": {"city": "WEST GROVE", "state": "PA", "street": "5 PROSPECT AVE", "postcode": "19390"}}},
{"geometry": {"type": "Point", "coordinates": [-75.8272325009, 39.8227507171]}, "type": "Feature", "properties": {"collection_times": [{"days": "Mon-Fri", "time": "4:30pm"}, {"days": "Sat", "time": "12:00pm"}, {"days": "Sun", "time": "Closed"}], "id": "1939000014", "name": "USPS COLLECTION BOX - PO LOBBY", "address": {"city": "WEST GROVE", "state": "PA", "street": "5 PROSPECT AVE", "postcode": "19390"}}},
{"geometry": {"type": "Point", "coordinates": [-75.5517298594, 39.9311549199]}, "type": "Feature", "properties": {"collection_times": [{"days": "Mon-Fri", "time": "4:15pm"}, {"days": "Sat", "time": "1:00pm"}, {"days": "Sun", "time": "Closed"}], "id": "1939500001", "name": "USPS COLLECTION BOX - BLUE BOX", "address": {"city": "WESTTOWN", "state": "PA", "street": "844 E STREET RD", "postcode": "19395"}}},
{"geometry": {"type": "Point", "coordinates": [-75.5517298594, 39.9311549199]}, "type": "Feature", "properties": {"collection_times": [{"days": "Mon-Fri", "time": "4:15pm"}, {"days": "Sat", "time": "1:00pm"}, {"days": "Sun", "time": "Closed"}], "id": "1939500002", "name": "USPS COLLECTION BOX - PO LOBBY", "address": {"city": "WESTTOWN", "state": "PA", "street": "844 E STREET RD", "postcode": "19395"}}},
{"geometry": {"type": "Point", "coordinates": [-75.5517298594, 39.9311549199]}, "type": "Feature", "properties": {"collection_times": [{"days": "Mon-Fri", "time": "4:15pm"}, {"days": "Sat", "time": "1:00pm"}, {"days": "Sun", "time": "Closed"}], "id": "1939500003", "name": "USPS COLLECTION BOX - PO LOBBY", "address": {"city": "WESTTOWN", "state": "PA", "street": "844 E STREET RD", "postcode": "19395"}}},
{"geometry": {"type": "Point", "coordinates": [-75.4263377385, 40.0724425828]}, "type": "Feature", "properties": {"collection_times": [{"days": "Mon-Sat", "time": "5:00pm"}, {"days": "Sun", "time": "Closed"}], "id": "1939900002", "name": "USPS COLLECTION BOX - EXPRESS", "address": {"city": "SOUTHEASTERN", "state": "PA", "street": "1000 W VALLEY RD", "postcode": "19399"}}},
{"geometry": {"type": "Point", "coordinates": [-75.424872228, 40.0702412479]}, "type": "Feature", "properties": {"collection_times": [{"days": "Mon-Sat", "time": "5:00pm"}, {"days": "Sun", "time": "Closed"}], "id": "1939900006", "name": "USPS COLLECTION BOX - BLUE BOX", "address": {"city": "SOUTHEASTERN", "state": "PA", "street": "1000 W VALLEY RD", "postcode": "19399"}}},
{"geometry": {"type": "Point", "coordinates": [-75.424872228, 40.0702412479]}, "type": "Feature", "properties": {"collection_times": [{"days": "Mon-Sat", "time": "5:00pm"}, {"days": "Sun", "time": "Closed"}], "id": "1939900007", "name": "USPS COLLECTION BOX - BLUE BOX", "address": {"city": "SOUTHEASTERN", "state": "PA", "street": "1000 W VALLEY RD", "postcode": "19399"}}},
{"geometry": {"type": "Point", "coordinates": [-75.424872228, 40.0702412479]}, "type": "Feature", "properties": {"collection_times": [{"days": "Mon-Sat", "time": "5:00pm"}, {"days": "Sun", "time": "Closed"}], "id": "1939900008", "name": "USPS COLLECTION BOX - BLUE BOX", "address": {"city": "SOUTHEASTERN", "state": "PA", "street": "1000 W VALLEY RD", "postcode": "19399"}}},
{"geometry": {"type": "Point", "coordinates": [-75.4263377385, 40.0724425828]}, "type": "Feature", "properties": {"collection_times": [{"days": "Mon-Sat", "time": "5:00pm"}, {"days": "Sun", "time": "Closed"}], "id": "1939900009", "name": "USPS COLLECTION BOX - EXPRESS", "address": {"city": "SOUTHEASTERN", "state": "PA", "street": "1000 W VALLEY RD", "postcode": "19399"}}},
{"geometry": {"type": "Point", "coordinates": [-75.424872228, 40.0702412479]}, "type": "Feature", "properties": {"collection_times": [{"days": "Mon-Sat", "time": "5:00pm"}, {"days": "Sun", "time": "Closed"}], "id": "1939900012", "name": "USPS COLLECTION BOX - APC", "address": {"city": "SOUTHEASTERN", "state": "PA", "street": "1000 W VALLEY RD", "postcode": "19399"}}},
{"geometry": {"type": "Point", "coordinates": [-75.424872228, 40.0702412479]}, "type": "Feature", "properties": {"collection_times": [{"days": "Mon-Sat", "time": "5:00pm"}, {"days": "Sun", "time": "Closed"}], "id": "1939900013", "name": "USPS COLLECTION BOX - PO LOBBY", "address": {"city": "SOUTHEASTERN", "state": "PA", "street": "1000 W VALLEY RD", "postcode": "19399"}}},
{"geometry": {"type": "Point", "coordinates": [-75.424872228, 40.0702412479]}, "type": "Feature", "properties": {"collection_times": [{"days": "Mon-Sat", "time": "5:00pm"}, {"days": "Sun", "time": "Closed"}], "id": "1939900014", "name": "USPS COLLECTION BOX - PO LOBBY", "address": {"city": "SOUTHEASTERN", "state": "PA", "street": "1000 W VALLEY RD", "postcode": "19399"}}}
]}
