{"type": "FeatureCollection", "features": [
{"geometry": {"type": "Point", "coordinates": [-75.3474911498, 40.1280276875]}, "type": "Feature", "properties": {"collection_times": [{"days": "Mon-Sat", "time": "9:00am"}, {"days": "Sun", "time": "Closed"}], "id": "1940100003", "name": "USPS COLLECTION BOX - BLUE BOX", "address": {"city": "NORRISTOWN", "state": "PA", "street": "1025 STANBRIDGE ST", "postcode": "19401"}}},
{"geometry": {"type": "Point", "coordinates": [-75.3368637736, 40.111781375]}, "type": "Feature", "properties": {"collection_times": [{"days": "Mon-Sat", "time": "9:00am"}, {"days": "Sun", "time": "Closed"}], "id": "1940100015", "name": "USPS COLLECTION BOX - BLUE BOX", "address": {"city": "NORRISTOWN", "state": "PA", "street": "300 WALNUT ST", "postcode": "19401"}}},
{"geometry": {"type": "Point", "coordinates": [-75.3369566265, 40.1258891012]}, "type": "Feature", "properties": {"collection_times": [{"days": "Mon-Sat", "time": "9:00am"}, {"days": "Sun", "time": "Closed"}], "id": "1940100025", "name": "USPS COLLECTION BOX - BLUE BOX", "address": {"city": "NORRISTOWN", "state": "PA", "street": "122 W FORNANCE ST", "postcode": "19401"}}},
{"geometry": {"type": "Point", "coordinates": [-75.3368040394, 40.1234466981]}, "type": "Feature", "properties": {"collection_times": [{"days": "Mon-Fri", "time": "4:15pm"}, {"days": "Sat", "time": "12:00pm"}, {"days": "Sun", "time": "Closed"}], "id": "1940100027", "name": "USPS COLLECTION BOX - BLUE BOX", "address": {"city": "NORRISTOWN", "state": "PA", "street": "1330 POWELL ST", "postcode": "19401"}}},
{"geometry": {"type": "Point", "coordinates": [-75.3345966234, 40.1289222079]}, "type": "Feature", "properties": {"collection_times": [{"days": "Mon-Fri", "time": "1:15pm"}, {"days": "Sat", "time": "11:45am"}, {"days": "Sun", "time": "Closed"}], "id": "1940100031", "name": "USPS COLLECTION BOX - BLUE BOX", "address": {"city": "NORRISTOWN", "state": "PA", "street": "230 W BROWN ST", "postcode": "19401"}}},
{"geometry": {"type": "Point", "coordinates": [-75.3335922912, 40.1257471461]}, "type": "Feature", "properties": {"collection_times": [{"days": "Mon-Fri", "time": "1:15pm"}, {"days": "Sat", "time": "11:45am"}, {"days": "Sun", "time": "Closed"}], "id": "1940100032", "name": "USPS COLLECTION BOX - BLUE BOX", "address": {"city": "NORRISTOWN", "state": "PA", "street": "1501 POWELL ST", "postcode": "19401"}}},
{"geometry": {"type": "Point", "coordinates": [-75.3295264612, 40.1299277231]}, "type": "Feature", "properties": {"collection_times": [{"days": "Mon-Fri", "time": "1:15pm"}, {"days": "Sat", "time": "11:45am"}, {"days": "Sun", "time": "Closed"}], "id": "1940100033", "name": "USPS COLLECTION BOX - BLUE BOX", "address": {"city": "NORRISTOWN", "state": "PA", "street": "1790 LOCUST ST", "postcode": "19401"}}},
{"geometry": {"type": "Point", "coordinates": [-75.3596422306, 40.1218705895]}, "type": "Feature", "properties": {"collection_times": [{"days": "Mon-Fri", "time": "2:30pm"}, {"days": "Sat", "time": "1:00pm"}, {"days": "Sun", "time": "Closed"}], "id": "1940100034", "name": "USPS COLLECTION BOX - BLUE BOX", "address": {"city": "NORRISTOWN", "state": "PA", "street": "1200 W MAIN ST", "postcode": "19401"}}},
{"geometry": {"type": "Point", "coordinates": [-75.341410467, 40.1290558823]}, "type": "Feature", "properties": {"collection_times": [{"days": "Mon-Fri", "time": "1:45pm"}, {"days": "Sat", "time": "12:15pm"}, {"days": "Sun", "time": "Closed"}], "id": "1940100036", "name": "USPS COLLECTION BOX - BLUE BOX", "address": {"city": "NORRISTOWN", "state": "PA", "street": "1400 HARDING BLVD", "postcode": "19401"}}},
{"geometry": {"type": "Point", "coordinates": [-75.3173585149, 40.1241242377]}, "type": "Feature", "properties": {"collection_times": [{"days": "Mon-Fri", "time": "4:15pm"}, {"days": "Sat", "time": "11:15am"}, {"days": "Sun", "time": "Closed"}], "id": "1940100040", "name": "USPS COLLECTION BOX - BLUE BOX", "address": {"city": "NORRISTOWN", "state": "PA", "street": "1931 NEW HOPE ST", "postcode": "19401"}}},
{"geometry": {"type": "Point", "coordinates": [-75.3612049085, 40.1199301868]}, "type": "Feature", "properties": {"collection_times": [{"days": "Mon-Fri", "time": "2:30pm"}, {"days": "Sat", "time": "1:00pm"}, {"days": "Sun", "time": "Closed"}], "id": "1940100043", "name": "USPS COLLECTION BOX - BLUE BOX", "address": {"city": "NORRISTOWN", "state": "PA", "street": "1201 W WASHINGTON ST", "postcode": "19401"}}},
{"geometry": {"type": "Point", "coordinates": [-75.3175099641, 40.1252905239]}, "type": "Feature", "properties": {"collection_times": [{"days": "Mon-Fri", "time": "12:45pm"}, {"days": "Sat", "time": "11:15am"}, {"days": "Sun", "time": "Closed"}], "id": "1940100044", "name": "USPS COLLECTION BOX - BLUE BOX", "address": {"city": "NORRISTOWN", "state": "PA", "street": "700 E JOHNSON HWY", "postcode": "19401"}}},
{"geometry": {"type": "Point", "coordinates": [-75.3504932259, 40.1209774555]}, "type": "Feature", "properties": {"collection_times": [{"days": "Mon-Fri", "time": "2:15pm"}, {"days": "Sat", "time": "12:45pm"}, {"days": "Sun", "time": "Closed"}], "id": "1940100046", "name": "USPS COLLECTION BOX - BLUE BOX", "address": {"city": "NORRISTOWN", "state": "PA", "street": "621 W MARSHALL ST", "postcode": "19401"}}},
{"geometry": {"type": "Point", "coordinates": [-75.3513745304, 40.1214601028]}, "type": "Feature", "properties": {"collection_times": [{"days": "Mon-Fri", "time": "2:15pm"}, {"days": "Sat", "time": "12:45pm"}, {"days": "Sun", "time": "Closed"}], "id": "1940100052", "name": "USPS COLLECTION BOX - BLUE BOX", "address": {"city": "NORRISTOWN", "state": "PA", "street": "724 W MARSHALL ST", "postcode": "19401"}}},
{"geometry": {"type": "Point", "coordinates": [-75.3394881587, 40.1181927701]}, "type": "Feature", "properties": {"collection_times": [{"days": "Mon-Sat", "time": "9:00am"}, {"days": "Sun", "time": "Closed"}], "id": "1940100056", "name": "USPS COLLECTION BOX - BLUE BOX", "address": {"city": "NORRISTOWN", "state": "PA", "street": "800 DEKALB ST", "postcode": "19401"}}},
{"geometry": {"type": "Point", "coordinates": [-75.3513070803, 40.127844953]}, "type": "Feature", "properties": {"collection_times": [{"days": "Mon-Fri", "time": "2:00pm"}, {"days": "Sat", "time": "12:30pm"}, {"days": "Sun", "time": "Closed"}], "id": "1940100059", "name": "USPS COLLECTION BOX - BLUE BOX", "address": {"city": "NORRISTOWN", "state": "PA", "street": "900 BUTTONWOOD ST", "postcode": "19401"}}},
{"geometry": {"type": "Point", "coordinates": [-75.3229669538, 40.1222869911]}, "type": "Feature", "properties": {"collection_times": [{"days": "Mon-Fri", "time": "12:45pm"}, {"days": "Sat", "time": "11:15am"}, {"days": "Sun", "time": "Closed"}], "id": "1940100062", "name": "USPS COLLECTION BOX - BLUE BOX", "address": {"city": "NORRISTOWN", "state": "PA", "street": "601 E ROBERTS ST", "postcode": "19401"}}},
{"geometry": {"type": "Point", "coordinates": [-75.3501631804, 40.1252254612]}, "type": "Feature", "properties": {"collection_times": [{"days": "Mon-Sat", "time": "9:00am"}, {"days": "Sun", "time": "Closed"}], "id": "1940100063", "name": "USPS COLLECTION BOX - BLUE BOX", "address": {"city": "NORRISTOWN", "state": "PA", "street": "754 STANBRIDGE ST", "postcode": "19401"}}},
{"geometry": {"type": "Point", "coordinates": [-75.3186526404, 40.1454107414]}, "type": "Feature", "properties": {"collection_times": [{"days": "Mon-Fri", "time": "1:45pm"}, {"days": "Sat", "time": "12:15pm"}, {"days": "Sun", "time": "Closed"}], "id": "1940100067", "name": "USPS COLLECTION BOX - BLUE BOX", "address": {"city": "NORRISTOWN", "state": "PA", "street": "101 W GERMANTOWN PIKE", "postcode": "19401"}}},
{"geometry": {"type": "Point", "coordinates": [-75.323392819, 40.1160977498]}, "type": "Feature", "properties": {"collection_times": [{"days": "Mon-Fri", "time": "12:45pm"}, {"days": "Sat", "time": "11:15am"}, {"days": "Sun", "time": "Closed"}], "id": "1940100072", "name": "USPS COLLECTION BOX - BLUE BOX", "address": {"city": "NORRISTOWN", "state": "PA", "street": "812 E FORNANCE ST", "postcode": "19401"}}},
{"geometry": {"type": "Point", "coordinates": [-75.3293790345, 40.1450535423]}, "type": "Feature", "properties": {"collection_times": [{"days": "Mon-Fri", "time": "2:00pm"}, {"days": "Sat", "time": "12:30pm"}, {"days": "Sun", "time": "Closed"}], "id": "1940100086", "name": "USPS COLLECTION BOX - BLUE BOX", "address": {"city": "NORRISTOWN", "state": "PA", "street": "2803 STANBRIDGE ST", "postcode": "19401"}}},
{"geometry": {"type": "Point", "coordinates": [-75.3299121059, 40.1442651857]}, "type": "Feature", "properties": {"collection_times": [{"days": "Mon-Fri", "time": "2:00pm"}, {"days": "Sat", "time": "12:30pm"}, {"days": "Sun", "time": "Closed"}], "id": "1940100089", "name": "USPS COLLECTION BOX - BLUE BOX", "address": {"city": "NORRISTOWN", "state": "PA", "street": "2801 STANBRIDGE ST", "postcode": "19401"}}},
{"geometry": {"type": "Point", "coordinates": [-75.3421569141, 40.1155902604]}, "type": "Feature", "properties": {"collection_times": [{"days": "Mon-Fri", "time": "5:00pm"}, {"days": "Sat", "time": "1:15pm"}, {"days": "Sun", "time": "Closed"}], "id": "1940100096", "name": "USPS COLLECTION BOX - BLUE BOX", "address": {"city": "NORRISTOWN", "state": "PA", "street": "28 E AIRY ST", "postcode": "19401"}}},
{"geometry": {"type": "Point", "coordinates": [-75.32420078, 40.1465234544]}, "type": "Feature", "properties": {"collection_times": [{"days": "Mon-Fri", "time": "1:45pm"}, {"days": "Sat", "time": "12:15pm"}, {"days": "Sun", "time": "Closed"}], "id": "1940100097", "name": "USPS COLLECTION BOX - BLUE BOX", "address": {"city": "NORRISTOWN", "state": "PA", "street": "190 W GERMANTOWN PIKE", "postcode": "19401"}}},
{"geometry": {"type": "Point", "coordinates": [-75.3436048559, 40.1162763766]}, "type": "Feature", "properties": {"collection_times": [{"days": "Mon-Fri", "time": "2:30pm"}, {"days": "Sat", "time": "1:00pm"}, {"days": "Sun", "time": "Closed"}], "id": "1940100101", "name": "USPS COLLECTION BOX - BLUE BOX", "address": {"city": "NORRISTOWN", "state": "PA", "street": "500 SWEDE ST", "postcode": "19401"}}},
{"geometry": {"type": "Point", "coordinates": [-75.3441163557, 40.1155829467]}, "type": "Feature", "properties": {"collection_times": [{"days": "Mon-Fri", "time": "4:30pm"}, {"days": "Sat", "time": "1:00pm"}, {"days": "Sun", "time": "Closed"}], "id": "1940100102", "name": "USPS COLLECTION BOX - BLUE BOX", "address": {"city": "NORRISTOWN", "state": "PA", "street": "423 SWEDE ST", "postcode": "19401"}}},
{"geometry": {"type": "Point", "coordinates": [-75.3335745468, 40.132725421]}, "type": "Feature", "properties": {"collection_times": [{"days": "Mon-Fri", "time": "1:15pm"}, {"days": "Sat", "time": "11:45am"}, {"days": "Sun", "time": "Closed"}], "id": "1940100104", "name": "USPS COLLECTION BOX - BLUE BOX", "address": {"city": "NORRISTOWN", "state": "PA", "street": "1800 MARKLEY ST", "postcode": "19401"}}},
{"geometry": {"type": "Point", "coordinates": [-75.315448647, 40.1388884261]}, "type": "Feature", "properties": {"collection_times": [{"days": "Mon-Fri", "time": "4:00pm"}, {"days": "Sat", "time": "11:30am"}, {"days": "Sun", "time": "Closed"}], "id": "1940100105", "name": "USPS COLLECTION BOX - BLUE BOX", "address": {"city": "NORRISTOWN", "state": "PA", "street": "2705 DEKALB PIKE", "postcode": "19401"}}},
{"geometry": {"type": "Point", "coordinates": [-75.3071377799, 40.137828706]}, "type": "Feature", "properties": {"collection_times": [{"days": "Mon-Fri", "time": "1:00pm"}, {"days": "Sat", "time": "11:30am"}, {"days": "Sun", "time": "Closed"}], "id": "1940100106", "name": "USPS COLLECTION BOX - BLUE BOX", "address": {"city": "NORRISTOWN", "state": "PA", "street": "301 E GERMANTOWN PIKE", "postcode": "19401"}}},
{"geometry": {"type": "Point", "coordinates": [-75.3447925467, 40.1146379784]}, "type": "Feature", "properties": {"collection_times": [{"days": "Mon-Fri", "time": "2:30pm"}, {"days": "Sat", "time": "1:00pm"}, {"days": "Sun", "time": "Closed"}], "id": "1940100108", "name": "USPS COLLECTION BOX - BLUE BOX", "address": {"city": "NORRISTOWN", "state": "PA", "street": "2 W MAIN ST", "postcode": "19401"}}},
{"geometry": {"type": "Point", "coordinates": [-75.3357096138, 40.1249823893]}, "type": "Feature", "properties": {"collection_times": [{"days": "Mon-Fri", "time": "5:00pm"}, {"days": "Sat", "time": "1:15pm"}, {"days": "Sun", "time": "Closed"}], "id": "1940100110", "name": "USPS COLLECTION BOX - EXPRESS", "address": {"city": "NORRISTOWN", "state": "PA", "street": "28 E AIRY ST", "postcode": "19401"}}},
{"geometry": {"type": "Point", "coordinates": [-75.3421569141, 40.1155902604]}, "type": "Feature", "properties": {"collection_times": [{"days": "Mon-Fri", "time": "5:00pm"}, {"days": "Sat-Sun", "time": "Closed"}], "id": "1940100111", "name": "USPS COLLECTION BOX - PO LOBBY", "address": {"city": "NORRISTOWN", "state": "PA", "street": "28 E AIRY ST", "postcode": "19401"}}},
{"geometry": {"type": "Point", "coordinates": [-75.3224819406, 40.151263571]}, "type": "Feature", "properties": {"collection_times": [{"days": "Mon-Sat", "time": "9:00am"}, {"days": "Sun", "time": "Closed"}], "id": "1940100116", "name": "USPS COLLECTION BOX - BLUE BOX", "address": {"city": "NORRISTOWN", "state": "PA", "street": "241 BROOKSIDE RD", "postcode": "19401"}}},
{"geometry": {"type": "Point", "coordinates": [-75.4034898747, 40.1266729373]}, "type": "Feature", "properties": {"collection_times": [{"days": "Mon-Fri", "time": "4:00pm"}, {"days": "Sat", "time": "2:15pm"}, {"days": "Sun", "time": "Closed"}], "id": "1940300006", "name": "USPS COLLECTION BOX - BLUE BOX", "address": {"city": "NORRISTOWN", "state": "PA", "street": "2575 BLVD OF THE GENRLS", "postcode": "19403"}}},
{"geometry": {"type": "Point", "coordinates": [-75.3779426058, 40.1530581197]}, "type": "Feature", "properties": {"collection_times": [{"days": "Mon-Fri", "time": "12:00pm"}, {"days": "Sat", "time": "3:45pm"}, {"days": "Sun", "time": "Closed"}], "id": "1940300007", "name": "USPS COLLECTION BOX - BLUE BOX", "address": {"city": "NORRISTOWN", "state": "PA", "street": "402 SNOWFLAKE CIR", "postcode": "19403"}}},
{"geometry": {"type": "Point", "coordinates": [-75.3938830668, 40.1454477992]}, "type": "Feature", "properties": {"collection_times": [{"days": "Mon-Fri", "time": "12:00pm"}, {"days": "Sat", "time": "3:30pm"}, {"days": "Sun", "time": "Closed"}], "id": "1940300011", "name": "USPS COLLECTION BOX - BLUE BOX", "address": {"city": "NORRISTOWN", "state": "PA", "street": "2717 W MAIN ST", "postcode": "19403"}}},
{"geometry": {"type": "Point", "coordinates": [-75.4095666478, 40.1526287056]}, "type": "Feature", "properties": {"collection_times": [{"days": "Mon-Fri", "time": "11:00am"}, {"days": "Sat", "time": "1:45pm"}, {"days": "Sun", "time": "Closed"}], "id": "1940300013", "name": "USPS COLLECTION BOX - BLUE BOX", "address": {"city": "NORRISTOWN", "state": "PA", "street": "3218 MARILYN AVE", "postcode": "19403"}}},
{"geometry": {"type": "Point", "coordinates": [-75.3555557302, 40.1468299175]}, "type": "Feature", "properties": {"collection_times": [{"days": "Mon-Fri", "time": "12:00pm"}, {"days": "Sat", "time": "3:00pm"}, {"days": "Sun", "time": "Closed"}], "id": "1940300016", "name": "USPS COLLECTION BOX - BLUE BOX", "address": {"city": "NORRISTOWN", "state": "PA", "street": "200 STONYBROOK DR", "postcode": "19403"}}},
{"geometry": {"type": "Point", "coordinates": [-75.371188324, 40.1544680595]}, "type": "Feature", "properties": {"collection_times": [{"days": "Mon-Fri", "time": "12:00pm"}, {"days": "Sat", "time": "3:45pm"}, {"days": "Sun", "time": "Closed"}], "id": "1940300018", "name": "USPS COLLECTION BOX - BLUE BOX", "address": {"city": "NORRISTOWN", "state": "PA", "street": "546 FOUNDRY RD", "postcode": "19403"}}},
{"geometry": {"type": "Point", "coordinates": [-75.3810958815, 40.1221182078]}, "type": "Feature", "properties": {"collection_times": [{"days": "Mon-Fri", "time": "12:00pm"}, {"days": "Sat", "time": "2:45pm"}, {"days": "Sun", "time": "Closed"}], "id": "1940300021", "name": "USPS COLLECTION BOX - BLUE BOX", "address": {"city": "NORRISTOWN", "state": "PA", "street": "1 WESTOVER CLUB DR", "postcode": "19403"}}},
{"geometry": {"type": "Point", "coordinates": [-75.3762020162, 40.1313477257]}, "type": "Feature", "properties": {"collection_times": [{"days": "Mon-Fri", "time": "12:00pm"}, {"days": "Sat", "time": "2:45pm"}, {"days": "Sun", "time": "Closed"}], "id": "1940300022", "name": "USPS COLLECTION BOX - BLUE BOX", "address": {"city": "NORRISTOWN", "state": "PA", "street": "1930 W MAIN ST", "postcode": "19403"}}},
{"geometry": {"type": "Point", "coordinates": [-75.4025197612, 40.1308173082]}, "type": "Feature", "properties": {"collection_times": [{"days": "Mon-Fri", "time": "3:45pm"}, {"days": "Sat", "time": "2:30pm"}, {"days": "Sun", "time": "Closed"}], "id": "1940300028", "name": "USPS COLLECTION BOX - BLUE BOX", "address": {"city": "NORRISTOWN", "state": "PA", "street": "2605 EGYPT RD", "postcode": "19403"}}},
{"geometry": {"type": "Point", "coordinates": [-75.4383378047, 40.1285870782]}, "type": "Feature", "properties": {"collection_times": [{"days": "Mon-Fri", "time": "11:00am"}, {"days": "Sat", "time": "1:30pm"}, {"days": "Sun", "time": "Closed"}], "id": "1940300031", "name": "USPS COLLECTION BOX - BLUE BOX", "address": {"city": "NORRISTOWN", "state": "PA", "street": "500 MILL GROVE DR", "postcode": "19403"}}},
{"geometry": {"type": "Point", "coordinates": [-75.3852880417, 40.121360274]}, "type": "Feature", "properties": {"collection_times": [{"days": "Mon-Fri", "time": "12:00pm"}, {"days": "Sat", "time": "2:45pm"}, {"days": "Sun", "time": "Closed"}], "id": "1940300040", "name": "USPS COLLECTION BOX - BLUE BOX", "address": {"city": "NORRISTOWN", "state": "PA", "street": "1917 YORKTOWN N", "postcode": "19403"}}},
{"geometry": {"type": "Point", "coordinates": [-75.3799711593, 40.1453737802]}, "type": "Feature", "properties": {"collection_times": [{"days": "Mon-Fri", "time": "12:00pm"}, {"days": "Sat", "time": "2:45pm"}, {"days": "Sun", "time": "Closed"}], "id": "1940300041", "name": "USPS COLLECTION BOX - BLUE BOX", "address": {"city": "NORRISTOWN", "state": "PA", "street": "1400 BEECH ST", "postcode": "19403"}}},
{"geometry": {"type": "Point", "coordinates": [-75.3286813146, 40.1569880293]}, "type": "Feature", "properties": {"collection_times": [{"days": "Mon-Fri", "time": "12:00pm"}, {"days": "Sat", "time": "3:15pm"}, {"days": "Sun", "time": "Closed"}], "id": "1940300043", "name": "USPS COLLECTION BOX - BLUE BOX", "address": {"city": "NORRISTOWN", "state": "PA", "street": "300 DEER RUN", "postcode": "19403"}}},
{"geometry": {"type": "Point", "coordinates": [-75.3945654314, 40.1329314292]}, "type": "Feature", "properties": {"collection_times": [{"days": "Mon-Fri", "time": "11:00am"}, {"days": "Sat", "time": "2:30pm"}, {"days": "Sun", "time": "Closed"}], "id": "1940300047", "name": "USPS COLLECTION BOX - BLUE BOX", "address": {"city": "NORRISTOWN", "state": "PA", "street": "301 WILLOWBROOK DR", "postcode": "19403"}}},
{"geometry": {"type": "Point", "coordinates": [-75.405237018, 40.1579283618]}, "type": "Feature", "properties": {"collection_times": [{"days": "Mon-Fri", "time": "4:45pm"}, {"days": "Sat", "time": "3:45pm"}, {"days": "Sun", "time": "Closed"}], "id": "1940300049", "name": "USPS COLLECTION BOX - BLUE BOX", "address": {"city": "NORRISTOWN", "state": "PA", "street": "3200 RIDGE PIKE", "postcode": "19403"}}},
{"geometry": {"type": "Point", "coordinates": [-75.3785865398, 40.1630496412]}, "type": "Feature", "properties": {"collection_times": [{"days": "Mon-Fri", "time": "4:45pm"}, {"days": "Sat", "time": "3:15pm"}, {"days": "Sun", "time": "Closed"}], "id": "1940300053", "name": "USPS COLLECTION BOX - BLUE BOX", "address": {"city": "NORRISTOWN", "state": "PA", "street": "1025 VALLEY FORGE RD", "postcode": "19403"}}},
{"geometry": {"type": "Point", "coordinates": [-75.4372666979, 40.1282647711]}, "type": "Feature", "properties": {"collection_times": [{"days": "Mon-Fri", "time": "4:15pm"}, {"days": "Sat", "time": "2:00pm"}, {"days": "Sun", "time": "Closed"}], "id": "1940300054", "name": "USPS COLLECTION BOX - BLUE BOX", "address": {"city": "NORRISTOWN", "state": "PA", "street": "2838 AUDUBON VILLAGE DR", "postcode": "19403"}}},
{"geometry": {"type": "Point", "coordinates": [-75.405237018, 40.1579283618]}, "type": "Feature", "properties": {"collection_times": [{"days": "Mon-Fri", "time": "4:30pm"}, {"days": "Sat", "time": "12:00pm"}, {"days": "Sun", "time": "Closed"}], "id": "1940300056", "name": "USPS COLLECTION BOX - PO LOBBY", "address": {"city": "NORRISTOWN", "state": "PA", "street": "3200 RIDGE PIKE", "postcode": "19403"}}},
{"geometry": {"type": "Point", "coordinates": [-75.4102912711, 40.1301042866]}, "type": "Feature", "properties": {"collection_times": [{"days": "Mon-Fri", "time": "11:00am"}, {"days": "Sat", "time": "2:30pm"}, {"days": "Sun", "time": "Closed"}], "id": "1940300057", "name": "USPS COLLECTION BOX - BLUE BOX", "address": {"city": "NORRISTOWN", "state": "PA", "street": "2670 EGYPT RD", "postcode": "19403"}}},
{"geometry": {"type": "Point", "coordinates": [-75.412644707, 40.1221485849]}, "type": "Feature", "properties": {"collection_times": [{"days": "Mon-Fri", "time": "4:00pm"}, {"days": "Sat", "time": "2:15pm"}, {"days": "Sun", "time": "Closed"}], "id": "1940300058", "name": "USPS COLLECTION BOX - BLUE BOX", "address": {"city": "NORRISTOWN", "state": "PA", "street": "940 MADISON AVE", "postcode": "19403"}}},
{"geometry": {"type": "Point", "coordinates": [-75.388019135, 40.1410806347]}, "type": "Feature", "properties": {"collection_times": [{"days": "Mon-Fri", "time": "3:30pm"}, {"days": "Sat", "time": "3:15pm"}, {"days": "Sun", "time": "Closed"}], "id": "1940300060", "name": "USPS COLLECTION BOX - BLUE BOX", "address": {"city": "NORRISTOWN", "state": "PA", "street": "539 W GERMANTOWN PIKE", "postcode": "19403"}}},
{"geometry": {"type": "Point", "coordinates": [-75.3449516565, 40.1023382273]}, "type": "Feature", "properties": {"collection_times": [{"days": "Mon-Fri", "time": "11:00am"}, {"days": "Sat", "time": "10:45am"}, {"days": "Sun", "time": "Closed"}], "id": "1940500001", "name": "USPS COLLECTION BOX - BLUE BOX", "address": {"city": "BRIDGEPORT", "state": "PA", "street": "721 FORD ST", "postcode": "19405"}}},
{"geometry": {"type": "Point", "coordinates": [-75.3313257418, 40.1037748663]}, "type": "Feature", "properties": {"collection_times": [{"days": "Mon-Fri", "time": "11:00am"}, {"days": "Sat", "time": "10:30am"}, {"days": "Sun", "time": "Closed"}], "id": "1940500002", "name": "USPS COLLECTION BOX - BLUE BOX", "address": {"city": "BRIDGEPORT", "state": "PA", "street": "401 E 4TH ST", "postcode": "19405"}}},
{"geometry": {"type": "Point", "coordinates": [-75.336595824, 40.1049566423]}, "type": "Feature", "properties": {"collection_times": [{"days": "Mon-Sat", "time": "10:00am"}, {"days": "Sun", "time": "Closed"}], "id": "1940500008", "name": "USPS COLLECTION BOX - BLUE BOX", "address": {"city": "BRIDGEPORT", "state": "PA", "street": "206 W 4TH ST", "postcode": "19405"}}},
{"geometry": {"type": "Point", "coordinates": [-75.3421119617, 40.1035536529]}, "type": "Feature", "properties": {"collection_times": [{"days": "Mon-Fri", "time": "11:00am"}, {"days": "Sat", "time": "10:45am"}, {"days": "Sun", "time": "Closed"}], "id": "1940500012", "name": "USPS COLLECTION BOX - BLUE BOX", "address": {"city": "BRIDGEPORT", "state": "PA", "street": "499 FORD ST", "postcode": "19405"}}},
{"geometry": {"type": "Point", "coordinates": [-75.3440983687, 40.1063871123]}, "type": "Feature", "properties": {"collection_times": [{"days": "Mon-Fri", "time": "4:30pm"}, {"days": "Sat", "time": "11:00am"}, {"days": "Sun", "time": "Closed"}], "id": "1940500015", "name": "USPS COLLECTION BOX - BLUE BOX", "address": {"city": "BRIDGEPORT", "state": "PA", "street": "312 MILL ST", "postcode": "19405"}}},
{"geometry": {"type": "Point", "coordinates": [-75.3440983687, 40.1063871123]}, "type": "Feature", "properties": {"collection_times": [{"days": "Mon-Fri", "time": "4:30pm"}, {"days": "Sat-Sun", "time": "Closed"}], "id": "1940500018", "name": "USPS COLLECTION BOX - PO LOBBY", "address": {"city": "BRIDGEPORT", "state": "PA", "street": "312 MILL ST", "postcode": "19405"}}},
{"geometry": {"type": "Point", "coordinates": [-75.3808207449, 40.0888139842]}, "type": "Feature", "properties": {"collection_times": [{"days": "Mon-Fri", "time": "11:00am"}, {"days": "Sat", "time": "10:30am"}, {"days": "Sun", "time": "Closed"}], "id": "1940600001", "name": "USPS COLLECTION BOX - BLUE BOX", "address": {"city": "KING OF PRUSSIA", "state": "PA", "street": "570 W DEKALB PIKE", "postcode": "19406"}}},
{"geometry": {"type": "Point", "coordinates": [-75.3741194843, 40.0809455195]}, "type": "Feature", "properties": {"collection_times": [{"days": "Mon-Sat", "time": "2:00pm"}, {"days": "Sun", "time": "Closed"}], "id": "1940600011", "name": "USPS COLLECTION BOX - BLUE BOX", "address": {"city": "KING OF PRUSSIA", "state": "PA", "street": "367 S GULPH RD", "postcode": "19406"}}},
{"geometry": {"type": "Point", "coordinates": [-75.3650566338, 40.0783306019]}, "type": "Feature", "properties": {"collection_times": [{"days": "Mon-Fri", "time": "2:00pm"}, {"days": "Sat-Sun", "time": "Closed"}], "id": "1940600012", "name": "USPS COLLECTION BOX - BLUE BOX", "address": {"city": "KING OF PRUSSIA", "state": "PA", "street": "455 S GULPH RD", "postcode": "19406"}}},
{"geometry": {"type": "Point", "coordinates": [-75.3967824102, 40.0880935622]}, "type": "Feature", "properties": {"collection_times": [{"days": "Mon-Sat", "time": "10:00am"}, {"days": "Sun", "time": "Closed"}], "id": "1940600020", "name": "USPS COLLECTION BOX - BLUE BOX", "address": {"city": "KING OF PRUSSIA", "state": "PA", "street": "216 MALL BLVD", "postcode": "19406"}}},
{"geometry": {"type": "Point", "coordinates": [-75.3944345838, 40.0854412634]}, "type": "Feature", "properties": {"collection_times": [{"days": "Mon-Fri", "time": "11:00am"}, {"days": "Sat", "time": "10:45am"}, {"days": "Sun", "time": "Closed"}], "id": "1940600026", "name": "USPS COLLECTION BOX - BLUE BOX", "address": {"city": "KING OF PRUSSIA", "state": "PA", "street": "160 N GULPH RD", "postcode": "19406"}}},
{"geometry": {"type": "Point", "coordinates": [-75.3944345838, 40.0854412634]}, "type": "Feature", "properties": {"collection_times": [{"days": "Mon-Fri", "time": "11:00am"}, {"days": "Sat", "time": "10:45am"}, {"days": "Sun", "time": "Closed"}], "id": "1940600027", "name": "USPS COLLECTION BOX - BLUE BOX", "address": {"city": "KING OF PRUSSIA", "state": "PA", "street": "160 N GULPH RD", "postcode": "19406"}}},
{"geometry": {"type": "Point", "coordinates": [-75.3685859306, 40.0957846112]}, "type": "Feature", "properties": {"collection_times": [{"days": "Mon-Fri", "time": "11:00am"}, {"days": "Sat", "time": "10:15am"}, {"days": "Sun", "time": "Closed"}], "id": "1940600029", "name": "USPS COLLECTION BOX - BLUE BOX", "address": {"city": "KING OF PRUSSIA", "state": "PA", "street": "255 TOWN CENTER RD", "postcode": "19406"}}},
{"geometry": {"type": "Point", "coordinates": [-75.3758404877, 40.1112215929]}, "type": "Feature", "properties": {"collection_times": [{"days": "Mon-Fri", "time": "1:00pm"}, {"days": "Sat", "time": "1:30pm"}, {"days": "Sun", "time": "Closed"}], "id": "1940600032", "name": "USPS COLLECTION BOX - BLUE BOX", "address": {"city": "KING OF PRUSSIA", "state": "PA", "street": "703 N HENDERSON RD", "postcode": "19406"}}},
{"geometry": {"type": "Point", "coordinates": [-75.3608198263, 40.0778896709]}, "type": "Feature", "properties": {"collection_times": [{"days": "Mon-Sat", "time": "2:00pm"}, {"days": "Sun", "time": "Closed"}], "id": "1940600033", "name": "USPS COLLECTION BOX - BLUE BOX", "address": {"city": "KING OF PRUSSIA", "state": "PA", "street": "547 LEWIS RD", "postcode": "19406"}}},
{"geometry": {"type": "Point", "coordinates": [-75.3582442868, 40.079729275]}, "type": "Feature", "properties": {"collection_times": [{"days": "Mon-Fri", "time": "1:00pm"}, {"days": "Sat", "time": "1:45pm"}, {"days": "Sun", "time": "Closed"}], "id": "1940600036", "name": "USPS COLLECTION BOX - BLUE BOX", "address": {"city": "KING OF PRUSSIA", "state": "PA", "street": "580 SHOEMAKER RD", "postcode": "19406"}}},
{"geometry": {"type": "Point", "coordinates": [-75.3529514147, 40.0758582176]}, "type": "Feature", "properties": {"collection_times": [{"days": "Mon-Fri", "time": "2:00pm"}, {"days": "Sat", "time": "2:15pm"}, {"days": "Sun", "time": "Closed"}], "id": "1940600037", "name": "USPS COLLECTION BOX - BLUE BOX", "address": {"city": "KING OF PRUSSIA", "state": "PA", "street": "700 S HENDERSON RD", "postcode": "19406"}}},
{"geometry": {"type": "Point", "coordinates": [-75.3551990367, 40.0791586732]}, "type": "Feature", "properties": {"collection_times": [{"days": "Mon-Sat", "time": "2:00pm"}, {"days": "Sun", "time": "Closed"}], "id": "1940600038", "name": "USPS COLLECTION BOX - BLUE BOX", "address": {"city": "KING OF PRUSSIA", "state": "PA", "street": "601 S HENDERSON RD", "postcode": "19406"}}},
{"geometry": {"type": "Point", "coordinates": [-75.417484988, 40.1043059616]}, "type": "Feature", "properties": {"collection_times": [{"days": "Mon-Sat", "time": "12:00pm"}, {"days": "Sun", "time": "Closed"}], "id": "1940600041", "name": "USPS COLLECTION BOX - BLUE BOX", "address": {"city": "KING OF PRUSSIA", "state": "PA", "street": "941 PARKVIEW DR", "postcode": "19406"}}},
{"geometry": {"type": "Point", "coordinates": [-75.4123395036, 40.1014953043]}, "type": "Feature", "properties": {"collection_times": [{"days": "Mon-Fri", "time": "1:00pm"}, {"days": "Sat", "time": "12:15pm"}, {"days": "Sun", "time": "Closed"}], "id": "1940600042", "name": "USPS COLLECTION BOX - BLUE BOX", "address": {"city": "KING OF PRUSSIA", "state": "PA", "street": "1006 W 9TH AVE", "postcode": "19406"}}},
{"geometry": {"type": "Point", "coordinates": [-75.4123395036, 40.1014953043]}, "type": "Feature", "properties": {"collection_times": [{"days": "Mon-Fri", "time": "1:00pm"}, {"days": "Sat", "time": "12:15pm"}, {"days": "Sun", "time": "Closed"}], "id": "1940600043", "name": "USPS COLLECTION BOX - BLUE BOX", "address": {"city": "KING OF PRUSSIA", "state": "PA", "street": "1006 W 9TH AVE", "postcode": "19406"}}},
{"geometry": {"type": "Point", "coordinates": [-75.4129617089, 40.0951131593]}, "type": "Feature", "properties": {"collection_times": [{"days": "Mon-Fri", "time": "12:00pm"}, {"days": "Sat", "time": "11:15am"}, {"days": "Sun", "time": "Closed"}], "id": "1940600046", "name": "USPS COLLECTION BOX - BLUE BOX", "address": {"city": "KING OF PRUSSIA", "state": "PA", "street": "1150 1ST AVE", "postcode": "19406"}}},
{"geometry": {"type": "Point", "coordinates": [-75.4117313735, 40.0931737402]}, "type": "Feature", "properties": {"collection_times": [{"days": "Mon-Fri", "time": "12:00pm"}, {"days": "Sat", "time": "11:30am"}, {"days": "Sun", "time": "Closed"}], "id": "1940600050", "name": "USPS COLLECTION BOX - BLUE BOX", "address": {"city": "KING OF PRUSSIA", "state": "PA", "street": "640 FREEDOM BUSINESS CTR DR", "postcode": "19406"}}},
{"geometry": {"type": "Point", "coordinates": [-75.401843364, 40.0966426783]}, "type": "Feature", "properties": {"collection_times": [{"days": "Mon-Fri", "time": "12:00pm"}, {"days": "Sat", "time": "11:45am"}, {"days": "Sun", "time": "Closed"}], "id": "1940600051", "name": "USPS COLLECTION BOX - BLUE BOX", "address": {"city": "KING OF PRUSSIA", "state": "PA", "street": "643 CLARK AVE", "postcode": "19406"}}},
{"geometry": {"type": "Point", "coordinates": [-75.3973123759, 40.0950103233]}, "type": "Feature", "properties": {"collection_times": [{"days": "Mon-Fri", "time": "12:00pm"}, {"days": "Sat", "time": "11:30am"}, {"days": "Sun", "time": "Closed"}], "id": "1940600052", "name": "USPS COLLECTION BOX - BLUE BOX", "address": {"city": "KING OF PRUSSIA", "state": "PA", "street": "440 AMERICAN AVE", "postcode": "19406"}}},
{"geometry": {"type": "Point", "coordinates": [-75.4077945753, 40.0950682883]}, "type": "Feature", "properties": {"collection_times": [{"days": "Mon-Fri", "time": "12:00pm"}, {"days": "Sat", "time": "11:45am"}, {"days": "Sun", "time": "Closed"}], "id": "1940600053", "name": "USPS COLLECTION BOX - BLUE BOX", "address": {"city": "KING OF PRUSSIA", "state": "PA", "street": "1000 1ST AVE", "postcode": "19406"}}},
{"geometry": {"type": "Point", "coordinates": [-75.4122212125, 40.1031163489]}, "type": "Feature", "properties": {"collection_times": [{"days": "Mon-Sat", "time": "12:00pm"}, {"days": "Sun", "time": "Closed"}], "id": "1940600055", "name": "USPS COLLECTION BOX - BLUE BOX", "address": {"city": "KING OF PRUSSIA", "state": "PA", "street": "1000 VALLEY FORGE CIR", "postcode": "19406"}}},
{"geometry": {"type": "Point", "coordinates": [-75.4120331172, 40.0895237596]}, "type": "Feature", "properties": {"collection_times": [{"days": "Mon-Sat", "time": "10:00am"}, {"days": "Sun", "time": "Closed"}], "id": "1940600059", "name": "USPS COLLECTION BOX - BLUE BOX", "address": {"city": "KING OF PRUSSIA", "state": "PA", "street": "500 N GULPH RD", "postcode": "19406"}}},
{"geometry": {"type": "Point", "coordinates": [-75.4120331172, 40.0895237596]}, "type": "Feature", "properties": {"collection_times": [{"days": "Mon-Sat", "time": "10:00am"}, {"days": "Sun", "time": "Closed"}], "id": "1940600061", "name": "USPS COLLECTION BOX - BLUE BOX", "address": {"city": "KING OF PRUSSIA", "state": "PA", "street": "500 N GULPH RD", "postcode": "19406"}}},
{"geometry": {"type": "Point", "coordinates": [-75.4009674381, 40.0823944496]}, "type": "Feature", "properties": {"collection_times": [{"days": "Mon-Fri", "time": "1:00pm"}, {"days": "Sat", "time": "12:30pm"}, {"days": "Sun", "time": "Closed"}], "id": "1940600062", "name": "USPS COLLECTION BOX - BLUE BOX", "address": {"city": "KING OF PRUSSIA", "state": "PA", "street": "200 N WARNER RD", "postcode": "19406"}}},
{"geometry": {"type": "Point", "coordinates": [-75.3390942334, 40.091961838]}, "type": "Feature", "properties": {"collection_times": [{"days": "Mon-Fri", "time": "2:00pm"}, {"days": "Sat", "time": "2:45pm"}, {"days": "Sun", "time": "Closed"}], "id": "1940600068", "name": "USPS COLLECTION BOX - BLUE BOX", "address": {"city": "KING OF PRUSSIA", "state": "PA", "street": "400 FEHELEY DR", "postcode": "19406"}}},
{"geometry": {"type": "Point", "coordinates": [-75.3923936325, 40.0969539249]}, "type": "Feature", "properties": {"collection_times": [{"days": "Mon-Fri", "time": "1:00pm"}, {"days": "Sat", "time": "1:30pm"}, {"days": "Sun", "time": "Closed"}], "id": "1940600074", "name": "USPS COLLECTION BOX - BLUE BOX", "address": {"city": "KING OF PRUSSIA", "state": "PA", "street": "491 ALLENDALE RD", "postcode": "19406"}}},
{"geometry": {"type": "Point", "coordinates": [-75.3343907885, 40.0827572343]}, "type": "Feature", "properties": {"collection_times": [{"days": "Mon-Fri", "time": "2:00pm"}, {"days": "Sat", "time": "2:30pm"}, {"days": "Sun", "time": "Closed"}], "id": "1940600077", "name": "USPS COLLECTION BOX - BLUE BOX", "address": {"city": "KING OF PRUSSIA", "state": "PA", "street": "2000 RENAISSANCE BLVD", "postcode": "19406"}}},
{"geometry": {"type": "Point", "coordinates": [-75.3378485776, 40.0843743392]}, "type": "Feature", "properties": {"collection_times": [{"days": "Mon-Fri", "time": "2:00pm"}, {"days": "Sat", "time": "2:30pm"}, {"days": "Sun", "time": "Closed"}], "id": "1940600079", "name": "USPS COLLECTION BOX - BLUE BOX", "address": {"city": "KING OF PRUSSIA", "state": "PA", "street": "2200 RENAISSANCE BLVD", "postcode": "19406"}}},
{"geometry": {"type": "Point", "coordinates": [-75.3773869065, 40.0937331097]}, "type": "Feature", "properties": {"collection_times": [{"days": "Mon-Fri", "time": "2:00pm"}, {"days": "Sat", "time": "2:45pm"}, {"days": "Sun", "time": "Closed"}], "id": "1940600080", "name": "USPS COLLECTION BOX - BLUE BOX", "address": {"city": "KING OF PRUSSIA", "state": "PA", "street": "605 FLINT HILL RD", "postcode": "19406"}}},
{"geometry": {"type": "Point", "coordinates": [-75.4089160203, 40.099803673]}, "type": "Feature", "properties": {"collection_times": [{"days": "Mon-Fri", "time": "12:00pm"}, {"days": "Sat", "time": "12:15pm"}, {"days": "Sun", "time": "Closed"}], "id": "1940600082", "name": "USPS COLLECTION BOX - BLUE BOX", "address": {"city": "KING OF PRUSSIA", "state": "PA", "street": "900 E 8TH AVE", "postcode": "19406"}}},
{"geometry": {"type": "Point", "coordinates": [-75.3678531488, 40.1025564185]}, "type": "Feature", "properties": {"collection_times": [{"days": "Mon-Fri", "time": "4:30pm"}, {"days": "Sat", "time": "1:30pm"}, {"days": "Sun", "time": "Closed"}], "id": "1940600083", "name": "USPS COLLECTION BOX - BLUE BOX", "address": {"city": "KING OF PRUSSIA", "state": "PA", "street": "175 W VALLEY FORGE RD", "postcode": "19406"}}},
{"geometry": {"type": "Point", "coordinates": [-75.4094807311, 40.0951264023]}, "type": "Feature", "properties": {"collection_times": [{"days": "Mon-Sat", "time": "10:00am"}, {"days": "Sun", "time": "Closed"}], "id": "1940600084", "name": "USPS COLLECTION BOX - BLUE BOX", "address": {"city": "KING OF PRUSSIA", "state": "PA", "street": "1060 1ST AVE", "postcode": "19406"}}},
{"geometry": {"type": "Point", "coordinates": [-75.3954859127, 40.0993897773]}, "type": "Feature", "properties": {"collection_times": [{"days": "Mon-Fri", "time": "5:00pm"}, {"days": "Sat", "time": "3:00pm"}, {"days": "Sun", "time": "Closed"}], "id": "1940600085", "name": "USPS COLLECTION BOX - BLUE BOX", "address": {"city": "KING OF PRUSSIA", "state": "PA", "street": "620 ALLENDALE RD", "postcode": "19406"}}},
{"geometry": {"type": "Point", "coordinates": [-75.3954859127, 40.0993897773]}, "type": "Feature", "properties": {"collection_times": [{"days": "Mon-Fri", "time": "5:00pm"}, {"days": "Sat", "time": "3:00pm"}, {"days": "Sun", "time": "Closed"}], "id": "1940600086", "name": "USPS COLLECTION BOX - BLUE BOX", "address": {"city": "KING OF PRUSSIA", "state": "PA", "street": "620 ALLENDALE RD", "postcode": "19406"}}},
{"geometry": {"type": "Point", "coordinates": [-75.3616946644, 40.0845778082]}, "type": "Feature", "properties": {"collection_times": [{"days": "Mon-Fri", "time": "1:00pm"}, {"days": "Sat", "time": "1:45pm"}, {"days": "Sun", "time": "Closed"}], "id": "1940600101", "name": "USPS COLLECTION BOX - BLUE BOX", "address": {"city": "KING OF PRUSSIA", "state": "PA", "street": "215 W CHURCH RD", "postcode": "19406"}}},
{"geometry": {"type": "Point", "coordinates": [-75.3946330827, 40.0854432385]}, "type": "Feature", "properties": {"collection_times": [{"days": "Mon-Fri", "time": "11:00am"}, {"days": "Sat", "time": "10:45am"}, {"days": "Sun", "time": "Closed"}], "id": "1940600103", "name": "USPS COLLECTION BOX - BLUE BOX", "address": {"city": "KING OF PRUSSIA", "state": "PA", "street": "170 N GULPH RD", "postcode": "19406"}}},
{"geometry": {"type": "Point", "coordinates": [-75.4014633247, 40.0802077524]}, "type": "Feature", "properties": {"collection_times": [{"days": "Mon-Fri", "time": "1:00pm"}, {"days": "Sat", "time": "12:30pm"}, {"days": "Sun", "time": "Closed"}], "id": "1940600104", "name": "USPS COLLECTION BOX - BLUE BOX", "address": {"city": "KING OF PRUSSIA", "state": "PA", "street": "150 S WARNER RD", "postcode": "19406"}}},
{"geometry": {"type": "Point", "coordinates": [-75.3831771992, 40.0878735319]}, "type": "Feature", "properties": {"collection_times": [{"days": "Mon-Fri", "time": "11:00am"}, {"days": "Sat", "time": "10:45am"}, {"days": "Sun", "time": "Closed"}], "id": "1940600107", "name": "USPS COLLECTION BOX - BLUE BOX", "address": {"city": "KING OF PRUSSIA", "state": "PA", "street": "640 W DEKALB PIKE", "postcode": "19406"}}},
{"geometry": {"type": "Point", "coordinates": [-75.3411726923, 40.0889713178]}, "type": "Feature", "properties": {"collection_times": [{"days": "Mon-Fri", "time": "2:00pm"}, {"days": "Sat", "time": "2:30pm"}, {"days": "Sun", "time": "Closed"}], "id": "1940600109", "name": "USPS COLLECTION BOX - BLUE BOX", "address": {"city": "KING OF PRUSSIA", "state": "PA", "street": "3600 HORIZON DR", "postcode": "19406"}}},
{"geometry": {"type": "Point", "coordinates": [-75.4118774048, 40.0994096598]}, "type": "Feature", "properties": {"collection_times": [{"days": "Mon-Fri", "time": "1:00pm"}, {"days": "Sat", "time": "12:15pm"}, {"days": "Sun", "time": "Closed"}], "id": "1940600119", "name": "USPS COLLECTION BOX - BLUE BOX", "address": {"city": "KING OF PRUSSIA", "state": "PA", "street": "1001 E 8TH AVE", "postcode": "19406"}}},
{"geometry": {"type": "Point", "coordinates": [-75.3713859067, 40.0920996328]}, "type": "Feature", "properties": {"collection_times": [{"days": "Mon-Fri", "time": "11:00am"}, {"days": "Sat", "time": "10:30am"}, {"days": "Sun", "time": "Closed"}], "id": "1940600122", "name": "USPS COLLECTION BOX - BLUE BOX", "address": {"city": "KING OF PRUSSIA", "state": "PA", "street": "330 W DEKALB PIKE", "postcode": "19406"}}},
{"geometry": {"type": "Point", "coordinates": [-75.3904994722, 40.0908169196]}, "type": "Feature", "properties": {"collection_times": [{"days": "Mon-Sat", "time": "10:00am"}, {"days": "Sun", "time": "Closed"}], "id": "1940600123", "name": "USPS COLLECTION BOX - BLUE BOX", "address": {"city": "KING OF PRUSSIA", "state": "PA", "street": "258 MALL BLVD", "postcode": "19406"}}},
{"geometry": {"type": "Point", "coordinates": [-75.3673823311, 40.0910036413]}, "type": "Feature", "properties": {"collection_times": [{"days": "Mon-Sat", "time": "10:00am"}, {"days": "Sun", "time": "Closed"}], "id": "1940600124", "name": "USPS COLLECTION BOX - BLUE BOX", "address": {"city": "KING OF PRUSSIA", "state": "PA", "street": "251 W DEKALB PIKE", "postcode": "19406"}}},
{"geometry": {"type": "Point", "coordinates": [-75.3954859127, 40.0993897773]}, "type": "Feature", "properties": {"collection_times": [{"days": "Mon-Fri", "time": "5:00pm"}, {"days": "Sat", "time": "3:00pm"}, {"days": "Sun", "time": "Closed"}], "id": "1940600125", "name": "USPS COLLECTION BOX - PO LOBBY", "address": {"city": "KING OF PRUSSIA", "state": "PA", "street": "620 ALLENDALE RD", "postcode": "19406"}}},
{"geometry": {"type": "Point", "coordinates": [-75.3954859127, 40.0993897773]}, "type": "Feature", "properties": {"collection_times": [{"days": "Mon-Fri", "time": "5:00pm"}, {"days": "Sat", "time": "3:00pm"}, {"days": "Sun", "time": "Closed"}], "id": "1940600126", "name": "USPS COLLECTION BOX - PO LOBBY", "address": {"city": "KING OF PRUSSIA", "state": "PA", "street": "620 ALLENDALE RD", "postcode": "19406"}}},
{"geometry": {"type": "Point", "coordinates": [-75.3785865398, 40.1630496412]}, "type": "Feature", "properties": {"collection_times": [{"days": "Mon-Fri", "time": "4:45pm"}, {"days": "Sat-Sun", "time": "Closed"}], "id": "1940900001", "name": "USPS COLLECTION BOX - PO LOBBY", "address": {"city": "NORRISTOWN", "state": "PA", "street": "1025 VALLEY FORGE RD", "postcode": "19409"}}},
{"geometry": {"type": "Point", "coordinates": [-75.6383053942, 40.1318720602]}, "type": "Feature", "properties": {"collection_times": [{"days": "Mon-Fri", "time": "4:30pm"}, {"days": "Sat", "time": "11:30am"}, {"days": "Sun", "time": "Closed"}], "id": "1942100001", "name": "USPS COLLECTION BOX - BLUE BOX", "address": {"city": "BIRCHRUNVILLE", "state": "PA", "street": "1405 HOLLOW RD", "postcode": "19421"}}},
{"geometry": {"type": "Point", "coordinates": [-75.6383053942, 40.1318720602]}, "type": "Feature", "properties": {"collection_times": [{"days": "Mon-Fri", "time": "4:30pm"}, {"days": "Sat", "time": "11:30am"}, {"days": "Sun", "time": "Closed"}], "id": "1942100003", "name": "USPS COLLECTION BOX - PO LOBBY", "address": {"city": "BIRCHRUNVILLE", "state": "PA", "street": "1405 HOLLOW RD", "postcode": "19421"}}},
{"geometry": {"type": "Point", "coordinates": [-75.3073199556, 40.1511866786]}, "type": "Feature", "properties": {"collection_times": [{"days": "Mon-Sat", "time": "1:15pm"}, {"days": "Sun", "time": "Closed"}], "id": "1942200005", "name": "USPS COLLECTION BOX - BLUE BOX", "address": {"city": "BLUE BELL", "state": "PA", "street": "1701 SWEDE RD", "postcode": "19422"}}},
{"geometry": {"type": "Point", "coordinates": [-75.302462726, 40.1548420218]}, "type": "Feature", "properties": {"collection_times": [{"days": "Mon-Sat", "time": "1:15pm"}, {"days": "Sun", "time": "Closed"}], "id": "1942200008", "name": "USPS COLLECTION BOX - BLUE BOX", "address": {"city": "BLUE BELL", "state": "PA", "street": "1510 DEKALB PIKE", "postcode": "19422"}}},
{"geometry": {"type": "Point", "coordinates": [-75.2992858842, 40.1722662146]}, "type": "Feature", "properties": {"collection_times": [{"days": "Mon-Sat", "time": "1:30pm"}, {"days": "Sun", "time": "Closed"}], "id": "1942200009", "name": "USPS COLLECTION BOX - BLUE BOX", "address": {"city": "BLUE BELL", "state": "PA", "street": "1750 SKIPPACK PIKE", "postcode": "19422"}}},
{"geometry": {"type": "Point", "coordinates": [-75.2862646767, 40.1646964797]}, "type": "Feature", "properties": {"collection_times": [{"days": "Mon-Sat", "time": "1:15pm"}, {"days": "Sun", "time": "Closed"}], "id": "1942200010", "name": "USPS COLLECTION BOX - BLUE BOX", "address": {"city": "BLUE BELL", "state": "PA", "street": "1301 SKIPPACK PIKE", "postcode": "19422"}}},
{"geometry": {"type": "Point", "coordinates": [-75.2698692359, 40.1547008364]}, "type": "Feature", "properties": {"collection_times": [{"days": "Mon-Sat", "time": "1:45pm"}, {"days": "Sun", "time": "Closed"}], "id": "1942200012", "name": "USPS COLLECTION BOX - BLUE BOX", "address": {"city": "BLUE BELL", "state": "PA", "street": "723 SKIPPACK PIKE", "postcode": "19422"}}},
{"geometry": {"type": "Point", "coordinates": [-75.268360385, 40.1536945516]}, "type": "Feature", "properties": {"collection_times": [{"days": "Mon-Sat", "time": "10:30am"}, {"days": "Sun", "time": "Closed"}], "id": "1942200013", "name": "USPS COLLECTION BOX - BLUE BOX", "address": {"city": "BLUE BELL", "state": "PA", "street": "653 SKIPPACK PIKE", "postcode": "19422"}}},
{"geometry": {"type": "Point", "coordinates": [-75.2642731008, 40.1551519214]}, "type": "Feature", "properties": {"collection_times": [{"days": "Mon-Fri", "time": "2:15pm"}, {"days": "Sat", "time": "1:45pm"}, {"days": "Sun", "time": "Closed"}], "id": "1942200014", "name": "USPS COLLECTION BOX - BLUE BOX", "address": {"city": "BLUE BELL", "state": "PA", "street": "790 PENLLYN PIKE", "postcode": "19422"}}},
{"geometry": {"type": "Point", "coordinates": [-75.2657956157, 40.1522506199]}, "type": "Feature", "properties": {"collection_times": [{"days": "Mon-Sat", "time": "1:45pm"}, {"days": "Sun", "time": "Closed"}], "id": "1942200016", "name": "USPS COLLECTION BOX - BLUE BOX", "address": {"city": "BLUE BELL", "state": "PA", "street": "595 SKIPPACK PIKE", "postcode": "19422"}}},
{"geometry": {"type": "Point", "coordinates": [-75.2704775925, 40.130897769]}, "type": "Feature", "properties": {"collection_times": [{"days": "Mon-Sat", "time": "10:30am"}, {"days": "Sun", "time": "Closed"}], "id": "1942200020", "name": "USPS COLLECTION BOX - BLUE BOX", "address": {"city": "BLUE BELL", "state": "PA", "street": "4 SENTRY PKWY", "postcode": "19422"}}},
{"geometry": {"type": "Point", "coordinates": [-75.2702198021, 40.1308716749]}, "type": "Feature", "properties": {"collection_times": [{"days": "Mon-Sat", "time": "10:30am"}, {"days": "Sun", "time": "Closed"}], "id": "1942200022", "name": "USPS COLLECTION BOX - BLUE BOX", "address": {"city": "BLUE BELL", "state": "PA", "street": "1 SENTRY PKWY E", "postcode": "19422"}}},
{"geometry": {"type": "Point", "coordinates": [-75.2704815267, 40.130934301]}, "type": "Feature", "properties": {"collection_times": [{"days": "Mon-Fri", "time": "2:00pm"}, {"days": "Sat", "time": "2:30pm"}, {"days": "Sun", "time": "Closed"}], "id": "1942200023", "name": "USPS COLLECTION BOX - BLUE BOX", "address": {"city": "BLUE BELL", "state": "PA", "street": "6 SENTRY PARKWAY EAST", "postcode": "19422"}}},
{"geometry": {"type": "Point", "coordinates": [-75.279809356, 40.1331072309]}, "type": "Feature", "properties": {"collection_times": [{"days": "Mon-Fri", "time": "2:00pm"}, {"days": "Sat", "time": "2:45pm"}, {"days": "Sun", "time": "Closed"}], "id": "1942200024", "name": "USPS COLLECTION BOX - BLUE BOX", "address": {"city": "BLUE BELL", "state": "PA", "street": "1777 SENTRY PKWY W", "postcode": "19422"}}},
{"geometry": {"type": "Point", "coordinates": [-75.279809356, 40.1331072309]}, "type": "Feature", "properties": {"collection_times": [{"days": "Mon-Fri", "time": "2:00pm"}, {"days": "Sat", "time": "2:45pm"}, {"days": "Sun", "time": "Closed"}], "id": "1942200025", "name": "USPS COLLECTION BOX - BLUE BOX", "address": {"city": "BLUE BELL", "state": "PA", "street": "1777 SENTRY PKWY W", "postcode": "19422"}}},
{"geometry": {"type": "Point", "coordinates": [-75.27070834, 40.1276630237]}, "type": "Feature", "properties": {"collection_times": [{"days": "Mon-Sat", "time": "2:00pm"}, {"days": "Sun", "time": "Closed"}], "id": "1942200026", "name": "USPS COLLECTION BOX - BLUE BOX", "address": {"city": "BLUE BELL", "state": "PA", "street": "512 TOWNSHIP LINE RD", "postcode": "19422"}}},
{"geometry": {"type": "Point", "coordinates": [-75.2757459679, 40.1338788679]}, "type": "Feature", "properties": {"collection_times": [{"days": "Mon-Fri", "time": "2:00pm"}, {"days": "Sat", "time": "2:30pm"}, {"days": "Sun", "time": "Closed"}], "id": "1942200028", "name": "USPS COLLECTION BOX - BLUE BOX", "address": {"city": "BLUE BELL", "state": "PA", "street": "5 SENTRY PKWY W", "postcode": "19422"}}},
{"geometry": {"type": "Point", "coordinates": [-75.2855570595, 40.1359939366]}, "type": "Feature", "properties": {"collection_times": [{"days": "Mon-Fri", "time": "5:00pm"}, {"days": "Sat", "time": "3:00pm"}, {"days": "Sun", "time": "Closed"}], "id": "1942200029", "name": "USPS COLLECTION BOX - BLUE BOX", "address": {"city": "BLUE BELL", "state": "PA", "street": "651 E TOWNSHIP LINE RD", "postcode": "19422"}}},
{"geometry": {"type": "Point", "coordinates": [-75.2760224102, 40.1314844971]}, "type": "Feature", "properties": {"collection_times": [{"days": "Mon-Fri", "time": "2:00pm"}, {"days": "Sat", "time": "2:15pm"}, {"days": "Sun", "time": "Closed"}], "id": "1942200030", "name": "USPS COLLECTION BOX - BLUE BOX", "address": {"city": "BLUE BELL", "state": "PA", "street": "482 NORRISTOWN RD", "postcode": "19422"}}},
{"geometry": {"type": "Point", "coordinates": [-75.2854612398, 40.1482872462]}, "type": "Feature", "properties": {"collection_times": [{"days": "Mon-Fri", "time": "1:45pm"}, {"days": "Sat", "time": "2:00pm"}, {"days": "Sun", "time": "Closed"}], "id": "1942200031", "name": "USPS COLLECTION BOX - BLUE BOX", "address": {"city": "BLUE BELL", "state": "PA", "street": "1425 UNION MEETING RD", "postcode": "19422"}}},
{"geometry": {"type": "Point", "coordinates": [-75.2828368668, 40.1761174483]}, "type": "Feature", "properties": {"collection_times": [{"days": "Mon-Sat", "time": "1:30pm"}, {"days": "Sun", "time": "Closed"}], "id": "1942200034", "name": "USPS COLLECTION BOX - BLUE BOX", "address": {"city": "BLUE BELL", "state": "PA", "street": "1810 TOURNAMENT DR", "postcode": "19422"}}},
{"geometry": {"type": "Point", "coordinates": [-75.2855570595, 40.1359939366]}, "type": "Feature", "properties": {"collection_times": [{"days": "Mon-Fri", "time": "5:00pm"}, {"days": "Sat", "time": "3:00pm"}, {"days": "Sun", "time": "Closed"}], "id": "1942200036", "name": "USPS COLLECTION BOX - PO LOBBY", "address": {"city": "BLUE BELL", "state": "PA", "street": "651 E TOWNSHIP LINE RD", "postcode": "19422"}}},
{"geometry": {"type": "Point", "coordinates": [-75.2694605368, 40.1309509826]}, "type": "Feature", "properties": {"collection_times": [{"days": "Mon-Fri", "time": "2:00pm"}, {"days": "Sat", "time": "2:15pm"}, {"days": "Sun", "time": "Closed"}], "id": "1942200037", "name": "USPS COLLECTION BOX - BLUE BOX", "address": {"city": "BLUE BELL", "state": "PA", "street": "470 NORRISTOWN RD", "postcode": "19422"}}},
{"geometry": {"type": "Point", "coordinates": [-75.2855570595, 40.1359939366]}, "type": "Feature", "properties": {"collection_times": [{"days": "Mon-Fri", "time": "5:00pm"}, {"days": "Sat", "time": "3:00pm"}, {"days": "Sun", "time": "Closed"}], "id": "1942200039", "name": "USPS COLLECTION BOX - APC", "address": {"city": "BLUE BELL", "state": "PA", "street": "651 E TOWNSHIP LINE RD", "postcode": "19422"}}},
{"geometry": {"type": "Point", "coordinates": [-75.2855570595, 40.1359939366]}, "type": "Feature", "properties": {"collection_times": [{"days": "Mon-Fri", "time": "5:00pm"}, {"days": "Sat", "time": "3:00pm"}, {"days": "Sun", "time": "Closed"}], "id": "1942200040", "name": "USPS COLLECTION BOX - PO LOBBY", "address": {"city": "BLUE BELL", "state": "PA", "street": "651 E TOWNSHIP LINE RD", "postcode": "19422"}}},
{"geometry": {"type": "Point", "coordinates": [-75.3653896427, 40.2110481466]}, "type": "Feature", "properties": {"collection_times": [{"days": "Mon-Fri", "time": "5:00pm"}, {"days": "Sat", "time": "11:30am"}, {"days": "Sun", "time": "Closed"}], "id": "1942300000", "name": "USPS COLLECTION BOX - BLUE BOX", "address": {"city": "CEDARS", "state": "PA", "street": "3340 SKIPPACK PIKE", "postcode": "19423"}}},
{"geometry": {"type": "Point", "coordinates": [-75.3653896427, 40.2110481466]}, "type": "Feature", "properties": {"collection_times": [{"days": "Mon-Fri", "time": "5:00pm"}, {"days": "Sat", "time": "11:30am"}, {"days": "Sun", "time": "Closed"}], "id": "1942300001", "name": "USPS COLLECTION BOX - PO LOBBY", "address": {"city": "CEDARS", "state": "PA", "street": "3340 SKIPPACK PIKE", "postcode": "19423"}}},
{"geometry": {"type": "Point", "coordinates": [-75.6214930555, 40.0938428052]}, "type": "Feature", "properties": {"collection_times": [{"days": "Mon-Fri", "time": "4:30pm"}, {"days": "Sat", "time": "11:30am"}, {"days": "Sun", "time": "Closed"}], "id": "1942500001", "name": "USPS COLLECTION BOX - BLUE BOX", "address": {"city": "CHESTER SPRINGS", "state": "PA", "street": "1214 ROUTE 113", "postcode": "19425"}}},
{"geometry": {"type": "Point", "coordinates": [-75.6214930555, 40.0938428052]}, "type": "Feature", "properties": {"collection_times": [{"days": "Mon-Fri", "time": "4:30pm"}, {"days": "Sat", "time": "11:30am"}, {"days": "Sun", "time": "Closed"}], "id": "1942500002", "name": "USPS COLLECTION BOX - PO LOBBY", "address": {"city": "CHESTER SPRINGS", "state": "PA", "street": "1214 ROUTE 113", "postcode": "19425"}}},
{"geometry": {"type": "Point", "coordinates": [-75.4553482243, 40.1872345847]}, "type": "Feature", "properties": {"collection_times": [{"days": "Mon-Sat", "time": "9:45am"}, {"days": "Sun", "time": "Closed"}], "id": "1942600002", "name": "USPS COLLECTION BOX - BLUE BOX", "address": {"city": "COLLEGEVILLE", "state": "PA", "street": "54 W 4TH AVE", "postcode": "19426"}}},
{"geometry": {"type": "Point", "coordinates": [-75.4554021747, 40.2380952547]}, "type": "Feature", "properties": {"collection_times": [{"days": "Mon-Sat", "time": "9:15am"}, {"days": "Sun", "time": "Closed"}], "id": "1942600003", "name": "USPS COLLECTION BOX - BLUE BOX", "address": {"city": "COLLEGEVILLE", "state": "PA", "street": "845 GRAVEL PIKE", "postcode": "19426"}}},
{"geometry": {"type": "Point", "coordinates": [-75.4389099447, 40.1783556969]}, "type": "Feature", "properties": {"collection_times": [{"days": "Mon-Fri", "time": "12:00pm"}, {"days": "Sat", "time": "1:00pm"}, {"days": "Sun", "time": "Closed"}], "id": "1942600004", "name": "USPS COLLECTION BOX - BLUE BOX", "address": {"city": "COLLEGEVILLE", "state": "PA", "street": "3851 RIDGE PIKE", "postcode": "19426"}}},
{"geometry": {"type": "Point", "coordinates": [-75.4531385757, 40.1920673741]}, "type": "Feature", "properties": {"collection_times": [{"days": "Mon-Fri", "time": "12:00pm"}, {"days": "Sat", "time": "1:00pm"}, {"days": "Sun", "time": "Closed"}], "id": "1942600005", "name": "USPS COLLECTION BOX - BLUE BOX", "address": {"city": "COLLEGEVILLE", "state": "PA", "street": "74 E 5TH AVE", "postcode": "19426"}}},
{"geometry": {"type": "Point", "coordinates": [-75.4556192404, 40.1902373374]}, "type": "Feature", "properties": {"collection_times": [{"days": "Mon-Fri", "time": "10:30am"}, {"days": "Sat", "time": "10:20am"}, {"days": "Sun", "time": "Closed"}], "id": "1942600009", "name": "USPS COLLECTION BOX - BLUE BOX", "address": {"city": "COLLEGEVILLE", "state": "PA", "street": "491 E MAIN ST", "postcode": "19426"}}},
{"geometry": {"type": "Point", "coordinates": [-75.4677599478, 40.1952850225]}, "type": "Feature", "properties": {"collection_times": [{"days": "Mon-Fri", "time": "12:00pm"}, {"days": "Sat", "time": "1:00pm"}, {"days": "Sun", "time": "Closed"}], "id": "1942600010", "name": "USPS COLLECTION BOX - BLUE BOX", "address": {"city": "COLLEGEVILLE", "state": "PA", "street": "130 W MAIN ST", "postcode": "19426"}}},
{"geometry": {"type": "Point", "coordinates": [-75.4692800502, 40.1983358745]}, "type": "Feature", "properties": {"collection_times": [{"days": "Mon-Fri", "time": "5:00pm"}, {"days": "Sat", "time": "3:00pm"}, {"days": "Sun", "time": "Closed"}], "id": "1942600011", "name": "USPS COLLECTION BOX - BLUE BOX", "address": {"city": "COLLEGEVILLE", "state": "PA", "street": "52 W 3RD AVE", "postcode": "19426"}}},
{"geometry": {"type": "Point", "coordinates": [-75.4692800502, 40.1983358745]}, "type": "Feature", "properties": {"collection_times": [{"days": "Mon-Fri", "time": "5:00pm"}, {"days": "Sat", "time": "3:00pm"}, {"days": "Sun", "time": "Closed"}], "id": "1942600012", "name": "USPS COLLECTION BOX - BLUE BOX", "address": {"city": "COLLEGEVILLE", "state": "PA", "street": "52 W 3RD AVE", "postcode": "19426"}}},
{"geometry": {"type": "Point", "coordinates": [-75.450883406, 40.1853089384]}, "type": "Feature", "properties": {"collection_times": [{"days": "Mon-Fri", "time": "12:00pm"}, {"days": "Sat", "time": "1:00pm"}, {"days": "Sun", "time": "Closed"}], "id": "1942600016", "name": "USPS COLLECTION BOX - BLUE BOX", "address": {"city": "COLLEGEVILLE", "state": "PA", "street": "222 E MAIN ST", "postcode": "19426"}}},
{"geometry": {"type": "Point", "coordinates": [-75.453041573, 40.1801112086]}, "type": "Feature", "properties": {"collection_times": [{"days": "Mon-Fri", "time": "12:00pm"}, {"days": "Sat", "time": "1:00pm"}, {"days": "Sun", "time": "Closed"}], "id": "1942600017", "name": "USPS COLLECTION BOX - BLUE BOX", "address": {"city": "COLLEGEVILLE", "state": "PA", "street": "201 2ND AVE", "postcode": "19426"}}},
{"geometry": {"type": "Point", "coordinates": [-75.4692800502, 40.1983358745]}, "type": "Feature", "properties": {"collection_times": [{"days": "Mon-Fri", "time": "5:00pm"}, {"days": "Sat", "time": "2:45pm"}, {"days": "Sun", "time": "Closed"}], "id": "1942600018", "name": "USPS COLLECTION BOX - PO LOBBY", "address": {"city": "COLLEGEVILLE", "state": "PA", "street": "52 W 3RD AVE", "postcode": "19426"}}},
{"geometry": {"type": "Point", "coordinates": [-75.4522470063, 40.188710585]}, "type": "Feature", "properties": {"collection_times": [{"days": "Mon-Fri", "time": "4:30pm"}, {"days": "Sat", "time": "3:00pm"}, {"days": "Sun", "time": "Closed"}], "id": "1942600019", "name": "USPS COLLECTION BOX - EXPRESS", "address": {"city": "COLLEGEVILLE", "state": "PA", "street": "52 W 3RD AVE", "postcode": "19426"}}},
{"geometry": {"type": "Point", "coordinates": [-75.4692800502, 40.1983358745]}, "type": "Feature", "properties": {"collection_times": [{"days": "Mon-Fri", "time": "5:00pm"}, {"days": "Sat", "time": "2:45pm"}, {"days": "Sun", "time": "Closed"}], "id": "1942600021", "name": "USPS COLLECTION BOX - PO LOBBY", "address": {"city": "COLLEGEVILLE", "state": "PA", "street": "52 W 3RD AVE", "postcode": "19426"}}},
{"geometry": {"type": "Point", "coordinates": [-75.2849258703, 40.0939406273]}, "type": "Feature", "properties": {"collection_times": [{"days": "Mon-Fri", "time": "1:45pm"}, {"days": "Sat", "time": "11:30am"}, {"days": "Sun", "time": "Closed"}], "id": "1942800003", "name": "USPS COLLECTION BOX - BLUE BOX", "address": {"city": "CONSHOHOCKEN", "state": "PA", "street": "15 E RIDGE PIKE", "postcode": "19428"}}},
{"geometry": {"type": "Point", "coordinates": [-75.2885659494, 40.0945860189]}, "type": "Feature", "properties": {"collection_times": [{"days": "Mon-Fri", "time": "1:45pm"}, {"days": "Sat", "time": "11:30am"}, {"days": "Sun", "time": "Closed"}], "id": "1942800004", "name": "USPS COLLECTION BOX - BLUE BOX", "address": {"city": "CONSHOHOCKEN", "state": "PA", "street": "200 W RIDGE PIKE", "postcode": "19428"}}},
{"geometry": {"type": "Point", "coordinates": [-75.298303999, 40.097285292]}, "type": "Feature", "properties": {"collection_times": [{"days": "Mon-Fri", "time": "1:30pm"}, {"days": "Sat", "time": "10:00am"}, {"days": "Sun", "time": "Closed"}], "id": "1942800005", "name": "USPS COLLECTION BOX - BLUE BOX", "address": {"city": "CONSHOHOCKEN", "state": "PA", "street": "625 W RIDGE PIKE", "postcode": "19428"}}},
{"geometry": {"type": "Point", "coordinates": [-75.2951342953, 40.09103913]}, "type": "Feature", "properties": {"collection_times": [{"days": "Mon-Fri", "time": "1:30pm"}, {"days": "Sat", "time": "11:30am"}, {"days": "Sun", "time": "Closed"}], "id": "1942800008", "name": "USPS COLLECTION BOX - BLUE BOX", "address": {"city": "CONSHOHOCKEN", "state": "PA", "street": "400 HALLMAN AVE", "postcode": "19428"}}},
{"geometry": {"type": "Point", "coordinates": [-75.3059808378, 40.0864828108]}, "type": "Feature", "properties": {"collection_times": [{"days": "Mon-Fri", "time": "2:15pm"}, {"days": "Sat", "time": "10:00am"}, {"days": "Sun", "time": "Closed"}], "id": "1942800011", "name": "USPS COLLECTION BOX - BLUE BOX", "address": {"city": "CONSHOHOCKEN", "state": "PA", "street": "1075 COLWELL LN", "postcode": "19428"}}},
{"geometry": {"type": "Point", "coordinates": [-75.3019836277, 40.0818794788]}, "type": "Feature", "properties": {"collection_times": [{"days": "Mon-Fri", "time": "2:45pm"}, {"days": "Sat", "time": "10:00am"}, {"days": "Sun", "time": "Closed"}], "id": "1942800015", "name": "USPS COLLECTION BOX - BLUE BOX", "address": {"city": "CONSHOHOCKEN", "state": "PA", "street": "151 W 9TH AVE", "postcode": "19428"}}},
{"geometry": {"type": "Point", "coordinates": [-75.3052414967, 40.0785068628]}, "type": "Feature", "properties": {"collection_times": [{"days": "Mon-Fri", "time": "2:30pm"}, {"days": "Sat", "time": "9:30am"}, {"days": "Sun", "time": "Closed"}], "id": "1942800018", "name": "USPS COLLECTION BOX - BLUE BOX", "address": {"city": "CONSHOHOCKEN", "state": "PA", "street": "145 W 5TH AVE", "postcode": "19428"}}},
{"geometry": {"type": "Point", "coordinates": [-75.3036340345, 40.0766339227]}, "type": "Feature", "properties": {"collection_times": [{"days": "Mon-Fri", "time": "4:45pm"}, {"days": "Sat", "time": "3:00pm"}, {"days": "Sun", "time": "Closed"}], "id": "1942800020", "name": "USPS COLLECTION BOX - BLUE BOX", "address": {"city": "CONSHOHOCKEN", "state": "PA", "street": "426 FAYETTE ST", "postcode": "19428"}}},
{"geometry": {"type": "Point", "coordinates": [-75.3033120906, 40.0768755624]}, "type": "Feature", "properties": {"collection_times": [{"days": "Mon-Fri", "time": "5:00pm"}, {"days": "Sat", "time": "3:00pm"}, {"days": "Sun", "time": "Closed"}], "id": "1942800021", "name": "USPS COLLECTION BOX - BLUE BOX", "address": {"city": "CONSHOHOCKEN", "state": "PA", "street": "425 FAYETTE ST", "postcode": "19428"}}},
{"geometry": {"type": "Point", "coordinates": [-75.286518732, 40.076896708]}, "type": "Feature", "properties": {"collection_times": [{"days": "Mon-Fri", "time": "1:15pm"}, {"days": "Sat", "time": "11:00am"}, {"days": "Sun", "time": "Closed"}], "id": "1942800027", "name": "USPS COLLECTION BOX - BLUE BOX", "address": {"city": "CONSHOHOCKEN", "state": "PA", "street": "555 E NORTH LN", "postcode": "19428"}}},
{"geometry": {"type": "Point", "coordinates": [-75.3158575746, 40.0685251225]}, "type": "Feature", "properties": {"collection_times": [{"days": "Mon-Fri", "time": "12:30pm"}, {"days": "Sat", "time": "11:00am"}, {"days": "Sun", "time": "Closed"}], "id": "1942800032", "name": "USPS COLLECTION BOX - BLUE BOX", "address": {"city": "CONSHOHOCKEN", "state": "PA", "street": "426 FORD ST", "postcode": "19428"}}},
{"geometry": {"type": "Point", "coordinates": [-75.325109531, 40.067857167]}, "type": "Feature", "properties": {"collection_times": [{"days": "Mon-Fri", "time": "12:30pm"}, {"days": "Sat", "time": "10:00am"}, {"days": "Sun", "time": "Closed"}], "id": "1942800034", "name": "USPS COLLECTION BOX - BLUE BOX", "address": {"city": "CONSHOHOCKEN", "state": "PA", "street": "1 UNION HILL RD", "postcode": "19428"}}},
{"geometry": {"type": "Point", "coordinates": [-75.285875488, 40.07578717]}, "type": "Feature", "properties": {"collection_times": [{"days": "Mon-Fri", "time": "1:15pm"}, {"days": "Sat", "time": "11:00am"}, {"days": "Sun", "time": "Closed"}], "id": "1942800038", "name": "USPS COLLECTION BOX - BLUE BOX", "address": {"city": "CONSHOHOCKEN", "state": "PA", "street": "1100 E HECTOR ST", "postcode": "19428"}}},
{"geometry": {"type": "Point", "coordinates": [-75.2965656756, 40.0800021229]}, "type": "Feature", "properties": {"collection_times": [{"days": "Mon-Fri", "time": "1:30pm"}, {"days": "Sat", "time": "10:00am"}, {"days": "Sun", "time": "Closed"}], "id": "1942800046", "name": "USPS COLLECTION BOX - BLUE BOX", "address": {"city": "CONSHOHOCKEN", "state": "PA", "street": "151 E 10TH AVE", "postcode": "19428"}}},
{"geometry": {"type": "Point", "coordinates": [-75.2979319932, 40.0737927713]}, "type": "Feature", "properties": {"collection_times": [{"days": "Mon-Fri", "time": "1:15pm"}, {"days": "Sat", "time": "10:00am"}, {"days": "Sun", "time": "Closed"}], "id": "1942800047", "name": "USPS COLLECTION BOX - BLUE BOX", "address": {"city": "CONSHOHOCKEN", "state": "PA", "street": "441 E HECTOR ST", "postcode": "19428"}}},
{"geometry": {"type": "Point", "coordinates": [-75.2987624304, 40.081497383]}, "type": "Feature", "properties": {"collection_times": [{"days": "Mon-Fri", "time": "3:00pm"}, {"days": "Sat", "time": "9:30am"}, {"days": "Sun", "time": "Closed"}], "id": "1942800053", "name": "USPS COLLECTION BOX - BLUE BOX", "address": {"city": "CONSHOHOCKEN", "state": "PA", "street": "1000 FAYETTE ST", "postcode": "19428"}}},
{"geometry": {"type": "Point", "coordinates": [-75.2974824688, 40.0828010038]}, "type": "Feature", "properties": {"collection_times": [{"days": "Mon-Fri", "time": "2:45pm"}, {"days": "Sat", "time": "11:30am"}, {"days": "Sun", "time": "Closed"}], "id": "1942800054", "name": "USPS COLLECTION BOX - BLUE BOX", "address": {"city": "CONSHOHOCKEN", "state": "PA", "street": "1200 FAYETTE ST", "postcode": "19428"}}},
{"geometry": {"type": "Point", "coordinates": [-75.3095521991, 40.0743913485]}, "type": "Feature", "properties": {"collection_times": [{"days": "Mon-Fri", "time": "12:00pm"}, {"days": "Sat", "time": "11:00am"}, {"days": "Sun", "time": "Closed"}], "id": "1942800056", "name": "USPS COLLECTION BOX - BLUE BOX", "address": {"city": "CONSHOHOCKEN", "state": "PA", "street": "2 MAPLE ST", "postcode": "19428"}}},
{"geometry": {"type": "Point", "coordinates": [-75.2912825809, 40.0892161903]}, "type": "Feature", "properties": {"collection_times": [{"days": "Mon-Fri", "time": "2:00pm"}, {"days": "Sat", "time": "11:30am"}, {"days": "Sun", "time": "Closed"}], "id": "1942800057", "name": "USPS COLLECTION BOX - BLUE BOX", "address": {"city": "CONSHOHOCKEN", "state": "PA", "street": "1700 BUTLER PIKE", "postcode": "19428"}}},
{"geometry": {"type": "Point", "coordinates": [-75.2889391392, 40.0916968552]}, "type": "Feature", "properties": {"collection_times": [{"days": "Mon-Fri", "time": "2:00pm"}, {"days": "Sat", "time": "10:00am"}, {"days": "Sun", "time": "Closed"}], "id": "1942800058", "name": "USPS COLLECTION BOX - BLUE BOX", "address": {"city": "CONSHOHOCKEN", "state": "PA", "street": "1801 BUTLER PIKE", "postcode": "19428"}}},
{"geometry": {"type": "Point", "coordinates": [-75.3068574186, 40.0742588571]}, "type": "Feature", "properties": {"collection_times": [{"days": "Mon-Fri", "time": "3:00pm"}, {"days": "Sat", "time": "9:30am"}, {"days": "Sun", "time": "Closed"}], "id": "1942800069", "name": "USPS COLLECTION BOX - BLUE BOX", "address": {"city": "CONSHOHOCKEN", "state": "PA", "street": "1 W 1ST AVE", "postcode": "19428"}}},
{"geometry": {"type": "Point", "coordinates": [-75.3012324487, 40.0789883271]}, "type": "Feature", "properties": {"collection_times": [{"days": "Mon-Fri", "time": "3:00pm"}, {"days": "Sat", "time": "9:30am"}, {"days": "Sun", "time": "Closed"}], "id": "1942800071", "name": "USPS COLLECTION BOX - BLUE BOX", "address": {"city": "CONSHOHOCKEN", "state": "PA", "street": "700 FAYETTE ST", "postcode": "19428"}}},
{"geometry": {"type": "Point", "coordinates": [-75.2711320579, 40.063480918]}, "type": "Feature", "properties": {"collection_times": [{"days": "Mon-Fri", "time": "12:15pm"}, {"days": "Sat", "time": "10:00am"}, {"days": "Sun", "time": "Closed"}], "id": "1942800073", "name": "USPS COLLECTION BOX - BLUE BOX", "address": {"city": "CONSHOHOCKEN", "state": "PA", "street": "800 RIVER RD", "postcode": "19428"}}},
{"geometry": {"type": "Point", "coordinates": [-75.2835795363, 40.0935637432]}, "type": "Feature", "properties": {"collection_times": [{"days": "Mon-Fri", "time": "1:45pm"}, {"days": "Sat", "time": "10:00am"}, {"days": "Sun", "time": "Closed"}], "id": "1942800074", "name": "USPS COLLECTION BOX - BLUE BOX", "address": {"city": "CONSHOHOCKEN", "state": "PA", "street": "18 E RIDGE PIKE", "postcode": "19428"}}},
{"geometry": {"type": "Point", "coordinates": [-75.3025963269, 40.0788427759]}, "type": "Feature", "properties": {"collection_times": [{"days": "Mon-Fri", "time": "4:45pm"}, {"days": "Sat", "time": "3:00pm"}, {"days": "Sun", "time": "Closed"}], "id": "1942800075", "name": "USPS COLLECTION BOX - EXPRESS", "address": {"city": "CONSHOHOCKEN", "state": "PA", "street": "425 FAYETTE ST", "postcode": "19428"}}},
{"geometry": {"type": "Point", "coordinates": [-75.3082184634, 40.0732722466]}, "type": "Feature", "properties": {"collection_times": [{"days": "Mon-Fri", "time": "12:00pm"}, {"days": "Sat", "time": "11:00am"}, {"days": "Sun", "time": "Closed"}], "id": "1942800084", "name": "USPS COLLECTION BOX - BLUE BOX", "address": {"city": "CONSHOHOCKEN", "state": "PA", "street": "101 W ELM ST", "postcode": "19428"}}},
{"geometry": {"type": "Point", "coordinates": [-75.3095229477, 40.0690591958]}, "type": "Feature", "properties": {"collection_times": [{"days": "Mon-Fri", "time": "4:45pm"}, {"days": "Sat", "time": "10:00am"}, {"days": "Sun", "time": "Closed"}], "id": "1942800086", "name": "USPS COLLECTION BOX - BLUE BOX", "address": {"city": "CONSHOHOCKEN", "state": "PA", "street": "300 BARR HARBOR DR", "postcode": "19428"}}},
{"geometry": {"type": "Point", "coordinates": [-75.307074016, 40.071473027]}, "type": "Feature", "properties": {"collection_times": [{"days": "Mon-Fri", "time": "12:15pm"}, {"days": "Sat", "time": "10:00am"}, {"days": "Sun", "time": "Closed"}], "id": "1942800087", "name": "USPS COLLECTION BOX - BLUE BOX", "address": {"city": "CONSHOHOCKEN", "state": "PA", "street": "161 WASHINGTON ST", "postcode": "19428"}}},
{"geometry": {"type": "Point", "coordinates": [-75.3033120906, 40.0768755624]}, "type": "Feature", "properties": {"collection_times": [{"days": "Mon-Fri", "time": "5:00pm"}, {"days": "Sat", "time": "12:00pm"}, {"days": "Sun", "time": "Closed"}], "id": "1942800089", "name": "USPS COLLECTION BOX - PO LOBBY", "address": {"city": "CONSHOHOCKEN", "state": "PA", "street": "425 FAYETTE ST", "postcode": "19428"}}},
{"geometry": {"type": "Point", "coordinates": [-75.3033120906, 40.0768755624]}, "type": "Feature", "properties": {"collection_times": [{"days": "Mon-Fri", "time": "5:00pm"}, {"days": "Sat", "time": "12:00pm"}, {"days": "Sun", "time": "Closed"}], "id": "1942800090", "name": "USPS COLLECTION BOX - PO LOBBY", "address": {"city": "CONSHOHOCKEN", "state": "PA", "street": "425 FAYETTE ST", "postcode": "19428"}}},
{"geometry": {"type": "Point", "coordinates": [-75.3033120906, 40.0768755624]}, "type": "Feature", "properties": {"collection_times": [{"days": "Mon-Fri", "time": "4:45pm"}, {"days": "Sat", "time": "3:00pm"}, {"days": "Sun", "time": "Closed"}], "id": "1942800091", "name": "USPS COLLECTION BOX - BLUE BOX", "address": {"city": "CONSHOHOCKEN", "state": "PA", "street": "425 FAYETTE ST", "postcode": "19428"}}},
{"geometry": {"type": "Point", "coordinates": [-75.4051773062, 40.2291034825]}, "type": "Feature", "properties": {"collection_times": [{"days": "Mon-Fri", "time": "5:00pm"}, {"days": "Sat", "time": "11:15am"}, {"days": "Sun", "time": "Closed"}], "id": "1943000001", "name": "USPS COLLECTION BOX - BLUE BOX", "address": {"city": "CREAMERY", "state": "PA", "street": "1117 BRIDGE RD", "postcode": "19430"}}},
{"geometry": {"type": "Point", "coordinates": [-75.4051773062, 40.2291034825]}, "type": "Feature", "properties": {"collection_times": [{"days": "Mon-Fri", "time": "5:00pm"}, {"days": "Sat", "time": "11:15am"}, {"days": "Sun", "time": "Closed"}], "id": "1943000002", "name": "USPS COLLECTION BOX - PO LOBBY", "address": {"city": "CREAMERY", "state": "PA", "street": "1117 BRIDGE RD", "postcode": "19430"}}},
{"geometry": {"type": "Point", "coordinates": [-75.4051773062, 40.2291034825]}, "type": "Feature", "properties": {"collection_times": [{"days": "Mon-Fri", "time": "5:00pm"}, {"days": "Sat", "time": "11:15am"}, {"days": "Sun", "time": "Closed"}], "id": "1943000003", "name": "USPS COLLECTION BOX - PO LOBBY", "address": {"city": "CREAMERY", "state": "PA", "street": "1117 BRIDGE RD", "postcode": "19430"}}},
{"geometry": {"type": "Point", "coordinates": [-75.534933339, 40.0783070444]}, "type": "Feature", "properties": {"collection_times": [{"days": "Mon-Fri", "time": "3:00pm"}, {"days": "Sat", "time": "11:30am"}, {"days": "Sun", "time": "Closed"}], "id": "1943200001", "name": "USPS COLLECTION BOX - BLUE BOX", "address": {"city": "DEVAULT", "state": "PA", "street": "4030 S WHITEHORSE RD", "postcode": "19432"}}},
{"geometry": {"type": "Point", "coordinates": [-75.534933339, 40.0783070444]}, "type": "Feature", "properties": {"collection_times": [{"days": "Mon-Fri", "time": "4:00pm"}, {"days": "Sat", "time": "11:30am"}, {"days": "Sun", "time": "Closed"}], "id": "1943200002", "name": "USPS COLLECTION BOX - PO LOBBY", "address": {"city": "DEVAULT", "state": "PA", "street": "4030 S WHITEHORSE RD", "postcode": "19432"}}},
{"geometry": {"type": "Point", "coordinates": [-75.534933339, 40.0783070444]}, "type": "Feature", "properties": {"collection_times": [{"days": "Mon-Fri", "time": "4:00pm"}, {"days": "Sat", "time": "11:30am"}, {"days": "Sun", "time": "Closed"}], "id": "1943200003", "name": "USPS COLLECTION BOX - PO LOBBY", "address": {"city": "DEVAULT", "state": "PA", "street": "4030 S WHITEHORSE RD", "postcode": "19432"}}},
{"geometry": {"type": "Point", "coordinates": [-75.5430930145, 40.3131722266]}, "type": "Feature", "properties": {"collection_times": [{"days": "Mon-Fri", "time": "4:00pm"}, {"days": "Sat", "time": "1:00pm"}, {"days": "Sun", "time": "Closed"}], "id": "1943500001", "name": "USPS COLLECTION BOX - BLUE BOX", "address": {"city": "FREDERICK", "state": "PA", "street": "2581 BIG RD", "postcode": "19435"}}},
{"geometry": {"type": "Point", "coordinates": [-75.5430930145, 40.3131722266]}, "type": "Feature", "properties": {"collection_times": [{"days": "Mon-Fri", "time": "4:00pm"}, {"days": "Sat", "time": "1:00pm"}, {"days": "Sun", "time": "Closed"}], "id": "1943500002", "name": "USPS COLLECTION BOX - PO LOBBY", "address": {"city": "FREDERICK", "state": "PA", "street": "2581 BIG RD", "postcode": "19435"}}},
{"geometry": {"type": "Point", "coordinates": [-75.5430930145, 40.3131722266]}, "type": "Feature", "properties": {"collection_times": [{"days": "Mon-Fri", "time": "4:00pm"}, {"days": "Sat", "time": "1:00pm"}, {"days": "Sun", "time": "Closed"}], "id": "1943500003", "name": "USPS COLLECTION BOX - PO LOBBY", "address": {"city": "FREDERICK", "state": "PA", "street": "2581 BIG RD", "postcode": "19435"}}},
{"geometry": {"type": "Point", "coordinates": [-75.2543723434, 40.1864827737]}, "type": "Feature", "properties": {"collection_times": [{"days": "Mon-Fri", "time": "5:00pm"}, {"days": "Sat", "time": "11:30am"}, {"days": "Sun", "time": "Closed"}], "id": "1943700001", "name": "USPS COLLECTION BOX - BLUE BOX", "address": {"city": "GWYNEDD VALLEY", "state": "PA", "street": "527 PLYMOUTH RD", "postcode": "19437"}}},
{"geometry": {"type": "Point", "coordinates": [-75.2543723434, 40.1864827737]}, "type": "Feature", "properties": {"collection_times": [{"days": "Mon-Fri", "time": "5:00pm"}, {"days": "Sat", "time": "11:30am"}, {"days": "Sun", "time": "Closed"}], "id": "1943700002", "name": "USPS COLLECTION BOX - PO LOBBY", "address": {"city": "GWYNEDD VALLEY", "state": "PA", "street": "527 PLYMOUTH RD", "postcode": "19437"}}},
{"geometry": {"type": "Point", "coordinates": [-75.3963813872, 40.2782080804]}, "type": "Feature", "properties": {"collection_times": [{"days": "Mon-Fri", "time": "5:00pm"}, {"days": "Sat", "time": "3:00pm"}, {"days": "Sun", "time": "Closed"}], "id": "1943800001", "name": "USPS COLLECTION BOX - BLUE BOX", "address": {"city": "HARLEYSVILLE", "state": "PA", "street": "600 OAK DR", "postcode": "19438"}}},
{"geometry": {"type": "Point", "coordinates": [-75.3860233985, 40.2826867631]}, "type": "Feature", "properties": {"collection_times": [{"days": "Mon-Sat", "time": "2:30pm"}, {"days": "Sun", "time": "Closed"}], "id": "1943800003", "name": "USPS COLLECTION BOX - BLUE BOX", "address": {"city": "HARLEYSVILLE", "state": "PA", "street": "516 PARK AVE", "postcode": "19438"}}},
{"geometry": {"type": "Point", "coordinates": [-75.3768743938, 40.2677010389]}, "type": "Feature", "properties": {"collection_times": [{"days": "Mon-Sat", "time": "2:30pm"}, {"days": "Sun", "time": "Closed"}], "id": "1943800005", "name": "USPS COLLECTION BOX - BLUE BOX", "address": {"city": "HARLEYSVILLE", "state": "PA", "street": "270 MAIN ST", "postcode": "19438"}}},
{"geometry": {"type": "Point", "coordinates": [-75.3963813872, 40.2782080804]}, "type": "Feature", "properties": {"collection_times": [{"days": "Mon-Fri", "time": "5:00pm"}, {"days": "Sat", "time": "3:00pm"}, {"days": "Sun", "time": "Closed"}], "id": "1943800007", "name": "USPS COLLECTION BOX - BLUE BOX", "address": {"city": "HARLEYSVILLE", "state": "PA", "street": "600 OAK DR", "postcode": "19438"}}},
{"geometry": {"type": "Point", "coordinates": [-75.3963813872, 40.2782080804]}, "type": "Feature", "properties": {"collection_times": [{"days": "Mon-Fri", "time": "5:00pm"}, {"days": "Sat", "time": "3:30pm"}, {"days": "Sun", "time": "Closed"}], "id": "1943800008", "name": "USPS COLLECTION BOX - PO LOBBY", "address": {"city": "HARLEYSVILLE", "state": "PA", "street": "600 OAK DR", "postcode": "19438"}}},
{"geometry": {"type": "Point", "coordinates": [-75.3942402314, 40.2838910153]}, "type": "Feature", "properties": {"collection_times": [{"days": "Mon-Sat", "time": "2:30pm"}, {"days": "Sun", "time": "Closed"}], "id": "1943800009", "name": "USPS COLLECTION BOX - BLUE BOX", "address": {"city": "HARLEYSVILLE", "state": "PA", "street": "611 MAIN ST", "postcode": "19438"}}},
{"geometry": {"type": "Point", "coordinates": [-75.3963813872, 40.2782080804]}, "type": "Feature", "properties": {"collection_times": [{"days": "Mon-Fri", "time": "5:00pm"}, {"days": "Sat", "time": "3:30pm"}, {"days": "Sun", "time": "Closed"}], "id": "1943800011", "name": "USPS COLLECTION BOX - PO LOBBY", "address": {"city": "HARLEYSVILLE", "state": "PA", "street": "600 OAK DR", "postcode": "19438"}}},
{"geometry": {"type": "Point", "coordinates": [-75.3006113953, 40.2802818075]}, "type": "Feature", "properties": {"collection_times": [{"days": "Mon-Fri", "time": "5:00pm"}, {"days": "Sat", "time": "3:00pm"}, {"days": "Sun", "time": "Closed"}], "id": "1944000026", "name": "USPS COLLECTION BOX - BLUE BOX", "address": {"city": "HATFIELD", "state": "PA", "street": "45 N MAIN ST", "postcode": "19440"}}},
{"geometry": {"type": "Point", "coordinates": [-75.3006113953, 40.2802818075]}, "type": "Feature", "properties": {"collection_times": [{"days": "Mon-Fri", "time": "4:30pm"}, {"days": "Sat", "time": "12:30pm"}, {"days": "Sun", "time": "Closed"}], "id": "1944000027", "name": "USPS COLLECTION BOX - PO LOBBY", "address": {"city": "HATFIELD", "state": "PA", "street": "45 N MAIN ST", "postcode": "19440"}}},
{"geometry": {"type": "Point", "coordinates": [-75.3006113953, 40.2802818075]}, "type": "Feature", "properties": {"collection_times": [{"days": "Mon-Fri", "time": "4:30pm"}, {"days": "Sat", "time": "12:30pm"}, {"days": "Sun", "time": "Closed"}], "id": "1944000028", "name": "USPS COLLECTION BOX - PO LOBBY", "address": {"city": "HATFIELD", "state": "PA", "street": "45 N MAIN ST", "postcode": "19440"}}},
{"geometry": {"type": "Point", "coordinates": [-75.2901676981, 40.2737303589]}, "type": "Feature", "properties": {"collection_times": [{"days": "Mon-Fri", "time": "11:00am"}, {"days": "Sat", "time": "1:30pm"}, {"days": "Sun", "time": "Closed"}], "id": "1944000029", "name": "USPS COLLECTION BOX - BLUE BOX", "address": {"city": "HATFIELD", "state": "PA", "street": "1700 HATFIELD VALLEY RD", "postcode": "19440"}}},
{"geometry": {"type": "Point", "coordinates": [-75.2934781527, 40.2758031249]}, "type": "Feature", "properties": {"collection_times": [{"days": "Mon-Sat", "time": "9:00am"}, {"days": "Sun", "time": "Closed"}], "id": "1944000030", "name": "USPS COLLECTION BOX - BLUE BOX", "address": {"city": "HATFIELD", "state": "PA", "street": "467 S MAIN ST", "postcode": "19440"}}},
{"geometry": {"type": "Point", "coordinates": [-75.2996886873, 40.2699628565]}, "type": "Feature", "properties": {"collection_times": [{"days": "Mon-Sat", "time": "9:00am"}, {"days": "Sun", "time": "Closed"}], "id": "1944000031", "name": "USPS COLLECTION BOX - BLUE BOX", "address": {"city": "HATFIELD", "state": "PA", "street": "434 W VINE ST", "postcode": "19440"}}},
{"geometry": {"type": "Point", "coordinates": [-75.3132382993, 40.2751820714]}, "type": "Feature", "properties": {"collection_times": [{"days": "Mon-Fri", "time": "11:00am"}, {"days": "Sat", "time": "12:00pm"}, {"days": "Sun", "time": "Closed"}], "id": "1944000032", "name": "USPS COLLECTION BOX - BLUE BOX", "address": {"city": "HATFIELD", "state": "PA", "street": "2700 ELROY RD", "postcode": "19440"}}},
{"geometry": {"type": "Point", "coordinates": [-75.3035865371, 40.2685468546]}, "type": "Feature", "properties": {"collection_times": [{"days": "Mon-Sat", "time": "11:00am"}, {"days": "Sun", "time": "Closed"}], "id": "1944000033", "name": "USPS COLLECTION BOX - BLUE BOX", "address": {"city": "HATFIELD", "state": "PA", "street": "2151 KOFFEL RD", "postcode": "19440"}}},
{"geometry": {"type": "Point", "coordinates": [-75.2915125131, 40.2801843494]}, "type": "Feature", "properties": {"collection_times": [{"days": "Mon-Fri", "time": "11:00am"}, {"days": "Sat", "time": "1:30pm"}, {"days": "Sun", "time": "Closed"}], "id": "1944000034", "name": "USPS COLLECTION BOX - BLUE BOX", "address": {"city": "HATFIELD", "state": "PA", "street": "2058 MAPLE AVE", "postcode": "19440"}}},
{"geometry": {"type": "Point", "coordinates": [-75.3122339671, 40.2782033486]}, "type": "Feature", "properties": {"collection_times": [{"days": "Mon-Fri", "time": "11:00am"}, {"days": "Sat", "time": "12:00pm"}, {"days": "Sun", "time": "Closed"}], "id": "1944000035", "name": "USPS COLLECTION BOX - BLUE BOX", "address": {"city": "HATFIELD", "state": "PA", "street": "1361 FAIRGROUNDS RD", "postcode": "19440"}}},
{"geometry": {"type": "Point", "coordinates": [-75.2915125131, 40.2801843494]}, "type": "Feature", "properties": {"collection_times": [{"days": "Mon-Fri", "time": "11:00am"}, {"days": "Sat", "time": "1:30pm"}, {"days": "Sun", "time": "Closed"}], "id": "1944000036", "name": "USPS COLLECTION BOX - BLUE BOX", "address": {"city": "HATFIELD", "state": "PA", "street": "2058 MAPLE AVE", "postcode": "19440"}}},
{"geometry": {"type": "Point", "coordinates": [-75.2673359425, 40.2886796332]}, "type": "Feature", "properties": {"collection_times": [{"days": "Mon-Sat", "time": "9:15am"}, {"days": "Sun", "time": "Closed"}], "id": "1944000037", "name": "USPS COLLECTION BOX - BLUE BOX", "address": {"city": "HATFIELD", "state": "PA", "street": "1515 BETHLEHEM PIKE", "postcode": "19440"}}},
{"geometry": {"type": "Point", "coordinates": [-75.2845471456, 40.2902727916]}, "type": "Feature", "properties": {"collection_times": [{"days": "Mon-Fri", "time": "11:00am"}, {"days": "Sat", "time": "1:30pm"}, {"days": "Sun", "time": "Closed"}], "id": "1944000038", "name": "USPS COLLECTION BOX - BLUE BOX", "address": {"city": "HATFIELD", "state": "PA", "street": "2287 N PENN RD", "postcode": "19440"}}},
{"geometry": {"type": "Point", "coordinates": [-75.5177276325, 40.1319274708]}, "type": "Feature", "properties": {"collection_times": [{"days": "Mon-Fri", "time": "4:45pm"}, {"days": "Sat", "time": "11:30am"}, {"days": "Sun", "time": "Closed"}], "id": "1944200001", "name": "USPS COLLECTION BOX - BLUE BOX", "address": {"city": "KIMBERTON", "state": "PA", "street": "2102 KIMBERTON RD", "postcode": "19442"}}},
{"geometry": {"type": "Point", "coordinates": [-75.5177276325, 40.1319274708]}, "type": "Feature", "properties": {"collection_times": [{"days": "Mon-Fri", "time": "4:45pm"}, {"days": "Sat", "time": "11:30am"}, {"days": "Sun", "time": "Closed"}], "id": "1944200002", "name": "USPS COLLECTION BOX - PO LOBBY", "address": {"city": "KIMBERTON", "state": "PA", "street": "2102 KIMBERTON RD", "postcode": "19442"}}},
{"geometry": {"type": "Point", "coordinates": [-75.5177276325, 40.1319274708]}, "type": "Feature", "properties": {"collection_times": [{"days": "Mon-Fri", "time": "4:45pm"}, {"days": "Sat", "time": "11:30am"}, {"days": "Sun", "time": "Closed"}], "id": "1944200003", "name": "USPS COLLECTION BOX - PO LOBBY", "address": {"city": "KIMBERTON", "state": "PA", "street": "2102 KIMBERTON RD", "postcode": "19442"}}},
{"geometry": {"type": "Point", "coordinates": [-75.3364617341, 40.2425876485]}, "type": "Feature", "properties": {"collection_times": [{"days": "Mon-Fri", "time": "4:30pm"}, {"days": "Sat", "time": "11:00am"}, {"days": "Sun", "time": "Closed"}], "id": "1944300002", "name": "USPS COLLECTION BOX - BLUE BOX", "address": {"city": "KULPSVILLE", "state": "PA", "street": "1586 SUMNEYTOWN PIKE", "postcode": "19443"}}},
{"geometry": {"type": "Point", "coordinates": [-75.3364617341, 40.2425876485]}, "type": "Feature", "properties": {"collection_times": [{"days": "Mon-Fri", "time": "4:30pm"}, {"days": "Sat", "time": "11:00am"}, {"days": "Sun", "time": "Closed"}], "id": "1944300003", "name": "USPS COLLECTION BOX - PO LOBBY", "address": {"city": "KULPSVILLE", "state": "PA", "street": "1586 SUMNEYTOWN PIKE", "postcode": "19443"}}},
{"geometry": {"type": "Point", "coordinates": [-75.3364617341, 40.2425876485]}, "type": "Feature", "properties": {"collection_times": [{"days": "Mon-Fri", "time": "4:30pm"}, {"days": "Sat", "time": "11:00am"}, {"days": "Sun", "time": "Closed"}], "id": "1944300004", "name": "USPS COLLECTION BOX - PO LOBBY", "address": {"city": "KULPSVILLE", "state": "PA", "street": "1586 SUMNEYTOWN PIKE", "postcode": "19443"}}},
{"geometry": {"type": "Point", "coordinates": [-75.2591506337, 40.0910308194]}, "type": "Feature", "properties": {"collection_times": [{"days": "Mon-Fri", "time": "4:30pm"}, {"days": "Sat", "time": "12:00pm"}, {"days": "Sun", "time": "Closed"}], "id": "1944400002", "name": "USPS COLLECTION BOX - BLUE BOX", "address": {"city": "LAFAYETTE HILL", "state": "PA", "street": "446 GERMANTOWN PIKE", "postcode": "19444"}}},
{"geometry": {"type": "Point", "coordinates": [-75.2516191497, 40.0861168378]}, "type": "Feature", "properties": {"collection_times": [{"days": "Mon-Sat", "time": "12:00pm"}, {"days": "Sun", "time": "Closed"}], "id": "1944400008", "name": "USPS COLLECTION BOX - BLUE BOX", "address": {"city": "LAFAYETTE HILL", "state": "PA", "street": "553 GERMANTOWN PIKE", "postcode": "19444"}}},
{"geometry": {"type": "Point", "coordinates": [-75.2547315148, 40.0881219532]}, "type": "Feature", "properties": {"collection_times": [{"days": "Mon-Sat", "time": "12:00pm"}, {"days": "Sun", "time": "Closed"}], "id": "1944400010", "name": "USPS COLLECTION BOX - BLUE BOX", "address": {"city": "LAFAYETTE HILL", "state": "PA", "street": "600 GERMANTOWN PIKE", "postcode": "19444"}}},
{"geometry": {"type": "Point", "coordinates": [-75.2613985257, 40.0925808355]}, "type": "Feature", "properties": {"collection_times": [{"days": "Mon-Sat", "time": "12:00pm"}, {"days": "Sun", "time": "Closed"}], "id": "1944400012", "name": "USPS COLLECTION BOX - BLUE BOX", "address": {"city": "LAFAYETTE HILL", "state": "PA", "street": "412 GERMANTOWN PIKE", "postcode": "19444"}}},
{"geometry": {"type": "Point", "coordinates": [-75.2591506337, 40.0910308194]}, "type": "Feature", "properties": {"collection_times": [{"days": "Mon-Fri", "time": "4:30pm"}, {"days": "Sat", "time": "12:00pm"}, {"days": "Sun", "time": "Closed"}], "id": "1944400025", "name": "USPS COLLECTION BOX - BLUE BOX", "address": {"city": "LAFAYETTE HILL", "state": "PA", "street": "446 GERMANTOWN PIKE", "postcode": "19444"}}},
{"geometry": {"type": "Point", "coordinates": [-75.2591506337, 40.0910308194]}, "type": "Feature", "properties": {"collection_times": [{"days": "Mon-Fri", "time": "4:30pm"}, {"days": "Sat", "time": "11:00am"}, {"days": "Sun", "time": "Closed"}], "id": "1944400026", "name": "USPS COLLECTION BOX - PO LOBBY", "address": {"city": "LAFAYETTE HILL", "state": "PA", "street": "446 GERMANTOWN PIKE", "postcode": "19444"}}},
{"geometry": {"type": "Point", "coordinates": [-75.256899904, 40.0895314894]}, "type": "Feature", "properties": {"collection_times": [{"days": "Mon-Fri", "time": "4:30pm"}, {"days": "Sat", "time": "12:00pm"}, {"days": "Sun", "time": "Closed"}], "id": "1944400029", "name": "USPS COLLECTION BOX - EXPRESS", "address": {"city": "LAFAYETTE HILL", "state": "PA", "street": "446 GERMANTOWN PIKE", "postcode": "19444"}}},
{"geometry": {"type": "Point", "coordinates": [-75.2591506337, 40.0910308194]}, "type": "Feature", "properties": {"collection_times": [{"days": "Mon-Fri", "time": "4:30pm"}, {"days": "Sat", "time": "11:00am"}, {"days": "Sun", "time": "Closed"}], "id": "1944400030", "name": "USPS COLLECTION BOX - PO LOBBY", "address": {"city": "LAFAYETTE HILL", "state": "PA", "street": "446 GERMANTOWN PIKE", "postcode": "19444"}}},
{"geometry": {"type": "Point", "coordinates": [-75.2896873155, 40.2386303531]}, "type": "Feature", "properties": {"collection_times": [{"days": "Mon-Fri", "time": "5:00pm"}, {"days": "Sat", "time": "2:15pm"}, {"days": "Sun", "time": "Closed"}], "id": "1944600002", "name": "USPS COLLECTION BOX - EXPRESS", "address": {"city": "LANSDALE", "state": "PA", "street": "20 VINE ST", "postcode": "19446"}}},
{"geometry": {"type": "Point", "coordinates": [-75.2716350051, 40.2513425975]}, "type": "Feature", "properties": {"collection_times": [{"days": "Mon-Fri", "time": "11:00am"}, {"days": "Sat", "time": "10:00am"}, {"days": "Sun", "time": "Closed"}], "id": "1944600008", "name": "USPS COLLECTION BOX - BLUE BOX", "address": {"city": "LANSDALE", "state": "PA", "street": "100 CAMPUS DR", "postcode": "19446"}}},
{"geometry": {"type": "Point", "coordinates": [-75.3028921402, 40.2408324919]}, "type": "Feature", "properties": {"collection_times": [{"days": "Mon-Fri", "time": "1:40pm"}, {"days": "Sat", "time": "11:00am"}, {"days": "Sun", "time": "Closed"}], "id": "1944600009", "name": "USPS COLLECTION BOX - BLUE BOX", "address": {"city": "LANSDALE", "state": "PA", "street": "850 S VALLEY FORGE RD", "postcode": "19446"}}},
{"geometry": {"type": "Point", "coordinates": [-75.2768386519, 40.2485430185]}, "type": "Feature", "properties": {"collection_times": [{"days": "Mon-Sat", "time": "11:00am"}, {"days": "Sun", "time": "Closed"}], "id": "1944600015", "name": "USPS COLLECTION BOX - BLUE BOX", "address": {"city": "LANSDALE", "state": "PA", "street": "902 N BROAD ST", "postcode": "19446"}}},
{"geometry": {"type": "Point", "coordinates": [-75.2859616314, 40.2508533373]}, "type": "Feature", "properties": {"collection_times": [{"days": "Mon-Fri", "time": "2:15pm"}, {"days": "Sat", "time": "11:00am"}, {"days": "Sun", "time": "Closed"}], "id": "1944600026", "name": "USPS COLLECTION BOX - BLUE BOX", "address": {"city": "LANSDALE", "state": "PA", "street": "650 N CANNON AVE", "postcode": "19446"}}},
{"geometry": {"type": "Point", "coordinates": [-75.2732814943, 40.2353411964]}, "type": "Feature", "properties": {"collection_times": [{"days": "Mon-Sat", "time": "11:00am"}, {"days": "Sun", "time": "Closed"}], "id": "1944600027", "name": "USPS COLLECTION BOX - BLUE BOX", "address": {"city": "LANSDALE", "state": "PA", "street": "601 E MAIN ST", "postcode": "19446"}}},
{"geometry": {"type": "Point", "coordinates": [-75.2708268544, 40.2338329238]}, "type": "Feature", "properties": {"collection_times": [{"days": "Mon-Sat", "time": "11:00am"}, {"days": "Sun", "time": "Closed"}], "id": "1944600030", "name": "USPS COLLECTION BOX - BLUE BOX", "address": {"city": "LANSDALE", "state": "PA", "street": "616 E MAIN ST", "postcode": "19446"}}},
{"geometry": {"type": "Point", "coordinates": [-75.3046520699, 40.2228315206]}, "type": "Feature", "properties": {"collection_times": [{"days": "Mon-Fri", "time": "2:00pm"}, {"days": "Sat", "time": "11:00am"}, {"days": "Sun", "time": "Closed"}], "id": "1944600036", "name": "USPS COLLECTION BOX - BLUE BOX", "address": {"city": "LANSDALE", "state": "PA", "street": "1 MARLBROOK LN", "postcode": "19446"}}},
{"geometry": {"type": "Point", "coordinates": [-75.3153582955, 40.2284768776]}, "type": "Feature", "properties": {"collection_times": [{"days": "Mon-Fri", "time": "1:45pm"}, {"days": "Sat", "time": "11:00am"}, {"days": "Sun", "time": "Closed"}], "id": "1944600037", "name": "USPS COLLECTION BOX - BLUE BOX", "address": {"city": "LANSDALE", "state": "PA", "street": "1601 S VALLEY FORGE RD", "postcode": "19446"}}},
{"geometry": {"type": "Point", "coordinates": [-75.3150724307, 40.2287643665]}, "type": "Feature", "properties": {"collection_times": [{"days": "Mon-Fri", "time": "2:00pm"}, {"days": "Sat", "time": "11:00am"}, {"days": "Sun", "time": "Closed"}], "id": "1944600038", "name": "USPS COLLECTION BOX - BLUE BOX", "address": {"city": "LANSDALE", "state": "PA", "street": "1551 S VALLEY FORGE RD", "postcode": "19446"}}},
{"geometry": {"type": "Point", "coordinates": [-75.2622279257, 40.2609179522]}, "type": "Feature", "properties": {"collection_times": [{"days": "Mon-Fri", "time": "2:15pm"}, {"days": "Sat", "time": "11:00am"}, {"days": "Sun", "time": "Closed"}], "id": "1944600041", "name": "USPS COLLECTION BOX - BLUE BOX", "address": {"city": "LANSDALE", "state": "PA", "street": "2100 N BROAD ST", "postcode": "19446"}}},
{"geometry": {"type": "Point", "coordinates": [-75.3182770349, 40.2624984246]}, "type": "Feature", "properties": {"collection_times": [{"days": "Mon-Fri", "time": "1:30pm"}, {"days": "Sat", "time": "11:00am"}, {"days": "Sun", "time": "Closed"}], "id": "1944600046", "name": "USPS COLLECTION BOX - BLUE BOX", "address": {"city": "LANSDALE", "state": "PA", "street": "2333 W MAIN ST", "postcode": "19446"}}},
{"geometry": {"type": "Point", "coordinates": [-75.2857385322, 40.240742333]}, "type": "Feature", "properties": {"collection_times": [{"days": "Mon-Fri", "time": "5:00pm"}, {"days": "Sat", "time": "2:15pm"}, {"days": "Sun", "time": "Closed"}], "id": "1944600055", "name": "USPS COLLECTION BOX - BLUE BOX", "address": {"city": "LANSDALE", "state": "PA", "street": "20 VINE ST", "postcode": "19446"}}},
{"geometry": {"type": "Point", "coordinates": [-75.2857385322, 40.240742333]}, "type": "Feature", "properties": {"collection_times": [{"days": "Mon-Fri", "time": "5:00pm"}, {"days": "Sat", "time": "2:15pm"}, {"days": "Sun", "time": "Closed"}], "id": "1944600056", "name": "USPS COLLECTION BOX - BLUE BOX", "address": {"city": "LANSDALE", "state": "PA", "street": "20 VINE ST", "postcode": "19446"}}},
{"geometry": {"type": "Point", "coordinates": [-75.3239981962, 40.2586889338]}, "type": "Feature", "properties": {"collection_times": [{"days": "Mon-Fri", "time": "1:30pm"}, {"days": "Sat", "time": "11:00am"}, {"days": "Sun", "time": "Closed"}], "id": "1944600062", "name": "USPS COLLECTION BOX - BLUE BOX", "address": {"city": "LANSDALE", "state": "PA", "street": "1758 ALLENTOWN RD", "postcode": "19446"}}},
{"geometry": {"type": "Point", "coordinates": [-75.2598892159, 40.2580031413]}, "type": "Feature", "properties": {"collection_times": [{"days": "Mon-Fri", "time": "2:15pm"}, {"days": "Sat", "time": "11:00am"}, {"days": "Sun", "time": "Closed"}], "id": "1944600064", "name": "USPS COLLECTION BOX - BLUE BOX", "address": {"city": "LANSDALE", "state": "PA", "street": "2100 N LINE ST", "postcode": "19446"}}},
{"geometry": {"type": "Point", "coordinates": [-75.2857385322, 40.240742333]}, "type": "Feature", "properties": {"collection_times": [{"days": "Mon-Fri", "time": "5:00pm"}, {"days": "Sat", "time": "2:15pm"}, {"days": "Sun", "time": "Closed"}], "id": "1944600065", "name": "USPS COLLECTION BOX - PO LOBBY", "address": {"city": "LANSDALE", "state": "PA", "street": "20 VINE ST", "postcode": "19446"}}},
{"geometry": {"type": "Point", "coordinates": [-75.2857385322, 40.240742333]}, "type": "Feature", "properties": {"collection_times": [{"days": "Mon-Fri", "time": "5:00pm"}, {"days": "Sat", "time": "2:15pm"}, {"days": "Sun", "time": "Closed"}], "id": "1944600068", "name": "USPS COLLECTION BOX - APC", "address": {"city": "LANSDALE", "state": "PA", "street": "20 VINE ST", "postcode": "19446"}}},
{"geometry": {"type": "Point", "coordinates": [-75.387507003, 40.2865784986]}, "type": "Feature", "properties": {"collection_times": [{"days": "Mon-Fri", "time": "4:30pm"}, {"days": "Sat", "time": "11:00am"}, {"days": "Sun", "time": "Closed"}], "id": "1945000001", "name": "USPS COLLECTION BOX - BLUE BOX", "address": {"city": "LEDERACH", "state": "PA", "street": "690 HARLEYSVILLE PIKE", "postcode": "19450"}}},
{"geometry": {"type": "Point", "coordinates": [-75.387507003, 40.2865784986]}, "type": "Feature", "properties": {"collection_times": [{"days": "Mon-Fri", "time": "4:30pm"}, {"days": "Sat", "time": "11:00am"}, {"days": "Sun", "time": "Closed"}], "id": "1945000002", "name": "USPS COLLECTION BOX - PO LOBBY", "address": {"city": "LEDERACH", "state": "PA", "street": "690 HARLEYSVILLE PIKE", "postcode": "19450"}}},
{"geometry": {"type": "Point", "coordinates": [-75.387507003, 40.2865784986]}, "type": "Feature", "properties": {"collection_times": [{"days": "Mon-Fri", "time": "4:30pm"}, {"days": "Sat", "time": "11:00am"}, {"days": "Sun", "time": "Closed"}], "id": "1945000003", "name": "USPS COLLECTION BOX - PO LOBBY", "address": {"city": "LEDERACH", "state": "PA", "street": "690 HARLEYSVILLE PIKE", "postcode": "19450"}}},
{"geometry": {"type": "Point", "coordinates": [-75.2779541822, 40.2108101764]}, "type": "Feature", "properties": {"collection_times": [{"days": "Mon-Fri", "time": "11:00am"}, {"days": "Sat", "time": "11:30am"}, {"days": "Sun", "time": "Closed"}], "id": "1945400001", "name": "USPS COLLECTION BOX - BLUE BOX", "address": {"city": "NORTH WALES", "state": "PA", "street": "107 S MAIN ST", "postcode": "19454"}}},
{"geometry": {"type": "Point", "coordinates": [-75.2811197804, 40.2075203675]}, "type": "Feature", "properties": {"collection_times": [{"days": "Mon-Fri", "time": "11:00am"}, {"days": "Sat", "time": "11:30am"}, {"days": "Sun", "time": "Closed"}], "id": "1945400002", "name": "USPS COLLECTION BOX - BLUE BOX", "address": {"city": "NORTH WALES", "state": "PA", "street": "401 W WALNUT ST", "postcode": "19454"}}},
{"geometry": {"type": "Point", "coordinates": [-75.2905909089, 40.2188711844]}, "type": "Feature", "properties": {"collection_times": [{"days": "Mon-Sat", "time": "11:00am"}, {"days": "Sun", "time": "Closed"}], "id": "1945400004", "name": "USPS COLLECTION BOX - BLUE BOX", "address": {"city": "NORTH WALES", "state": "PA", "street": "131 CHURCH RD", "postcode": "19454"}}},
{"geometry": {"type": "Point", "coordinates": [-75.2286527385, 40.2306350029]}, "type": "Feature", "properties": {"collection_times": [{"days": "Mon-Fri", "time": "11:00am"}, {"days": "Sat", "time": "11:30am"}, {"days": "Sun", "time": "Closed"}], "id": "1945400008", "name": "USPS COLLECTION BOX - BLUE BOX", "address": {"city": "NORTH WALES", "state": "PA", "street": "519 STUMP RD", "postcode": "19454"}}},
{"geometry": {"type": "Point", "coordinates": [-75.2377631514, 40.2444487975]}, "type": "Feature", "properties": {"collection_times": [{"days": "Mon-Fri", "time": "11:00am"}, {"days": "Sat", "time": "10:00am"}, {"days": "Sun", "time": "Closed"}], "id": "1945400013", "name": "USPS COLLECTION BOX - BLUE BOX", "address": {"city": "NORTH WALES", "state": "PA", "street": "411 FRANKLIN CT", "postcode": "19454"}}},
{"geometry": {"type": "Point", "coordinates": [-75.2507697852, 40.2297718256]}, "type": "Feature", "properties": {"collection_times": [{"days": "Mon-Fri", "time": "11:00am"}, {"days": "Sat", "time": "10:00am"}, {"days": "Sun", "time": "Closed"}], "id": "1945400017", "name": "USPS COLLECTION BOX - BLUE BOX", "address": {"city": "NORTH WALES", "state": "PA", "street": "1400 LIBERTY CT", "postcode": "19454"}}},
{"geometry": {"type": "Point", "coordinates": [-75.2786293526, 40.2145068931]}, "type": "Feature", "properties": {"collection_times": [{"days": "Mon-Fri", "time": "5:00pm"}, {"days": "Sat", "time": "2:30pm"}, {"days": "Sun", "time": "Closed"}], "id": "1945400018", "name": "USPS COLLECTION BOX - BLUE BOX", "address": {"city": "NORTH WALES", "state": "PA", "street": "450 BEAVER ST", "postcode": "19454"}}},
{"geometry": {"type": "Point", "coordinates": [-75.2786293526, 40.2145068931]}, "type": "Feature", "properties": {"collection_times": [{"days": "Mon-Fri", "time": "5:00pm"}, {"days": "Sat", "time": "2:30pm"}, {"days": "Sun", "time": "Closed"}], "id": "1945400019", "name": "USPS COLLECTION BOX - BLUE BOX", "address": {"city": "NORTH WALES", "state": "PA", "street": "450 BEAVER ST", "postcode": "19454"}}},
{"geometry": {"type": "Point", "coordinates": [-75.2486183235, 40.2224712777]}, "type": "Feature", "properties": {"collection_times": [{"days": "Mon-Fri", "time": "11:00am"}, {"days": "Sat", "time": "1:45pm"}, {"days": "Sun", "time": "Closed"}], "id": "1945400020", "name": "USPS COLLECTION BOX - BLUE BOX", "address": {"city": "NORTH WALES", "state": "PA", "street": "10 HUNT CLUB TRL", "postcode": "19454"}}},
{"geometry": {"type": "Point", "coordinates": [-75.2786293526, 40.2145068931]}, "type": "Feature", "properties": {"collection_times": [{"days": "Mon-Fri", "time": "5:00pm"}, {"days": "Sat", "time": "2:30pm"}, {"days": "Sun", "time": "Closed"}], "id": "1945400025", "name": "USPS COLLECTION BOX - PO LOBBY", "address": {"city": "NORTH WALES", "state": "PA", "street": "450 BEAVER ST", "postcode": "19454"}}},
{"geometry": {"type": "Point", "coordinates": [-75.2786293526, 40.2145068931]}, "type": "Feature", "properties": {"collection_times": [{"days": "Mon-Fri", "time": "5:00pm"}, {"days": "Sat", "time": "2:30pm"}, {"days": "Sun", "time": "Closed"}], "id": "1945400026", "name": "USPS COLLECTION BOX - PO LOBBY", "address": {"city": "NORTH WALES", "state": "PA", "street": "450 BEAVER ST", "postcode": "19454"}}},
{"geometry": {"type": "Point", "coordinates": [-75.2410832762, 40.219719891]}, "type": "Feature", "properties": {"collection_times": [{"days": "Mon-Sat", "time": "10:00am"}, {"days": "Sun", "time": "Closed"}], "id": "1945400027", "name": "USPS COLLECTION BOX - BLUE BOX", "address": {"city": "NORTH WALES", "state": "PA", "street": "195 STUMP RD", "postcode": "19454"}}},
{"geometry": {"type": "Point", "coordinates": [-75.2647949467, 40.2164978431]}, "type": "Feature", "properties": {"collection_times": [{"days": "Mon-Sat", "time": "10:00am"}, {"days": "Sun", "time": "Closed"}], "id": "1945400028", "name": "USPS COLLECTION BOX - BLUE BOX", "address": {"city": "NORTH WALES", "state": "PA", "street": "359 FARM LN", "postcode": "19454"}}},
{"geometry": {"type": "Point", "coordinates": [-75.4507901882, 40.1336423583]}, "type": "Feature", "properties": {"collection_times": [{"days": "Mon-Fri", "time": "4:30pm"}, {"days": "Sat", "time": "11:30am"}, {"days": "Sun", "time": "Closed"}], "id": "1945600001", "name": "USPS COLLECTION BOX - BLUE BOX", "address": {"city": "OAKS", "state": "PA", "street": "1310 EGYPT RD", "postcode": "19456"}}},
{"geometry": {"type": "Point", "coordinates": [-75.4507901882, 40.1336423583]}, "type": "Feature", "properties": {"collection_times": [{"days": "Mon-Fri", "time": "4:30pm"}, {"days": "Sat", "time": "11:30am"}, {"days": "Sun", "time": "Closed"}], "id": "1945600002", "name": "USPS COLLECTION BOX - PO LOBBY", "address": {"city": "OAKS", "state": "PA", "street": "1310 EGYPT RD", "postcode": "19456"}}},
{"geometry": {"type": "Point", "coordinates": [-75.4507901882, 40.1336423583]}, "type": "Feature", "properties": {"collection_times": [{"days": "Mon-Fri", "time": "4:30pm"}, {"days": "Sat", "time": "11:30am"}, {"days": "Sun", "time": "Closed"}], "id": "1945600003", "name": "USPS COLLECTION BOX - PO LOBBY", "address": {"city": "OAKS", "state": "PA", "street": "1310 EGYPT RD", "postcode": "19456"}}},
{"geometry": {"type": "Point", "coordinates": [-75.5978243876, 40.2063723431]}, "type": "Feature", "properties": {"collection_times": [{"days": "Mon-Fri", "time": "4:30pm"}, {"days": "Sat", "time": "11:30am"}, {"days": "Sun", "time": "Closed"}], "id": "1945700001", "name": "USPS COLLECTION BOX - BLUE BOX", "address": {"city": "PARKER FORD", "state": "PA", "street": "1355 OLD SCHUYLKILL RD", "postcode": "19457"}}},
{"geometry": {"type": "Point", "coordinates": [-75.5978243876, 40.2063723431]}, "type": "Feature", "properties": {"collection_times": [{"days": "Mon-Fri", "time": "4:30pm"}, {"days": "Sat", "time": "11:30am"}, {"days": "Sun", "time": "Closed"}], "id": "1945700002", "name": "USPS COLLECTION BOX - PO LOBBY", "address": {"city": "PARKER FORD", "state": "PA", "street": "1355 OLD SCHUYLKILL RD", "postcode": "19457"}}},
{"geometry": {"type": "Point", "coordinates": [-75.5978243876, 40.2063723431]}, "type": "Feature", "properties": {"collection_times": [{"days": "Mon-Fri", "time": "4:30pm"}, {"days": "Sat", "time": "11:30am"}, {"days": "Sun", "time": "Closed"}], "id": "1945700003", "name": "USPS COLLECTION BOX - PO LOBBY", "address": {"city": "PARKER FORD", "state": "PA", "street": "1355 OLD SCHUYKILL RD", "postcode": "19457"}}},
{"geometry": {"type": "Point", "coordinates": [-75.5152356403, 40.1245405279]}, "type": "Feature", "properties": {"collection_times": [{"days": "Mon-Sat", "time": "10:30am"}, {"days": "Sun", "time": "Closed"}], "id": "1946000024", "name": "USPS COLLECTION BOX - BLUE BOX", "address": {"city": "PHOENIXVILLE", "state": "PA", "street": "159 NUTT RD", "postcode": "19460"}}},
{"geometry": {"type": "Point", "coordinates": [-75.515185956, 40.1245204176]}, "type": "Feature", "properties": {"collection_times": [{"days": "Mon-Sat", "time": "10:30am"}, {"days": "Sun", "time": "Closed"}], "id": "1946000025", "name": "USPS COLLECTION BOX - BLUE BOX", "address": {"city": "PHOENIXVILLE", "state": "PA", "street": "140 NUTT RD", "postcode": "19460"}}},
{"geometry": {"type": "Point", "coordinates": [-75.5146223945, 40.1293696321]}, "type": "Feature", "properties": {"collection_times": [{"days": "Mon-Sat", "time": "10:30am"}, {"days": "Sun", "time": "Closed"}], "id": "1946000032", "name": "USPS COLLECTION BOX - BLUE BOX", "address": {"city": "PHOENIXVILLE", "state": "PA", "street": "313 MAIN ST", "postcode": "19460"}}},
{"geometry": {"type": "Point", "coordinates": [-75.5113649986, 40.1308042957]}, "type": "Feature", "properties": {"collection_times": [{"days": "Mon-Sat", "time": "10:30am"}, {"days": "Sun", "time": "Closed"}], "id": "1946000035", "name": "USPS COLLECTION BOX - BLUE BOX", "address": {"city": "PHOENIXVILLE", "state": "PA", "street": "200 STARR ST", "postcode": "19460"}}},
{"geometry": {"type": "Point", "coordinates": [-75.5133914073, 40.1331678477]}, "type": "Feature", "properties": {"collection_times": [{"days": "Mon-Sat", "time": "10:30am"}, {"days": "Sun", "time": "Closed"}], "id": "1946000038", "name": "USPS COLLECTION BOX - BLUE BOX", "address": {"city": "PHOENIXVILLE", "state": "PA", "street": "140 CHURCH ST", "postcode": "19460"}}},
{"geometry": {"type": "Point", "coordinates": [-75.5182172285, 40.1319097846]}, "type": "Feature", "properties": {"collection_times": [{"days": "Mon-Fri", "time": "5:00pm"}, {"days": "Sat", "time": "4:00pm"}, {"days": "Sun", "time": "Closed"}], "id": "1946000049", "name": "USPS COLLECTION BOX - BLUE BOX", "address": {"city": "PHOENIXVILLE", "state": "PA", "street": "116 GAY ST", "postcode": "19460"}}},
{"geometry": {"type": "Point", "coordinates": [-75.4863676939, 40.1166037233]}, "type": "Feature", "properties": {"collection_times": [{"days": "Mon-Sat", "time": "10:30am"}, {"days": "Sun", "time": "Closed"}], "id": "1946000056", "name": "USPS COLLECTION BOX - BLUE BOX", "address": {"city": "PHOENIXVILLE", "state": "PA", "street": "1260 VALLEY FORGE RD", "postcode": "19460"}}},
{"geometry": {"type": "Point", "coordinates": [-75.5352927095, 40.1322758966]}, "type": "Feature", "properties": {"collection_times": [{"days": "Mon-Sat", "time": "10:30am"}, {"days": "Sun", "time": "Closed"}], "id": "1946000059", "name": "USPS COLLECTION BOX - BLUE BOX", "address": {"city": "PHOENIXVILLE", "state": "PA", "street": "700 NUTT RD", "postcode": "19460"}}},
{"geometry": {"type": "Point", "coordinates": [-75.5863838107, 40.1185397956]}, "type": "Feature", "properties": {"collection_times": [{"days": "Mon-Sat", "time": "10:30am"}, {"days": "Sun", "time": "Closed"}], "id": "1946000064", "name": "USPS COLLECTION BOX - BLUE BOX", "address": {"city": "PHOENIXVILLE", "state": "PA", "street": "1038 RT 113", "postcode": "19460"}}},
{"geometry": {"type": "Point", "coordinates": [-75.5391337773, 40.1216434614]}, "type": "Feature", "properties": {"collection_times": [{"days": "Mon-Sat", "time": "10:30am"}, {"days": "Sun", "time": "Closed"}], "id": "1946000065", "name": "USPS COLLECTION BOX - BLUE BOX", "address": {"city": "PHOENIXVILLE", "state": "PA", "street": "1210 CHARLESTOWN RD", "postcode": "19460"}}},
{"geometry": {"type": "Point", "coordinates": [-75.4871226205, 40.1173457715]}, "type": "Feature", "properties": {"collection_times": [{"days": "Mon-Sat", "time": "10:30am"}, {"days": "Sun", "time": "Closed"}], "id": "1946000066", "name": "USPS COLLECTION BOX - BLUE BOX", "address": {"city": "PHOENIXVILLE", "state": "PA", "street": "1288 VALLEY FORGE RD", "postcode": "19460"}}},
{"geometry": {"type": "Point", "coordinates": [-75.5232487412, 40.1278022979]}, "type": "Feature", "properties": {"collection_times": [{"days": "Mon-Sat", "time": "10:30am"}, {"days": "Sun", "time": "Closed"}], "id": "1946000067", "name": "USPS COLLECTION BOX - EXPRESS", "address": {"city": "PHOENIXVILLE", "state": "PA", "street": "1288 VALLEY FORGE RD", "postcode": "19460"}}},
{"geometry": {"type": "Point", "coordinates": [-75.5160282228, 40.1339627961]}, "type": "Feature", "properties": {"collection_times": [{"days": "Mon-Sat", "time": "10:30am"}, {"days": "Sun", "time": "Closed"}], "id": "1946000068", "name": "USPS COLLECTION BOX - BLUE BOX", "address": {"city": "PHOENIXVILLE", "state": "PA", "street": "197 BRIDGE ST", "postcode": "19460"}}},
{"geometry": {"type": "Point", "coordinates": [-75.5182172285, 40.1319097846]}, "type": "Feature", "properties": {"collection_times": [{"days": "Mon-Fri", "time": "5:00pm"}, {"days": "Sat", "time": "4:00pm"}, {"days": "Sun", "time": "Closed"}], "id": "1946000070", "name": "USPS COLLECTION BOX - PO LOBBY", "address": {"city": "PHOENIXVILLE", "state": "PA", "street": "116 GAY ST", "postcode": "19460"}}},
{"geometry": {"type": "Point", "coordinates": [-75.5182172285, 40.1319097846]}, "type": "Feature", "properties": {"collection_times": [{"days": "Mon-Fri", "time": "5:00pm"}, {"days": "Sat", "time": "4:00pm"}, {"days": "Sun", "time": "Closed"}], "id": "1946000071", "name": "USPS COLLECTION BOX - PO LOBBY", "address": {"city": "PHOENIXVILLE", "state": "PA", "street": "116 GAY ST", "postcode": "19460"}}},
{"geometry": {"type": "Point", "coordinates": [-75.514349604, 40.1185299134]}, "type": "Feature", "properties": {"collection_times": [{"days": "Mon-Sat", "time": "10:30am"}, {"days": "Sun", "time": "Closed"}], "id": "1946000072", "name": "USPS COLLECTION BOX - BLUE BOX", "address": {"city": "PHOENIXVILLE", "state": "PA", "street": "1201 DOROTHY AVE", "postcode": "19460"}}},
{"geometry": {"type": "Point", "coordinates": [-75.2861236968, 40.1180034967]}, "type": "Feature", "properties": {"collection_times": [{"days": "Mon-Fri", "time": "4:45pm"}, {"days": "Sat", "time": "10:00am"}, {"days": "Sun", "time": "Closed"}], "id": "1946200001", "name": "USPS COLLECTION BOX - BLUE BOX", "address": {"city": "PLYMOUTH MTNG", "state": "PA", "street": "600 W GERMANTOWN PIKE", "postcode": "19462"}}},
{"geometry": {"type": "Point", "coordinates": [-75.2869517681, 40.1195437093]}, "type": "Feature", "properties": {"collection_times": [{"days": "Mon-Fri", "time": "4:45pm"}, {"days": "Sat", "time": "10:00am"}, {"days": "Sun", "time": "Closed"}], "id": "1946200004", "name": "USPS COLLECTION BOX - BLUE BOX", "address": {"city": "PLYMOUTH MTNG", "state": "PA", "street": "620 W GERMANTOWN PIKE", "postcode": "19462"}}},
{"geometry": {"type": "Point", "coordinates": [-75.2893650044, 40.1224005552]}, "type": "Feature", "properties": {"collection_times": [{"days": "Mon-Fri", "time": "2:30pm"}, {"days": "Sat", "time": "11:30am"}, {"days": "Sun", "time": "Closed"}], "id": "1946200009", "name": "USPS COLLECTION BOX - BLUE BOX", "address": {"city": "PLYMOUTH MTNG", "state": "PA", "street": "777 W GERMANTOWN PIKE", "postcode": "19462"}}},
{"geometry": {"type": "Point", "coordinates": [-75.2859557167, 40.1165555549]}, "type": "Feature", "properties": {"collection_times": [{"days": "Mon-Fri", "time": "2:00pm"}, {"days": "Sat", "time": "11:30am"}, {"days": "Sun", "time": "Closed"}], "id": "1946200011", "name": "USPS COLLECTION BOX - BLUE BOX", "address": {"city": "PLYMOUTH MTNG", "state": "PA", "street": "531 W GERMANTOWN PIKE", "postcode": "19462"}}},
{"geometry": {"type": "Point", "coordinates": [-75.2856754101, 40.1145952009]}, "type": "Feature", "properties": {"collection_times": [{"days": "Mon-Fri", "time": "2:15pm"}, {"days": "Sat", "time": "11:30am"}, {"days": "Sun", "time": "Closed"}], "id": "1946200012", "name": "USPS COLLECTION BOX - BLUE BOX", "address": {"city": "PLYMOUTH MTNG", "state": "PA", "street": "481 W GERMANTOWN PIKE", "postcode": "19462"}}},
{"geometry": {"type": "Point", "coordinates": [-75.2900641331, 40.1193816439]}, "type": "Feature", "properties": {"collection_times": [{"days": "Mon-Fri", "time": "2:15pm"}, {"days": "Sat", "time": "11:30am"}, {"days": "Sun", "time": "Closed"}], "id": "1946200013", "name": "USPS COLLECTION BOX - BLUE BOX", "address": {"city": "PLYMOUTH MTNG", "state": "PA", "street": "632 WAYLAND RD", "postcode": "19462"}}},
{"geometry": {"type": "Point", "coordinates": [-75.2942389612, 40.1135880975]}, "type": "Feature", "properties": {"collection_times": [{"days": "Mon-Fri", "time": "4:30pm"}, {"days": "Sat", "time": "10:30am"}, {"days": "Sun", "time": "Closed"}], "id": "1946200014", "name": "USPS COLLECTION BOX - BLUE BOX", "address": {"city": "PLYMOUTH MTNG", "state": "PA", "street": "521 PLYMOUTH RD", "postcode": "19462"}}},
{"geometry": {"type": "Point", "coordinates": [-75.2928958087, 40.1131930805]}, "type": "Feature", "properties": {"collection_times": [{"days": "Mon-Fri", "time": "2:30pm"}, {"days": "Sat", "time": "10:30am"}, {"days": "Sun", "time": "Closed"}], "id": "1946200016", "name": "USPS COLLECTION BOX - BLUE BOX", "address": {"city": "PLYMOUTH MTNG", "state": "PA", "street": "527 PLYMOUTH RD", "postcode": "19462"}}},
{"geometry": {"type": "Point", "coordinates": [-75.2825716508, 40.1183321675]}, "type": "Feature", "properties": {"collection_times": [{"days": "Mon-Fri", "time": "4:45pm"}, {"days": "Sat", "time": "10:00am"}, {"days": "Sun", "time": "Closed"}], "id": "1946200036", "name": "USPS COLLECTION BOX - BLUE BOX", "address": {"city": "PLYMOUTH MTNG", "state": "PA", "street": "2250 HICKORY RD", "postcode": "19462"}}},
{"geometry": {"type": "Point", "coordinates": [-75.2763252477, 40.101533159]}, "type": "Feature", "properties": {"collection_times": [{"days": "Mon-Fri", "time": "4:45pm"}, {"days": "Sat", "time": "3:00pm"}, {"days": "Sun", "time": "Closed"}], "id": "1946200039", "name": "USPS COLLECTION BOX - BLUE BOX", "address": {"city": "PLYMOUTH MTNG", "state": "PA", "street": "26 E GERMANTOWN PIKE", "postcode": "19462"}}},
{"geometry": {"type": "Point", "coordinates": [-75.2825716508, 40.1183321675]}, "type": "Feature", "properties": {"collection_times": [{"days": "Mon-Fri", "time": "4:45pm"}, {"days": "Sat", "time": "10:00am"}, {"days": "Sun", "time": "Closed"}], "id": "1946200041", "name": "USPS COLLECTION BOX - BLUE BOX", "address": {"city": "PLYMOUTH MTNG", "state": "PA", "street": "2250 HICKORY RD", "postcode": "19462"}}},
{"geometry": {"type": "Point", "coordinates": [-75.2763252477, 40.101533159]}, "type": "Feature", "properties": {"collection_times": [{"days": "Mon-Fri", "time": "4:30pm"}, {"days": "Sat", "time": "11:00am"}, {"days": "Sun", "time": "Closed"}], "id": "1946200052", "name": "USPS COLLECTION BOX - PO LOBBY", "address": {"city": "PLYMOUTH MTNG", "state": "PA", "street": "26 E GERMANTOWN PIKE", "postcode": "19462"}}},
{"geometry": {"type": "Point", "coordinates": [-75.3042821169, 40.1303819793]}, "type": "Feature", "properties": {"collection_times": [{"days": "Mon-Fri", "time": "12:15pm"}, {"days": "Sat", "time": "11:00am"}, {"days": "Sun", "time": "Closed"}], "id": "1946200055", "name": "USPS COLLECTION BOX - BLUE BOX", "address": {"city": "PLYMOUTH MTNG", "state": "PA", "street": "101 VALLEY RD", "postcode": "19462"}}},
{"geometry": {"type": "Point", "coordinates": [-75.3014009725, 40.1331747604]}, "type": "Feature", "properties": {"collection_times": [{"days": "Mon-Fri", "time": "2:15pm"}, {"days": "Sat", "time": "11:00am"}, {"days": "Sun", "time": "Closed"}], "id": "1946200056", "name": "USPS COLLECTION BOX - BLUE BOX", "address": {"city": "PLYMOUTH MTNG", "state": "PA", "street": "2901 SHEFFIELD DR", "postcode": "19462"}}},
{"geometry": {"type": "Point", "coordinates": [-75.320164524, 40.110471597]}, "type": "Feature", "properties": {"collection_times": [{"days": "Mon-Fri", "time": "12:30pm"}, {"days": "Sat", "time": "10:15am"}, {"days": "Sun", "time": "Closed"}], "id": "1946200058", "name": "USPS COLLECTION BOX - BLUE BOX", "address": {"city": "PLYMOUTH MTNG", "state": "PA", "street": "466 FAIRFIELD RD", "postcode": "19462"}}},
{"geometry": {"type": "Point", "coordinates": [-75.2997478352, 40.1289695263]}, "type": "Feature", "properties": {"collection_times": [{"days": "Mon-Fri", "time": "4:30pm"}, {"days": "Sat", "time": "10:45am"}, {"days": "Sun", "time": "Closed"}], "id": "1946200059", "name": "USPS COLLECTION BOX - BLUE BOX", "address": {"city": "PLYMOUTH MTNG", "state": "PA", "street": "1000 GERMANTOWN PIKE", "postcode": "19462"}}},
{"geometry": {"type": "Point", "coordinates": [-75.302377553, 40.1343993079]}, "type": "Feature", "properties": {"collection_times": [{"days": "Mon-Fri", "time": "2:30pm"}, {"days": "Sat", "time": "11:00am"}, {"days": "Sun", "time": "Closed"}], "id": "1946200063", "name": "USPS COLLECTION BOX - BLUE BOX", "address": {"city": "PLYMOUTH MTNG", "state": "PA", "street": "1250 GERMANTOWN PIKE", "postcode": "19462"}}},
{"geometry": {"type": "Point", "coordinates": [-75.2837364856, 40.1031703742]}, "type": "Feature", "properties": {"collection_times": [{"days": "Mon-Fri", "time": "12:00pm"}, {"days": "Sat", "time": "10:00am"}, {"days": "Sun", "time": "Closed"}], "id": "1946200065", "name": "USPS COLLECTION BOX - BLUE BOX", "address": {"city": "PLYMOUTH MTNG", "state": "PA", "street": "101 KINGS RD", "postcode": "19462"}}},
{"geometry": {"type": "Point", "coordinates": [-75.290265681, 40.112663645]}, "type": "Feature", "properties": {"collection_times": [{"days": "Mon-Fri", "time": "2:30pm"}, {"days": "Sat", "time": "10:30am"}, {"days": "Sun", "time": "Closed"}], "id": "1946200066", "name": "USPS COLLECTION BOX - BLUE BOX", "address": {"city": "PLYMOUTH MTNG", "state": "PA", "street": "401 PLYMOUTH RD", "postcode": "19462"}}},
{"geometry": {"type": "Point", "coordinates": [-75.2876635947, 40.1208648697]}, "type": "Feature", "properties": {"collection_times": [{"days": "Mon-Fri", "time": "1:45pm"}, {"days": "Sat", "time": "11:30am"}, {"days": "Sun", "time": "Closed"}], "id": "1946200068", "name": "USPS COLLECTION BOX - BLUE BOX", "address": {"city": "PLYMOUTH MTNG", "state": "PA", "street": "666 W GERMANTOWN PIKE", "postcode": "19462"}}},
{"geometry": {"type": "Point", "coordinates": [-75.2876635947, 40.1208648697]}, "type": "Feature", "properties": {"collection_times": [{"days": "Mon-Fri", "time": "1:45pm"}, {"days": "Sat", "time": "11:30am"}, {"days": "Sun", "time": "Closed"}], "id": "1946200069", "name": "USPS COLLECTION BOX - BLUE BOX", "address": {"city": "PLYMOUTH MTNG", "state": "PA", "street": "666 W GERMANTOWN PIKE", "postcode": "19462"}}},
{"geometry": {"type": "Point", "coordinates": [-75.6356233073, 40.2438629875]}, "type": "Feature", "properties": {"collection_times": [{"days": "Mon-Fri", "time": "3:45pm"}, {"days": "Sat", "time": "2:45pm"}, {"days": "Sun", "time": "Closed"}], "id": "1946400001", "name": "USPS COLLECTION BOX - BLUE BOX", "address": {"city": "POTTSTOWN", "state": "PA", "street": "771 E HIGH ST", "postcode": "19464"}}},
{"geometry": {"type": "Point", "coordinates": [-75.6482288889, 40.2454652774]}, "type": "Feature", "properties": {"collection_times": [{"days": "Mon-Sat", "time": "10:00am"}, {"days": "Sun", "time": "Closed"}], "id": "1946400004", "name": "USPS COLLECTION BOX - BLUE BOX", "address": {"city": "POTTSTOWN", "state": "PA", "street": "269 E HIGH ST", "postcode": "19464"}}},
{"geometry": {"type": "Point", "coordinates": [-75.6512716202, 40.2458325553]}, "type": "Feature", "properties": {"collection_times": [{"days": "Mon-Sat", "time": "10:00am"}, {"days": "Sun", "time": "Closed"}], "id": "1946400009", "name": "USPS COLLECTION BOX - BLUE BOX", "address": {"city": "POTTSTOWN", "state": "PA", "street": "155 E HIGH ST", "postcode": "19464"}}},
{"geometry": {"type": "Point", "coordinates": [-75.6485224635, 40.2464238604]}, "type": "Feature", "properties": {"collection_times": [{"days": "Mon-Sat", "time": "10:00am"}, {"days": "Sun", "time": "Closed"}], "id": "1946400030", "name": "USPS COLLECTION BOX - BLUE BOX", "address": {"city": "POTTSTOWN", "state": "PA", "street": "248 KING ST", "postcode": "19464"}}},
{"geometry": {"type": "Point", "coordinates": [-75.6442486739, 40.2455385574]}, "type": "Feature", "properties": {"collection_times": [{"days": "Mon-Sat", "time": "10:00am"}, {"days": "Sun", "time": "Closed"}], "id": "1946400036", "name": "USPS COLLECTION BOX - BLUE BOX", "address": {"city": "POTTSTOWN", "state": "PA", "street": "25 N FRANKLIN ST", "postcode": "19464"}}},
{"geometry": {"type": "Point", "coordinates": [-75.6341584654, 40.2592378199]}, "type": "Feature", "properties": {"collection_times": [{"days": "Mon-Sat", "time": "10:00am"}, {"days": "Sun", "time": "Closed"}], "id": "1946400048", "name": "USPS COLLECTION BOX - BLUE BOX", "address": {"city": "POTTSTOWN", "state": "PA", "street": "300 PROSPECT ST", "postcode": "19464"}}},
{"geometry": {"type": "Point", "coordinates": [-75.6278533338, 40.2652984493]}, "type": "Feature", "properties": {"collection_times": [{"days": "Mon-Sat", "time": "10:00am"}, {"days": "Sun", "time": "Closed"}], "id": "1946400053", "name": "USPS COLLECTION BOX - BLUE BOX", "address": {"city": "POTTSTOWN", "state": "PA", "street": "1300 N CHARLOTTE ST", "postcode": "19464"}}},
{"geometry": {"type": "Point", "coordinates": [-75.6516994206, 40.2388675971]}, "type": "Feature", "properties": {"collection_times": [{"days": "Mon-Sat", "time": "10:00am"}, {"days": "Sun", "time": "Closed"}], "id": "1946400058", "name": "USPS COLLECTION BOX - BLUE BOX", "address": {"city": "POTTSTOWN", "state": "PA", "street": "331 N HANOVER ST", "postcode": "19464"}}},
{"geometry": {"type": "Point", "coordinates": [-75.6325272046, 40.2438951727]}, "type": "Feature", "properties": {"collection_times": [{"days": "Mon-Sat", "time": "10:00am"}, {"days": "Sun", "time": "Closed"}], "id": "1946400062", "name": "USPS COLLECTION BOX - BLUE BOX", "address": {"city": "POTTSTOWN", "state": "PA", "street": "717 E HIGH ST", "postcode": "19464"}}},
{"geometry": {"type": "Point", "coordinates": [-75.6231138673, 40.2436059708]}, "type": "Feature", "properties": {"collection_times": [{"days": "Mon-Sat", "time": "10:00am"}, {"days": "Sun", "time": "Closed"}], "id": "1946400066", "name": "USPS COLLECTION BOX - BLUE BOX", "address": {"city": "POTTSTOWN", "state": "PA", "street": "1200 E HIGH ST", "postcode": "19464"}}},
{"geometry": {"type": "Point", "coordinates": [-75.6414135924, 40.2554420352]}, "type": "Feature", "properties": {"collection_times": [{"days": "Mon-Sat", "time": "10:00am"}, {"days": "Sun", "time": "Closed"}], "id": "1946400073", "name": "USPS COLLECTION BOX - BLUE BOX", "address": {"city": "POTTSTOWN", "state": "PA", "street": "616 N CHARLOTTE ST", "postcode": "19464"}}},
{"geometry": {"type": "Point", "coordinates": [-75.6330962079, 40.2532299019]}, "type": "Feature", "properties": {"collection_times": [{"days": "Mon-Sat", "time": "10:00am"}, {"days": "Sun", "time": "Closed"}], "id": "1946400081", "name": "USPS COLLECTION BOX - BLUE BOX", "address": {"city": "POTTSTOWN", "state": "PA", "street": "724 N ADAMS ST", "postcode": "19464"}}},
{"geometry": {"type": "Point", "coordinates": [-75.6493163527, 40.2638989803]}, "type": "Feature", "properties": {"collection_times": [{"days": "Mon-Sat", "time": "10:00am"}, {"days": "Sun", "time": "Closed"}], "id": "1946400086", "name": "USPS COLLECTION BOX - BLUE BOX", "address": {"city": "POTTSTOWN", "state": "PA", "street": "799 STATE ST", "postcode": "19464"}}},
{"geometry": {"type": "Point", "coordinates": [-75.6664747768, 40.2634674048]}, "type": "Feature", "properties": {"collection_times": [{"days": "Mon-Sat", "time": "10:00am"}, {"days": "Sun", "time": "Closed"}], "id": "1946400087", "name": "USPS COLLECTION BOX - BLUE BOX", "address": {"city": "POTTSTOWN", "state": "PA", "street": "398 CIRCLE OF PROGRESS DR", "postcode": "19464"}}},
{"geometry": {"type": "Point", "coordinates": [-75.6818178744, 40.2486381893]}, "type": "Feature", "properties": {"collection_times": [{"days": "Mon-Fri", "time": "4:00pm"}, {"days": "Sat", "time": "10:00am"}, {"days": "Sun", "time": "Closed"}], "id": "1946400091", "name": "USPS COLLECTION BOX - BLUE BOX", "address": {"city": "POTTSTOWN", "state": "PA", "street": "60 LEMON ST", "postcode": "19464"}}},
{"geometry": {"type": "Point", "coordinates": [-75.5902971184, 40.2447122192]}, "type": "Feature", "properties": {"collection_times": [{"days": "Mon-Sat", "time": "10:00am"}, {"days": "Sun", "time": "Closed"}], "id": "1946400092", "name": "USPS COLLECTION BOX - BLUE BOX", "address": {"city": "POTTSTOWN", "state": "PA", "street": "2500 E HIGH ST", "postcode": "19464"}}},
{"geometry": {"type": "Point", "coordinates": [-75.6167364569, 40.2585052076]}, "type": "Feature", "properties": {"collection_times": [{"days": "Mon-Sat", "time": "10:00am"}, {"days": "Sun", "time": "Closed"}], "id": "1946400094", "name": "USPS COLLECTION BOX - BLUE BOX", "address": {"city": "POTTSTOWN", "state": "PA", "street": "1 READING STATION PLZ", "postcode": "19464"}}},
{"geometry": {"type": "Point", "coordinates": [-75.6356233073, 40.2438629875]}, "type": "Feature", "properties": {"collection_times": [{"days": "Mon-Fri", "time": "3:45pm"}, {"days": "Sat", "time": "2:45pm"}, {"days": "Sun", "time": "Closed"}], "id": "1946400099", "name": "USPS COLLECTION BOX - BLUE BOX", "address": {"city": "POTTSTOWN", "state": "PA", "street": "771 E HIGH ST", "postcode": "19464"}}},
{"geometry": {"type": "Point", "coordinates": [-75.6488969908, 40.2454803377]}, "type": "Feature", "properties": {"collection_times": [{"days": "Mon-Sat", "time": "10:00am"}, {"days": "Sun", "time": "Closed"}], "id": "1946400106", "name": "USPS COLLECTION BOX - BLUE BOX", "address": {"city": "POTTSTOWN", "state": "PA", "street": "238 E HIGH ST", "postcode": "19464"}}},
{"geometry": {"type": "Point", "coordinates": [-75.6350658346, 40.2437461199]}, "type": "Feature", "properties": {"collection_times": [{"days": "Mon-Fri", "time": "5:00pm"}, {"days": "Sat", "time": "2:45pm"}, {"days": "Sun", "time": "Closed"}], "id": "1946400109", "name": "USPS COLLECTION BOX - BLUE BOX", "address": {"city": "POTTSTOWN", "state": "PA", "street": "770 E HIGH ST", "postcode": "19464"}}},
{"geometry": {"type": "Point", "coordinates": [-75.6299664213, 40.255071854]}, "type": "Feature", "properties": {"collection_times": [{"days": "Mon-Fri", "time": "5:00pm"}, {"days": "Sat", "time": "2:45pm"}, {"days": "Sun", "time": "Closed"}], "id": "1946400111", "name": "USPS COLLECTION BOX - EXPRESS", "address": {"city": "POTTSTOWN", "state": "PA", "street": "770 E HIGH ST", "postcode": "19464"}}},
{"geometry": {"type": "Point", "coordinates": [-75.6173533393, 40.2430232098]}, "type": "Feature", "properties": {"collection_times": [{"days": "Mon-Sat", "time": "10:00am"}, {"days": "Sun", "time": "Closed"}], "id": "1946400120", "name": "USPS COLLECTION BOX - BLUE BOX", "address": {"city": "POTTSTOWN", "state": "PA", "street": "14 MOSER RD", "postcode": "19464"}}},
{"geometry": {"type": "Point", "coordinates": [-75.6628438599, 40.2550408905]}, "type": "Feature", "properties": {"collection_times": [{"days": "Mon-Sat", "time": "10:00am"}, {"days": "Sun", "time": "Closed"}], "id": "1946400121", "name": "USPS COLLECTION BOX - BLUE BOX", "address": {"city": "POTTSTOWN", "state": "PA", "street": "223 SHOEMAKER RD", "postcode": "19464"}}},
{"geometry": {"type": "Point", "coordinates": [-75.6574556989, 40.2468371917]}, "type": "Feature", "properties": {"collection_times": [{"days": "Mon-Sat", "time": "10:00am"}, {"days": "Sun", "time": "Closed"}], "id": "1946400125", "name": "USPS COLLECTION BOX - BLUE BOX", "address": {"city": "POTTSTOWN", "state": "PA", "street": "71 E HIGH ST", "postcode": "19464"}}},
{"geometry": {"type": "Point", "coordinates": [-75.6147425995, 40.2386889703]}, "type": "Feature", "properties": {"collection_times": [{"days": "Mon-Sat", "time": "10:00am"}, {"days": "Sun", "time": "Closed"}], "id": "1946400127", "name": "USPS COLLECTION BOX - BLUE BOX", "address": {"city": "POTTSTOWN", "state": "PA", "street": "1550 MEDICAL DR", "postcode": "19464"}}},
{"geometry": {"type": "Point", "coordinates": [-75.6350658346, 40.2437461199]}, "type": "Feature", "properties": {"collection_times": [{"days": "Mon-Fri", "time": "5:00pm"}, {"days": "Sat", "time": "3:00pm"}, {"days": "Sun", "time": "Closed"}], "id": "1946400130", "name": "USPS COLLECTION BOX - PO LOBBY", "address": {"city": "POTTSTOWN", "state": "PA", "street": "770 E HIGH ST", "postcode": "19464"}}},
{"geometry": {"type": "Point", "coordinates": [-75.6818178744, 40.2486381893]}, "type": "Feature", "properties": {"collection_times": [{"days": "Mon-Fri", "time": "4:00pm"}, {"days": "Sat", "time": "10:30am"}, {"days": "Sun", "time": "Closed"}], "id": "1946400132", "name": "USPS COLLECTION BOX - PO LOBBY", "address": {"city": "POTTSTOWN", "state": "PA", "street": "60 LEMON ST", "postcode": "19464"}}},
{"geometry": {"type": "Point", "coordinates": [-75.6350658346, 40.2437461199]}, "type": "Feature", "properties": {"collection_times": [{"days": "Mon-Fri", "time": "5:00pm"}, {"days": "Sat", "time": "2:45pm"}, {"days": "Sun", "time": "Closed"}], "id": "1946400136", "name": "USPS COLLECTION BOX - BLUE BOX", "address": {"city": "POTTSTOWN", "state": "PA", "street": "770 E HIGH ST", "postcode": "19464"}}},
{"geometry": {"type": "Point", "coordinates": [-75.6147425995, 40.2386889703]}, "type": "Feature", "properties": {"collection_times": [{"days": "Mon-Sat", "time": "10:00am"}, {"days": "Sun", "time": "Closed"}], "id": "1946400137", "name": "USPS COLLECTION BOX - BLUE BOX", "address": {"city": "POTTSTOWN", "state": "PA", "street": "1550 MEDICAL DR", "postcode": "19464"}}},
{"geometry": {"type": "Point", "coordinates": [-75.6602202969, 40.207793847]}, "type": "Feature", "properties": {"collection_times": [{"days": "Mon-Sat", "time": "10:00am"}, {"days": "Sun", "time": "Closed"}], "id": "1946500000", "name": "USPS COLLECTION BOX - BLUE BOX", "address": {"city": "POTTSTOWN", "state": "PA", "street": "1408 S HANOVER ST", "postcode": "19465"}}},
{"geometry": {"type": "Point", "coordinates": [-75.6621521974, 40.233419848]}, "type": "Feature", "properties": {"collection_times": [{"days": "Mon-Sat", "time": "10:00am"}, {"days": "Sun", "time": "Closed"}], "id": "1946500002", "name": "USPS COLLECTION BOX - BLUE BOX", "address": {"city": "POTTSTOWN", "state": "PA", "street": "351 W SCHUYLKILL RD", "postcode": "19465"}}},
{"geometry": {"type": "Point", "coordinates": [-75.6621521974, 40.233419848]}, "type": "Feature", "properties": {"collection_times": [{"days": "Mon-Sat", "time": "10:00am"}, {"days": "Sun", "time": "Closed"}], "id": "1946500006", "name": "USPS COLLECTION BOX - BLUE BOX", "address": {"city": "POTTSTOWN", "state": "PA", "street": "351 W SCHUYLKILL RD", "postcode": "19465"}}},
{"geometry": {"type": "Point", "coordinates": [-75.5386459062, 40.1873429134]}, "type": "Feature", "properties": {"collection_times": [{"days": "Mon-Fri", "time": "1:30pm"}, {"days": "Sat", "time": "11:00am"}, {"days": "Sun", "time": "Closed"}], "id": "1946800002", "name": "USPS COLLECTION BOX - BLUE BOX", "address": {"city": "ROYERSFORD", "state": "PA", "street": "500 CHURCH ST", "postcode": "19468"}}},
{"geometry": {"type": "Point", "coordinates": [-75.5407189423, 40.1839037747]}, "type": "Feature", "properties": {"collection_times": [{"days": "Mon-Fri", "time": "1:30pm"}, {"days": "Sat", "time": "11:00am"}, {"days": "Sun", "time": "Closed"}], "id": "1946800004", "name": "USPS COLLECTION BOX - BLUE BOX", "address": {"city": "ROYERSFORD", "state": "PA", "street": "300 MAIN ST", "postcode": "19468"}}},
{"geometry": {"type": "Point", "coordinates": [-75.5243456073, 40.1997932795]}, "type": "Feature", "properties": {"collection_times": [{"days": "Mon-Fri", "time": "1:30pm"}, {"days": "Sat", "time": "11:00am"}, {"days": "Sun", "time": "Closed"}], "id": "1946800014", "name": "USPS COLLECTION BOX - BLUE BOX", "address": {"city": "ROYERSFORD", "state": "PA", "street": "70 BUCKWALTER RD", "postcode": "19468"}}},
{"geometry": {"type": "Point", "coordinates": [-75.5240569653, 40.1792310868]}, "type": "Feature", "properties": {"collection_times": [{"days": "Mon-Fri", "time": "2:00pm"}, {"days": "Sat", "time": "10:00am"}, {"days": "Sun", "time": "Closed"}], "id": "1946800021", "name": "USPS COLLECTION BOX - BLUE BOX", "address": {"city": "ROYERSFORD", "state": "PA", "street": "62 ROBODA BLVD", "postcode": "19468"}}},
{"geometry": {"type": "Point", "coordinates": [-75.5228744644, 40.1819698165]}, "type": "Feature", "properties": {"collection_times": [{"days": "Mon-Fri", "time": "1:30pm"}, {"days": "Sat", "time": "10:00am"}, {"days": "Sun", "time": "Closed"}], "id": "1946800022", "name": "USPS COLLECTION BOX - BLUE BOX", "address": {"city": "ROYERSFORD", "state": "PA", "street": "217 PROVIDENCE FORGE RD", "postcode": "19468"}}},
{"geometry": {"type": "Point", "coordinates": [-75.5367169921, 40.1985854784]}, "type": "Feature", "properties": {"collection_times": [{"days": "Mon-Fri", "time": "5:00pm"}, {"days": "Sat", "time": "1:00pm"}, {"days": "Sun", "time": "Closed"}], "id": "1946800023", "name": "USPS COLLECTION BOX - BLUE BOX", "address": {"city": "ROYERSFORD", "state": "PA", "street": "354 N LEWIS RD", "postcode": "19468"}}},
{"geometry": {"type": "Point", "coordinates": [-75.5367169921, 40.1985854784]}, "type": "Feature", "properties": {"collection_times": [{"days": "Mon-Fri", "time": "5:00pm"}, {"days": "Sat", "time": "1:00pm"}, {"days": "Sun", "time": "Closed"}], "id": "1946800024", "name": "USPS COLLECTION BOX - BLUE BOX", "address": {"city": "ROYERSFORD", "state": "PA", "street": "354 N LEWIS RD", "postcode": "19468"}}},
{"geometry": {"type": "Point", "coordinates": [-75.5367169921, 40.1985854784]}, "type": "Feature", "properties": {"collection_times": [{"days": "Mon-Fri", "time": "5:00pm"}, {"days": "Sat", "time": "1:00pm"}, {"days": "Sun", "time": "Closed"}], "id": "1946800025", "name": "USPS COLLECTION BOX - BLUE BOX", "address": {"city": "ROYERSFORD", "state": "PA", "street": "354 N LEWIS RD", "postcode": "19468"}}},
{"geometry": {"type": "Point", "coordinates": [-75.5198539121, 40.2297848382]}, "type": "Feature", "properties": {"collection_times": [{"days": "Mon-Fri", "time": "4:30pm"}, {"days": "Sat", "time": "11:00am"}, {"days": "Sun", "time": "Closed"}], "id": "1946800026", "name": "USPS COLLECTION BOX - BLUE BOX", "address": {"city": "ROYERSFORD", "state": "PA", "street": "327 W RIDGE PIKE", "postcode": "19468"}}},
{"geometry": {"type": "Point", "coordinates": [-75.5367169921, 40.1985854784]}, "type": "Feature", "properties": {"collection_times": [{"days": "Mon-Fri", "time": "5:00pm"}, {"days": "Sat", "time": "1:00pm"}, {"days": "Sun", "time": "Closed"}], "id": "1946800028", "name": "USPS COLLECTION BOX - PO LOBBY", "address": {"city": "ROYERSFORD", "state": "PA", "street": "354 N LEWIS RD", "postcode": "19468"}}},
{"geometry": {"type": "Point", "coordinates": [-75.5367169921, 40.1985854784]}, "type": "Feature", "properties": {"collection_times": [{"days": "Mon-Fri", "time": "5:00pm"}, {"days": "Sat", "time": "1:00pm"}, {"days": "Sun", "time": "Closed"}], "id": "1946800031", "name": "USPS COLLECTION BOX - PO LOBBY", "address": {"city": "ROYERSFORD", "state": "PA", "street": "354 N LEWIS RD", "postcode": "19468"}}},
{"geometry": {"type": "Point", "coordinates": [-75.7294288617, 40.1758723513]}, "type": "Feature", "properties": {"collection_times": [{"days": "Mon-Fri", "time": "5:00pm"}, {"days": "Sat", "time": "12:00pm"}, {"days": "Sun", "time": "Closed"}], "id": "1947000001", "name": "USPS COLLECTION BOX - BLUE BOX", "address": {"city": "SAINT PETERS", "state": "PA", "street": "3300 SAINT PETERS RD", "postcode": "19470"}}},
{"geometry": {"type": "Point", "coordinates": [-75.7294288617, 40.1758723513]}, "type": "Feature", "properties": {"collection_times": [{"days": "Mon-Fri", "time": "5:00pm"}, {"days": "Sat", "time": "12:00pm"}, {"days": "Sun", "time": "Closed"}], "id": "1947000002", "name": "USPS COLLECTION BOX - PO LOBBY", "address": {"city": "SAINT PETERS", "state": "PA", "street": "3300 SAINT PETERS RD", "postcode": "19470"}}},
{"geometry": {"type": "Point", "coordinates": [-75.7294288617, 40.1758723513]}, "type": "Feature", "properties": {"collection_times": [{"days": "Mon-Fri", "time": "5:00pm"}, {"days": "Sat", "time": "12:00pm"}, {"days": "Sun", "time": "Closed"}], "id": "1947000003", "name": "USPS COLLECTION BOX - PO LOBBY", "address": {"city": "SAINT PETERS", "state": "PA", "street": "3300 SAINT PETERS RD", "postcode": "19470"}}},
{"geometry": {"type": "Point", "coordinates": [-75.5728967145, 40.3416467049]}, "type": "Feature", "properties": {"collection_times": [{"days": "Mon-Fri", "time": "4:30pm"}, {"days": "Sat", "time": "11:30am"}, {"days": "Sun", "time": "Closed"}], "id": "1947200001", "name": "USPS COLLECTION BOX - BLUE BOX", "address": {"city": "SASSAMANSVILLE", "state": "PA", "street": "140 HOFFMANSVILLE RD", "postcode": "19472"}}},
{"geometry": {"type": "Point", "coordinates": [-75.5728967145, 40.3416467049]}, "type": "Feature", "properties": {"collection_times": [{"days": "Mon-Fri", "time": "4:30pm"}, {"days": "Sat", "time": "11:30am"}, {"days": "Sun", "time": "Closed"}], "id": "1947200002", "name": "USPS COLLECTION BOX - PO LOBBY", "address": {"city": "SASSAMANSVILLE", "state": "PA", "street": "140 HOFFMANSVILLE RD", "postcode": "19472"}}},
{"geometry": {"type": "Point", "coordinates": [-75.5728967145, 40.3416467049]}, "type": "Feature", "properties": {"collection_times": [{"days": "Mon-Fri", "time": "4:30pm"}, {"days": "Sat", "time": "11:30am"}, {"days": "Sun", "time": "Closed"}], "id": "1947200003", "name": "USPS COLLECTION BOX - PO LOBBY", "address": {"city": "SASSAMANSVILLE", "state": "PA", "street": "140 HOFFMANSVILLE RD", "postcode": "19472"}}},
{"geometry": {"type": "Point", "coordinates": [-75.4647013571, 40.2564062178]}, "type": "Feature", "properties": {"collection_times": [{"days": "Mon-Fri", "time": "4:30pm"}, {"days": "Sat", "time": "11:30am"}, {"days": "Sun", "time": "Closed"}], "id": "1947300001", "name": "USPS COLLECTION BOX - BLUE BOX", "address": {"city": "SCHWENKSVILLE", "state": "PA", "street": "153 CENTENNIAL ST", "postcode": "19473"}}},
{"geometry": {"type": "Point", "coordinates": [-75.4647013571, 40.2564062178]}, "type": "Feature", "properties": {"collection_times": [{"days": "Mon-Fri", "time": "4:30pm"}, {"days": "Sat", "time": "11:30am"}, {"days": "Sun", "time": "Closed"}], "id": "1947300005", "name": "USPS COLLECTION BOX - PO LOBBY", "address": {"city": "SCHWENKSVILLE", "state": "PA", "street": "153 CENTENNIAL ST", "postcode": "19473"}}},
{"geometry": {"type": "Point", "coordinates": [-75.3875948759, 40.2216396607]}, "type": "Feature", "properties": {"collection_times": [{"days": "Mon-Fri", "time": "4:45pm"}, {"days": "Sat", "time": "11:00am"}, {"days": "Sun", "time": "Closed"}], "id": "1947400001", "name": "USPS COLLECTION BOX - BLUE BOX", "address": {"city": "SKIPPACK", "state": "PA", "street": "3801 SKIPPACK PIKE", "postcode": "19474"}}},
{"geometry": {"type": "Point", "coordinates": [-75.3875948759, 40.2216396607]}, "type": "Feature", "properties": {"collection_times": [{"days": "Mon-Fri", "time": "4:45pm"}, {"days": "Sat", "time": "11:00am"}, {"days": "Sun", "time": "Closed"}], "id": "1947400002", "name": "USPS COLLECTION BOX - PO LOBBY", "address": {"city": "SKIPPACK", "state": "PA", "street": "3801 SKIPPACK PIKE", "postcode": "19474"}}},
{"geometry": {"type": "Point", "coordinates": [-75.3875948759, 40.2216396607]}, "type": "Feature", "properties": {"collection_times": [{"days": "Mon-Fri", "time": "4:45pm"}, {"days": "Sat", "time": "11:00am"}, {"days": "Sun", "time": "Closed"}], "id": "1947400003", "name": "USPS COLLECTION BOX - PO LOBBY", "address": {"city": "SKIPPACK", "state": "PA", "street": "3801 SKIPPACK PIKE", "postcode": "19474"}}},
{"geometry": {"type": "Point", "coordinates": [-75.5449078, 40.176687725]}, "type": "Feature", "properties": {"collection_times": [{"days": "Mon-Fri", "time": "2:30pm"}, {"days": "Sat", "time": "9:00am"}, {"days": "Sun", "time": "Closed"}], "id": "1947500024", "name": "USPS COLLECTION BOX - BLUE BOX", "address": {"city": "SPRING CITY", "state": "PA", "street": "100 S MAIN ST", "postcode": "19475"}}},
{"geometry": {"type": "Point", "coordinates": [-75.5458586243, 40.1779396663]}, "type": "Feature", "properties": {"collection_times": [{"days": "Mon-Fri", "time": "2:30pm"}, {"days": "Sat", "time": "9:00am"}, {"days": "Sun", "time": "Closed"}], "id": "1947500025", "name": "USPS COLLECTION BOX - BLUE BOX", "address": {"city": "SPRING CITY", "state": "PA", "street": "6 N MAIN ST", "postcode": "19475"}}},
{"geometry": {"type": "Point", "coordinates": [-75.5524281502, 40.1821448018]}, "type": "Feature", "properties": {"collection_times": [{"days": "Mon-Fri", "time": "2:45pm"}, {"days": "Sat", "time": "9:00am"}, {"days": "Sun", "time": "Closed"}], "id": "1947500026", "name": "USPS COLLECTION BOX - BLUE BOX", "address": {"city": "SPRING CITY", "state": "PA", "street": "257 BRIDGE ST", "postcode": "19475"}}},
{"geometry": {"type": "Point", "coordinates": [-75.5695645254, 40.1840042019]}, "type": "Feature", "properties": {"collection_times": [{"days": "Mon-Fri", "time": "2:45pm"}, {"days": "Sat", "time": "9:00am"}, {"days": "Sun", "time": "Closed"}], "id": "1947500027", "name": "USPS COLLECTION BOX - BLUE BOX", "address": {"city": "SPRING CITY", "state": "PA", "street": "3380 SCHUYLKILL RD", "postcode": "19475"}}},
{"geometry": {"type": "Point", "coordinates": [-75.554046158, 40.1769716352]}, "type": "Feature", "properties": {"collection_times": [{"days": "Mon-Fri", "time": "2:30pm"}, {"days": "Sat", "time": "9:00am"}, {"days": "Sun", "time": "Closed"}], "id": "1947500028", "name": "USPS COLLECTION BOX - BLUE BOX", "address": {"city": "SPRING CITY", "state": "PA", "street": "500 NEW ST", "postcode": "19475"}}},
{"geometry": {"type": "Point", "coordinates": [-75.5447220754, 40.1710201686]}, "type": "Feature", "properties": {"collection_times": [{"days": "Mon-Fri", "time": "2:30pm"}, {"days": "Sat", "time": "9:00am"}, {"days": "Sun", "time": "Closed"}], "id": "1947500030", "name": "USPS COLLECTION BOX - BLUE BOX", "address": {"city": "SPRING CITY", "state": "PA", "street": "330 PIKELAND AVE", "postcode": "19475"}}},
{"geometry": {"type": "Point", "coordinates": [-75.5481526564, 40.1794617638]}, "type": "Feature", "properties": {"collection_times": [{"days": "Mon-Fri", "time": "4:30pm"}, {"days": "Sat", "time": "12:00pm"}, {"days": "Sun", "time": "Closed"}], "id": "1947500031", "name": "USPS COLLECTION BOX - BLUE BOX", "address": {"city": "SPRING CITY", "state": "PA", "street": "124 NEW ST", "postcode": "19475"}}},
{"geometry": {"type": "Point", "coordinates": [-75.5481526564, 40.1794617638]}, "type": "Feature", "properties": {"collection_times": [{"days": "Mon-Fri", "time": "4:30pm"}, {"days": "Sat", "time": "12:00pm"}, {"days": "Sun", "time": "Closed"}], "id": "1947500033", "name": "USPS COLLECTION BOX - PO LOBBY", "address": {"city": "SPRING CITY", "state": "PA", "street": "124 NEW ST", "postcode": "19475"}}},
{"geometry": {"type": "Point", "coordinates": [-75.5481526564, 40.1794617638]}, "type": "Feature", "properties": {"collection_times": [{"days": "Mon-Fri", "time": "4:30pm"}, {"days": "Sat", "time": "12:00pm"}, {"days": "Sun", "time": "Closed"}], "id": "1947500034", "name": "USPS COLLECTION BOX - PO LOBBY", "address": {"city": "SPRING CITY", "state": "PA", "street": "124 NEW ST", "postcode": "19475"}}},
{"geometry": {"type": "Point", "coordinates": [-75.5481526564, 40.1794617638]}, "type": "Feature", "properties": {"collection_times": [{"days": "Mon-Fri", "time": "4:30pm"}, {"days": "Sat", "time": "12:00pm"}, {"days": "Sun", "time": "Closed"}], "id": "1947500035", "name": "USPS COLLECTION BOX - PO LOBBY", "address": {"city": "SPRING CITY", "state": "PA", "street": "124 NEW ST", "postcode": "19475"}}},
{"geometry": {"type": "Point", "coordinates": [-75.2357700052, 40.1839495141]}, "type": "Feature", "properties": {"collection_times": [{"days": "Mon-Fri", "time": "4:00pm"}, {"days": "Sat", "time": "9:30am"}, {"days": "Sun", "time": "Closed"}], "id": "1947700004", "name": "USPS COLLECTION BOX - PO LOBBY", "address": {"city": "NORTH WALES", "state": "PA", "street": "905 BETHLEHEM PIKE", "postcode": "19477"}}},
{"geometry": {"type": "Point", "coordinates": [-75.4612466848, 40.2725606653]}, "type": "Feature", "properties": {"collection_times": [{"days": "Mon-Sat", "time": "12:00pm"}, {"days": "Sun", "time": "Closed"}], "id": "1947800003", "name": "USPS COLLECTION BOX - BLUE BOX", "address": {"city": "SPRING MOUNT", "state": "PA", "street": "53 SPRING MOUNT RD", "postcode": "19478"}}},
{"geometry": {"type": "Point", "coordinates": [-75.6925751193, 40.0894303703]}, "type": "Feature", "properties": {"collection_times": [{"days": "Mon-Fri", "time": "4:30pm"}, {"days": "Sat", "time": "11:30am"}, {"days": "Sun", "time": "Closed"}], "id": "1948000001", "name": "USPS COLLECTION BOX - BLUE BOX", "address": {"city": "UWCHLAND", "state": "PA", "street": "101 FELLOWSHIP RD STE 100", "postcode": "19480"}}},
{"geometry": {"type": "Point", "coordinates": [-75.6925751193, 40.0894303703]}, "type": "Feature", "properties": {"collection_times": [{"days": "Mon-Fri", "time": "4:30pm"}, {"days": "Sat", "time": "11:30am"}, {"days": "Sun", "time": "Closed"}], "id": "1948000002", "name": "USPS COLLECTION BOX - PO LOBBY", "address": {"city": "UWCHLAND", "state": "PA", "street": "101 FELLOWSHIP RD STE 100", "postcode": "19480"}}},
{"geometry": {"type": "Point", "coordinates": [-75.6925751193, 40.0894303703]}, "type": "Feature", "properties": {"collection_times": [{"days": "Mon-Fri", "time": "4:30pm"}, {"days": "Sat", "time": "11:30am"}, {"days": "Sun", "time": "Closed"}], "id": "1948000003", "name": "USPS COLLECTION BOX - PO LOBBY", "address": {"city": "UWCHLAND", "state": "PA", "street": "101 FELLOWSHIP RD STE 100", "postcode": "19480"}}},
{"geometry": {"type": "Point", "coordinates": [-75.4702037946, 40.0988530165]}, "type": "Feature", "properties": {"collection_times": [{"days": "Mon-Fri", "time": "4:30pm"}, {"days": "Sat", "time": "11:00am"}, {"days": "Sun", "time": "Closed"}], "id": "1948100001", "name": "USPS COLLECTION BOX - BLUE BOX", "address": {"city": "VALLEY FORGE", "state": "PA", "street": "1721 VALLEY FORGE RD", "postcode": "19481"}}},
{"geometry": {"type": "Point", "coordinates": [-75.4702037946, 40.0988530165]}, "type": "Feature", "properties": {"collection_times": [{"days": "Mon-Fri", "time": "4:30pm"}, {"days": "Sat", "time": "11:00am"}, {"days": "Sun", "time": "Closed"}], "id": "1948100002", "name": "USPS COLLECTION BOX - BLUE BOX", "address": {"city": "VALLEY FORGE", "state": "PA", "street": "1721 VALLEY FORGE RD", "postcode": "19481"}}},
{"geometry": {"type": "Point", "coordinates": [-75.4702037946, 40.0988530165]}, "type": "Feature", "properties": {"collection_times": [{"days": "Mon-Fri", "time": "4:30pm"}, {"days": "Sat", "time": "11:00am"}, {"days": "Sun", "time": "Closed"}], "id": "1948100004", "name": "USPS COLLECTION BOX - PO LOBBY", "address": {"city": "VALLEY FORGE", "state": "PA", "street": "1721 VALLEY FORGE RD", "postcode": "19481"}}},
{"geometry": {"type": "Point", "coordinates": [-75.4702037946, 40.0988530165]}, "type": "Feature", "properties": {"collection_times": [{"days": "Mon-Fri", "time": "4:30pm"}, {"days": "Sat", "time": "11:00am"}, {"days": "Sun", "time": "Closed"}], "id": "1948100005", "name": "USPS COLLECTION BOX - PO LOBBY", "address": {"city": "VALLEY FORGE", "state": "PA", "street": "1721 VALLEY FORGE RD", "postcode": "19481"}}},
{"geometry": {"type": "Point", "coordinates": [-75.2956362025, 40.2099342511]}, "type": "Feature", "properties": {"collection_times": [{"days": "Mon-Fri", "time": "4:30pm"}, {"days": "Sat", "time": "10:00am"}, {"days": "Sun", "time": "Closed"}], "id": "1948600001", "name": "USPS COLLECTION BOX - BLUE BOX", "address": {"city": "WEST POINT", "state": "PA", "street": "1851 W POINT PIKE", "postcode": "19486"}}},
{"geometry": {"type": "Point", "coordinates": [-75.2956362025, 40.2099342511]}, "type": "Feature", "properties": {"collection_times": [{"days": "Mon-Fri", "time": "4:30pm"}, {"days": "Sat", "time": "10:00am"}, {"days": "Sun", "time": "Closed"}], "id": "1948600002", "name": "USPS COLLECTION BOX - PO LOBBY", "address": {"city": "WEST POINT", "state": "PA", "street": "1851 W POINT PIKE", "postcode": "19486"}}},
{"geometry": {"type": "Point", "coordinates": [-75.3405727909, 40.2059418453]}, "type": "Feature", "properties": {"collection_times": [{"days": "Mon-Fri", "time": "4:30pm"}, {"days": "Sat", "time": "12:00pm"}, {"days": "Sun", "time": "Closed"}], "id": "1949000001", "name": "USPS COLLECTION BOX - BLUE BOX", "address": {"city": "WORCESTER", "state": "PA", "street": "1741 VALLEY FORGE RD", "postcode": "19490"}}},
{"geometry": {"type": "Point", "coordinates": [-75.3405727909, 40.2059418453]}, "type": "Feature", "properties": {"collection_times": [{"days": "Mon-Fri", "time": "4:30pm"}, {"days": "Sat", "time": "12:00pm"}, {"days": "Sun", "time": "Closed"}], "id": "1949000002", "name": "USPS COLLECTION BOX - PO LOBBY", "address": {"city": "WORCESTER", "state": "PA", "street": "1741 VALLEY FORGE RD", "postcode": "19490"}}},
{"geometry": {"type": "Point", "coordinates": [-75.3405727909, 40.2059418453]}, "type": "Feature", "properties": {"collection_times": [{"days": "Mon-Fri", "time": "4:30pm"}, {"days": "Sat", "time": "12:00pm"}, {"days": "Sun", "time": "Closed"}], "id": "1949000003", "name": "USPS COLLECTION BOX - PO LOBBY", "address": {"city": "WORCESTER", "state": "PA", "street": "1741 VALLEY FORGE RD", "postcode": "19490"}}},
{"geometry": {"type": "Point", "coordinates": [-75.4964584809, 40.2812065105]}, "type": "Feature", "properties": {"collection_times": [{"days": "Mon-Fri", "time": "4:30pm"}, {"days": "Sat", "time": "11:30am"}, {"days": "Sun", "time": "Closed"}], "id": "1949200000", "name": "USPS COLLECTION BOX - BLUE BOX", "address": {"city": "ZIEGLERVILLE", "state": "PA", "street": "1204 N GRAVEL PIKE", "postcode": "19492"}}},
{"geometry": {"type": "Point", "coordinates": [-75.4964584809, 40.2812065105]}, "type": "Feature", "properties": {"collection_times": [{"days": "Mon-Fri", "time": "4:30pm"}, {"days": "Sat", "time": "11:30am"}, {"days": "Sun", "time": "Closed"}], "id": "1949200001", "name": "USPS COLLECTION BOX - PO LOBBY", "address": {"city": "ZIEGLERVILLE", "state": "PA", "street": "1204 N GRAVEL PIKE", "postcode": "19492"}}},
{"geometry": {"type": "Point", "coordinates": [-75.4964584809, 40.2812065105]}, "type": "Feature", "properties": {"collection_times": [{"days": "Mon-Fri", "time": "4:30pm"}, {"days": "Sat", "time": "11:30am"}, {"days": "Sun", "time": "Closed"}], "id": "1949200002", "name": "USPS COLLECTION BOX - PO LOBBY", "address": {"city": "ZIEGLERVILLE", "state": "PA", "street": "1204 N GRAVEL PIKE", "postcode": "19492"}}}
]}
