{"type": "FeatureCollection", "features": [
{"geometry": {"type": "Point", "coordinates": [-76.0588407735, 40.242042659]}, "type": "Feature", "properties": {"collection_times": [{"days": "Mon-Fri", "time": "4:15pm"}, {"days": "Sat", "time": "12:00pm"}, {"days": "Sun", "time": "Closed"}], "id": "1950100003", "name": "USPS COLLECTION BOX - BLUE BOX", "address": {"city": "ADAMSTOWN", "state": "PA", "street": "128 W MAIN ST", "postcode": "19501"}}},
{"geometry": {"type": "Point", "coordinates": [-76.0588407735, 40.242042659]}, "type": "Feature", "properties": {"collection_times": [{"days": "Mon-Fri", "time": "4:30pm"}, {"days": "Sat", "time": "12:00pm"}, {"days": "Sun", "time": "Closed"}], "id": "1950100005", "name": "USPS COLLECTION BOX - PO LOBBY", "address": {"city": "ADAMSTOWN", "state": "PA", "street": "128 W MAIN ST", "postcode": "19501"}}},
{"geometry": {"type": "Point", "coordinates": [-75.5858755151, 40.4026701414]}, "type": "Feature", "properties": {"collection_times": [{"days": "Mon-Fri", "time": "4:00pm"}, {"days": "Sat", "time": "11:00am"}, {"days": "Sun", "time": "Closed"}], "id": "1950300002", "name": "USPS COLLECTION BOX - BLUE BOX", "address": {"city": "BALLY", "state": "PA", "street": "9 S 7TH ST", "postcode": "19503"}}},
{"geometry": {"type": "Point", "coordinates": [-75.5858755151, 40.4026701414]}, "type": "Feature", "properties": {"collection_times": [{"days": "Mon-Fri", "time": "4:00pm"}, {"days": "Sat", "time": "11:00am"}, {"days": "Sun", "time": "Closed"}], "id": "1950300003", "name": "USPS COLLECTION BOX - PO LOBBY", "address": {"city": "BALLY", "state": "PA", "street": "9 S 7TH ST", "postcode": "19503"}}},
{"geometry": {"type": "Point", "coordinates": [-75.6196855559, 40.3859385357]}, "type": "Feature", "properties": {"collection_times": [{"days": "Mon-Fri", "time": "4:15pm"}, {"days": "Sat", "time": "11:00am"}, {"days": "Sun", "time": "Closed"}], "id": "1950400000", "name": "USPS COLLECTION BOX - BLUE BOX", "address": {"city": "BARTO", "state": "PA", "street": "2245 OLD ROUTE 100", "postcode": "19504"}}},
{"geometry": {"type": "Point", "coordinates": [-75.6196855559, 40.3859385357]}, "type": "Feature", "properties": {"collection_times": [{"days": "Mon-Fri", "time": "4:15pm"}, {"days": "Sat", "time": "11:00am"}, {"days": "Sun", "time": "Closed"}], "id": "1950400001", "name": "USPS COLLECTION BOX - PO LOBBY", "address": {"city": "BARTO", "state": "PA", "street": "2245 OLD ROUTE 100", "postcode": "19504"}}},
{"geometry": {"type": "Point", "coordinates": [-75.6300030331, 40.3730925005]}, "type": "Feature", "properties": {"collection_times": [{"days": "Mon-Fri", "time": "4:15pm"}, {"days": "Sat", "time": "11:00am"}, {"days": "Sun", "time": "Closed"}], "id": "1950500001", "name": "USPS COLLECTION BOX - BLUE BOX", "address": {"city": "BECHTELSVILLE", "state": "PA", "street": "1811 N MAIN ST", "postcode": "19505"}}},
{"geometry": {"type": "Point", "coordinates": [-75.6300030331, 40.3730925005]}, "type": "Feature", "properties": {"collection_times": [{"days": "Mon-Fri", "time": "4:30pm"}, {"days": "Sat", "time": "11:00am"}, {"days": "Sun", "time": "Closed"}], "id": "1950500002", "name": "USPS COLLECTION BOX - PO LOBBY", "address": {"city": "BECHTELSVILLE", "state": "PA", "street": "1811 N MAIN ST", "postcode": "19505"}}},
{"geometry": {"type": "Point", "coordinates": [-76.1129339381, 40.4320814678]}, "type": "Feature", "properties": {"collection_times": [{"days": "Mon-Fri", "time": "4:15pm"}, {"days": "Sat", "time": "11:30am"}, {"days": "Sun", "time": "Closed"}], "id": "1950600004", "name": "USPS COLLECTION BOX - BLUE BOX", "address": {"city": "BERNVILLE", "state": "PA", "street": "125 E 3RD ST", "postcode": "19506"}}},
{"geometry": {"type": "Point", "coordinates": [-76.1129339381, 40.4320814678]}, "type": "Feature", "properties": {"collection_times": [{"days": "Mon-Fri", "time": "4:15pm"}, {"days": "Sat", "time": "11:30am"}, {"days": "Sun", "time": "Closed"}], "id": "1950600005", "name": "USPS COLLECTION BOX - PO LOBBY", "address": {"city": "BERNVILLE", "state": "PA", "street": "125 E 3RD ST", "postcode": "19506"}}},
{"geometry": {"type": "Point", "coordinates": [-76.2921455696, 40.4746430734]}, "type": "Feature", "properties": {"collection_times": [{"days": "Mon-Fri", "time": "4:30pm"}, {"days": "Sat", "time": "10:45am"}, {"days": "Sun", "time": "Closed"}], "id": "1950700000", "name": "USPS COLLECTION BOX - BLUE BOX", "address": {"city": "BETHEL", "state": "PA", "street": "10 LEGION DR", "postcode": "19507"}}},
{"geometry": {"type": "Point", "coordinates": [-76.2921455696, 40.4746430734]}, "type": "Feature", "properties": {"collection_times": [{"days": "Mon-Fri", "time": "4:30pm"}, {"days": "Sat", "time": "10:45am"}, {"days": "Sun", "time": "Closed"}], "id": "1950700001", "name": "USPS COLLECTION BOX - PO LOBBY", "address": {"city": "BETHEL", "state": "PA", "street": "10 LEGION DR", "postcode": "19507"}}},
{"geometry": {"type": "Point", "coordinates": [-75.8184126446, 40.2679683876]}, "type": "Feature", "properties": {"collection_times": [{"days": "Mon-Fri", "time": "4:00pm"}, {"days": "Sat", "time": "2:00pm"}, {"days": "Sun", "time": "Closed"}], "id": "1950800026", "name": "USPS COLLECTION BOX - BLUE BOX", "address": {"city": "BIRDSBORO", "state": "PA", "street": "340 W MAIN ST", "postcode": "19508"}}},
{"geometry": {"type": "Point", "coordinates": [-75.8184126446, 40.2679683876]}, "type": "Feature", "properties": {"collection_times": [{"days": "Mon-Fri", "time": "4:00pm"}, {"days": "Sat", "time": "2:00pm"}, {"days": "Sun", "time": "Closed"}], "id": "1950800029", "name": "USPS COLLECTION BOX - PO LOBBY", "address": {"city": "BIRDSBORO", "state": "PA", "street": "340 W MAIN ST", "postcode": "19508"}}},
{"geometry": {"type": "Point", "coordinates": [-75.8184126446, 40.2679683876]}, "type": "Feature", "properties": {"collection_times": [{"days": "Mon-Fri", "time": "4:00pm"}, {"days": "Sat", "time": "2:00pm"}, {"days": "Sun", "time": "Closed"}], "id": "1950800030", "name": "USPS COLLECTION BOX - BLUE BOX", "address": {"city": "BIRDSBORO", "state": "PA", "street": "340 W MAIN ST", "postcode": "19508"}}},
{"geometry": {"type": "Point", "coordinates": [-75.8797532884, 40.4404225523]}, "type": "Feature", "properties": {"collection_times": [{"days": "Mon-Fri", "time": "4:00pm"}, {"days": "Sat", "time": "11:30am"}, {"days": "Sun", "time": "Closed"}], "id": "1951000002", "name": "USPS COLLECTION BOX - BLUE BOX", "address": {"city": "BLANDON", "state": "PA", "street": "120 E WESNER RD", "postcode": "19510"}}},
{"geometry": {"type": "Point", "coordinates": [-75.8797532884, 40.4404225523]}, "type": "Feature", "properties": {"collection_times": [{"days": "Mon-Fri", "time": "4:00pm"}, {"days": "Sat", "time": "11:30am"}, {"days": "Sun", "time": "Closed"}], "id": "1951000003", "name": "USPS COLLECTION BOX - PO LOBBY", "address": {"city": "BLANDON", "state": "PA", "street": "120 E WESNER RD", "postcode": "19510"}}},
{"geometry": {"type": "Point", "coordinates": [-75.7421321005, 40.488504727]}, "type": "Feature", "properties": {"collection_times": [{"days": "Mon-Fri", "time": "4:00pm"}, {"days": "Sat", "time": "10:00am"}, {"days": "Sun", "time": "Closed"}], "id": "1951100003", "name": "USPS COLLECTION BOX - BLUE BOX", "address": {"city": "BOWERS", "state": "PA", "street": "97 OLD BOWERS RD", "postcode": "19511"}}},
{"geometry": {"type": "Point", "coordinates": [-75.7421321005, 40.488504727]}, "type": "Feature", "properties": {"collection_times": [{"days": "Mon-Fri", "time": "4:30pm"}, {"days": "Sat", "time": "10:00am"}, {"days": "Sun", "time": "Closed"}], "id": "1951100004", "name": "USPS COLLECTION BOX - PO LOBBY", "address": {"city": "BOWERS", "state": "PA", "street": "97 OLD BOWERS RD", "postcode": "19511"}}},
{"geometry": {"type": "Point", "coordinates": [-75.6372407871, 40.329900504]}, "type": "Feature", "properties": {"collection_times": [{"days": "Mon-Fri", "time": "4:30pm"}, {"days": "Sat", "time": "3:15pm"}, {"days": "Sun", "time": "Closed"}], "id": "1951200008", "name": "USPS COLLECTION BOX - BLUE BOX", "address": {"city": "BOYERTOWN", "state": "PA", "street": "128 S WASHINGTON ST", "postcode": "19512"}}},
{"geometry": {"type": "Point", "coordinates": [-75.6352101556, 40.3319475403]}, "type": "Feature", "properties": {"collection_times": [{"days": "Mon-Sat", "time": "1:00pm"}, {"days": "Sun", "time": "Closed"}], "id": "1951200011", "name": "USPS COLLECTION BOX - BLUE BOX", "address": {"city": "BOYERTOWN", "state": "PA", "street": "131 E PHILADELPHIA AVE", "postcode": "19512"}}},
{"geometry": {"type": "Point", "coordinates": [-75.6368284434, 40.3343087264]}, "type": "Feature", "properties": {"collection_times": [{"days": "Mon-Sat", "time": "1:15pm"}, {"days": "Sun", "time": "Closed"}], "id": "1951200018", "name": "USPS COLLECTION BOX - BLUE BOX", "address": {"city": "BOYERTOWN", "state": "PA", "street": "24 N READING AVE", "postcode": "19512"}}},
{"geometry": {"type": "Point", "coordinates": [-75.6372407871, 40.329900504]}, "type": "Feature", "properties": {"collection_times": [{"days": "Mon-Fri", "time": "4:30pm"}, {"days": "Sat", "time": "3:15pm"}, {"days": "Sun", "time": "Closed"}], "id": "1951200036", "name": "USPS COLLECTION BOX - BLUE BOX", "address": {"city": "BOYERTOWN", "state": "PA", "street": "128 S WASHINGTON ST", "postcode": "19512"}}},
{"geometry": {"type": "Point", "coordinates": [-75.6372407871, 40.329900504]}, "type": "Feature", "properties": {"collection_times": [{"days": "Mon-Fri", "time": "4:30pm"}, {"days": "Sat", "time": "3:15pm"}, {"days": "Sun", "time": "Closed"}], "id": "1951200040", "name": "USPS COLLECTION BOX - PO LOBBY", "address": {"city": "BOYERTOWN", "state": "PA", "street": "128 S WASHINGTON ST", "postcode": "19512"}}},
{"geometry": {"type": "Point", "coordinates": [-76.0069006987, 40.4864552894]}, "type": "Feature", "properties": {"collection_times": [{"days": "Mon-Fri", "time": "3:45pm"}, {"days": "Sat", "time": "10:15am"}, {"days": "Sun", "time": "Closed"}], "id": "1951600002", "name": "USPS COLLECTION BOX - BLUE BOX", "address": {"city": "CENTERPORT", "state": "PA", "street": "106 E CHESTNUT ST", "postcode": "19516"}}},
{"geometry": {"type": "Point", "coordinates": [-76.0069006987, 40.4864552894]}, "type": "Feature", "properties": {"collection_times": [{"days": "Mon-Fri", "time": "3:45pm"}, {"days": "Sat", "time": "10:15am"}, {"days": "Sun", "time": "Closed"}], "id": "1951600003", "name": "USPS COLLECTION BOX - PO LOBBY", "address": {"city": "CENTERPORT", "state": "PA", "street": "106 E CHESTNUT ST", "postcode": "19516"}}},
{"geometry": {"type": "Point", "coordinates": [-75.7261299175, 40.2632135876]}, "type": "Feature", "properties": {"collection_times": [{"days": "Mon-Fri", "time": "5:00pm"}, {"days": "Sat", "time": "3:00pm"}, {"days": "Sun", "time": "Closed"}], "id": "1951800014", "name": "USPS COLLECTION BOX - BLUE BOX", "address": {"city": "DOUGLASSVILLE", "state": "PA", "street": "197 OLD SWEDE RD", "postcode": "19518"}}},
{"geometry": {"type": "Point", "coordinates": [-75.7261299175, 40.2632135876]}, "type": "Feature", "properties": {"collection_times": [{"days": "Mon-Fri", "time": "5:00pm"}, {"days": "Sat", "time": "3:00pm"}, {"days": "Sun", "time": "Closed"}], "id": "1951800018", "name": "USPS COLLECTION BOX - PO LOBBY", "address": {"city": "DOUGLASSVILLE", "state": "PA", "street": "197 OLD SWEDE RD", "postcode": "19518"}}},
{"geometry": {"type": "Point", "coordinates": [-75.8272660958, 40.1565406206]}, "type": "Feature", "properties": {"collection_times": [{"days": "Mon-Fri", "time": "4:15pm"}, {"days": "Sat", "time": "12:00pm"}, {"days": "Sun", "time": "Closed"}], "id": "1952000001", "name": "USPS COLLECTION BOX - BLUE BOX", "address": {"city": "ELVERSON", "state": "PA", "street": "24 S PINE ST", "postcode": "19520"}}},
{"geometry": {"type": "Point", "coordinates": [-75.8272660958, 40.1565406206]}, "type": "Feature", "properties": {"collection_times": [{"days": "Mon-Fri", "time": "4:15pm"}, {"days": "Sat", "time": "12:00pm"}, {"days": "Sun", "time": "Closed"}], "id": "1952000002", "name": "USPS COLLECTION BOX - BLUE BOX", "address": {"city": "ELVERSON", "state": "PA", "street": "24 S PINE ST", "postcode": "19520"}}},
{"geometry": {"type": "Point", "coordinates": [-75.8272660958, 40.1565406206]}, "type": "Feature", "properties": {"collection_times": [{"days": "Mon-Fri", "time": "4:15pm"}, {"days": "Sat", "time": "12:00pm"}, {"days": "Sun", "time": "Closed"}], "id": "1952000004", "name": "USPS COLLECTION BOX - PO LOBBY", "address": {"city": "ELVERSON", "state": "PA", "street": "24 S PINE ST", "postcode": "19520"}}},
{"geometry": {"type": "Point", "coordinates": [-75.8344606659, 40.4490226232]}, "type": "Feature", "properties": {"collection_times": [{"days": "Mon-Fri", "time": "4:30pm"}, {"days": "Sat", "time": "12:00pm"}, {"days": "Sun", "time": "Closed"}], "id": "1952200012", "name": "USPS COLLECTION BOX - BLUE BOX", "address": {"city": "FLEETWOOD", "state": "PA", "street": "9 LENHART RD", "postcode": "19522"}}},
{"geometry": {"type": "Point", "coordinates": [-75.8184765243, 40.4510928013]}, "type": "Feature", "properties": {"collection_times": [{"days": "Mon-Sat", "time": "10:30am"}, {"days": "Sun", "time": "Closed"}], "id": "1952200024", "name": "USPS COLLECTION BOX - BLUE BOX", "address": {"city": "FLEETWOOD", "state": "PA", "street": "123 S RICHMOND ST", "postcode": "19522"}}},
{"geometry": {"type": "Point", "coordinates": [-75.8185983691, 40.4537793012]}, "type": "Feature", "properties": {"collection_times": [{"days": "Mon-Sat", "time": "10:30am"}, {"days": "Sun", "time": "Closed"}], "id": "1952200028", "name": "USPS COLLECTION BOX - BLUE BOX", "address": {"city": "FLEETWOOD", "state": "PA", "street": "2 W MAIN ST", "postcode": "19522"}}},
{"geometry": {"type": "Point", "coordinates": [-75.8462204609, 40.4115748742]}, "type": "Feature", "properties": {"collection_times": [{"days": "Mon-Sat", "time": "10:00am"}, {"days": "Sun", "time": "Closed"}], "id": "1952200037", "name": "USPS COLLECTION BOX - BLUE BOX", "address": {"city": "FLEETWOOD", "state": "PA", "street": "3401 PRICETOWN RD", "postcode": "19522"}}},
{"geometry": {"type": "Point", "coordinates": [-75.8307603702, 40.4495265637]}, "type": "Feature", "properties": {"collection_times": [{"days": "Mon-Sat", "time": "8:30am"}, {"days": "Sun", "time": "Closed"}], "id": "1952200038", "name": "USPS COLLECTION BOX - BLUE BOX", "address": {"city": "FLEETWOOD", "state": "PA", "street": "408 PARK RD", "postcode": "19522"}}},
{"geometry": {"type": "Point", "coordinates": [-75.8176330746, 40.4571755763]}, "type": "Feature", "properties": {"collection_times": [{"days": "Mon-Sat", "time": "9:30am"}, {"days": "Sun", "time": "Closed"}], "id": "1952200039", "name": "USPS COLLECTION BOX - BLUE BOX", "address": {"city": "FLEETWOOD", "state": "PA", "street": "110 W ARCH ST", "postcode": "19522"}}},
{"geometry": {"type": "Point", "coordinates": [-75.8344606659, 40.4490226232]}, "type": "Feature", "properties": {"collection_times": [{"days": "Mon-Fri", "time": "4:30pm"}, {"days": "Sat", "time": "12:00pm"}, {"days": "Sun", "time": "Closed"}], "id": "1952200040", "name": "USPS COLLECTION BOX - PO LOBBY", "address": {"city": "FLEETWOOD", "state": "PA", "street": "9 LENHART RD", "postcode": "19522"}}},
{"geometry": {"type": "Point", "coordinates": [-75.8364992203, 40.2019622264]}, "type": "Feature", "properties": {"collection_times": [{"days": "Mon-Fri", "time": "4:00pm"}, {"days": "Sat", "time": "10:45am"}, {"days": "Sun", "time": "Closed"}], "id": "1952300000", "name": "USPS COLLECTION BOX - BLUE BOX", "address": {"city": "GEIGERTOWN", "state": "PA", "street": "3291 HAYCREEK RD", "postcode": "19523"}}},
{"geometry": {"type": "Point", "coordinates": [-75.8364992203, 40.2019622264]}, "type": "Feature", "properties": {"collection_times": [{"days": "Mon-Fri", "time": "1:00pm"}, {"days": "Sat", "time": "10:45am"}, {"days": "Sun", "time": "Closed"}], "id": "1952300001", "name": "USPS COLLECTION BOX - PO LOBBY", "address": {"city": "GEIGERTOWN", "state": "PA", "street": "3291 HAYCREEK RD", "postcode": "19523"}}},
{"geometry": {"type": "Point", "coordinates": [-75.6062596008, 40.3149271267]}, "type": "Feature", "properties": {"collection_times": [{"days": "Mon-Fri", "time": "4:30pm"}, {"days": "Sat", "time": "12:00pm"}, {"days": "Sun", "time": "Closed"}], "id": "1952500003", "name": "USPS COLLECTION BOX - BLUE BOX", "address": {"city": "GILBERTSVILLE", "state": "PA", "street": "1516 SWAMP PIKE", "postcode": "19525"}}},
{"geometry": {"type": "Point", "coordinates": [-75.6062596008, 40.3149271267]}, "type": "Feature", "properties": {"collection_times": [{"days": "Mon-Fri", "time": "4:30pm"}, {"days": "Sat", "time": "12:00pm"}, {"days": "Sun", "time": "Closed"}], "id": "1952500004", "name": "USPS COLLECTION BOX - BLUE BOX", "address": {"city": "GILBERTSVILLE", "state": "PA", "street": "1516 SWAMP PIKE", "postcode": "19525"}}},
{"geometry": {"type": "Point", "coordinates": [-75.5870223221, 40.3008854038]}, "type": "Feature", "properties": {"collection_times": [{"days": "Mon-Sat", "time": "9:30am"}, {"days": "Sun", "time": "Closed"}], "id": "1952500006", "name": "USPS COLLECTION BOX - BLUE BOX", "address": {"city": "GILBERTSVILLE", "state": "PA", "street": "1885 SWAMP PIKE", "postcode": "19525"}}},
{"geometry": {"type": "Point", "coordinates": [-75.6062596008, 40.3149271267]}, "type": "Feature", "properties": {"collection_times": [{"days": "Mon-Fri", "time": "4:30pm"}, {"days": "Sat", "time": "12:00pm"}, {"days": "Sun", "time": "Closed"}], "id": "1952500007", "name": "USPS COLLECTION BOX - PO LOBBY", "address": {"city": "GILBERTSVILLE", "state": "PA", "street": "1516 SWAMP PIKE", "postcode": "19525"}}},
{"geometry": {"type": "Point", "coordinates": [-75.9801031817, 40.5561607292]}, "type": "Feature", "properties": {"collection_times": [{"days": "Mon-Sat", "time": "1:00pm"}, {"days": "Sun", "time": "Closed"}], "id": "1952600029", "name": "USPS COLLECTION BOX - BLUE BOX", "address": {"city": "HAMBURG", "state": "PA", "street": "552 STATE ST", "postcode": "19526"}}},
{"geometry": {"type": "Point", "coordinates": [-75.9837772953, 40.5589857567]}, "type": "Feature", "properties": {"collection_times": [{"days": "Mon-Sat", "time": "12:00pm"}, {"days": "Sun", "time": "Closed"}], "id": "1952600032", "name": "USPS COLLECTION BOX - BLUE BOX", "address": {"city": "HAMBURG", "state": "PA", "street": "200 N 4TH ST", "postcode": "19526"}}},
{"geometry": {"type": "Point", "coordinates": [-75.9817506277, 40.553808683]}, "type": "Feature", "properties": {"collection_times": [{"days": "Mon-Sat", "time": "1:30pm"}, {"days": "Sun", "time": "Closed"}], "id": "1952600037", "name": "USPS COLLECTION BOX - BLUE BOX", "address": {"city": "HAMBURG", "state": "PA", "street": "81 S 4TH ST", "postcode": "19526"}}},
{"geometry": {"type": "Point", "coordinates": [-75.9989432539, 40.5473721124]}, "type": "Feature", "properties": {"collection_times": [{"days": "Mon-Sat", "time": "9:00am"}, {"days": "Sun", "time": "Closed"}], "id": "1952600047", "name": "USPS COLLECTION BOX - BLUE BOX", "address": {"city": "HAMBURG", "state": "PA", "street": "100 CHESTNUT ST", "postcode": "19526"}}},
{"geometry": {"type": "Point", "coordinates": [-75.9835040318, 40.5538919354]}, "type": "Feature", "properties": {"collection_times": [{"days": "Mon-Fri", "time": "4:30pm"}, {"days": "Sat", "time": "3:30pm"}, {"days": "Sun", "time": "Closed"}], "id": "1952600052", "name": "USPS COLLECTION BOX - BLUE BOX", "address": {"city": "HAMBURG", "state": "PA", "street": "50 N 3RD ST", "postcode": "19526"}}},
{"geometry": {"type": "Point", "coordinates": [-75.9835040318, 40.5538919354]}, "type": "Feature", "properties": {"collection_times": [{"days": "Mon-Fri", "time": "4:30pm"}, {"days": "Sat", "time": "3:30pm"}, {"days": "Sun", "time": "Closed"}], "id": "1952600054", "name": "USPS COLLECTION BOX - BLUE BOX", "address": {"city": "HAMBURG", "state": "PA", "street": "50 N 3RD ST", "postcode": "19526"}}},
{"geometry": {"type": "Point", "coordinates": [-75.9835040318, 40.5538919354]}, "type": "Feature", "properties": {"collection_times": [{"days": "Mon-Fri", "time": "4:30pm"}, {"days": "Sat", "time": "3:30pm"}, {"days": "Sun", "time": "Closed"}], "id": "1952600057", "name": "USPS COLLECTION BOX - PO LOBBY", "address": {"city": "HAMBURG", "state": "PA", "street": "50 N 3RD ST", "postcode": "19526"}}},
{"geometry": {"type": "Point", "coordinates": [-75.8601912177, 40.6239883619]}, "type": "Feature", "properties": {"collection_times": [{"days": "Mon-Fri", "time": "4:00pm"}, {"days": "Sat", "time": "10:30am"}, {"days": "Sun", "time": "Closed"}], "id": "1952900001", "name": "USPS COLLECTION BOX - BLUE BOX", "address": {"city": "KEMPTON", "state": "PA", "street": "3759 ROUTE 737", "postcode": "19529"}}},
{"geometry": {"type": "Point", "coordinates": [-75.8601912177, 40.6239883619]}, "type": "Feature", "properties": {"collection_times": [{"days": "Mon-Fri", "time": "4:00pm"}, {"days": "Sat", "time": "10:30am"}, {"days": "Sun", "time": "Closed"}], "id": "1952900002", "name": "USPS COLLECTION BOX - PO LOBBY", "address": {"city": "KEMPTON", "state": "PA", "street": "3759 ROUTE 737", "postcode": "19529"}}},
{"geometry": {"type": "Point", "coordinates": [-75.7838089415, 40.5100113831]}, "type": "Feature", "properties": {"collection_times": [{"days": "Mon-Fri", "time": "1:30pm"}, {"days": "Sat", "time": "9:30am"}, {"days": "Sun", "time": "Closed"}], "id": "1953000015", "name": "USPS COLLECTION BOX - BLUE BOX", "address": {"city": "KUTZTOWN", "state": "PA", "street": "15200 KUTZTOWN RD", "postcode": "19530"}}},
{"geometry": {"type": "Point", "coordinates": [-75.7838089415, 40.5100113831]}, "type": "Feature", "properties": {"collection_times": [{"days": "Mon-Fri", "time": "1:15pm"}, {"days": "Sat", "time": "9:30am"}, {"days": "Sun", "time": "Closed"}], "id": "1953000019", "name": "USPS COLLECTION BOX - BLUE BOX", "address": {"city": "KUTZTOWN", "state": "PA", "street": "15200 KUTZTOWN RD", "postcode": "19530"}}},
{"geometry": {"type": "Point", "coordinates": [-75.7715982265, 40.5240801865]}, "type": "Feature", "properties": {"collection_times": [{"days": "Mon-Sat", "time": "12:00pm"}, {"days": "Sun", "time": "Closed"}], "id": "1953000025", "name": "USPS COLLECTION BOX - BLUE BOX", "address": {"city": "KUTZTOWN", "state": "PA", "street": "357 W MAIN ST", "postcode": "19530"}}},
{"geometry": {"type": "Point", "coordinates": [-75.7715861, 40.5213085082]}, "type": "Feature", "properties": {"collection_times": [{"days": "Mon-Fri", "time": "4:30pm"}, {"days": "Sat", "time": "1:30pm"}, {"days": "Sun", "time": "Closed"}], "id": "1953000032", "name": "USPS COLLECTION BOX - BLUE BOX", "address": {"city": "KUTZTOWN", "state": "PA", "street": "235 GRIMLEY ST", "postcode": "19530"}}},
{"geometry": {"type": "Point", "coordinates": [-75.7745059396, 40.5176247795]}, "type": "Feature", "properties": {"collection_times": [{"days": "Mon-Sat", "time": "12:00pm"}, {"days": "Sun", "time": "Closed"}], "id": "1953000035", "name": "USPS COLLECTION BOX - BLUE BOX", "address": {"city": "KUTZTOWN", "state": "PA", "street": "45 CONSTITUTION BLVD", "postcode": "19530"}}},
{"geometry": {"type": "Point", "coordinates": [-75.7770469355, 40.5183250912]}, "type": "Feature", "properties": {"collection_times": [{"days": "Mon-Sat", "time": "9:30am"}, {"days": "Sun", "time": "Closed"}], "id": "1953000039", "name": "USPS COLLECTION BOX - BLUE BOX", "address": {"city": "KUTZTOWN", "state": "PA", "street": "13 GREENWICH ST", "postcode": "19530"}}},
{"geometry": {"type": "Point", "coordinates": [-75.7715861, 40.5213085082]}, "type": "Feature", "properties": {"collection_times": [{"days": "Mon-Fri", "time": "4:30pm"}, {"days": "Sat", "time": "1:30pm"}, {"days": "Sun", "time": "Closed"}], "id": "1953000041", "name": "USPS COLLECTION BOX - PO LOBBY", "address": {"city": "KUTZTOWN", "state": "PA", "street": "235 GRIMLEY ST", "postcode": "19530"}}},
{"geometry": {"type": "Point", "coordinates": [-75.7516403587, 40.5833764143]}, "type": "Feature", "properties": {"collection_times": [{"days": "Mon-Sat", "time": "11:00am"}, {"days": "Sun", "time": "Closed"}], "id": "1953000042", "name": "USPS COLLECTION BOX - BLUE BOX", "address": {"city": "KUTZTOWN", "state": "PA", "street": "60 OLD 22", "postcode": "19530"}}},
{"geometry": {"type": "Point", "coordinates": [-75.776482664, 40.5184220938]}, "type": "Feature", "properties": {"collection_times": [{"days": "Mon-Fri", "time": "9:30am"}, {"days": "Sat", "time": "8:45am"}, {"days": "Sun", "time": "Closed"}], "id": "1953000043", "name": "USPS COLLECTION BOX - BLUE BOX", "address": {"city": "KUTZTOWN", "state": "PA", "street": "125 W MAIN ST", "postcode": "19530"}}},
{"geometry": {"type": "Point", "coordinates": [-75.9678463869, 40.4459776868]}, "type": "Feature", "properties": {"collection_times": [{"days": "Mon-Fri", "time": "4:30pm"}, {"days": "Sat", "time": "11:00am"}, {"days": "Sun", "time": "Closed"}], "id": "1953300000", "name": "USPS COLLECTION BOX - BLUE BOX", "address": {"city": "LEESPORT", "state": "PA", "street": "4 E WALL ST", "postcode": "19533"}}},
{"geometry": {"type": "Point", "coordinates": [-75.9678463869, 40.4459776868]}, "type": "Feature", "properties": {"collection_times": [{"days": "Mon-Fri", "time": "4:30pm"}, {"days": "Sat", "time": "11:00am"}, {"days": "Sun", "time": "Closed"}], "id": "1953300001", "name": "USPS COLLECTION BOX - PO LOBBY", "address": {"city": "LEESPORT", "state": "PA", "street": "4 E WALL ST", "postcode": "19533"}}},
{"geometry": {"type": "Point", "coordinates": [-75.8885609282, 40.5727187273]}, "type": "Feature", "properties": {"collection_times": [{"days": "Mon-Fri", "time": "4:00pm"}, {"days": "Sat", "time": "10:00am"}, {"days": "Sun", "time": "Closed"}], "id": "1953400001", "name": "USPS COLLECTION BOX - BLUE BOX", "address": {"city": "LENHARTSVILLE", "state": "PA", "street": "83 PENN ST", "postcode": "19534"}}},
{"geometry": {"type": "Point", "coordinates": [-75.8885609282, 40.5727187273]}, "type": "Feature", "properties": {"collection_times": [{"days": "Mon-Fri", "time": "4:00pm"}, {"days": "Sat", "time": "10:00am"}, {"days": "Sun", "time": "Closed"}], "id": "1953400002", "name": "USPS COLLECTION BOX - PO LOBBY", "address": {"city": "LENHARTSVILLE", "state": "PA", "street": "83 PENN ST", "postcode": "19534"}}},
{"geometry": {"type": "Point", "coordinates": [-75.8047103178, 40.3427996155]}, "type": "Feature", "properties": {"collection_times": [{"days": "Mon-Fri", "time": "4:30pm"}, {"days": "Sat", "time": "11:15am"}, {"days": "Sun", "time": "Closed"}], "id": "1953500002", "name": "USPS COLLECTION BOX - BLUE BOX", "address": {"city": "LIMEKILN", "state": "PA", "street": "820 LIMEKILN RD", "postcode": "19535"}}},
{"geometry": {"type": "Point", "coordinates": [-75.8047103178, 40.3427996155]}, "type": "Feature", "properties": {"collection_times": [{"days": "Mon-Fri", "time": "4:30pm"}, {"days": "Sat", "time": "11:15am"}, {"days": "Sun", "time": "Closed"}], "id": "1953500003", "name": "USPS COLLECTION BOX - PO LOBBY", "address": {"city": "LIMEKILN", "state": "PA", "street": "820 LIMEKILN RD", "postcode": "19535"}}},
{"geometry": {"type": "Point", "coordinates": [-75.7666846863, 40.477944032]}, "type": "Feature", "properties": {"collection_times": [{"days": "Mon-Fri", "time": "4:30pm"}, {"days": "Sat", "time": "11:00am"}, {"days": "Sun", "time": "Closed"}], "id": "1953600001", "name": "USPS COLLECTION BOX - BLUE BOX", "address": {"city": "LYON STATION", "state": "PA", "street": "104 S KEMP ST", "postcode": "19536"}}},
{"geometry": {"type": "Point", "coordinates": [-75.7666846863, 40.477944032]}, "type": "Feature", "properties": {"collection_times": [{"days": "Mon-Fri", "time": "12:00pm"}, {"days": "Sat", "time": "11:00am"}, {"days": "Sun", "time": "Closed"}], "id": "1953600002", "name": "USPS COLLECTION BOX - PO LOBBY", "address": {"city": "LYON STATION", "state": "PA", "street": "104 S KEMP ST", "postcode": "19536"}}},
{"geometry": {"type": "Point", "coordinates": [-75.6852893337, 40.5432504151]}, "type": "Feature", "properties": {"collection_times": [{"days": "Mon-Fri", "time": "4:30pm"}, {"days": "Sat", "time": "9:30am"}, {"days": "Sun", "time": "Closed"}], "id": "1953800002", "name": "USPS COLLECTION BOX - BLUE BOX", "address": {"city": "MAXATAWNY", "state": "PA", "street": "15881 KUTZTOWN RD", "postcode": "19538"}}},
{"geometry": {"type": "Point", "coordinates": [-75.6852893337, 40.5432504151]}, "type": "Feature", "properties": {"collection_times": [{"days": "Mon-Fri", "time": "1:30pm"}, {"days": "Sat", "time": "9:30am"}, {"days": "Sun", "time": "Closed"}], "id": "1953800003", "name": "USPS COLLECTION BOX - PO LOBBY", "address": {"city": "MAXATAWNY", "state": "PA", "street": "15881 KUTZTOWN RD", "postcode": "19538"}}},
{"geometry": {"type": "Point", "coordinates": [-75.6653359268, 40.5054990966]}, "type": "Feature", "properties": {"collection_times": [{"days": "Mon-Fri", "time": "4:30pm"}, {"days": "Sat", "time": "11:00am"}, {"days": "Sun", "time": "Closed"}], "id": "1953900001", "name": "USPS COLLECTION BOX - BLUE BOX", "address": {"city": "MERTZTOWN", "state": "PA", "street": "1001 STATE ST", "postcode": "19539"}}},
{"geometry": {"type": "Point", "coordinates": [-75.6653359268, 40.5054990966]}, "type": "Feature", "properties": {"collection_times": [{"days": "Mon-Fri", "time": "4:30pm"}, {"days": "Sat", "time": "11:00am"}, {"days": "Sun", "time": "Closed"}], "id": "1953900002", "name": "USPS COLLECTION BOX - PO LOBBY", "address": {"city": "MERTZTOWN", "state": "PA", "street": "1001 STATE ST", "postcode": "19539"}}},
{"geometry": {"type": "Point", "coordinates": [-75.9789186002, 40.290888905]}, "type": "Feature", "properties": {"collection_times": [{"days": "Mon-Fri", "time": "4:30pm"}, {"days": "Sat", "time": "12:00pm"}, {"days": "Sun", "time": "Closed"}], "id": "1954000011", "name": "USPS COLLECTION BOX - PO LOBBY", "address": {"city": "MOHNTON", "state": "PA", "street": "328 E WYOMISSING AVE", "postcode": "19540"}}},
{"geometry": {"type": "Point", "coordinates": [-75.9789186002, 40.290888905]}, "type": "Feature", "properties": {"collection_times": [{"days": "Mon-Fri", "time": "4:30pm"}, {"days": "Sat", "time": "12:00pm"}, {"days": "Sun", "time": "Closed"}], "id": "1954000013", "name": "USPS COLLECTION BOX - BLUE BOX", "address": {"city": "MOHNTON", "state": "PA", "street": "328 E WYOMISSING AVE", "postcode": "19540"}}},
{"geometry": {"type": "Point", "coordinates": [-75.9798155657, 40.4740942555]}, "type": "Feature", "properties": {"collection_times": [{"days": "Mon-Fri", "time": "4:30pm"}, {"days": "Sat", "time": "11:30am"}, {"days": "Sun", "time": "Closed"}], "id": "1954100002", "name": "USPS COLLECTION BOX - BLUE BOX", "address": {"city": "MOHRSVILLE", "state": "PA", "street": "518 MAIN ST", "postcode": "19541"}}},
{"geometry": {"type": "Point", "coordinates": [-76.0173528169, 40.4834873879]}, "type": "Feature", "properties": {"collection_times": [{"days": "Mon-Sat", "time": "10:00am"}, {"days": "Sun", "time": "Closed"}], "id": "1954100003", "name": "USPS COLLECTION BOX - BLUE BOX", "address": {"city": "MOHRSVILLE", "state": "PA", "street": "552 IRISH CREEK RD", "postcode": "19541"}}},
{"geometry": {"type": "Point", "coordinates": [-75.9798155657, 40.4740942555]}, "type": "Feature", "properties": {"collection_times": [{"days": "Mon-Fri", "time": "4:30pm"}, {"days": "Sat", "time": "11:30am"}, {"days": "Sun", "time": "Closed"}], "id": "1954100004", "name": "USPS COLLECTION BOX - PO LOBBY", "address": {"city": "MOHRSVILLE", "state": "PA", "street": "518 MAIN ST", "postcode": "19541"}}},
{"geometry": {"type": "Point", "coordinates": [-75.8910427761, 40.1536945516]}, "type": "Feature", "properties": {"collection_times": [{"days": "Mon-Fri", "time": "4:00pm"}, {"days": "Sat", "time": "12:00pm"}, {"days": "Sun", "time": "Closed"}], "id": "1954300001", "name": "USPS COLLECTION BOX - BLUE BOX", "address": {"city": "MORGANTOWN", "state": "PA", "street": "101 MULBERRY ST", "postcode": "19543"}}},
{"geometry": {"type": "Point", "coordinates": [-75.8910427761, 40.1536945516]}, "type": "Feature", "properties": {"collection_times": [{"days": "Mon-Fri", "time": "4:00pm"}, {"days": "Sat", "time": "12:00pm"}, {"days": "Sun", "time": "Closed"}], "id": "1954300004", "name": "USPS COLLECTION BOX - PO LOBBY", "address": {"city": "MORGANTOWN", "state": "PA", "street": "101 MULBERRY ST", "postcode": "19543"}}},
{"geometry": {"type": "Point", "coordinates": [-76.295633001, 40.4192670317]}, "type": "Feature", "properties": {"collection_times": [{"days": "Mon-Fri", "time": "4:15pm"}, {"days": "Sat", "time": "12:00pm"}, {"days": "Sun", "time": "Closed"}], "id": "1954400002", "name": "USPS COLLECTION BOX - BLUE BOX", "address": {"city": "MOUNT AETNA", "state": "PA", "street": "2 E MILL ST", "postcode": "19544"}}},
{"geometry": {"type": "Point", "coordinates": [-76.295633001, 40.4192670317]}, "type": "Feature", "properties": {"collection_times": [{"days": "Mon-Sat", "time": "12:00pm"}, {"days": "Sun", "time": "Closed"}], "id": "1954400003", "name": "USPS COLLECTION BOX - PO LOBBY", "address": {"city": "MOUNT AETNA", "state": "PA", "street": "2 E MILL ST", "postcode": "19544"}}},
{"geometry": {"type": "Point", "coordinates": [-75.627679343, 40.3431868359]}, "type": "Feature", "properties": {"collection_times": [{"days": "Mon-Fri", "time": "4:15pm"}, {"days": "Sat", "time": "10:30am"}, {"days": "Sun", "time": "Closed"}], "id": "1954500001", "name": "USPS COLLECTION BOX - BLUE BOX", "address": {"city": "NEW BERLINVILLE", "state": "PA", "street": "721 N READING AVE", "postcode": "19545"}}},
{"geometry": {"type": "Point", "coordinates": [-75.627679343, 40.3431868359]}, "type": "Feature", "properties": {"collection_times": [{"days": "Mon-Fri", "time": "4:15pm"}, {"days": "Sat", "time": "10:30am"}, {"days": "Sun", "time": "Closed"}], "id": "1954500002", "name": "USPS COLLECTION BOX - PO LOBBY", "address": {"city": "NEW BERLINVILLE", "state": "PA", "street": "721 N READING AVE", "postcode": "19545"}}},
{"geometry": {"type": "Point", "coordinates": [-75.7828570833, 40.3837752032]}, "type": "Feature", "properties": {"collection_times": [{"days": "Mon-Fri", "time": "4:45pm"}, {"days": "Sat", "time": "11:00am"}, {"days": "Sun", "time": "Closed"}], "id": "1954700001", "name": "USPS COLLECTION BOX - PO LOBBY", "address": {"city": "OLEY", "state": "PA", "street": "644 MAIN ST", "postcode": "19547"}}},
{"geometry": {"type": "Point", "coordinates": [-75.7828570833, 40.3837752032]}, "type": "Feature", "properties": {"collection_times": [{"days": "Mon-Fri", "time": "4:45pm"}, {"days": "Sat", "time": "11:00am"}, {"days": "Sun", "time": "Closed"}], "id": "1954700004", "name": "USPS COLLECTION BOX - BLUE BOX", "address": {"city": "OLEY", "state": "PA", "street": "644 MAIN ST", "postcode": "19547"}}},
{"geometry": {"type": "Point", "coordinates": [-75.689114087, 40.2824752715]}, "type": "Feature", "properties": {"collection_times": [{"days": "Mon-Fri", "time": "4:15pm"}, {"days": "Sat", "time": "11:00am"}, {"days": "Sun", "time": "Closed"}], "id": "1954800001", "name": "USPS COLLECTION BOX - BLUE BOX", "address": {"city": "PINE FORGE", "state": "PA", "street": "213 PINE FORGE RD", "postcode": "19548"}}},
{"geometry": {"type": "Point", "coordinates": [-75.689114087, 40.2824752715]}, "type": "Feature", "properties": {"collection_times": [{"days": "Mon-Fri", "time": "4:15pm"}, {"days": "Sat", "time": "11:00am"}, {"days": "Sun", "time": "Closed"}], "id": "1954800002", "name": "USPS COLLECTION BOX - PO LOBBY", "address": {"city": "PINE FORGE", "state": "PA", "street": "213 PINE FORGE RD", "postcode": "19548"}}},
{"geometry": {"type": "Point", "coordinates": [-76.0264340231, 40.5830849645]}, "type": "Feature", "properties": {"collection_times": [{"days": "Mon-Fri", "time": "4:30pm"}, {"days": "Sat", "time": "11:00am"}, {"days": "Sun", "time": "Closed"}], "id": "1954900001", "name": "USPS COLLECTION BOX - BLUE BOX", "address": {"city": "PORT CLINTON", "state": "PA", "street": "6 BROAD ST", "postcode": "19549"}}},
{"geometry": {"type": "Point", "coordinates": [-76.0264340231, 40.5830849645]}, "type": "Feature", "properties": {"collection_times": [{"days": "Mon-Fri", "time": "4:30pm"}, {"days": "Sat", "time": "11:00am"}, {"days": "Sun", "time": "Closed"}], "id": "1954900002", "name": "USPS COLLECTION BOX - PO LOBBY", "address": {"city": "PORT CLINTON", "state": "PA", "street": "6 BROAD ST", "postcode": "19549"}}},
{"geometry": {"type": "Point", "coordinates": [-76.2451717232, 40.4578942684]}, "type": "Feature", "properties": {"collection_times": [{"days": "Mon-Fri", "time": "4:00pm"}, {"days": "Sat", "time": "10:30am"}, {"days": "Sun", "time": "Closed"}], "id": "1955000000", "name": "USPS COLLECTION BOX - BLUE BOX", "address": {"city": "REHRERSBURG", "state": "PA", "street": "349 GODFREY ST", "postcode": "19550"}}},
{"geometry": {"type": "Point", "coordinates": [-76.2451717232, 40.4578942684]}, "type": "Feature", "properties": {"collection_times": [{"days": "Mon-Fri", "time": "4:00pm"}, {"days": "Sat", "time": "10:30am"}, {"days": "Sun", "time": "Closed"}], "id": "1955000001", "name": "USPS COLLECTION BOX - PO LOBBY", "address": {"city": "REHRERSBURG", "state": "PA", "street": "349 GODFREY ST", "postcode": "19550"}}},
{"geometry": {"type": "Point", "coordinates": [-76.1332654538, 40.3513338718]}, "type": "Feature", "properties": {"collection_times": [{"days": "Mon-Fri", "time": "4:45pm"}, {"days": "Sat", "time": "12:00pm"}, {"days": "Sun", "time": "Closed"}], "id": "1955100009", "name": "USPS COLLECTION BOX - BLUE BOX", "address": {"city": "ROBESONIA", "state": "PA", "street": "37 E PENN AVE", "postcode": "19551"}}},
{"geometry": {"type": "Point", "coordinates": [-76.1332654538, 40.3513338718]}, "type": "Feature", "properties": {"collection_times": [{"days": "Mon-Fri", "time": "4:45pm"}, {"days": "Sat", "time": "12:00pm"}, {"days": "Sun", "time": "Closed"}], "id": "1955100012", "name": "USPS COLLECTION BOX - PO LOBBY", "address": {"city": "ROBESONIA", "state": "PA", "street": "37 E PENN AVE", "postcode": "19551"}}},
{"geometry": {"type": "Point", "coordinates": [-76.1080382311, 40.5131382975]}, "type": "Feature", "properties": {"collection_times": [{"days": "Mon-Fri", "time": "4:00pm"}, {"days": "Sat", "time": "11:00am"}, {"days": "Sun", "time": "Closed"}], "id": "1955400001", "name": "USPS COLLECTION BOX - BLUE BOX", "address": {"city": "SHARTLESVILLE", "state": "PA", "street": "11 N 1ST ST", "postcode": "19554"}}},
{"geometry": {"type": "Point", "coordinates": [-76.1080382311, 40.5131382975]}, "type": "Feature", "properties": {"collection_times": [{"days": "Mon-Fri", "time": "4:00pm"}, {"days": "Sat", "time": "11:00am"}, {"days": "Sun", "time": "Closed"}], "id": "1955400003", "name": "USPS COLLECTION BOX - PO LOBBY", "address": {"city": "SHARTLESVILLE", "state": "PA", "street": "11 N 1ST ST", "postcode": "19554"}}},
{"geometry": {"type": "Point", "coordinates": [-75.9687324232, 40.5006753434]}, "type": "Feature", "properties": {"collection_times": [{"days": "Mon-Fri", "time": "5:00pm"}, {"days": "Sat", "time": "11:00am"}, {"days": "Sun", "time": "Closed"}], "id": "1955500007", "name": "USPS COLLECTION BOX - BLUE BOX", "address": {"city": "SHOEMAKERSVILLE", "state": "PA", "street": "511 FRANKLIN ST", "postcode": "19555"}}},
{"geometry": {"type": "Point", "coordinates": [-75.9700109529, 40.4960643771]}, "type": "Feature", "properties": {"collection_times": [{"days": "Mon-Sat", "time": "8:30am"}, {"days": "Sun", "time": "Closed"}], "id": "1955500008", "name": "USPS COLLECTION BOX - BLUE BOX", "address": {"city": "SHOEMAKERSVILLE", "state": "PA", "street": "302 MAIN ST", "postcode": "19555"}}},
{"geometry": {"type": "Point", "coordinates": [-75.9687478017, 40.5107931914]}, "type": "Feature", "properties": {"collection_times": [{"days": "Mon-Sat", "time": "12:00pm"}, {"days": "Sun", "time": "Closed"}], "id": "1955500010", "name": "USPS COLLECTION BOX - BLUE BOX", "address": {"city": "SHOEMAKERSVILLE", "state": "PA", "street": "1132 MAIN ST", "postcode": "19555"}}},
{"geometry": {"type": "Point", "coordinates": [-75.9673661056, 40.5016784926]}, "type": "Feature", "properties": {"collection_times": [{"days": "Mon-Sat", "time": "9:00am"}, {"days": "Sun", "time": "Closed"}], "id": "1955500011", "name": "USPS COLLECTION BOX - BLUE BOX", "address": {"city": "SHOEMAKERSVILLE", "state": "PA", "street": "125 E NOBLE AVE", "postcode": "19555"}}},
{"geometry": {"type": "Point", "coordinates": [-75.969719011, 40.5053444824]}, "type": "Feature", "properties": {"collection_times": [{"days": "Mon-Sat", "time": "10:00am"}, {"days": "Sun", "time": "Closed"}], "id": "1955500012", "name": "USPS COLLECTION BOX - BLUE BOX", "address": {"city": "SHOEMAKERSVILLE", "state": "PA", "street": "842 MAIN ST", "postcode": "19555"}}},
{"geometry": {"type": "Point", "coordinates": [-75.9687324232, 40.5006753434]}, "type": "Feature", "properties": {"collection_times": [{"days": "Mon-Fri", "time": "4:30pm"}, {"days": "Sat", "time": "11:00am"}, {"days": "Sun", "time": "Closed"}], "id": "1955500014", "name": "USPS COLLECTION BOX - PO LOBBY", "address": {"city": "SHOEMAKERSVILLE", "state": "PA", "street": "511 FRANKLIN ST", "postcode": "19555"}}},
{"geometry": {"type": "Point", "coordinates": [-76.1851000012, 40.4914968763]}, "type": "Feature", "properties": {"collection_times": [{"days": "Mon-Fri", "time": "4:30pm"}, {"days": "Sat", "time": "11:00am"}, {"days": "Sun", "time": "Closed"}], "id": "1955900001", "name": "USPS COLLECTION BOX - BLUE BOX", "address": {"city": "STRAUSSTOWN", "state": "PA", "street": "72 MAIN ST", "postcode": "19559"}}},
{"geometry": {"type": "Point", "coordinates": [-76.1851000012, 40.4914968763]}, "type": "Feature", "properties": {"collection_times": [{"days": "Mon-Fri", "time": "2:00pm"}, {"days": "Sat", "time": "11:00am"}, {"days": "Sun", "time": "Closed"}], "id": "1955900002", "name": "USPS COLLECTION BOX - PO LOBBY", "address": {"city": "STRAUSSTOWN", "state": "PA", "street": "72 MAIN ST", "postcode": "19559"}}},
{"geometry": {"type": "Point", "coordinates": [-75.919266972, 40.397073461]}, "type": "Feature", "properties": {"collection_times": [{"days": "Mon-Sat", "time": "9:30am"}, {"days": "Sun", "time": "Closed"}], "id": "1956000001", "name": "USPS COLLECTION BOX - BLUE BOX", "address": {"city": "TEMPLE", "state": "PA", "street": "4100 KUTZTOWN RD", "postcode": "19560"}}},
{"geometry": {"type": "Point", "coordinates": [-75.9237551404, 40.4075279715]}, "type": "Feature", "properties": {"collection_times": [{"days": "Mon-Sat", "time": "12:00pm"}, {"days": "Sun", "time": "Closed"}], "id": "1956000008", "name": "USPS COLLECTION BOX - BLUE BOX", "address": {"city": "TEMPLE", "state": "PA", "street": "4850 7TH AVE", "postcode": "19560"}}},
{"geometry": {"type": "Point", "coordinates": [-75.9246553722, 40.4108319759]}, "type": "Feature", "properties": {"collection_times": [{"days": "Mon-Sat", "time": "11:30am"}, {"days": "Sun", "time": "Closed"}], "id": "1956000015", "name": "USPS COLLECTION BOX - BLUE BOX", "address": {"city": "TEMPLE", "state": "PA", "street": "706 HARTMAN AVE", "postcode": "19560"}}},
{"geometry": {"type": "Point", "coordinates": [-75.9209917482, 40.4017042646]}, "type": "Feature", "properties": {"collection_times": [{"days": "Mon-Sat", "time": "2:45pm"}, {"days": "Sun", "time": "Closed"}], "id": "1956000017", "name": "USPS COLLECTION BOX - BLUE BOX", "address": {"city": "TEMPLE", "state": "PA", "street": "804 N TEMPLE BLVD", "postcode": "19560"}}},
{"geometry": {"type": "Point", "coordinates": [-75.9201612953, 40.4093114188]}, "type": "Feature", "properties": {"collection_times": [{"days": "Mon-Fri", "time": "5:00pm"}, {"days": "Sat", "time": "2:30pm"}, {"days": "Sun", "time": "Closed"}], "id": "1956000019", "name": "USPS COLLECTION BOX - BLUE BOX", "address": {"city": "TEMPLE", "state": "PA", "street": "4917 KUTZTOWN RD", "postcode": "19560"}}},
{"geometry": {"type": "Point", "coordinates": [-75.9201612953, 40.4093114188]}, "type": "Feature", "properties": {"collection_times": [{"days": "Mon-Fri", "time": "4:30pm"}, {"days": "Sat", "time": "2:30pm"}, {"days": "Sun", "time": "Closed"}], "id": "1956000029", "name": "USPS COLLECTION BOX - PO LOBBY", "address": {"city": "TEMPLE", "state": "PA", "street": "4917 KUTZTOWN RD", "postcode": "19560"}}},
{"geometry": {"type": "Point", "coordinates": [-75.9228762019, 40.4111513749]}, "type": "Feature", "properties": {"collection_times": [{"days": "Mon-Sat", "time": "12:30pm"}, {"days": "Sun", "time": "Closed"}], "id": "1956000030", "name": "USPS COLLECTION BOX - BLUE BOX", "address": {"city": "TEMPLE", "state": "PA", "street": "800 TUCKERTON AVE", "postcode": "19560"}}},
{"geometry": {"type": "Point", "coordinates": [-75.7006826786, 40.502755696]}, "type": "Feature", "properties": {"collection_times": [{"days": "Mon-Fri", "time": "4:30pm"}, {"days": "Sat", "time": "10:30am"}, {"days": "Sun", "time": "Closed"}], "id": "1956200011", "name": "USPS COLLECTION BOX - BLUE BOX", "address": {"city": "TOPTON", "state": "PA", "street": "33 S HOME AVE", "postcode": "19562"}}},
{"geometry": {"type": "Point", "coordinates": [-75.6991979604, 40.4968991156]}, "type": "Feature", "properties": {"collection_times": [{"days": "Mon-Sat", "time": "10:00am"}, {"days": "Sun", "time": "Closed"}], "id": "1956200013", "name": "USPS COLLECTION BOX - BLUE BOX", "address": {"city": "TOPTON", "state": "PA", "street": "12 MACK DR", "postcode": "19562"}}},
{"geometry": {"type": "Point", "coordinates": [-75.7031154921, 40.4996267482]}, "type": "Feature", "properties": {"collection_times": [{"days": "Mon-Sat", "time": "10:30am"}, {"days": "Sun", "time": "Closed"}], "id": "1956200015", "name": "USPS COLLECTION BOX - BLUE BOX", "address": {"city": "TOPTON", "state": "PA", "street": "203 W WEIS ST", "postcode": "19562"}}},
{"geometry": {"type": "Point", "coordinates": [-75.7006826786, 40.502755696]}, "type": "Feature", "properties": {"collection_times": [{"days": "Mon-Fri", "time": "4:30pm"}, {"days": "Sat", "time": "10:30am"}, {"days": "Sun", "time": "Closed"}], "id": "1956200017", "name": "USPS COLLECTION BOX - PO LOBBY", "address": {"city": "TOPTON", "state": "PA", "street": "33 S HOME AVE", "postcode": "19562"}}},
{"geometry": {"type": "Point", "coordinates": [-75.8735461895, 40.5247148538]}, "type": "Feature", "properties": {"collection_times": [{"days": "Mon-Fri", "time": "3:30pm"}, {"days": "Sat", "time": "10:30am"}, {"days": "Sun", "time": "Closed"}], "id": "1956400001", "name": "USPS COLLECTION BOX - BLUE BOX", "address": {"city": "VIRGINVILLE", "state": "PA", "street": "475 MAIN ST", "postcode": "19564"}}},
{"geometry": {"type": "Point", "coordinates": [-75.8735461895, 40.5247148538]}, "type": "Feature", "properties": {"collection_times": [{"days": "Mon-Fri", "time": "3:30pm"}, {"days": "Sat", "time": "10:30am"}, {"days": "Sun", "time": "Closed"}], "id": "1956400003", "name": "USPS COLLECTION BOX - PO LOBBY", "address": {"city": "VIRGINVILLE", "state": "PA", "street": "475 MAIN ST", "postcode": "19564"}}},
{"geometry": {"type": "Point", "coordinates": [-76.073817034, 40.3277929884]}, "type": "Feature", "properties": {"collection_times": [{"days": "Mon-Fri", "time": "4:45pm"}, {"days": "Sat", "time": "12:00pm"}, {"days": "Sun", "time": "Closed"}], "id": "1956500009", "name": "USPS COLLECTION BOX - BLUE BOX", "address": {"city": "WERNERSVILLE", "state": "PA", "street": "55 S CHURCH RD", "postcode": "19565"}}},
{"geometry": {"type": "Point", "coordinates": [-76.073817034, 40.3277929884]}, "type": "Feature", "properties": {"collection_times": [{"days": "Mon-Fri", "time": "4:45pm"}, {"days": "Sat", "time": "12:00pm"}, {"days": "Sun", "time": "Closed"}], "id": "1956500010", "name": "USPS COLLECTION BOX - PO LOBBY", "address": {"city": "WERNERSVILLE", "state": "PA", "street": "55 S CHURCH RD", "postcode": "19565"}}},
{"geometry": {"type": "Point", "coordinates": [-76.1885943477, 40.3726605926]}, "type": "Feature", "properties": {"collection_times": [{"days": "Mon-Sat", "time": "10:00am"}, {"days": "Sun", "time": "Closed"}], "id": "1956700003", "name": "USPS COLLECTION BOX - BLUE BOX", "address": {"city": "WOMELSDORF", "state": "PA", "street": "410 N 3RD ST", "postcode": "19567"}}},
{"geometry": {"type": "Point", "coordinates": [-76.1885155523, 40.3652856899]}, "type": "Feature", "properties": {"collection_times": [{"days": "Mon-Fri", "time": "4:30pm"}, {"days": "Sat", "time": "12:00pm"}, {"days": "Sun", "time": "Closed"}], "id": "1956700004", "name": "USPS COLLECTION BOX - BLUE BOX", "address": {"city": "WOMELSDORF", "state": "PA", "street": "37 N 3RD ST", "postcode": "19567"}}},
{"geometry": {"type": "Point", "coordinates": [-76.1885155523, 40.3652856899]}, "type": "Feature", "properties": {"collection_times": [{"days": "Mon-Fri", "time": "4:30pm"}, {"days": "Sat", "time": "12:00pm"}, {"days": "Sun", "time": "Closed"}], "id": "1956700010", "name": "USPS COLLECTION BOX - PO LOBBY", "address": {"city": "WOMELSDORF", "state": "PA", "street": "37 N 3RD ST", "postcode": "19567"}}}
]}
