{"type": "FeatureCollection", "features": [
{"geometry": {"type": "Point", "coordinates": [-75.9199791354, 40.3384467169]}, "type": "Feature", "properties": {"collection_times": [{"days": "Mon-Sat", "time": "10:30am"}, {"days": "Sun", "time": "Closed"}], "id": "1960100001", "name": "USPS COLLECTION BOX - BLUE BOX", "address": {"city": "READING", "state": "PA", "street": "200 N 9TH ST", "postcode": "19601"}}},
{"geometry": {"type": "Point", "coordinates": [-75.9277854816, 40.3383248721]}, "type": "Feature", "properties": {"collection_times": [{"days": "Mon-Fri", "time": "9:00am"}, {"days": "Sat-Sun", "time": "Closed"}], "id": "1960100007", "name": "USPS COLLECTION BOX - BLUE BOX", "address": {"city": "READING", "state": "PA", "street": "150 N 5TH ST", "postcode": "19601"}}},
{"geometry": {"type": "Point", "coordinates": [-75.9356178529, 40.3373560287]}, "type": "Feature", "properties": {"collection_times": [{"days": "Mon-Sat", "time": "9:00am"}, {"days": "Sun", "time": "Closed"}], "id": "1960100013", "name": "USPS COLLECTION BOX - BLUE BOX", "address": {"city": "READING", "state": "PA", "street": "100 N FRONT ST", "postcode": "19601"}}},
{"geometry": {"type": "Point", "coordinates": [-75.9299242714, 40.3459514085]}, "type": "Feature", "properties": {"collection_times": [{"days": "Mon-Sat", "time": "9:30am"}, {"days": "Sun", "time": "Closed"}], "id": "1960100019", "name": "USPS COLLECTION BOX - BLUE BOX", "address": {"city": "READING", "state": "PA", "street": "640 CENTRE AVE", "postcode": "19601"}}},
{"geometry": {"type": "Point", "coordinates": [-75.9258537096, 40.3363718068]}, "type": "Feature", "properties": {"collection_times": [{"days": "Mon-Fri", "time": "9:00am"}, {"days": "Sat-Sun", "time": "Closed"}], "id": "1960100022", "name": "USPS COLLECTION BOX - BLUE BOX", "address": {"city": "READING", "state": "PA", "street": "22 N 6TH ST", "postcode": "19601"}}},
{"geometry": {"type": "Point", "coordinates": [-75.9218289133, 40.336863686]}, "type": "Feature", "properties": {"collection_times": [{"days": "Mon-Fri", "time": "4:30pm"}, {"days": "Sat", "time": "8:00am"}, {"days": "Sun", "time": "Closed"}], "id": "1960100027", "name": "USPS COLLECTION BOX - BLUE BOX", "address": {"city": "READING", "state": "PA", "street": "800 WASHINGTON ST", "postcode": "19601"}}},
{"geometry": {"type": "Point", "coordinates": [-75.9276747309, 40.3393520809]}, "type": "Feature", "properties": {"collection_times": [{"days": "Mon-Sat", "time": "8:00am"}, {"days": "Sun", "time": "Closed"}], "id": "1960100039", "name": "USPS COLLECTION BOX - BLUE BOX", "address": {"city": "READING", "state": "PA", "street": "255 N 5TH ST", "postcode": "19601"}}},
{"geometry": {"type": "Point", "coordinates": [-75.9258040253, 40.338559098]}, "type": "Feature", "properties": {"collection_times": [{"days": "Mon-Fri", "time": "11:00am"}, {"days": "Sat-Sun", "time": "Closed"}], "id": "1960100041", "name": "USPS COLLECTION BOX - BLUE BOX", "address": {"city": "READING", "state": "PA", "street": "200 N 6TH ST", "postcode": "19601"}}},
{"geometry": {"type": "Point", "coordinates": [-75.9272472352, 40.3460034587]}, "type": "Feature", "properties": {"collection_times": [{"days": "Mon-Sat", "time": "2:00pm"}, {"days": "Sun", "time": "Closed"}], "id": "1960100063", "name": "USPS COLLECTION BOX - BLUE BOX", "address": {"city": "READING", "state": "PA", "street": "505 OLEY ST", "postcode": "19601"}}},
{"geometry": {"type": "Point", "coordinates": [-75.9263824922, 40.3563791918]}, "type": "Feature", "properties": {"collection_times": [{"days": "Mon-Sat", "time": "1:00pm"}, {"days": "Sun", "time": "Closed"}], "id": "1960100071", "name": "USPS COLLECTION BOX - BLUE BOX", "address": {"city": "READING", "state": "PA", "street": "523 PIKE ST", "postcode": "19601"}}},
{"geometry": {"type": "Point", "coordinates": [-75.9584820838, 40.3678929314]}, "type": "Feature", "properties": {"collection_times": [{"days": "Mon-Sat", "time": "2:45pm"}, {"days": "Sun", "time": "Closed"}], "id": "1960100072", "name": "USPS COLLECTION BOX - BLUE BOX", "address": {"city": "READING", "state": "PA", "street": "2124 BERNVILLE RD", "postcode": "19601"}}},
{"geometry": {"type": "Point", "coordinates": [-75.9325178442, 40.3454218983]}, "type": "Feature", "properties": {"collection_times": [{"days": "Mon-Fri", "time": "11:30am"}, {"days": "Sat-Sun", "time": "Closed"}], "id": "1960100075", "name": "USPS COLLECTION BOX - BLUE BOX", "address": {"city": "READING", "state": "PA", "street": "707 WARREN ST", "postcode": "19601"}}},
{"geometry": {"type": "Point", "coordinates": [-75.9277494559, 40.3365377141]}, "type": "Feature", "properties": {"collection_times": [{"days": "Mon-Fri", "time": "5:00pm"}, {"days": "Sat", "time": "2:00pm"}, {"days": "Sun", "time": "Closed"}], "id": "1960100082", "name": "USPS COLLECTION BOX - BLUE BOX", "address": {"city": "READING", "state": "PA", "street": "59 N 5TH ST", "postcode": "19601"}}},
{"geometry": {"type": "Point", "coordinates": [-75.932509154, 40.3454132547]}, "type": "Feature", "properties": {"collection_times": [{"days": "Mon-Fri", "time": "5:00pm"}, {"days": "Sat", "time": "2:00pm"}, {"days": "Sun", "time": "Closed"}], "id": "1960100086", "name": "USPS COLLECTION BOX - BLUE BOX", "address": {"city": "READING", "state": "PA", "street": "525 COURT ST", "postcode": "19601"}}},
{"geometry": {"type": "Point", "coordinates": [-75.9277494559, 40.3365377141]}, "type": "Feature", "properties": {"collection_times": [{"days": "Mon-Fri", "time": "5:00pm"}, {"days": "Sat", "time": "2:00pm"}, {"days": "Sun", "time": "Closed"}], "id": "1960100093", "name": "USPS COLLECTION BOX - PO LOBBY", "address": {"city": "READING", "state": "PA", "street": "59 N 5TH ST", "postcode": "19601"}}},
{"geometry": {"type": "Point", "coordinates": [-75.9181301705, 40.3356490189]}, "type": "Feature", "properties": {"collection_times": [{"days": "Mon-Fri", "time": "9:00am"}, {"days": "Sat-Sun", "time": "Closed"}], "id": "1960100099", "name": "USPS COLLECTION BOX - BLUE BOX", "address": {"city": "READING", "state": "PA", "street": "2 N 10TH ST", "postcode": "19601"}}},
{"geometry": {"type": "Point", "coordinates": [-75.9568927913, 40.3538665446]}, "type": "Feature", "properties": {"collection_times": [{"days": "Mon-Sat", "time": "10:30am"}, {"days": "Sun", "time": "Closed"}], "id": "1960100101", "name": "USPS COLLECTION BOX - BLUE BOX", "address": {"city": "READING", "state": "PA", "street": "305 LACKAWANNA ST", "postcode": "19601"}}},
{"geometry": {"type": "Point", "coordinates": [-75.9268337822, 40.3363192861]}, "type": "Feature", "properties": {"collection_times": [{"days": "Mon-Fri", "time": "5:00pm"}, {"days": "Sat", "time": "2:00pm"}, {"days": "Sun", "time": "Closed"}], "id": "1960100103", "name": "USPS COLLECTION BOX - BLUE BOX", "address": {"city": "READING", "state": "PA", "street": "525 COURT ST", "postcode": "19601"}}},
{"geometry": {"type": "Point", "coordinates": [-75.9295007925, 40.349337952]}, "type": "Feature", "properties": {"collection_times": [{"days": "Mon-Sat", "time": "10:30am"}, {"days": "Sun", "time": "Closed"}], "id": "1960100106", "name": "USPS COLLECTION BOX - BLUE BOX", "address": {"city": "READING", "state": "PA", "street": "920 N 4TH ST", "postcode": "19601"}}},
{"geometry": {"type": "Point", "coordinates": [-75.9298985216, 40.3352682176]}, "type": "Feature", "properties": {"collection_times": [{"days": "Mon-Fri", "time": "9:00am"}, {"days": "Sat-Sun", "time": "Closed"}], "id": "1960200000", "name": "USPS COLLECTION BOX - BLUE BOX", "address": {"city": "WEST READING", "state": "PA", "street": "4 S 4TH ST", "postcode": "19602"}}},
{"geometry": {"type": "Point", "coordinates": [-75.9266898339, 40.332255625]}, "type": "Feature", "properties": {"collection_times": [{"days": "Mon-Sat", "time": "9:00am"}, {"days": "Sun", "time": "Closed"}], "id": "1960200001", "name": "USPS COLLECTION BOX - BLUE BOX", "address": {"city": "WEST READING", "state": "PA", "street": "541 CHESTNUT ST", "postcode": "19602"}}},
{"geometry": {"type": "Point", "coordinates": [-75.9279888594, 40.3336841643]}, "type": "Feature", "properties": {"collection_times": [{"days": "Mon-Sat", "time": "9:00am"}, {"days": "Sun", "time": "Closed"}], "id": "1960200004", "name": "USPS COLLECTION BOX - BLUE BOX", "address": {"city": "WEST READING", "state": "PA", "street": "100 S 5TH ST", "postcode": "19602"}}},
{"geometry": {"type": "Point", "coordinates": [-75.916934199, 40.3335303394]}, "type": "Feature", "properties": {"collection_times": [{"days": "Mon-Sat", "time": "1:30pm"}, {"days": "Sun", "time": "Closed"}], "id": "1960200007", "name": "USPS COLLECTION BOX - BLUE BOX", "address": {"city": "WEST READING", "state": "PA", "street": "1026 FRANKLIN ST", "postcode": "19602"}}},
{"geometry": {"type": "Point", "coordinates": [-75.9338070088, 40.3347521372]}, "type": "Feature", "properties": {"collection_times": [{"days": "Mon-Sat", "time": "9:00am"}, {"days": "Sun", "time": "Closed"}], "id": "1960200013", "name": "USPS COLLECTION BOX - BLUE BOX", "address": {"city": "WEST READING", "state": "PA", "street": "10 S 2ND ST", "postcode": "19602"}}},
{"geometry": {"type": "Point", "coordinates": [-75.9280504644, 40.3305800397]}, "type": "Feature", "properties": {"collection_times": [{"days": "Mon-Sat", "time": "9:00am"}, {"days": "Sun", "time": "Closed"}], "id": "1960200020", "name": "USPS COLLECTION BOX - BLUE BOX", "address": {"city": "WEST READING", "state": "PA", "street": "300 S 5TH ST", "postcode": "19602"}}},
{"geometry": {"type": "Point", "coordinates": [-75.9270591701, 40.3268125806]}, "type": "Feature", "properties": {"collection_times": [{"days": "Mon-Sat", "time": "11:00am"}, {"days": "Sun", "time": "Closed"}], "id": "1960200022", "name": "USPS COLLECTION BOX - BLUE BOX", "address": {"city": "WEST READING", "state": "PA", "street": "555 PEARL ST", "postcode": "19602"}}},
{"geometry": {"type": "Point", "coordinates": [-75.9121396663, 40.3285926687]}, "type": "Feature", "properties": {"collection_times": [{"days": "Mon-Sat", "time": "10:30am"}, {"days": "Sun", "time": "Closed"}], "id": "1960200033", "name": "USPS COLLECTION BOX - BLUE BOX", "address": {"city": "WEST READING", "state": "PA", "street": "1300 COTTON ST", "postcode": "19602"}}},
{"geometry": {"type": "Point", "coordinates": [-75.9144133134, 40.3306178944]}, "type": "Feature", "properties": {"collection_times": [{"days": "Mon-Sat", "time": "11:30am"}, {"days": "Sun", "time": "Closed"}], "id": "1960200035", "name": "USPS COLLECTION BOX - BLUE BOX", "address": {"city": "WEST READING", "state": "PA", "street": "250 S 12TH ST", "postcode": "19602"}}},
{"geometry": {"type": "Point", "coordinates": [-75.9245465399, 40.3343915335]}, "type": "Feature", "properties": {"collection_times": [{"days": "Mon-Fri", "time": "4:45pm"}, {"days": "Sat-Sun", "time": "Closed"}], "id": "1960200051", "name": "USPS COLLECTION BOX - BLUE BOX", "address": {"city": "WEST READING", "state": "PA", "street": "625 CHERRY ST", "postcode": "19602"}}},
{"geometry": {"type": "Point", "coordinates": [-75.9083413886, 40.3340219631]}, "type": "Feature", "properties": {"collection_times": [{"days": "Mon-Sat", "time": "9:30am"}, {"days": "Sun", "time": "Closed"}], "id": "1960200053", "name": "USPS COLLECTION BOX - BLUE BOX", "address": {"city": "WEST READING", "state": "PA", "street": "1517 HILL RD", "postcode": "19602"}}},
{"geometry": {"type": "Point", "coordinates": [-75.9179065913, 40.3432826531]}, "type": "Feature", "properties": {"collection_times": [{"days": "Mon-Fri", "time": "10:00am"}, {"days": "Sat-Sun", "time": "Closed"}], "id": "1960400001", "name": "USPS COLLECTION BOX - BLUE BOX", "address": {"city": "READING", "state": "PA", "street": "505 N 10TH ST", "postcode": "19604"}}},
{"geometry": {"type": "Point", "coordinates": [-75.9197226311, 40.3496934723]}, "type": "Feature", "properties": {"collection_times": [{"days": "Mon-Fri", "time": "9:30am"}, {"days": "Sat-Sun", "time": "Closed"}], "id": "1960400011", "name": "USPS COLLECTION BOX - BLUE BOX", "address": {"city": "READING", "state": "PA", "street": "956 N 9TH ST", "postcode": "19604"}}},
{"geometry": {"type": "Point", "coordinates": [-75.9176037538, 40.3545952897]}, "type": "Feature", "properties": {"collection_times": [{"days": "Mon-Fri", "time": "9:15am"}, {"days": "Sat-Sun", "time": "Closed"}], "id": "1960400015", "name": "USPS COLLECTION BOX - BLUE BOX", "address": {"city": "READING", "state": "PA", "street": "1259 N 10TH ST", "postcode": "19604"}}},
{"geometry": {"type": "Point", "coordinates": [-75.9156835115, 40.3554463588]}, "type": "Feature", "properties": {"collection_times": [{"days": "Mon-Fri", "time": "11:00am"}, {"days": "Sat-Sun", "time": "Closed"}], "id": "1960400017", "name": "USPS COLLECTION BOX - BLUE BOX", "address": {"city": "READING", "state": "PA", "street": "1348 N 11TH ST", "postcode": "19604"}}},
{"geometry": {"type": "Point", "coordinates": [-75.9114891687, 40.3609112108]}, "type": "Feature", "properties": {"collection_times": [{"days": "Mon-Fri", "time": "5:15pm"}, {"days": "Sat-Sun", "time": "Closed"}], "id": "1960400026", "name": "USPS COLLECTION BOX - BLUE BOX", "address": {"city": "READING", "state": "PA", "street": "1621 N 13TH ST", "postcode": "19604"}}},
{"geometry": {"type": "Point", "coordinates": [-75.9023253033, 40.3652614351]}, "type": "Feature", "properties": {"collection_times": [{"days": "Mon-Sat", "time": "9:15am"}, {"days": "Sun", "time": "Closed"}], "id": "1960400028", "name": "USPS COLLECTION BOX - BLUE BOX", "address": {"city": "READING", "state": "PA", "street": "2020 HAMPDEN BLVD", "postcode": "19604"}}},
{"geometry": {"type": "Point", "coordinates": [-75.9212685606, 40.374911427]}, "type": "Feature", "properties": {"collection_times": [{"days": "Mon-Fri", "time": "11:00am"}, {"days": "Sat-Sun", "time": "Closed"}], "id": "1960500000", "name": "USPS COLLECTION BOX - BLUE BOX", "address": {"city": "READING", "state": "PA", "street": "100 MADISON AVE", "postcode": "19605"}}},
{"geometry": {"type": "Point", "coordinates": [-75.9103335857, 40.3904108213]}, "type": "Feature", "properties": {"collection_times": [{"days": "Mon-Sat", "time": "12:30pm"}, {"days": "Sun", "time": "Closed"}], "id": "1960500002", "name": "USPS COLLECTION BOX - BLUE BOX", "address": {"city": "READING", "state": "PA", "street": "1724 ELIZABETH AVE", "postcode": "19605"}}},
{"geometry": {"type": "Point", "coordinates": [-75.9151912913, 40.3904207197]}, "type": "Feature", "properties": {"collection_times": [{"days": "Mon-Fri", "time": "12:15pm"}, {"days": "Sat-Sun", "time": "Closed"}], "id": "1960500005", "name": "USPS COLLECTION BOX - BLUE BOX", "address": {"city": "READING", "state": "PA", "street": "1409 PARK PL", "postcode": "19605"}}},
{"geometry": {"type": "Point", "coordinates": [-75.9220422158, 40.383529283]}, "type": "Feature", "properties": {"collection_times": [{"days": "Mon-Sat", "time": "1:30pm"}, {"days": "Sun", "time": "Closed"}], "id": "1960500006", "name": "USPS COLLECTION BOX - BLUE BOX", "address": {"city": "READING", "state": "PA", "street": "615 EMERSON AVE", "postcode": "19605"}}},
{"geometry": {"type": "Point", "coordinates": [-75.9186885271, 40.3777801024]}, "type": "Feature", "properties": {"collection_times": [{"days": "Mon-Fri", "time": "9:45am"}, {"days": "Sat-Sun", "time": "Closed"}], "id": "1960500007", "name": "USPS COLLECTION BOX - BLUE BOX", "address": {"city": "READING", "state": "PA", "street": "2840 KUTZTOWN RD", "postcode": "19605"}}},
{"geometry": {"type": "Point", "coordinates": [-75.97533414, 40.3800472801]}, "type": "Feature", "properties": {"collection_times": [{"days": "Mon-Fri", "time": "10:00am"}, {"days": "Sat-Sun", "time": "Closed"}], "id": "1960500011", "name": "USPS COLLECTION BOX - BLUE BOX", "address": {"city": "READING", "state": "PA", "street": "1017 MACARTHUR RD", "postcode": "19605"}}},
{"geometry": {"type": "Point", "coordinates": [-75.9405651153, 40.4036862479]}, "type": "Feature", "properties": {"collection_times": [{"days": "Mon-Fri", "time": "10:00am"}, {"days": "Sat-Sun", "time": "Closed"}], "id": "1960500013", "name": "USPS COLLECTION BOX - BLUE BOX", "address": {"city": "READING", "state": "PA", "street": "100 CORPORATE DR", "postcode": "19605"}}},
{"geometry": {"type": "Point", "coordinates": [-75.9486709864, 40.4039524859]}, "type": "Feature", "properties": {"collection_times": [{"days": "Mon-Fri", "time": "11:00am"}, {"days": "Sat-Sun", "time": "Closed"}], "id": "1960500017", "name": "USPS COLLECTION BOX - BLUE BOX", "address": {"city": "READING", "state": "PA", "street": "1001 SAGE AVE", "postcode": "19605"}}},
{"geometry": {"type": "Point", "coordinates": [-75.9466327913, 40.4015796791]}, "type": "Feature", "properties": {"collection_times": [{"days": "Mon-Sat", "time": "10:15am"}, {"days": "Sun", "time": "Closed"}], "id": "1960500022", "name": "USPS COLLECTION BOX - BLUE BOX", "address": {"city": "READING", "state": "PA", "street": "3270 N 5TH ST HWY", "postcode": "19605"}}},
{"geometry": {"type": "Point", "coordinates": [-75.9327621899, 40.3673771613]}, "type": "Feature", "properties": {"collection_times": [{"days": "Mon-Fri", "time": "4:15pm"}, {"days": "Sat-Sun", "time": "Closed"}], "id": "1960500026", "name": "USPS COLLECTION BOX - BLUE BOX", "address": {"city": "READING", "state": "PA", "street": "2100 CENTRE AVE", "postcode": "19605"}}},
{"geometry": {"type": "Point", "coordinates": [-75.9466327913, 40.4015796791]}, "type": "Feature", "properties": {"collection_times": [{"days": "Mon-Sat", "time": "11:00am"}, {"days": "Sun", "time": "Closed"}], "id": "1960500028", "name": "USPS COLLECTION BOX - BLUE BOX", "address": {"city": "READING", "state": "PA", "street": "3050 N 5TH ST HWY", "postcode": "19605"}}},
{"geometry": {"type": "Point", "coordinates": [-75.9514896133, 40.4006620777]}, "type": "Feature", "properties": {"collection_times": [{"days": "Mon-Fri", "time": "10:00am"}, {"days": "Sat-Sun", "time": "Closed"}], "id": "1960500031", "name": "USPS COLLECTION BOX - BLUE BOX", "address": {"city": "READING", "state": "PA", "street": "1137 COMMONS BLVD", "postcode": "19605"}}},
{"geometry": {"type": "Point", "coordinates": [-75.9203600482, 40.3877299703]}, "type": "Feature", "properties": {"collection_times": [{"days": "Mon-Fri", "time": "9:00am"}, {"days": "Sat-Sun", "time": "Closed"}], "id": "1960500036", "name": "USPS COLLECTION BOX - BLUE BOX", "address": {"city": "READING", "state": "PA", "street": "3406 KUTZTOWN RD", "postcode": "19605"}}},
{"geometry": {"type": "Point", "coordinates": [-75.8671933614, 40.3109777528]}, "type": "Feature", "properties": {"collection_times": [{"days": "Mon-Sat", "time": "11:00am"}, {"days": "Sun", "time": "Closed"}], "id": "1960600003", "name": "USPS COLLECTION BOX - BLUE BOX", "address": {"city": "READING", "state": "PA", "street": "4280 PERKIOMEN AVE", "postcode": "19606"}}},
{"geometry": {"type": "Point", "coordinates": [-75.8746980735, 40.3190887769]}, "type": "Feature", "properties": {"collection_times": [{"days": "Mon-Sat", "time": "9:30am"}, {"days": "Sun", "time": "Closed"}], "id": "1960600005", "name": "USPS COLLECTION BOX - BLUE BOX", "address": {"city": "READING", "state": "PA", "street": "3600 PERKIOMEN AVE", "postcode": "19606"}}},
{"geometry": {"type": "Point", "coordinates": [-75.8766634685, 40.299034055]}, "type": "Feature", "properties": {"collection_times": [{"days": "Mon-Fri", "time": "1:00pm"}, {"days": "Sat-Sun", "time": "Closed"}], "id": "1960600036", "name": "USPS COLLECTION BOX - BLUE BOX", "address": {"city": "READING", "state": "PA", "street": "600 ORCHARD VIEW RD", "postcode": "19606"}}},
{"geometry": {"type": "Point", "coordinates": [-75.8778397711, 40.3410586903]}, "type": "Feature", "properties": {"collection_times": [{"days": "Mon-Sat", "time": "1:30pm"}, {"days": "Sun", "time": "Closed"}], "id": "1960600037", "name": "USPS COLLECTION BOX - BLUE BOX", "address": {"city": "READING", "state": "PA", "street": "850 CARSONIA AVE", "postcode": "19606"}}},
{"geometry": {"type": "Point", "coordinates": [-75.8918933236, 40.3264680744]}, "type": "Feature", "properties": {"collection_times": [{"days": "Mon-Sat", "time": "1:30pm"}, {"days": "Sun", "time": "Closed"}], "id": "1960600039", "name": "USPS COLLECTION BOX - BLUE BOX", "address": {"city": "READING", "state": "PA", "street": "2249 FAIRVIEW AVE", "postcode": "19606"}}},
{"geometry": {"type": "Point", "coordinates": [-75.8735040814, 40.3289428309]}, "type": "Feature", "properties": {"collection_times": [{"days": "Mon-Fri", "time": "5:00pm"}, {"days": "Sat", "time": "9:30am"}, {"days": "Sun", "time": "Closed"}], "id": "1960600046", "name": "USPS COLLECTION BOX - BLUE BOX", "address": {"city": "READING", "state": "PA", "street": "3115 SAINT LAWRENCE AVE", "postcode": "19606"}}},
{"geometry": {"type": "Point", "coordinates": [-75.8735040814, 40.3289428309]}, "type": "Feature", "properties": {"collection_times": [{"days": "Mon-Fri", "time": "5:00pm"}, {"days": "Sat", "time": "3:00pm"}, {"days": "Sun", "time": "Closed"}], "id": "1960600048", "name": "USPS COLLECTION BOX - PO LOBBY", "address": {"city": "READING", "state": "PA", "street": "3115 SAINT LAWRENCE AVE", "postcode": "19606"}}},
{"geometry": {"type": "Point", "coordinates": [-75.8735040814, 40.3289428309]}, "type": "Feature", "properties": {"collection_times": [{"days": "Mon-Fri", "time": "5:00pm"}, {"days": "Sat", "time": "3:00pm"}, {"days": "Sun", "time": "Closed"}], "id": "1960600049", "name": "USPS COLLECTION BOX - APC", "address": {"city": "READING", "state": "PA", "street": "3115 SAINT LAWRENCE AVE", "postcode": "19606"}}},
{"geometry": {"type": "Point", "coordinates": [-75.9498535811, 40.3159373737]}, "type": "Feature", "properties": {"collection_times": [{"days": "Mon-Fri", "time": "5:00pm"}, {"days": "Sat", "time": "2:30pm"}, {"days": "Sun", "time": "Closed"}], "id": "1960700001", "name": "USPS COLLECTION BOX - BLUE BOX", "address": {"city": "SHILLINGTON", "state": "PA", "street": "225 N KENHORST BLVD", "postcode": "19607"}}},
{"geometry": {"type": "Point", "coordinates": [-75.9488989332, 40.3109464698]}, "type": "Feature", "properties": {"collection_times": [{"days": "Mon-Sat", "time": "10:30am"}, {"days": "Sun", "time": "Closed"}], "id": "1960700004", "name": "USPS COLLECTION BOX - BLUE BOX", "address": {"city": "SHILLINGTON", "state": "PA", "street": "1401 FERN AVE", "postcode": "19607"}}},
{"geometry": {"type": "Point", "coordinates": [-75.9231916618, 40.2809057021]}, "type": "Feature", "properties": {"collection_times": [{"days": "Mon-Sat", "time": "9:30am"}, {"days": "Sun", "time": "Closed"}], "id": "1960700014", "name": "USPS COLLECTION BOX - BLUE BOX", "address": {"city": "SHILLINGTON", "state": "PA", "street": "18 VILLAGE CENTER DR", "postcode": "19607"}}},
{"geometry": {"type": "Point", "coordinates": [-75.9635274037, 40.2997876179]}, "type": "Feature", "properties": {"collection_times": [{"days": "Mon-Sat", "time": "1:00pm"}, {"days": "Sun", "time": "Closed"}], "id": "1960700015", "name": "USPS COLLECTION BOX - BLUE BOX", "address": {"city": "SHILLINGTON", "state": "PA", "street": "101 SPRUCE ST", "postcode": "19607"}}},
{"geometry": {"type": "Point", "coordinates": [-75.9482044675, 40.3001045272]}, "type": "Feature", "properties": {"collection_times": [{"days": "Mon-Sat", "time": "11:15am"}, {"days": "Sun", "time": "Closed"}], "id": "1960700016", "name": "USPS COLLECTION BOX - BLUE BOX", "address": {"city": "SHILLINGTON", "state": "PA", "street": "700 KENHORST PLZ", "postcode": "19607"}}},
{"geometry": {"type": "Point", "coordinates": [-75.9682840817, 40.304944136]}, "type": "Feature", "properties": {"collection_times": [{"days": "Mon-Sat", "time": "9:30am"}, {"days": "Sun", "time": "Closed"}], "id": "1960700022", "name": "USPS COLLECTION BOX - BLUE BOX", "address": {"city": "SHILLINGTON", "state": "PA", "street": "100 LIBERTY ST", "postcode": "19607"}}},
{"geometry": {"type": "Point", "coordinates": [-75.974474506, 40.302378298]}, "type": "Feature", "properties": {"collection_times": [{"days": "Mon-Sat", "time": "9:30am"}, {"days": "Sun", "time": "Closed"}], "id": "1960700025", "name": "USPS COLLECTION BOX - BLUE BOX", "address": {"city": "SHILLINGTON", "state": "PA", "street": "125 S WYOMISSING AVE", "postcode": "19607"}}},
{"geometry": {"type": "Point", "coordinates": [-75.9571317044, 40.3078535722]}, "type": "Feature", "properties": {"collection_times": [{"days": "Mon-Fri", "time": "5:00pm"}, {"days": "Sat", "time": "10:45am"}, {"days": "Sun", "time": "Closed"}], "id": "1960700032", "name": "USPS COLLECTION BOX - BLUE BOX", "address": {"city": "SHILLINGTON", "state": "PA", "street": "516 E LANCASTER AVE", "postcode": "19607"}}},
{"geometry": {"type": "Point", "coordinates": [-75.9329939788, 40.3134840516]}, "type": "Feature", "properties": {"collection_times": [{"days": "Mon-Fri", "time": "8:45am"}, {"days": "Sat-Sun", "time": "Closed"}], "id": "1960700034", "name": "USPS COLLECTION BOX - BLUE BOX", "address": {"city": "SHILLINGTON", "state": "PA", "street": "400 SAINT BERNARDINE ST", "postcode": "19607"}}},
{"geometry": {"type": "Point", "coordinates": [-75.9680096353, 40.3100994712]}, "type": "Feature", "properties": {"collection_times": [{"days": "Mon-Sat", "time": "12:00pm"}, {"days": "Sun", "time": "Closed"}], "id": "1960700041", "name": "USPS COLLECTION BOX - BLUE BOX", "address": {"city": "SHILLINGTON", "state": "PA", "street": "527 STATE ST", "postcode": "19607"}}},
{"geometry": {"type": "Point", "coordinates": [-75.9636315041, 40.3073881292]}, "type": "Feature", "properties": {"collection_times": [{"days": "Mon-Sat", "time": "9:00am"}, {"days": "Sun", "time": "Closed"}], "id": "1960700048", "name": "USPS COLLECTION BOX - BLUE BOX", "address": {"city": "SHILLINGTON", "state": "PA", "street": "116 N WAVERLY ST", "postcode": "19607"}}},
{"geometry": {"type": "Point", "coordinates": [-75.9483331841, 40.2994302977]}, "type": "Feature", "properties": {"collection_times": [{"days": "Mon-Fri", "time": "5:00pm"}, {"days": "Sat", "time": "3:00pm"}, {"days": "Sun", "time": "Closed"}], "id": "1960700050", "name": "USPS COLLECTION BOX - PO LOBBY", "address": {"city": "SHILLINGTON", "state": "PA", "street": "550 KENHORST PLZ", "postcode": "19607"}}},
{"geometry": {"type": "Point", "coordinates": [-75.9541690066, 40.2978440881]}, "type": "Feature", "properties": {"collection_times": [{"days": "Mon-Fri", "time": "5:00pm"}, {"days": "Sat", "time": "2:30pm"}, {"days": "Sun", "time": "Closed"}], "id": "1960700051", "name": "USPS COLLECTION BOX - EXPRESS", "address": {"city": "SHILLINGTON", "state": "PA", "street": "225 N KENHORST BLVD", "postcode": "19607"}}},
{"geometry": {"type": "Point", "coordinates": [-75.9483331841, 40.2994302977]}, "type": "Feature", "properties": {"collection_times": [{"days": "Mon-Fri", "time": "5:00pm"}, {"days": "Sat", "time": "3:00pm"}, {"days": "Sun", "time": "Closed"}], "id": "1960700052", "name": "USPS COLLECTION BOX - APC", "address": {"city": "SHILLINGTON", "state": "PA", "street": "550 KENHORST PLZ", "postcode": "19607"}}},
{"geometry": {"type": "Point", "coordinates": [-75.9996041807, 40.3153699949]}, "type": "Feature", "properties": {"collection_times": [{"days": "Mon-Sat", "time": "12:30pm"}, {"days": "Sun", "time": "Closed"}], "id": "1960800003", "name": "USPS COLLECTION BOX - BLUE BOX", "address": {"city": "SINKING SPRING", "state": "PA", "street": "2645 SHILLINGTON RD", "postcode": "19608"}}},
{"geometry": {"type": "Point", "coordinates": [-76.0088663561, 40.3184811699]}, "type": "Feature", "properties": {"collection_times": [{"days": "Mon-Sat", "time": "9:00am"}, {"days": "Sun", "time": "Closed"}], "id": "1960800005", "name": "USPS COLLECTION BOX - BLUE BOX", "address": {"city": "SINKING SPRING", "state": "PA", "street": "2900 WINDMILL RD", "postcode": "19608"}}},
{"geometry": {"type": "Point", "coordinates": [-76.013421064, 40.3287109646]}, "type": "Feature", "properties": {"collection_times": [{"days": "Mon-Sat", "time": "12:00pm"}, {"days": "Sun", "time": "Closed"}], "id": "1960800006", "name": "USPS COLLECTION BOX - BLUE BOX", "address": {"city": "SINKING SPRING", "state": "PA", "street": "294 WEIDMAN AVE", "postcode": "19608"}}},
{"geometry": {"type": "Point", "coordinates": [-76.0179500576, 40.3225762533]}, "type": "Feature", "properties": {"collection_times": [{"days": "Mon-Sat", "time": "2:00pm"}, {"days": "Sun", "time": "Closed"}], "id": "1960800008", "name": "USPS COLLECTION BOX - BLUE BOX", "address": {"city": "SINKING SPRING", "state": "PA", "street": "1601 JAMES ST", "postcode": "19608"}}},
{"geometry": {"type": "Point", "coordinates": [-76.0359802776, 40.3153096132]}, "type": "Feature", "properties": {"collection_times": [{"days": "Mon-Fri", "time": "5:00pm"}, {"days": "Sat", "time": "1:00pm"}, {"days": "Sun", "time": "Closed"}], "id": "1960800024", "name": "USPS COLLECTION BOX - PO LOBBY", "address": {"city": "SINKING SPRING", "state": "PA", "street": "4100 PENN AVE", "postcode": "19608"}}},
{"geometry": {"type": "Point", "coordinates": [-75.9905627479, 40.3253513611]}, "type": "Feature", "properties": {"collection_times": [{"days": "Mon-Sat", "time": "11:30am"}, {"days": "Sun", "time": "Closed"}], "id": "1960900001", "name": "USPS COLLECTION BOX - BLUE BOX", "address": {"city": "WEST LAWN", "state": "PA", "street": "125 W LAWN AVE", "postcode": "19609"}}},
{"geometry": {"type": "Point", "coordinates": [-75.9856156135, 40.3148514173]}, "type": "Feature", "properties": {"collection_times": [{"days": "Mon-Sat", "time": "11:00am"}, {"days": "Sun", "time": "Closed"}], "id": "1960900002", "name": "USPS COLLECTION BOX - BLUE BOX", "address": {"city": "WEST LAWN", "state": "PA", "street": "323 JEFFERSON BLVD", "postcode": "19609"}}},
{"geometry": {"type": "Point", "coordinates": [-75.9866436049, 40.3121258799]}, "type": "Feature", "properties": {"collection_times": [{"days": "Mon-Sat", "time": "2:30pm"}, {"days": "Sun", "time": "Closed"}], "id": "1960900004", "name": "USPS COLLECTION BOX - BLUE BOX", "address": {"city": "WEST LAWN", "state": "PA", "street": "217 AMHERST AVE", "postcode": "19609"}}},
{"geometry": {"type": "Point", "coordinates": [-76.0064670532, 40.3257755811]}, "type": "Feature", "properties": {"collection_times": [{"days": "Mon-Sat", "time": "10:00am"}, {"days": "Sun", "time": "Closed"}], "id": "1960900009", "name": "USPS COLLECTION BOX - BLUE BOX", "address": {"city": "WEST LAWN", "state": "PA", "street": "3311 PENN AVE", "postcode": "19609"}}},
{"geometry": {"type": "Point", "coordinates": [-75.9937176995, 40.3240193493]}, "type": "Feature", "properties": {"collection_times": [{"days": "Mon-Sat", "time": "2:30pm"}, {"days": "Sun", "time": "Closed"}], "id": "1960900012", "name": "USPS COLLECTION BOX - BLUE BOX", "address": {"city": "WEST LAWN", "state": "PA", "street": "301 W WYOMISSING BLVD", "postcode": "19609"}}},
{"geometry": {"type": "Point", "coordinates": [-75.9922685748, 40.3310898951]}, "type": "Feature", "properties": {"collection_times": [{"days": "Mon-Sat", "time": "9:00am"}, {"days": "Sun", "time": "Closed"}], "id": "1960900023", "name": "USPS COLLECTION BOX - BLUE BOX", "address": {"city": "WEST LAWN", "state": "PA", "street": "319 TELFORD AVE", "postcode": "19609"}}},
{"geometry": {"type": "Point", "coordinates": [-75.9941237616, 40.3281644783]}, "type": "Feature", "properties": {"collection_times": [{"days": "Mon-Sat", "time": "11:30am"}, {"days": "Sun", "time": "Closed"}], "id": "1960900024", "name": "USPS COLLECTION BOX - BLUE BOX", "address": {"city": "WEST LAWN", "state": "PA", "street": "101 WOODSIDE AVE", "postcode": "19609"}}},
{"geometry": {"type": "Point", "coordinates": [-76.0032369703, 40.3415070317]}, "type": "Feature", "properties": {"collection_times": [{"days": "Mon-Fri", "time": "4:30pm"}, {"days": "Sat-Sun", "time": "Closed"}], "id": "1960900030", "name": "USPS COLLECTION BOX - BLUE BOX", "address": {"city": "WEST LAWN", "state": "PA", "street": "2208 QUARRY DR", "postcode": "19609"}}},
{"geometry": {"type": "Point", "coordinates": [-75.9670336941, 40.3276167275]}, "type": "Feature", "properties": {"collection_times": [{"days": "Mon-Sat", "time": "9:30am"}, {"days": "Sun", "time": "Closed"}], "id": "1961000000", "name": "USPS COLLECTION BOX - BLUE BOX", "address": {"city": "WYOMISSING", "state": "PA", "street": "1405 READING BLVD", "postcode": "19610"}}},
{"geometry": {"type": "Point", "coordinates": [-75.9698574172, 40.3290682182]}, "type": "Feature", "properties": {"collection_times": [{"days": "Mon-Sat", "time": "12:00pm"}, {"days": "Sun", "time": "Closed"}], "id": "1961000003", "name": "USPS COLLECTION BOX - BLUE BOX", "address": {"city": "WYOMISSING", "state": "PA", "street": "205 WYOMING AVE", "postcode": "19610"}}},
{"geometry": {"type": "Point", "coordinates": [-75.9580562185, 40.3439876967]}, "type": "Feature", "properties": {"collection_times": [{"days": "Mon-Fri", "time": "5:00pm"}, {"days": "Sat-Sun", "time": "Closed"}], "id": "1961000008", "name": "USPS COLLECTION BOX - BLUE BOX", "address": {"city": "WYOMISSING", "state": "PA", "street": "501 N WYOMISSING BLVD", "postcode": "19610"}}},
{"geometry": {"type": "Point", "coordinates": [-75.9945552344, 40.3407073514]}, "type": "Feature", "properties": {"collection_times": [{"days": "Mon-Sat", "time": "1:30pm"}, {"days": "Sun", "time": "Closed"}], "id": "1961000014", "name": "USPS COLLECTION BOX - BLUE BOX", "address": {"city": "WYOMISSING", "state": "PA", "street": "911 CLOVER DR", "postcode": "19610"}}},
{"geometry": {"type": "Point", "coordinates": [-75.968333766, 40.3503425522]}, "type": "Feature", "properties": {"collection_times": [{"days": "Mon-Fri", "time": "5:00pm"}, {"days": "Sat-Sun", "time": "Closed"}], "id": "1961000020", "name": "USPS COLLECTION BOX - BLUE BOX", "address": {"city": "WYOMISSING", "state": "PA", "street": "825 BERKSHIRE BLVD", "postcode": "19610"}}},
{"geometry": {"type": "Point", "coordinates": [-75.9540956719, 40.3359092699]}, "type": "Feature", "properties": {"collection_times": [{"days": "Mon-Fri", "time": "10:30am"}, {"days": "Sat-Sun", "time": "Closed"}], "id": "1961000047", "name": "USPS COLLECTION BOX - BLUE BOX", "address": {"city": "WYOMISSING", "state": "PA", "street": "800 PENN AVE", "postcode": "19610"}}},
{"geometry": {"type": "Point", "coordinates": [-75.9579738262, 40.3456719659]}, "type": "Feature", "properties": {"collection_times": [{"days": "Mon-Fri", "time": "5:00pm"}, {"days": "Sat-Sun", "time": "Closed"}], "id": "1961000049", "name": "USPS COLLECTION BOX - BLUE BOX", "address": {"city": "WYOMISSING", "state": "PA", "street": "800 N PARK RD", "postcode": "19610"}}},
{"geometry": {"type": "Point", "coordinates": [-75.9599891557, 40.335144368]}, "type": "Feature", "properties": {"collection_times": [{"days": "Mon-Fri", "time": "5:00pm"}, {"days": "Sat", "time": "3:00pm"}, {"days": "Sun", "time": "Closed"}], "id": "1961000057", "name": "USPS COLLECTION BOX - BLUE BOX", "address": {"city": "WYOMISSING", "state": "PA", "street": "1021 PENN AVE", "postcode": "19610"}}},
{"geometry": {"type": "Point", "coordinates": [-75.9599891557, 40.335144368]}, "type": "Feature", "properties": {"collection_times": [{"days": "Mon-Fri", "time": "5:00pm"}, {"days": "Sat", "time": "3:00pm"}, {"days": "Sun", "time": "Closed"}], "id": "1961000058", "name": "USPS COLLECTION BOX - BLUE BOX", "address": {"city": "WYOMISSING", "state": "PA", "street": "1021 PENN AVE", "postcode": "19610"}}},
{"geometry": {"type": "Point", "coordinates": [-75.9767032007, 40.338990878]}, "type": "Feature", "properties": {"collection_times": [{"days": "Mon-Fri", "time": "4:30pm"}, {"days": "Sat-Sun", "time": "Closed"}], "id": "1961000068", "name": "USPS COLLECTION BOX - BLUE BOX", "address": {"city": "WYOMISSING", "state": "PA", "street": "2001 STATE HILL RD", "postcode": "19610"}}},
{"geometry": {"type": "Point", "coordinates": [-75.9890568412, 40.3445945546]}, "type": "Feature", "properties": {"collection_times": [{"days": "Mon-Fri", "time": "4:30pm"}, {"days": "Sat-Sun", "time": "Closed"}], "id": "1961000069", "name": "USPS COLLECTION BOX - BLUE BOX", "address": {"city": "WYOMISSING", "state": "PA", "street": "2610 KEISER BLVD", "postcode": "19610"}}},
{"geometry": {"type": "Point", "coordinates": [-75.9755640112, 40.3457207315]}, "type": "Feature", "properties": {"collection_times": [{"days": "Mon-Fri", "time": "4:30pm"}, {"days": "Sat", "time": "10:00am"}, {"days": "Sun", "time": "Closed"}], "id": "1961000072", "name": "USPS COLLECTION BOX - BLUE BOX", "address": {"city": "WYOMISSING", "state": "PA", "street": "2201 RIDGEWOOD RD", "postcode": "19610"}}},
{"geometry": {"type": "Point", "coordinates": [-75.9844231909, 40.354297184]}, "type": "Feature", "properties": {"collection_times": [{"days": "Mon-Fri", "time": "11:00am"}, {"days": "Sat-Sun", "time": "Closed"}], "id": "1961000073", "name": "USPS COLLECTION BOX - BLUE BOX", "address": {"city": "WYOMISSING", "state": "PA", "street": "2 MERIDIAN BLVD", "postcode": "19610"}}},
{"geometry": {"type": "Point", "coordinates": [-75.9599891557, 40.335144368]}, "type": "Feature", "properties": {"collection_times": [{"days": "Mon-Fri", "time": "5:30pm"}, {"days": "Sat", "time": "3:00pm"}, {"days": "Sun", "time": "Closed"}], "id": "1961000074", "name": "USPS COLLECTION BOX - PO LOBBY", "address": {"city": "WYOMISSING", "state": "PA", "street": "1021 PENN AVE", "postcode": "19610"}}},
{"geometry": {"type": "Point", "coordinates": [-75.9724947167, 40.3384081856]}, "type": "Feature", "properties": {"collection_times": [{"days": "Mon-Fri", "time": "4:30pm"}, {"days": "Sat", "time": "10:00am"}, {"days": "Sun", "time": "Closed"}], "id": "1961000075", "name": "USPS COLLECTION BOX - BLUE BOX", "address": {"city": "WYOMISSING", "state": "PA", "street": "1665 STATE HILL RD", "postcode": "19610"}}},
{"geometry": {"type": "Point", "coordinates": [-75.9580562185, 40.3439876967]}, "type": "Feature", "properties": {"collection_times": [{"days": "Mon-Fri", "time": "5:00pm"}, {"days": "Sat-Sun", "time": "Closed"}], "id": "1961000076", "name": "USPS COLLECTION BOX - BLUE BOX", "address": {"city": "WYOMISSING", "state": "PA", "street": "501 N WYOMISSING BLVD", "postcode": "19610"}}},
{"geometry": {"type": "Point", "coordinates": [-75.9903533642, 40.3463358702]}, "type": "Feature", "properties": {"collection_times": [{"days": "Mon-Fri", "time": "5:00pm"}, {"days": "Sat", "time": "10:30am"}, {"days": "Sun", "time": "Closed"}], "id": "1961000079", "name": "USPS COLLECTION BOX - BLUE BOX", "address": {"city": "WYOMISSING", "state": "PA", "street": "90 COMMERCE DR", "postcode": "19610"}}},
{"geometry": {"type": "Point", "coordinates": [-75.9599891557, 40.335144368]}, "type": "Feature", "properties": {"collection_times": [{"days": "Mon-Fri", "time": "5:00pm"}, {"days": "Sat", "time": "3:00pm"}, {"days": "Sun", "time": "Closed"}], "id": "1961000080", "name": "USPS COLLECTION BOX - APC", "address": {"city": "WYOMISSING", "state": "PA", "street": "1021 PENN AVE", "postcode": "19610"}}},
{"geometry": {"type": "Point", "coordinates": [-75.968333766, 40.3503425522]}, "type": "Feature", "properties": {"collection_times": [{"days": "Mon-Fri", "time": "5:00pm"}, {"days": "Sat-Sun", "time": "Closed"}], "id": "1961000081", "name": "USPS COLLECTION BOX - BLUE BOX", "address": {"city": "WYOMISSING", "state": "PA", "street": "825 BERKSHIRE BLVD", "postcode": "19610"}}},
{"geometry": {"type": "Point", "coordinates": [-75.9355894619, 40.3161940758]}, "type": "Feature", "properties": {"collection_times": [{"days": "Mon-Fri", "time": "5:00pm"}, {"days": "Sat-Sun", "time": "Closed"}], "id": "1961100010", "name": "USPS COLLECTION BOX - BLUE BOX", "address": {"city": "READING", "state": "PA", "street": "640 PARK AVE", "postcode": "19611"}}},
{"geometry": {"type": "Point", "coordinates": [-75.9498145434, 40.3358335605]}, "type": "Feature", "properties": {"collection_times": [{"days": "Mon-Fri", "time": "9:00am"}, {"days": "Sat-Sun", "time": "Closed"}], "id": "1961100012", "name": "USPS COLLECTION BOX - BLUE BOX", "address": {"city": "READING", "state": "PA", "street": "601 PENN AVE", "postcode": "19611"}}},
{"geometry": {"type": "Point", "coordinates": [-75.9492703823, 40.3368651007]}, "type": "Feature", "properties": {"collection_times": [{"days": "Mon-Sat", "time": "8:45am"}, {"days": "Sun", "time": "Closed"}], "id": "1961100015", "name": "USPS COLLECTION BOX - BLUE BOX", "address": {"city": "READING", "state": "PA", "street": "529 READING AVE", "postcode": "19611"}}},
{"geometry": {"type": "Point", "coordinates": [-75.9318310526, 40.3155716288]}, "type": "Feature", "properties": {"collection_times": [{"days": "Mon-Fri", "time": "5:00pm"}, {"days": "Sat-Sun", "time": "Closed"}], "id": "1961100022", "name": "USPS COLLECTION BOX - BLUE BOX", "address": {"city": "READING", "state": "PA", "street": "540 UPLAND AVE", "postcode": "19611"}}},
{"geometry": {"type": "Point", "coordinates": [-75.952220682, 40.3306380047]}, "type": "Feature", "properties": {"collection_times": [{"days": "Mon-Sat", "time": "9:00am"}, {"days": "Sun", "time": "Closed"}], "id": "1961100030", "name": "USPS COLLECTION BOX - BLUE BOX", "address": {"city": "READING", "state": "PA", "street": "301 S 7TH AVE", "postcode": "19611"}}},
{"geometry": {"type": "Point", "coordinates": [-75.9114902481, 40.3661557291]}, "type": "Feature", "properties": {"collection_times": [{"days": "Mon-Fri", "time": "6:00pm"}, {"days": "Sat", "time": "3:00pm"}, {"days": "Sun", "time": "Closed"}], "id": "1961200000", "name": "USPS COLLECTION BOX - BLUE BOX", "address": {"city": "READING", "state": "PA", "street": "2100 N 13TH ST", "postcode": "19612"}}},
{"geometry": {"type": "Point", "coordinates": [-75.9114902481, 40.3661557291]}, "type": "Feature", "properties": {"collection_times": [{"days": "Mon-Fri", "time": "6:00pm"}, {"days": "Sat", "time": "3:00pm"}, {"days": "Sun", "time": "Closed"}], "id": "1961200002", "name": "USPS COLLECTION BOX - BLUE BOX", "address": {"city": "READING", "state": "PA", "street": "2100 N 13TH ST", "postcode": "19612"}}},
{"geometry": {"type": "Point", "coordinates": [-75.9114902481, 40.3661557291]}, "type": "Feature", "properties": {"collection_times": [{"days": "Mon-Fri", "time": "6:00pm"}, {"days": "Sat", "time": "3:00pm"}, {"days": "Sun", "time": "Closed"}], "id": "1961200003", "name": "USPS COLLECTION BOX - PO LOBBY", "address": {"city": "READING", "state": "PA", "street": "2100 N 13TH ST", "postcode": "19612"}}},
{"geometry": {"type": "Point", "coordinates": [-75.9114902481, 40.3661557291]}, "type": "Feature", "properties": {"collection_times": [{"days": "Mon-Fri", "time": "6:00pm"}, {"days": "Sat", "time": "3:00pm"}, {"days": "Sun", "time": "Closed"}], "id": "1961200004", "name": "USPS COLLECTION BOX - APC", "address": {"city": "READING", "state": "PA", "street": "2100 N 13TH ST", "postcode": "19612"}}}
]}
