{"type": "FeatureCollection", "features": [
{"geometry": {"type": "Point", "coordinates": [-80.5659462665, 40.6111685161]}, "type": "Feature", "properties": {"collection_times": [{"days": "Mon-Fri", "time": "4:30pm"}, {"days": "Sat", "time": "3:30pm"}, {"days": "Sun", "time": "Closed"}], "id": "2603400001", "name": "USPS COLLECTION BOX - BLUE BOX", "address": {"city": "CHESTER", "state": "PA", "street": "323 CAROLINA AVE", "postcode": "26034"}}},
{"geometry": {"type": "Point", "coordinates": [-80.5674079086, 40.610274848]}, "type": "Feature", "properties": {"collection_times": [{"days": "Mon-Fri", "time": "2:00pm"}, {"days": "Sat", "time": "1:30pm"}, {"days": "Sun", "time": "Closed"}], "id": "2603400002", "name": "USPS COLLECTION BOX - BLUE BOX", "address": {"city": "CHESTER", "state": "PA", "street": "253 CAROLINA AVE", "postcode": "26034"}}},
{"geometry": {"type": "Point", "coordinates": [-80.5536788584, 40.605561769]}, "type": "Feature", "properties": {"collection_times": [{"days": "Mon-Fri", "time": "2:00pm"}, {"days": "Sat", "time": "1:30pm"}, {"days": "Sun", "time": "Closed"}], "id": "2603400004", "name": "USPS COLLECTION BOX - BLUE BOX", "address": {"city": "CHESTER", "state": "PA", "street": "12595 OHIO RIVER BLVD", "postcode": "26034"}}},
{"geometry": {"type": "Point", "coordinates": [-80.5634081851, 40.6127457384]}, "type": "Feature", "properties": {"collection_times": [{"days": "Mon-Fri", "time": "2:00pm"}, {"days": "Sat", "time": "1:30pm"}, {"days": "Sun", "time": "Closed"}], "id": "2603400009", "name": "USPS COLLECTION BOX - BLUE BOX", "address": {"city": "CHESTER", "state": "PA", "street": "449 CAROLINA AVE", "postcode": "26034"}}},
{"geometry": {"type": "Point", "coordinates": [-80.5577295287, 40.616211494]}, "type": "Feature", "properties": {"collection_times": [{"days": "Mon-Fri", "time": "2:00pm"}, {"days": "Sat", "time": "1:30pm"}, {"days": "Sun", "time": "Closed"}], "id": "2603400010", "name": "USPS COLLECTION BOX - BLUE BOX", "address": {"city": "CHESTER", "state": "PA", "street": "715 CAROLINA AVE", "postcode": "26034"}}},
{"geometry": {"type": "Point", "coordinates": [-80.5560742411, 40.5939099255]}, "type": "Feature", "properties": {"collection_times": [{"days": "Mon-Sat", "time": "10:30am"}, {"days": "Sun", "time": "Closed"}], "id": "2603400011", "name": "USPS COLLECTION BOX - BLUE BOX", "address": {"city": "CHESTER", "state": "PA", "street": "5368 VALLEYVIEW DR", "postcode": "26034"}}},
{"geometry": {"type": "Point", "coordinates": [-80.5659462665, 40.6111685161]}, "type": "Feature", "properties": {"collection_times": [{"days": "Mon-Fri", "time": "4:30pm"}, {"days": "Sat", "time": "3:30pm"}, {"days": "Sun", "time": "Closed"}], "id": "2603400012", "name": "USPS COLLECTION BOX - PO LOBBY", "address": {"city": "CHESTER", "state": "PA", "street": "323 CAROLINA AVE - LOBBY", "postcode": "26034"}}}
]}
