{"type": "FeatureCollection", "features": [
{"geometry": {"type": "Point", "coordinates": [-72.8574604404, 41.8139679953]}, "type": "Feature", "properties": {"collection_times": [{"days": "Mon-Fri", "time": "3:30pm"}, {"days": "Sat", "time": "11:00am"}, {"days": "Sun", "time": "Closed"}], "id": "0600100004", "name": "USPS COLLECTION BOX - BLUE BOX", "address": {"city": "AVON", "state": "CT", "street": "315 W MAIN ST", "postcode": "06001"}}},
{"geometry": {"type": "Point", "coordinates": [-72.8532195325, 41.812421868]}, "type": "Feature", "properties": {"collection_times": [{"days": "Mon-Fri", "time": "3:30pm"}, {"days": "Sat", "time": "11:00am"}, {"days": "Sun", "time": "Closed"}], "id": "0600100005", "name": "USPS COLLECTION BOX - BLUE BOX", "address": {"city": "AVON", "state": "CT", "street": "255 W MAIN ST", "postcode": "06001"}}},
{"geometry": {"type": "Point", "coordinates": [-72.8584177632, 41.7965017058]}, "type": "Feature", "properties": {"collection_times": [{"days": "Mon-Fri", "time": "3:30pm"}, {"days": "Sat", "time": "11:00am"}, {"days": "Sun", "time": "Closed"}], "id": "0600100006", "name": "USPS COLLECTION BOX - BLUE BOX", "address": {"city": "AVON", "state": "CT", "street": "195 W MAIN ST", "postcode": "06001"}}},
{"geometry": {"type": "Point", "coordinates": [-72.827908751, 41.8085427534]}, "type": "Feature", "properties": {"collection_times": [{"days": "Mon-Fri", "time": "3:30pm"}, {"days": "Sat", "time": "11:00am"}, {"days": "Sun", "time": "Closed"}], "id": "0600100009", "name": "USPS COLLECTION BOX - BLUE BOX", "address": {"city": "AVON", "state": "CT", "street": "27 E MAIN ST", "postcode": "06001"}}},
{"geometry": {"type": "Point", "coordinates": [-72.8296492729, 41.8108837233]}, "type": "Feature", "properties": {"collection_times": [{"days": "Mon-Fri", "time": "1:00pm"}, {"days": "Sat", "time": "11:00am"}, {"days": "Sun", "time": "Closed"}], "id": "0600100010", "name": "USPS COLLECTION BOX - BLUE BOX", "address": {"city": "AVON", "state": "CT", "street": "395 W AVON RD", "postcode": "06001"}}},
{"geometry": {"type": "Point", "coordinates": [-72.8166249367, 41.8071188409]}, "type": "Feature", "properties": {"collection_times": [{"days": "Mon-Fri", "time": "1:00pm"}, {"days": "Sat", "time": "11:00am"}, {"days": "Sun", "time": "Closed"}], "id": "0600100011", "name": "USPS COLLECTION BOX - BLUE BOX", "address": {"city": "AVON", "state": "CT", "street": "1 HUNTERS RUN", "postcode": "06001"}}},
{"geometry": {"type": "Point", "coordinates": [-72.829549093, 41.810883385]}, "type": "Feature", "properties": {"collection_times": [{"days": "Mon-Fri", "time": "5:00pm"}, {"days": "Sat", "time": "3:00pm"}, {"days": "Sun", "time": "Closed"}], "id": "0600100012", "name": "USPS COLLECTION BOX - BLUE BOX", "address": {"city": "AVON", "state": "CT", "street": "15 ENFORD ST", "postcode": "06001"}}},
{"geometry": {"type": "Point", "coordinates": [-72.8295490929, 41.8108833852]}, "type": "Feature", "properties": {"collection_times": [{"days": "Mon-Fri", "time": "5:00pm"}, {"days": "Sat", "time": "3:00pm"}, {"days": "Sun", "time": "Closed"}], "id": "0600100016", "name": "USPS COLLECTION BOX - EXPRESS", "address": {"city": "AVON", "state": "CT", "street": "15 ENFORD ST", "postcode": "06001"}}},
{"geometry": {"type": "Point", "coordinates": [-72.8294988393, 41.8193433609]}, "type": "Feature", "properties": {"collection_times": [{"days": "Mon-Fri", "time": "1:00pm"}, {"days": "Sat", "time": "11:00am"}, {"days": "Sun", "time": "Closed"}], "id": "0600100017", "name": "USPS COLLECTION BOX - BLUE BOX", "address": {"city": "AVON", "state": "CT", "street": "124 SIMSBURY RD", "postcode": "06001"}}},
{"geometry": {"type": "Point", "coordinates": [-72.8571469562, 41.8138520654]}, "type": "Feature", "properties": {"collection_times": [{"days": "Mon-Fri", "time": "3:30pm"}, {"days": "Sat", "time": "11:00am"}, {"days": "Sun", "time": "Closed"}], "id": "0600100018", "name": "USPS COLLECTION BOX - BLUE BOX", "address": {"city": "AVON", "state": "CT", "street": "302 W MAIN ST", "postcode": "06001"}}},
{"geometry": {"type": "Point", "coordinates": [-72.8415342638, 41.8063580203]}, "type": "Feature", "properties": {"collection_times": [{"days": "Mon-Fri", "time": "3:30pm"}, {"days": "Sat", "time": "11:00am"}, {"days": "Sun", "time": "Closed"}], "id": "0600100019", "name": "USPS COLLECTION BOX - BLUE BOX", "address": {"city": "AVON", "state": "CT", "street": "10 TOWER LN", "postcode": "06001"}}},
{"geometry": {"type": "Point", "coordinates": [-72.8649781446, 41.8135965462]}, "type": "Feature", "properties": {"collection_times": [{"days": "Mon-Fri", "time": "3:30pm"}, {"days": "Sat", "time": "11:00am"}, {"days": "Sun", "time": "Closed"}], "id": "0600100022", "name": "USPS COLLECTION BOX - BLUE BOX", "address": {"city": "AVON", "state": "CT", "street": "34 DALE RD", "postcode": "06001"}}},
{"geometry": {"type": "Point", "coordinates": [-72.8291380368, 41.810460522]}, "type": "Feature", "properties": {"collection_times": [{"days": "Mon-Fri", "time": "5:00pm"}, {"days": "Sat", "time": "1:00pm"}, {"days": "Sun", "time": "Closed"}], "id": "0600100023", "name": "USPS COLLECTION BOX - PO LOBBY", "address": {"city": "AVON", "state": "CT", "street": "15 ENFORD ST", "postcode": "06001"}}},
{"geometry": {"type": "Point", "coordinates": [-72.837736285, 41.8104234942]}, "type": "Feature", "properties": {"collection_times": [{"days": "Mon-Fri", "time": "3:30pm"}, {"days": "Sat", "time": "11:00am"}, {"days": "Sun", "time": "Closed"}], "id": "0600100025", "name": "USPS COLLECTION BOX - BLUE BOX", "address": {"city": "AVON", "state": "CT", "street": "1 DARLING DR", "postcode": "06001"}}},
{"geometry": {"type": "Point", "coordinates": [-72.8584177632, 41.7965017058]}, "type": "Feature", "properties": {"collection_times": [{"days": "Mon-Fri", "time": "3:30pm"}, {"days": "Sat-Sun", "time": "Closed"}], "id": "0600100027", "name": "USPS COLLECTION BOX - BLUE BOX", "address": {"city": "AVON", "state": "CT", "street": "395 W MAIN ST", "postcode": "06001"}}},
{"geometry": {"type": "Point", "coordinates": [-72.8345033213, 41.810871795]}, "type": "Feature", "properties": {"collection_times": [{"days": "Mon-Fri", "time": "3:30pm"}, {"days": "Sat-Sun", "time": "Closed"}], "id": "0600100028", "name": "USPS COLLECTION BOX - BLUE BOX", "address": {"city": "AVON", "state": "CT", "street": "1 ENSIGN DR", "postcode": "06001"}}},
{"geometry": {"type": "Point", "coordinates": [-72.7384914402, 41.8288425214]}, "type": "Feature", "properties": {"collection_times": [{"days": "Mon-Fri", "time": "5:00pm"}, {"days": "Sat-Sun", "time": "Closed"}], "id": "0600200001", "name": "USPS COLLECTION BOX - BLUE BOX", "address": {"city": "BLOOMFIELD", "state": "CT", "street": "2 BARNARD LN", "postcode": "06002"}}},
{"geometry": {"type": "Point", "coordinates": [-72.7326314366, 41.8284477072]}, "type": "Feature", "properties": {"collection_times": [{"days": "Mon-Sat", "time": "9:30am"}, {"days": "Sun", "time": "Closed"}], "id": "0600200002", "name": "USPS COLLECTION BOX - BLUE BOX", "address": {"city": "BLOOMFIELD", "state": "CT", "street": "10 BESTOR LN", "postcode": "06002"}}},
{"geometry": {"type": "Point", "coordinates": [-72.696768349, 41.8266437857]}, "type": "Feature", "properties": {"collection_times": [{"days": "Mon-Fri", "time": "1:00pm"}, {"days": "Sat", "time": "10:00am"}, {"days": "Sun", "time": "Closed"}], "id": "0600200004", "name": "USPS COLLECTION BOX - BLUE BOX", "address": {"city": "BLOOMFIELD", "state": "CT", "street": "1083 BLUE HILLS AVE", "postcode": "06002"}}},
{"geometry": {"type": "Point", "coordinates": [-72.6958871731, 41.8119664288]}, "type": "Feature", "properties": {"collection_times": [{"days": "Mon-Fri", "time": "9:30am"}, {"days": "Sat-Sun", "time": "Closed"}], "id": "0600200005", "name": "USPS COLLECTION BOX - BLUE BOX", "address": {"city": "BLOOMFIELD", "state": "CT", "street": "4 BRITTON DR", "postcode": "06002"}}},
{"geometry": {"type": "Point", "coordinates": [-72.69513884, 41.8165514253]}, "type": "Feature", "properties": {"collection_times": [{"days": "Mon-Fri", "time": "1:00pm"}, {"days": "Sat", "time": "11:00am"}, {"days": "Sun", "time": "Closed"}], "id": "0600200007", "name": "USPS COLLECTION BOX - BLUE BOX", "address": {"city": "BLOOMFIELD", "state": "CT", "street": "297 COTTAGE GROVE RD", "postcode": "06002"}}},
{"geometry": {"type": "Point", "coordinates": [-72.69513884, 41.8165514253]}, "type": "Feature", "properties": {"collection_times": [{"days": "Mon-Sat", "time": "9:30am"}, {"days": "Sun", "time": "Closed"}], "id": "0600200008", "name": "USPS COLLECTION BOX - BLUE BOX", "address": {"city": "BLOOMFIELD", "state": "CT", "street": "116 COTTAGE GROVE RD", "postcode": "06002"}}},
{"geometry": {"type": "Point", "coordinates": [-72.7345013042, 41.8168195597]}, "type": "Feature", "properties": {"collection_times": [{"days": "Mon-Fri", "time": "5:00pm"}, {"days": "Sat-Sun", "time": "Closed"}], "id": "0600200009", "name": "USPS COLLECTION BOX - BLUE BOX", "address": {"city": "BLOOMFIELD", "state": "CT", "street": "711 COTTAGE GROVE RD", "postcode": "06002"}}},
{"geometry": {"type": "Point", "coordinates": [-72.7366377435, 41.8168260242]}, "type": "Feature", "properties": {"collection_times": [{"days": "Mon-Fri", "time": "5:00pm"}, {"days": "Sat-Sun", "time": "Closed"}], "id": "0600200010", "name": "USPS COLLECTION BOX - BLUE BOX", "address": {"city": "BLOOMFIELD", "state": "CT", "street": "800 COTTAGE GROVE RD", "postcode": "06002"}}},
{"geometry": {"type": "Point", "coordinates": [-72.7506268581, 41.8060144936]}, "type": "Feature", "properties": {"collection_times": [{"days": "Mon-Fri", "time": "10:00am"}, {"days": "Sat-Sun", "time": "Closed"}], "id": "0600200011", "name": "USPS COLLECTION BOX - BLUE BOX", "address": {"city": "BLOOMFIELD", "state": "CT", "street": "1300 HALL BLVD", "postcode": "06002"}}},
{"geometry": {"type": "Point", "coordinates": [-72.7270658804, 41.8174081933]}, "type": "Feature", "properties": {"collection_times": [{"days": "Mon-Fri", "time": "2:00pm"}, {"days": "Sat-Sun", "time": "Closed"}], "id": "0600200012", "name": "USPS COLLECTION BOX - BLUE BOX", "address": {"city": "BLOOMFIELD", "state": "CT", "street": "580 COTTAGE GROVE RD", "postcode": "06002"}}},
{"geometry": {"type": "Point", "coordinates": [-72.69513884, 41.8165514253]}, "type": "Feature", "properties": {"collection_times": [{"days": "Mon-Fri", "time": "3:00pm"}, {"days": "Sat-Sun", "time": "Closed"}], "id": "0600200014", "name": "USPS COLLECTION BOX - BLUE BOX", "address": {"city": "BLOOMFIELD", "state": "CT", "street": "900 COTTAGE GROVE RD", "postcode": "06002"}}},
{"geometry": {"type": "Point", "coordinates": [-72.7279589728, 41.831122664]}, "type": "Feature", "properties": {"collection_times": [{"days": "Mon-Fri", "time": "5:00pm"}, {"days": "Sat", "time": "1:00pm"}, {"days": "Sun", "time": "Closed"}], "id": "0600200021", "name": "USPS COLLECTION BOX - EXPRESS", "address": {"city": "BLOOMFIELD", "state": "CT", "street": "40 JEROME AVE", "postcode": "06002"}}},
{"geometry": {"type": "Point", "coordinates": [-72.7258219497, 41.8165125401]}, "type": "Feature", "properties": {"collection_times": [{"days": "Mon-Fri", "time": "5:00pm"}, {"days": "Sat", "time": "10:00am"}, {"days": "Sun", "time": "Closed"}], "id": "0600200025", "name": "USPS COLLECTION BOX - BLUE BOX", "address": {"city": "BLOOMFIELD", "state": "CT", "street": "2 NORTHWESTERN DR", "postcode": "06002"}}},
{"geometry": {"type": "Point", "coordinates": [-72.7357975593, 41.8276139282]}, "type": "Feature", "properties": {"collection_times": [{"days": "Mon-Fri", "time": "3:30pm"}, {"days": "Sat-Sun", "time": "Closed"}], "id": "0600200028", "name": "USPS COLLECTION BOX - BLUE BOX", "address": {"city": "BLOOMFIELD", "state": "CT", "street": "66 GRANBY ST", "postcode": "06002"}}},
{"geometry": {"type": "Point", "coordinates": [-72.7351779721, 41.8290093186]}, "type": "Feature", "properties": {"collection_times": [{"days": "Mon-Fri", "time": "5:00pm"}, {"days": "Sat", "time": "1:00pm"}, {"days": "Sun", "time": "Closed"}], "id": "0600200031", "name": "USPS COLLECTION BOX - BLUE BOX", "address": {"city": "BLOOMFIELD", "state": "CT", "street": "40 JEROME AVE", "postcode": "06002"}}},
{"geometry": {"type": "Point", "coordinates": [-72.7352955194, 41.8705080467]}, "type": "Feature", "properties": {"collection_times": [{"days": "Mon-Fri", "time": "4:00pm"}, {"days": "Sat-Sun", "time": "Closed"}], "id": "0600200032", "name": "USPS COLLECTION BOX - BLUE BOX", "address": {"city": "BLOOMFIELD", "state": "CT", "street": "204 W NEWBERRY RD", "postcode": "06002"}}},
{"geometry": {"type": "Point", "coordinates": [-72.6955993954, 41.807154322]}, "type": "Feature", "properties": {"collection_times": [{"days": "Mon-Fri", "time": "3:45pm"}, {"days": "Sat-Sun", "time": "Closed"}], "id": "0600200035", "name": "USPS COLLECTION BOX - BLUE BOX", "address": {"city": "BLOOMFIELD", "state": "CT", "street": "1346 BLUE HILLS AVE", "postcode": "06002"}}},
{"geometry": {"type": "Point", "coordinates": [-72.7405024704, 41.8300751646]}, "type": "Feature", "properties": {"collection_times": [{"days": "Mon-Fri", "time": "5:00pm"}, {"days": "Sat-Sun", "time": "Closed"}], "id": "0600200036", "name": "USPS COLLECTION BOX - BLUE BOX", "address": {"city": "BLOOMFIELD", "state": "CT", "street": "1 REGENCY DR", "postcode": "06002"}}},
{"geometry": {"type": "Point", "coordinates": [-72.7364840978, 41.8311531078]}, "type": "Feature", "properties": {"collection_times": [{"days": "Mon-Sat", "time": "11:00am"}, {"days": "Sun", "time": "Closed"}], "id": "0600200043", "name": "USPS COLLECTION BOX - BLUE BOX", "address": {"city": "BLOOMFIELD", "state": "CT", "street": "2 WINTONBURY MALL", "postcode": "06002"}}},
{"geometry": {"type": "Point", "coordinates": [-72.733573035, 41.8291873066]}, "type": "Feature", "properties": {"collection_times": [{"days": "Mon-Sat", "time": "11:00am"}, {"days": "Sun", "time": "Closed"}], "id": "0600200044", "name": "USPS COLLECTION BOX - BLUE BOX", "address": {"city": "BLOOMFIELD", "state": "CT", "street": "800 PARK PARK", "postcode": "06002"}}},
{"geometry": {"type": "Point", "coordinates": [-72.6994934036, 41.8373119402]}, "type": "Feature", "properties": {"collection_times": [{"days": "Mon-Fri", "time": "1:00pm"}, {"days": "Sat", "time": "10:00am"}, {"days": "Sun", "time": "Closed"}], "id": "0600200052", "name": "USPS COLLECTION BOX - BLUE BOX", "address": {"city": "BLOOMFIELD", "state": "CT", "street": "2 WEDGEWOOD DR", "postcode": "06002"}}},
{"geometry": {"type": "Point", "coordinates": [-72.7351779721, 41.8290093186]}, "type": "Feature", "properties": {"collection_times": [{"days": "Mon-Fri", "time": "5:00pm"}, {"days": "Sat", "time": "1:00pm"}, {"days": "Sun", "time": "Closed"}], "id": "0600200054", "name": "USPS COLLECTION BOX - PO LOBBY", "address": {"city": "BLOOMFIELD", "state": "CT", "street": "40 JEROME AVE", "postcode": "06002"}}},
{"geometry": {"type": "Point", "coordinates": [-72.7042920188, 41.8539950158]}, "type": "Feature", "properties": {"collection_times": [{"days": "Mon-Fri", "time": "4:00pm"}, {"days": "Sat-Sun", "time": "Closed"}], "id": "0600200055", "name": "USPS COLLECTION BOX - BLUE BOX", "address": {"city": "BLOOMFIELD", "state": "CT", "street": "1287 BLUE HILLS AVE", "postcode": "06002"}}},
{"geometry": {"type": "Point", "coordinates": [-72.9350051771, 41.676104951]}, "type": "Feature", "properties": {"collection_times": [{"days": "Mon-Sat", "time": "2:00pm"}, {"days": "Sun", "time": "Closed"}], "id": "0601000002", "name": "USPS COLLECTION BOX - BLUE BOX", "address": {"city": "BRISTOL", "state": "CT", "street": "35 BREWSTER RD", "postcode": "06010"}}},
{"geometry": {"type": "Point", "coordinates": [-72.942866996, 41.671242283]}, "type": "Feature", "properties": {"collection_times": [{"days": "Mon-Sat", "time": "11:00am"}, {"days": "Sun", "time": "Closed"}], "id": "0601000003", "name": "USPS COLLECTION BOX - BLUE BOX", "address": {"city": "BRISTOL", "state": "CT", "street": "150 MAIN ST", "postcode": "06010"}}},
{"geometry": {"type": "Point", "coordinates": [-72.946318403, 41.6747727628]}, "type": "Feature", "properties": {"collection_times": [{"days": "Mon-Sat", "time": "5:30pm"}, {"days": "Sun", "time": "Closed"}], "id": "0601000006", "name": "USPS COLLECTION BOX - BLUE BOX", "address": {"city": "BRISTOL", "state": "CT", "street": "151 N MAIN ST", "postcode": "06010"}}},
{"geometry": {"type": "Point", "coordinates": [-72.9310966695, 41.6814242355]}, "type": "Feature", "properties": {"collection_times": [{"days": "Mon-Sat", "time": "2:15pm"}, {"days": "Sun", "time": "Closed"}], "id": "0601000013", "name": "USPS COLLECTION BOX - BLUE BOX", "address": {"city": "BRISTOL", "state": "CT", "street": "656 STAFFORD AVE", "postcode": "06010"}}},
{"geometry": {"type": "Point", "coordinates": [-72.9016438861, 41.6981313828]}, "type": "Feature", "properties": {"collection_times": [{"days": "Mon-Sat", "time": "2:15pm"}, {"days": "Sun", "time": "Closed"}], "id": "0601000015", "name": "USPS COLLECTION BOX - BLUE BOX", "address": {"city": "BRISTOL", "state": "CT", "street": "1235 FARMINGTON AVE", "postcode": "06010"}}},
{"geometry": {"type": "Point", "coordinates": [-72.9310966695, 41.6814242355]}, "type": "Feature", "properties": {"collection_times": [{"days": "Mon-Sat", "time": "2:15pm"}, {"days": "Sun", "time": "Closed"}], "id": "0601000016", "name": "USPS COLLECTION BOX - BLUE BOX", "address": {"city": "BRISTOL", "state": "CT", "street": "923 FARMINGTON AVE", "postcode": "06010"}}},
{"geometry": {"type": "Point", "coordinates": [-72.9207724042, 41.695091266]}, "type": "Feature", "properties": {"collection_times": [{"days": "Mon-Sat", "time": "12:00pm"}, {"days": "Sun", "time": "Closed"}], "id": "0601000017", "name": "USPS COLLECTION BOX - BLUE BOX", "address": {"city": "BRISTOL", "state": "CT", "street": "58 VANCE DR", "postcode": "06010"}}},
{"geometry": {"type": "Point", "coordinates": [-72.9310966695, 41.6814242355]}, "type": "Feature", "properties": {"collection_times": [{"days": "Mon-Sat", "time": "12:15pm"}, {"days": "Sun", "time": "Closed"}], "id": "0601000019", "name": "USPS COLLECTION BOX - BLUE BOX", "address": {"city": "BRISTOL", "state": "CT", "street": "568 JEROME AVE", "postcode": "06010"}}},
{"geometry": {"type": "Point", "coordinates": [-72.9441110016, 41.6923278738]}, "type": "Feature", "properties": {"collection_times": [{"days": "Mon-Sat", "time": "12:15pm"}, {"days": "Sun", "time": "Closed"}], "id": "0601000020", "name": "USPS COLLECTION BOX - BLUE BOX", "address": {"city": "BRISTOL", "state": "CT", "street": "370 BURLINGTON AVE", "postcode": "06010"}}},
{"geometry": {"type": "Point", "coordinates": [-72.9310966695, 41.6814242355]}, "type": "Feature", "properties": {"collection_times": [{"days": "Mon-Sat", "time": "2:00pm"}, {"days": "Sun", "time": "Closed"}], "id": "0601000024", "name": "USPS COLLECTION BOX - BLUE BOX", "address": {"city": "BRISTOL", "state": "CT", "street": "236 MAIN ST", "postcode": "06010"}}},
{"geometry": {"type": "Point", "coordinates": [-72.9498684629, 41.6732987959]}, "type": "Feature", "properties": {"collection_times": [{"days": "Mon-Sat", "time": "9:00am"}, {"days": "Sun", "time": "Closed"}], "id": "0601000027", "name": "USPS COLLECTION BOX - BLUE BOX", "address": {"city": "BRISTOL", "state": "CT", "street": "218 WEST", "postcode": "06010"}}},
{"geometry": {"type": "Point", "coordinates": [-72.9567414545, 41.6721879975]}, "type": "Feature", "properties": {"collection_times": [{"days": "Mon-Sat", "time": "1:30pm"}, {"days": "Sun", "time": "Closed"}], "id": "0601000028", "name": "USPS COLLECTION BOX - BLUE BOX", "address": {"city": "BRISTOL", "state": "CT", "street": "52 TULIP ST", "postcode": "06010"}}},
{"geometry": {"type": "Point", "coordinates": [-72.7383038826, 41.5735001734]}, "type": "Feature", "properties": {"collection_times": [{"days": "Mon-Sat", "time": "2:15pm"}, {"days": "Sun", "time": "Closed"}], "id": "0601000030", "name": "USPS COLLECTION BOX - BLUE BOX", "address": {"city": "BRISTOL", "state": "CT", "street": "46 BIRCHWOOD", "postcode": "06010"}}},
{"geometry": {"type": "Point", "coordinates": [-72.912762589, 41.7110647609]}, "type": "Feature", "properties": {"collection_times": [{"days": "Mon-Sat", "time": "2:15pm"}, {"days": "Sun", "time": "Closed"}], "id": "0601000031", "name": "USPS COLLECTION BOX - BLUE BOX", "address": {"city": "BRISTOL", "state": "CT", "street": "1277 STAFFORD AVE", "postcode": "06010"}}},
{"geometry": {"type": "Point", "coordinates": [-72.9310966695, 41.6814242355]}, "type": "Feature", "properties": {"collection_times": [{"days": "Mon-Sat", "time": "2:15pm"}, {"days": "Sun", "time": "Closed"}], "id": "0601000032", "name": "USPS COLLECTION BOX - BLUE BOX", "address": {"city": "BRISTOL", "state": "CT", "street": "926 STAFFORD AVE", "postcode": "06010"}}},
{"geometry": {"type": "Point", "coordinates": [-72.7383038826, 41.5735001734]}, "type": "Feature", "properties": {"collection_times": [{"days": "Mon-Sat", "time": "2:15pm"}, {"days": "Sun", "time": "Closed"}], "id": "0601000033", "name": "USPS COLLECTION BOX - BLUE BOX", "address": {"city": "BRISTOL", "state": "CT", "street": "346 SHAGBARK DR", "postcode": "06010"}}},
{"geometry": {"type": "Point", "coordinates": [-72.9310966695, 41.6814242355]}, "type": "Feature", "properties": {"collection_times": [{"days": "Mon-Sat", "time": "11:00am"}, {"days": "Sun", "time": "Closed"}], "id": "0601000035", "name": "USPS COLLECTION BOX - BLUE BOX", "address": {"city": "BRISTOL", "state": "CT", "street": "66 EMMETT ST", "postcode": "06010"}}},
{"geometry": {"type": "Point", "coordinates": [-72.9069720049, 41.6880987955]}, "type": "Feature", "properties": {"collection_times": [{"days": "Mon-Sat", "time": "2:15pm"}, {"days": "Sun", "time": "Closed"}], "id": "0601000036", "name": "USPS COLLECTION BOX - BLUE BOX", "address": {"city": "BRISTOL", "state": "CT", "street": "245 MORNINGSIDE DR E", "postcode": "06010"}}},
{"geometry": {"type": "Point", "coordinates": [-72.9393022734, 41.6809868462]}, "type": "Feature", "properties": {"collection_times": [{"days": "Mon-Sat", "time": "12:45pm"}, {"days": "Sun", "time": "Closed"}], "id": "0601000040", "name": "USPS COLLECTION BOX - BLUE BOX", "address": {"city": "BRISTOL", "state": "CT", "street": "34 STEWART ST", "postcode": "06010"}}},
{"geometry": {"type": "Point", "coordinates": [-72.9310966695, 41.6814242355]}, "type": "Feature", "properties": {"collection_times": [{"days": "Mon-Sat", "time": "2:00pm"}, {"days": "Sun", "time": "Closed"}], "id": "0601000041", "name": "USPS COLLECTION BOX - BLUE BOX", "address": {"city": "BRISTOL", "state": "CT", "street": "206 BREWSTER RD", "postcode": "06010"}}},
{"geometry": {"type": "Point", "coordinates": [-72.9375671458, 41.6755836705]}, "type": "Feature", "properties": {"collection_times": [{"days": "Mon-Sat", "time": "1:45pm"}, {"days": "Sun", "time": "Closed"}], "id": "0601000042", "name": "USPS COLLECTION BOX - BLUE BOX", "address": {"city": "BRISTOL", "state": "CT", "street": "133 QUEEN ST", "postcode": "06010"}}},
{"geometry": {"type": "Point", "coordinates": [-72.9310966695, 41.6814242355]}, "type": "Feature", "properties": {"collection_times": [{"days": "Mon-Sat", "time": "12:30pm"}, {"days": "Sun", "time": "Closed"}], "id": "0601000046", "name": "USPS COLLECTION BOX - BLUE BOX", "address": {"city": "BRISTOL", "state": "CT", "street": "99 FARMINGTON AVE", "postcode": "06010"}}},
{"geometry": {"type": "Point", "coordinates": [-72.9411563348, 41.6794138883]}, "type": "Feature", "properties": {"collection_times": [{"days": "Mon-Sat", "time": "9:30am"}, {"days": "Sun", "time": "Closed"}], "id": "0601000047", "name": "USPS COLLECTION BOX - BLUE BOX", "address": {"city": "BRISTOL", "state": "CT", "street": "105 MAPLE", "postcode": "06010"}}},
{"geometry": {"type": "Point", "coordinates": [-72.958887342, 41.6674396002]}, "type": "Feature", "properties": {"collection_times": [{"days": "Mon-Sat", "time": "1:30pm"}, {"days": "Sun", "time": "Closed"}], "id": "0601000049", "name": "USPS COLLECTION BOX - BLUE BOX", "address": {"city": "BRISTOL", "state": "CT", "street": "2 CROWN ST", "postcode": "06010"}}},
{"geometry": {"type": "Point", "coordinates": [-72.954470511, 41.671118572]}, "type": "Feature", "properties": {"collection_times": [{"days": "Mon-Sat", "time": "1:30pm"}, {"days": "Sun", "time": "Closed"}], "id": "0601000050", "name": "USPS COLLECTION BOX - BLUE BOX", "address": {"city": "BRISTOL", "state": "CT", "street": "133 DIVINITY ST", "postcode": "06010"}}},
{"geometry": {"type": "Point", "coordinates": [-72.9018852813, 41.7122074992]}, "type": "Feature", "properties": {"collection_times": [{"days": "Mon-Sat", "time": "11:15am"}, {"days": "Sun", "time": "Closed"}], "id": "0601000054", "name": "USPS COLLECTION BOX - BLUE BOX", "address": {"city": "BRISTOL", "state": "CT", "street": "55 MAIN ST", "postcode": "06010"}}},
{"geometry": {"type": "Point", "coordinates": [-72.9249372927, 41.7127936577]}, "type": "Feature", "properties": {"collection_times": [{"days": "Mon-Sat", "time": "10:00am"}, {"days": "Sun", "time": "Closed"}], "id": "0601000060", "name": "USPS COLLECTION BOX - BLUE BOX", "address": {"city": "BRISTOL", "state": "CT", "street": "28 SHAWN DR", "postcode": "06010"}}},
{"geometry": {"type": "Point", "coordinates": [-72.9202341578, 41.6753086432]}, "type": "Feature", "properties": {"collection_times": [{"days": "Mon-Sat", "time": "11:45am"}, {"days": "Sun", "time": "Closed"}], "id": "0601000061", "name": "USPS COLLECTION BOX - BLUE BOX", "address": {"city": "BRISTOL", "state": "CT", "street": "238 KING ST", "postcode": "06010"}}},
{"geometry": {"type": "Point", "coordinates": [-72.9226142713, 41.6812553779]}, "type": "Feature", "properties": {"collection_times": [{"days": "Mon-Sat", "time": "11:45am"}, {"days": "Sun", "time": "Closed"}], "id": "0601000062", "name": "USPS COLLECTION BOX - BLUE BOX", "address": {"city": "BRISTOL", "state": "CT", "street": "470 KING ST", "postcode": "06010"}}},
{"geometry": {"type": "Point", "coordinates": [-72.9143311926, 41.677679293]}, "type": "Feature", "properties": {"collection_times": [{"days": "Mon-Sat", "time": "11:15am"}, {"days": "Sun", "time": "Closed"}], "id": "0601000063", "name": "USPS COLLECTION BOX - BLUE BOX", "address": {"city": "BRISTOL", "state": "CT", "street": "253 W WASHINGTON ST", "postcode": "06010"}}},
{"geometry": {"type": "Point", "coordinates": [-72.9310966695, 41.6814242355]}, "type": "Feature", "properties": {"collection_times": [{"days": "Mon-Fri", "time": "4:15pm"}, {"days": "Sat", "time": "11:15am"}, {"days": "Sun", "time": "Closed"}], "id": "0601000065", "name": "USPS COLLECTION BOX - BLUE BOX", "address": {"city": "BRISTOL", "state": "CT", "street": "210 REDSTONE HILL RD", "postcode": "06010"}}},
{"geometry": {"type": "Point", "coordinates": [-72.9475155575, 41.6813571124]}, "type": "Feature", "properties": {"collection_times": [{"days": "Mon-Sat", "time": "11:00am"}, {"days": "Sun", "time": "Closed"}], "id": "0601000069", "name": "USPS COLLECTION BOX - BLUE BOX", "address": {"city": "BRISTOL", "state": "CT", "street": "53 NORTH ST", "postcode": "06010"}}},
{"geometry": {"type": "Point", "coordinates": [-72.9359119767, 41.6755937704]}, "type": "Feature", "properties": {"collection_times": [{"days": "Mon-Sat", "time": "2:00pm"}, {"days": "Sun", "time": "Closed"}], "id": "0601000071", "name": "USPS COLLECTION BOX - BLUE BOX", "address": {"city": "BRISTOL", "state": "CT", "street": "25 NEWELL RD", "postcode": "06010"}}},
{"geometry": {"type": "Point", "coordinates": [-72.9212729825, 41.6667516141]}, "type": "Feature", "properties": {"collection_times": [{"days": "Mon-Sat", "time": "11:15am"}, {"days": "Sun", "time": "Closed"}], "id": "0601000072", "name": "USPS COLLECTION BOX - BLUE BOX", "address": {"city": "BRISTOL", "state": "CT", "street": "22 PINE ST", "postcode": "06010"}}},
{"geometry": {"type": "Point", "coordinates": [-72.9206458276, 41.6924236935]}, "type": "Feature", "properties": {"collection_times": [{"days": "Mon-Sat", "time": "12:00pm"}, {"days": "Sun", "time": "Closed"}], "id": "0601000073", "name": "USPS COLLECTION BOX - BLUE BOX", "address": {"city": "BRISTOL", "state": "CT", "street": "152 DOROTHY RD", "postcode": "06010"}}},
{"geometry": {"type": "Point", "coordinates": [-72.8970197711, 41.6726245093]}, "type": "Feature", "properties": {"collection_times": [{"days": "Mon-Fri", "time": "5:00pm"}, {"days": "Sat", "time": "12:30pm"}, {"days": "Sun", "time": "Closed"}], "id": "0601000075", "name": "USPS COLLECTION BOX - BLUE BOX", "address": {"city": "BRISTOL", "state": "CT", "street": "22 E MAIN ST", "postcode": "06010"}}},
{"geometry": {"type": "Point", "coordinates": [-72.9310966695, 41.6814242355]}, "type": "Feature", "properties": {"collection_times": [{"days": "Mon-Sat", "time": "11:15am"}, {"days": "Sun", "time": "Closed"}], "id": "0601000076", "name": "USPS COLLECTION BOX - BLUE BOX", "address": {"city": "BRISTOL", "state": "CT", "street": "293 LAKE LK", "postcode": "06010"}}},
{"geometry": {"type": "Point", "coordinates": [-72.9310966695, 41.6814242355]}, "type": "Feature", "properties": {"collection_times": [{"days": "Mon-Sat", "time": "1:45pm"}, {"days": "Sun", "time": "Closed"}], "id": "0601000077", "name": "USPS COLLECTION BOX - BLUE BOX", "address": {"city": "BRISTOL", "state": "CT", "street": "109 SOUTH ST EXT", "postcode": "06010"}}},
{"geometry": {"type": "Point", "coordinates": [-72.946318403, 41.6747727628]}, "type": "Feature", "properties": {"collection_times": [{"days": "Mon-Fri", "time": "5:30pm"}, {"days": "Sat", "time": "3:00pm"}, {"days": "Sun", "time": "Closed"}], "id": "0601000080", "name": "USPS COLLECTION BOX - PO LOBBY", "address": {"city": "BRISTOL", "state": "CT", "street": "151 N MAIN ST", "postcode": "06010"}}},
{"geometry": {"type": "Point", "coordinates": [-72.8970197711, 41.6726245093]}, "type": "Feature", "properties": {"collection_times": [{"days": "Mon-Fri", "time": "4:00pm"}, {"days": "Sat", "time": "12:00pm"}, {"days": "Sun", "time": "Closed"}], "id": "0601000081", "name": "USPS COLLECTION BOX - PO LOBBY", "address": {"city": "BRISTOL", "state": "CT", "street": "22 E MAIN ST", "postcode": "06010"}}},
{"geometry": {"type": "Point", "coordinates": [-72.9461890363, 41.6744919159]}, "type": "Feature", "properties": {"collection_times": [{"days": "Mon-Sat", "time": "11:45am"}, {"days": "Sun", "time": "Closed"}], "id": "0601000082", "name": "USPS COLLECTION BOX - BLUE BOX", "address": {"city": "BRISTOL", "state": "CT", "street": "797 PINE ST", "postcode": "06010"}}},
{"geometry": {"type": "Point", "coordinates": [-72.9310966695, 41.6814242355]}, "type": "Feature", "properties": {"collection_times": [{"days": "Mon-Sat", "time": "12:00pm"}, {"days": "Sun", "time": "Closed"}], "id": "0601000083", "name": "USPS COLLECTION BOX - BLUE BOX", "address": {"city": "BRISTOL", "state": "CT", "street": "529 FARMINGTON AVE", "postcode": "06010"}}},
{"geometry": {"type": "Point", "coordinates": [-72.9462338279, 41.6745215476]}, "type": "Feature", "properties": {"collection_times": [{"days": "Mon-Sat", "time": "5:30pm"}, {"days": "Sun", "time": "Closed"}], "id": "0601000090", "name": "USPS COLLECTION BOX - BLUE BOX", "address": {"city": "BRISTOL", "state": "CT", "street": "151 N MAIN ST", "postcode": "06010"}}},
{"geometry": {"type": "Point", "coordinates": [-72.9607954548, 41.7668767649]}, "type": "Feature", "properties": {"collection_times": [{"days": "Mon-Fri", "time": "4:30pm"}, {"days": "Sat", "time": "2:00pm"}, {"days": "Sun", "time": "Closed"}], "id": "0601300001", "name": "USPS COLLECTION BOX - BLUE BOX", "address": {"city": "BURLINGTON", "state": "CT", "street": "715 GEORGE WASHINGTON TPKE", "postcode": "06013"}}},
{"geometry": {"type": "Point", "coordinates": [-72.9607954548, 41.7668767649]}, "type": "Feature", "properties": {"collection_times": [{"days": "Mon-Fri", "time": "4:30pm"}, {"days": "Sat", "time": "3:30pm"}, {"days": "Sun", "time": "Closed"}], "id": "0601300002", "name": "USPS COLLECTION BOX - PO LOBBY", "address": {"city": "BURLINGTON", "state": "CT", "street": "715 GEORGE WASHINGTON TPKE", "postcode": "06013"}}},
{"geometry": {"type": "Point", "coordinates": [-72.545737701, 41.9162664141]}, "type": "Feature", "properties": {"collection_times": [{"days": "Mon-Fri", "time": "5:00pm"}, {"days": "Sat", "time": "12:00pm"}, {"days": "Sun", "time": "Closed"}], "id": "0601600001", "name": "USPS COLLECTION BOX - BLUE BOX", "address": {"city": "BROADBROOK", "state": "CT", "street": "113 MAIN ST", "postcode": "06016"}}},
{"geometry": {"type": "Point", "coordinates": [-72.545737701, 41.9162664141]}, "type": "Feature", "properties": {"collection_times": [{"days": "Mon-Fri", "time": "5:00pm"}, {"days": "Sat", "time": "12:00pm"}, {"days": "Sun", "time": "Closed"}], "id": "0601600004", "name": "USPS COLLECTION BOX - PO LOBBY", "address": {"city": "BROADBROOK", "state": "CT", "street": "113 MAIN ST", "postcode": "06016"}}},
{"geometry": {"type": "Point", "coordinates": [-73.3438888467, 42.0229821486]}, "type": "Feature", "properties": {"collection_times": [{"days": "Mon-Fri", "time": "5:00pm"}, {"days": "Sat", "time": "1:00pm"}, {"days": "Sun", "time": "Closed"}], "id": "0601800001", "name": "USPS COLLECTION BOX - BLUE BOX", "address": {"city": "CANAAN", "state": "CT", "street": "9 CHURCH ST", "postcode": "06018"}}},
{"geometry": {"type": "Point", "coordinates": [-73.3438888467, 42.0229821486]}, "type": "Feature", "properties": {"collection_times": [{"days": "Mon-Fri", "time": "5:00pm"}, {"days": "Sat", "time": "1:00pm"}, {"days": "Sun", "time": "Closed"}], "id": "0601800005", "name": "USPS COLLECTION BOX - PO LOBBY", "address": {"city": "CANAAN", "state": "CT", "street": "9 CHURCH ST", "postcode": "06018"}}},
{"geometry": {"type": "Point", "coordinates": [-72.8981772557, 41.8265590027]}, "type": "Feature", "properties": {"collection_times": [{"days": "Mon-Fri", "time": "5:00pm"}, {"days": "Sat", "time": "2:45pm"}, {"days": "Sun", "time": "Closed"}], "id": "0601900001", "name": "USPS COLLECTION BOX - BLUE BOX", "address": {"city": "COLLINSVILLE", "state": "CT", "street": "220 ALBANY TPKE", "postcode": "06019"}}},
{"geometry": {"type": "Point", "coordinates": [-72.8976420075, 41.8244454629]}, "type": "Feature", "properties": {"collection_times": [{"days": "Mon-Sat", "time": "11:00am"}, {"days": "Sun", "time": "Closed"}], "id": "0601900002", "name": "USPS COLLECTION BOX - BLUE BOX", "address": {"city": "COLLINSVILLE", "state": "CT", "street": "121 DOWD AVE", "postcode": "06019"}}},
{"geometry": {"type": "Point", "coordinates": [-72.9190334893, 41.8147674753]}, "type": "Feature", "properties": {"collection_times": [{"days": "Mon-Sat", "time": "11:00am"}, {"days": "Sun", "time": "Closed"}], "id": "0601900003", "name": "USPS COLLECTION BOX - BLUE BOX", "address": {"city": "COLLINSVILLE", "state": "CT", "street": "14 MAPLE AVE", "postcode": "06019"}}},
{"geometry": {"type": "Point", "coordinates": [-72.9081017614, 41.8241045718]}, "type": "Feature", "properties": {"collection_times": [{"days": "Mon-Sat", "time": "11:00am"}, {"days": "Sun", "time": "Closed"}], "id": "0601900004", "name": "USPS COLLECTION BOX - BLUE BOX", "address": {"city": "COLLINSVILLE", "state": "CT", "street": "21 DOWD AVE", "postcode": "06019"}}},
{"geometry": {"type": "Point", "coordinates": [-72.8759855777, 41.8228070647]}, "type": "Feature", "properties": {"collection_times": [{"days": "Mon-Sat", "time": "11:00am"}, {"days": "Sun", "time": "Closed"}], "id": "0601900005", "name": "USPS COLLECTION BOX - BLUE BOX", "address": {"city": "COLLINSVILLE", "state": "CT", "street": "50 ALBANY TPKE", "postcode": "06019"}}},
{"geometry": {"type": "Point", "coordinates": [-72.8981772557, 41.8265590027]}, "type": "Feature", "properties": {"collection_times": [{"days": "Mon-Fri", "time": "5:00pm"}, {"days": "Sat", "time": "2:45pm"}, {"days": "Sun", "time": "Closed"}], "id": "0601900009", "name": "USPS COLLECTION BOX - PO LOBBY", "address": {"city": "COLLINSVILLE", "state": "CT", "street": "220 ALBANY TPKE", "postcode": "06019"}}},
{"geometry": {"type": "Point", "coordinates": [-72.9203550315, 41.8499051883]}, "type": "Feature", "properties": {"collection_times": [{"days": "Mon-Fri", "time": "5:00pm"}, {"days": "Sat", "time": "12:00pm"}, {"days": "Sun", "time": "Closed"}], "id": "0602000001", "name": "USPS COLLECTION BOX - BLUE BOX", "address": {"city": "CANTON CENTER", "state": "CT", "street": "178 CHERRY BROOK RD", "postcode": "06020"}}},
{"geometry": {"type": "Point", "coordinates": [-73.1052097298, 42.0313709788]}, "type": "Feature", "properties": {"collection_times": [{"days": "Mon-Fri", "time": "5:00pm"}, {"days": "Sat", "time": "12:30pm"}, {"days": "Sun", "time": "Closed"}], "id": "0602100001", "name": "USPS COLLECTION BOX - BLUE BOX", "address": {"city": "COLEBROOK", "state": "CT", "street": "560 COLEBROOK RD", "postcode": "06021"}}},
{"geometry": {"type": "Point", "coordinates": [-73.1052097298, 42.0313709788]}, "type": "Feature", "properties": {"collection_times": [{"days": "Mon-Fri", "time": "4:30pm"}, {"days": "Sat", "time": "12:45pm"}, {"days": "Sun", "time": "Closed"}], "id": "0602100003", "name": "USPS COLLECTION BOX - PO LOBBY", "address": {"city": "COLEBROOK", "state": "CT", "street": "560 COLEBROOK RD", "postcode": "06021"}}},
{"geometry": {"type": "Point", "coordinates": [-72.9229561572, 41.811423231]}, "type": "Feature", "properties": {"collection_times": [{"days": "Mon-Fri", "time": "5:00pm"}, {"days": "Sat", "time": "11:00am"}, {"days": "Sun", "time": "Closed"}], "id": "0602200009", "name": "USPS COLLECTION BOX - BLUE BOX", "address": {"city": "COLLINSVILLE", "state": "CT", "street": "34 BRIDGE ST", "postcode": "06022"}}},
{"geometry": {"type": "Point", "coordinates": [-72.9229561572, 41.811423231]}, "type": "Feature", "properties": {"collection_times": [{"days": "Mon-Sat", "time": "12:00pm"}, {"days": "Sun", "time": "Closed"}], "id": "0602200011", "name": "USPS COLLECTION BOX - PO LOBBY", "address": {"city": "COLLINSVILLE", "state": "CT", "street": "34 BRIDGE ST", "postcode": "06022"}}},
{"geometry": {"type": "Point", "coordinates": [-72.7177730969, 41.6150581772]}, "type": "Feature", "properties": {"collection_times": [{"days": "Mon-Fri", "time": "4:30pm"}, {"days": "Sat", "time": "12:00pm"}, {"days": "Sun", "time": "Closed"}], "id": "0602300001", "name": "USPS COLLECTION BOX - BLUE BOX", "address": {"city": "EAST BERLIN", "state": "CT", "street": "115 MAIN ST", "postcode": "06023"}}},
{"geometry": {"type": "Point", "coordinates": [-72.7176907486, 41.6150368802]}, "type": "Feature", "properties": {"collection_times": [{"days": "Mon-Fri", "time": "4:30pm"}, {"days": "Sat", "time": "12:00pm"}, {"days": "Sun", "time": "Closed"}], "id": "0602300004", "name": "USPS COLLECTION BOX - PO LOBBY", "address": {"city": "EAST BERLIN", "state": "CT", "street": "113 MAIN ST", "postcode": "06023"}}},
{"geometry": {"type": "Point", "coordinates": [-73.2816364974, 42.0127563172]}, "type": "Feature", "properties": {"collection_times": [{"days": "Mon-Fri", "time": "4:45pm"}, {"days": "Sat", "time": "11:45am"}, {"days": "Sun", "time": "Closed"}], "id": "0602400001", "name": "USPS COLLECTION BOX - BLUE BOX", "address": {"city": "EAST CANAAN", "state": "CT", "street": "270 E CANAAN RD", "postcode": "06024"}}},
{"geometry": {"type": "Point", "coordinates": [-73.2816364974, 42.0127563172]}, "type": "Feature", "properties": {"collection_times": [{"days": "Mon-Fri", "time": "5:00pm"}, {"days": "Sat", "time": "12:00pm"}, {"days": "Sun", "time": "Closed"}], "id": "0602400003", "name": "USPS COLLECTION BOX - PO LOBBY", "address": {"city": "EAST CANAAN", "state": "CT", "street": "270 E CANAAN RD", "postcode": "06024"}}},
{"geometry": {"type": "Point", "coordinates": [-72.5354643716, 41.69139815]}, "type": "Feature", "properties": {"collection_times": [{"days": "Mon-Fri", "time": "4:30pm"}, {"days": "Sat", "time": "12:00pm"}, {"days": "Sun", "time": "Closed"}], "id": "0602500001", "name": "USPS COLLECTION BOX - BLUE BOX", "address": {"city": "E GLASTONBURY", "state": "CT", "street": "538 MANCHESTER RD", "postcode": "06025"}}},
{"geometry": {"type": "Point", "coordinates": [-72.5354643716, 41.69139815]}, "type": "Feature", "properties": {"collection_times": [{"days": "Mon-Fri", "time": "4:30pm"}, {"days": "Sat", "time": "12:00pm"}, {"days": "Sun", "time": "Closed"}], "id": "0602500003", "name": "USPS COLLECTION BOX - PO LOBBY", "address": {"city": "E GLASTONBURY", "state": "CT", "street": "538 MANCHESTER RD", "postcode": "06025"}}},
{"geometry": {"type": "Point", "coordinates": [-72.7292729365, 41.9437415821]}, "type": "Feature", "properties": {"collection_times": [{"days": "Mon-Fri", "time": "4:45pm"}, {"days": "Sat", "time": "1:00pm"}, {"days": "Sun", "time": "Closed"}], "id": "0602600002", "name": "USPS COLLECTION BOX - BLUE BOX", "address": {"city": "EAST GRANBY", "state": "CT", "street": "1 CENTER ST", "postcode": "06026"}}},
{"geometry": {"type": "Point", "coordinates": [-72.7292729365, 41.9437415821]}, "type": "Feature", "properties": {"collection_times": [{"days": "Mon-Fri", "time": "4:45pm"}, {"days": "Sat", "time": "1:00pm"}, {"days": "Sun", "time": "Closed"}], "id": "0602600004", "name": "USPS COLLECTION BOX - PO LOBBY", "address": {"city": "EAST GRANBY", "state": "CT", "street": "1 CENTER ST", "postcode": "06026"}}},
{"geometry": {"type": "Point", "coordinates": [-72.9075173223, 41.997488714]}, "type": "Feature", "properties": {"collection_times": [{"days": "Mon-Fri", "time": "5:00pm"}, {"days": "Sat", "time": "12:00pm"}, {"days": "Sun", "time": "Closed"}], "id": "0602700001", "name": "USPS COLLECTION BOX - BLUE BOX", "address": {"city": "EAST HARTLAND", "state": "CT", "street": "23 SOUTH RD", "postcode": "06027"}}},
{"geometry": {"type": "Point", "coordinates": [-72.9075174257, 41.9974890351]}, "type": "Feature", "properties": {"collection_times": [{"days": "Mon-Fri", "time": "3:00pm"}, {"days": "Sat", "time": "12:00pm"}, {"days": "Sun", "time": "Closed"}], "id": "0602700003", "name": "USPS COLLECTION BOX - PO LOBBY", "address": {"city": "EAST HARTLAND", "state": "CT", "street": "23 SOUTH RD", "postcode": "06027"}}},
{"geometry": {"type": "Point", "coordinates": [-72.7383038826, 41.5735001734]}, "type": "Feature", "properties": {"collection_times": [{"days": "Mon-Fri", "time": "5:00pm"}, {"days": "Sat", "time": "12:00pm"}, {"days": "Sun", "time": "Closed"}], "id": "0602800001", "name": "USPS COLLECTION BOX - BLUE BOX", "address": {"city": "E WINDSOR HL", "state": "CT", "street": "1865 MAIN ST", "postcode": "06028"}}},
{"geometry": {"type": "Point", "coordinates": [-72.7383038826, 41.5735001734]}, "type": "Feature", "properties": {"collection_times": [{"days": "Mon-Fri", "time": "5:00pm"}, {"days": "Sat", "time": "12:00pm"}, {"days": "Sun", "time": "Closed"}], "id": "0602800004", "name": "USPS COLLECTION BOX - PO LOBBY", "address": {"city": "E WINDSOR HL", "state": "CT", "street": "1865 MAIN ST", "postcode": "06028"}}},
{"geometry": {"type": "Point", "coordinates": [-72.4691387816, 41.9042419599]}, "type": "Feature", "properties": {"collection_times": [{"days": "Mon-Fri", "time": "5:00pm"}, {"days": "Sat", "time": "11:30am"}, {"days": "Sun", "time": "Closed"}], "id": "0602900004", "name": "USPS COLLECTION BOX - BLUE BOX", "address": {"city": "ELLINGTON", "state": "CT", "street": "2 CHURCH ST", "postcode": "06029"}}},
{"geometry": {"type": "Point", "coordinates": [-72.4691387816, 41.9042419599]}, "type": "Feature", "properties": {"collection_times": [{"days": "Mon-Fri", "time": "4:45pm"}, {"days": "Sat", "time": "11:45am"}, {"days": "Sun", "time": "Closed"}], "id": "0602900008", "name": "USPS COLLECTION BOX - PO LOBBY", "address": {"city": "ELLINGTON", "state": "CT", "street": "2 CHURCH ST", "postcode": "06029"}}},
{"geometry": {"type": "Point", "coordinates": [-73.3617771404, 41.9548927139]}, "type": "Feature", "properties": {"collection_times": [{"days": "Mon-Fri", "time": "5:00pm"}, {"days": "Sat", "time": "12:00pm"}, {"days": "Sun", "time": "Closed"}], "id": "0603100001", "name": "USPS COLLECTION BOX - BLUE BOX", "address": {"city": "FALLS VILLAGE", "state": "CT", "street": "5 MINER ST", "postcode": "06031"}}},
{"geometry": {"type": "Point", "coordinates": [-73.3617771404, 41.9548927139]}, "type": "Feature", "properties": {"collection_times": [{"days": "Mon-Fri", "time": "5:00pm"}, {"days": "Sat", "time": "12:00pm"}, {"days": "Sun", "time": "Closed"}], "id": "0603100003", "name": "USPS COLLECTION BOX - PO LOBBY", "address": {"city": "FALLS VILLAGE", "state": "CT", "street": "5 MINER ST", "postcode": "06031"}}},
{"geometry": {"type": "Point", "coordinates": [-72.8364190001, 41.7319826735]}, "type": "Feature", "properties": {"collection_times": [{"days": "Mon-Fri", "time": "3:15pm"}, {"days": "Sat", "time": "3:30pm"}, {"days": "Sun", "time": "Closed"}], "id": "0603200005", "name": "USPS COLLECTION BOX - EXPRESS", "address": {"city": "FARMINGTON", "state": "CT", "street": "210 MAIN ST", "postcode": "06032"}}},
{"geometry": {"type": "Point", "coordinates": [-72.8364189996, 41.7319740297]}, "type": "Feature", "properties": {"collection_times": [{"days": "Mon-Fri", "time": "12:00pm"}, {"days": "Sat", "time": "1:00pm"}, {"days": "Sun", "time": "Closed"}], "id": "0603200010", "name": "USPS COLLECTION BOX - BLUE BOX", "address": {"city": "FARMINGTON", "state": "CT", "street": "291 FARMINGTON AVE", "postcode": "06032"}}},
{"geometry": {"type": "Point", "coordinates": [-72.7938444561, 41.7374766857]}, "type": "Feature", "properties": {"collection_times": [{"days": "Mon-Fri", "time": "12:45pm"}, {"days": "Sat", "time": "1:00pm"}, {"days": "Sun", "time": "Closed"}], "id": "0603200011", "name": "USPS COLLECTION BOX - BLUE BOX", "address": {"city": "FARMINGTON", "state": "CT", "street": "231 FARMINGTON AVE", "postcode": "06032"}}},
{"geometry": {"type": "Point", "coordinates": [-72.7955585636, 41.7353899461]}, "type": "Feature", "properties": {"collection_times": [{"days": "Mon-Fri", "time": "4:00pm"}, {"days": "Sat", "time": "1:00pm"}, {"days": "Sun", "time": "Closed"}], "id": "0603200013", "name": "USPS COLLECTION BOX - BLUE BOX", "address": {"city": "FARMINGTON", "state": "CT", "street": "270 FARMINGTON AVE", "postcode": "06032"}}},
{"geometry": {"type": "Point", "coordinates": [-72.7971243649, 41.733636591]}, "type": "Feature", "properties": {"collection_times": [{"days": "Mon-Fri", "time": "4:15pm"}, {"days": "Sat", "time": "1:00pm"}, {"days": "Sun", "time": "Closed"}], "id": "0603200014", "name": "USPS COLLECTION BOX - BLUE BOX", "address": {"city": "FARMINGTON", "state": "CT", "street": "310 FARMINGTON AVE", "postcode": "06032"}}},
{"geometry": {"type": "Point", "coordinates": [-72.8137820465, 41.706795462]}, "type": "Feature", "properties": {"collection_times": [{"days": "Mon-Fri", "time": "4:30pm"}, {"days": "Sat", "time": "1:30pm"}, {"days": "Sun", "time": "Closed"}], "id": "0603200015", "name": "USPS COLLECTION BOX - BLUE BOX", "address": {"city": "FARMINGTON", "state": "CT", "street": "10 WATERSIDE DR", "postcode": "06032"}}},
{"geometry": {"type": "Point", "coordinates": [-72.8111381332, 41.7115202001]}, "type": "Feature", "properties": {"collection_times": [{"days": "Mon-Fri", "time": "4:30pm"}, {"days": "Sat", "time": "1:30pm"}, {"days": "Sun", "time": "Closed"}], "id": "0603200016", "name": "USPS COLLECTION BOX - BLUE BOX", "address": {"city": "FARMINGTON", "state": "CT", "street": "10 STANFORD DR", "postcode": "06032"}}},
{"geometry": {"type": "Point", "coordinates": [-72.8430321203, 41.7044496133]}, "type": "Feature", "properties": {"collection_times": [{"days": "Mon-Fri", "time": "3:15pm"}, {"days": "Sat", "time": "2:00pm"}, {"days": "Sun", "time": "Closed"}], "id": "0603200019", "name": "USPS COLLECTION BOX - BLUE BOX", "address": {"city": "FARMINGTON", "state": "CT", "street": "321 MAIN ST", "postcode": "06032"}}},
{"geometry": {"type": "Point", "coordinates": [-72.8031436965, 41.7128403823]}, "type": "Feature", "properties": {"collection_times": [{"days": "Mon-Fri", "time": "11:15am"}, {"days": "Sat", "time": "12:00pm"}, {"days": "Sun", "time": "Closed"}], "id": "0603200021", "name": "USPS COLLECTION BOX - BLUE BOX", "address": {"city": "FARMINGTON", "state": "CT", "street": "15 FARM SPRINGS RD", "postcode": "06032"}}},
{"geometry": {"type": "Point", "coordinates": [-72.7978404915, 41.7089792042]}, "type": "Feature", "properties": {"collection_times": [{"days": "Mon-Fri", "time": "11:30am"}, {"days": "Sat", "time": "12:00pm"}, {"days": "Sun", "time": "Closed"}], "id": "0603200023", "name": "USPS COLLECTION BOX - BLUE BOX", "address": {"city": "FARMINGTON", "state": "CT", "street": "30 BATTERSON PARK RD", "postcode": "06032"}}},
{"geometry": {"type": "Point", "coordinates": [-72.8364189996, 41.7319740297]}, "type": "Feature", "properties": {"collection_times": [{"days": "Mon-Fri", "time": "3:30pm"}, {"days": "Sat", "time": "12:00pm"}, {"days": "Sun", "time": "Closed"}], "id": "0603200024", "name": "USPS COLLECTION BOX - BLUE BOX", "address": {"city": "FARMINGTON", "state": "CT", "street": "76 BATTERSON PARK RD", "postcode": "06032"}}},
{"geometry": {"type": "Point", "coordinates": [-72.8364189996, 41.7319740297]}, "type": "Feature", "properties": {"collection_times": [{"days": "Mon-Fri", "time": "2:45pm"}, {"days": "Sat", "time": "12:00pm"}, {"days": "Sun", "time": "Closed"}], "id": "0603200025", "name": "USPS COLLECTION BOX - BLUE BOX", "address": {"city": "FARMINGTON", "state": "CT", "street": "790 FARMINGTON AVE", "postcode": "06032"}}},
{"geometry": {"type": "Point", "coordinates": [-72.8271057133, 41.7277752392]}, "type": "Feature", "properties": {"collection_times": [{"days": "Mon-Fri", "time": "2:45pm"}, {"days": "Sat", "time": "11:30am"}, {"days": "Sun", "time": "Closed"}], "id": "0603200026", "name": "USPS COLLECTION BOX - BLUE BOX", "address": {"city": "FARMINGTON", "state": "CT", "street": "838 FARMINGTON AVE", "postcode": "06032"}}},
{"geometry": {"type": "Point", "coordinates": [-72.8677651959, 41.7488614828]}, "type": "Feature", "properties": {"collection_times": [{"days": "Mon-Fri", "time": "2:30pm"}, {"days": "Sat", "time": "11:30am"}, {"days": "Sun", "time": "Closed"}], "id": "0603200027", "name": "USPS COLLECTION BOX - BLUE BOX", "address": {"city": "FARMINGTON", "state": "CT", "street": "1 MONTIETH DR", "postcode": "06032"}}},
{"geometry": {"type": "Point", "coordinates": [-72.8387642567, 41.7119962241]}, "type": "Feature", "properties": {"collection_times": [{"days": "Mon-Fri", "time": "5:00pm"}, {"days": "Sat", "time": "3:30pm"}, {"days": "Sun", "time": "Closed"}], "id": "0603200028", "name": "USPS COLLECTION BOX - BLUE BOX", "address": {"city": "FARMINGTON", "state": "CT", "street": "210 MAIN ST", "postcode": "06032"}}},
{"geometry": {"type": "Point", "coordinates": [-72.8364189996, 41.7319740297]}, "type": "Feature", "properties": {"collection_times": [{"days": "Mon-Fri", "time": "12:30pm"}, {"days": "Sat", "time": "1:00pm"}, {"days": "Sun", "time": "Closed"}], "id": "0603200030", "name": "USPS COLLECTION BOX - BLUE BOX", "address": {"city": "FARMINGTON", "state": "CT", "street": "263 FARMINGTON AVE", "postcode": "06032"}}},
{"geometry": {"type": "Point", "coordinates": [-72.86940596, 41.6971851033]}, "type": "Feature", "properties": {"collection_times": [{"days": "Mon-Fri", "time": "4:30pm"}, {"days": "Sat", "time": "2:00pm"}, {"days": "Sun", "time": "Closed"}], "id": "0603200032", "name": "USPS COLLECTION BOX - BLUE BOX", "address": {"city": "FARMINGTON", "state": "CT", "street": "81 SPRING LN", "postcode": "06032"}}},
{"geometry": {"type": "Point", "coordinates": [-72.8396906423, 41.7370993778]}, "type": "Feature", "properties": {"collection_times": [{"days": "Mon-Fri", "time": "2:45pm"}, {"days": "Sat", "time": "11:30am"}, {"days": "Sun", "time": "Closed"}], "id": "0603200033", "name": "USPS COLLECTION BOX - BLUE BOX", "address": {"city": "FARMINGTON", "state": "CT", "street": "40 FOREST PARK DR", "postcode": "06032"}}},
{"geometry": {"type": "Point", "coordinates": [-72.7613533052, 41.7245386635]}, "type": "Feature", "properties": {"collection_times": [{"days": "Mon-Sat", "time": "12:00pm"}, {"days": "Sun", "time": "Closed"}], "id": "0603200035", "name": "USPS COLLECTION BOX - BLUE BOX", "address": {"city": "FARMINGTON", "state": "CT", "street": "100 WEST FARMS MALL", "postcode": "06032"}}},
{"geometry": {"type": "Point", "coordinates": [-72.7383038826, 41.5735001734]}, "type": "Feature", "properties": {"collection_times": [{"days": "Mon-Sat", "time": "12:00pm"}, {"days": "Sun", "time": "Closed"}], "id": "0603200037", "name": "USPS COLLECTION BOX - BLUE BOX", "address": {"city": "FARMINGTON", "state": "CT", "street": "91 WEST FARMS MALL", "postcode": "06032"}}},
{"geometry": {"type": "Point", "coordinates": [-72.8364189996, 41.7319740297]}, "type": "Feature", "properties": {"collection_times": [{"days": "Mon-Fri", "time": "2:30pm"}, {"days": "Sat", "time": "11:30am"}, {"days": "Sun", "time": "Closed"}], "id": "0603200038", "name": "USPS COLLECTION BOX - BLUE BOX", "address": {"city": "FARMINGTON", "state": "CT", "street": "91 BRIDGEWATER RD", "postcode": "06032"}}},
{"geometry": {"type": "Point", "coordinates": [-72.7951659094, 41.7357933218]}, "type": "Feature", "properties": {"collection_times": [{"days": "Mon-Fri", "time": "12:30pm"}, {"days": "Sat", "time": "1:00pm"}, {"days": "Sun", "time": "Closed"}], "id": "0603200040", "name": "USPS COLLECTION BOX - BLUE BOX", "address": {"city": "FARMINGTON", "state": "CT", "street": "263 FARMINGTON AVE", "postcode": "06032"}}},
{"geometry": {"type": "Point", "coordinates": [-72.8788637169, 41.6992682941]}, "type": "Feature", "properties": {"collection_times": [{"days": "Mon-Sat", "time": "11:00am"}, {"days": "Sun", "time": "Closed"}], "id": "0603200041", "name": "USPS COLLECTION BOX - BLUE BOX", "address": {"city": "FARMINGTON", "state": "CT", "street": "1 FARMINGTON CHASE CRES", "postcode": "06032"}}},
{"geometry": {"type": "Point", "coordinates": [-72.8556670746, 41.6991665596]}, "type": "Feature", "properties": {"collection_times": [{"days": "Mon-Fri", "time": "1:45pm"}, {"days": "Sat", "time": "2:00pm"}, {"days": "Sun", "time": "Closed"}], "id": "0603200045", "name": "USPS COLLECTION BOX - BLUE BOX", "address": {"city": "FARMINGTON", "state": "CT", "street": "10 EXECUTIVE DR", "postcode": "06032"}}},
{"geometry": {"type": "Point", "coordinates": [-72.8430400759, 41.7374693369]}, "type": "Feature", "properties": {"collection_times": [{"days": "Mon-Fri", "time": "2:30pm"}, {"days": "Sat", "time": "11:30am"}, {"days": "Sun", "time": "Closed"}], "id": "0603200047", "name": "USPS COLLECTION BOX - BLUE BOX", "address": {"city": "FARMINGTON", "state": "CT", "street": "10 MELROSE DR", "postcode": "06032"}}},
{"geometry": {"type": "Point", "coordinates": [-72.8364189996, 41.7319740297]}, "type": "Feature", "properties": {"collection_times": [{"days": "Mon-Fri", "time": "12:30pm"}, {"days": "Sat", "time": "1:00pm"}, {"days": "Sun", "time": "Closed"}], "id": "0603200049", "name": "USPS COLLECTION BOX - BLUE BOX", "address": {"city": "FARMINGTON", "state": "CT", "street": "16 MUNSON RD", "postcode": "06032"}}},
{"geometry": {"type": "Point", "coordinates": [-72.7942348326, 41.73948535]}, "type": "Feature", "properties": {"collection_times": [{"days": "Mon-Fri", "time": "4:00pm"}, {"days": "Sat", "time": "12:30pm"}, {"days": "Sun", "time": "Closed"}], "id": "0603200052", "name": "USPS COLLECTION BOX - BLUE BOX", "address": {"city": "FARMINGTON", "state": "CT", "street": "10 TALCOTT NOTCH RD", "postcode": "06032"}}},
{"geometry": {"type": "Point", "coordinates": [-72.786323203, 41.7225796835]}, "type": "Feature", "properties": {"collection_times": [{"days": "Mon-Fri", "time": "12:00pm"}, {"days": "Sat", "time": "12:30pm"}, {"days": "Sun", "time": "Closed"}], "id": "0603200053", "name": "USPS COLLECTION BOX - BLUE BOX", "address": {"city": "FARMINGTON", "state": "CT", "street": "135 SOUTH RD", "postcode": "06032"}}},
{"geometry": {"type": "Point", "coordinates": [-72.8370663862, 41.7344125642]}, "type": "Feature", "properties": {"collection_times": [{"days": "Mon-Fri", "time": "2:45pm"}, {"days": "Sat", "time": "11:30am"}, {"days": "Sun", "time": "Closed"}], "id": "0603200054", "name": "USPS COLLECTION BOX - BLUE BOX", "address": {"city": "FARMINGTON", "state": "CT", "street": "1035 FARMINGTON AVE", "postcode": "06032"}}},
{"geometry": {"type": "Point", "coordinates": [-72.8387642567, 41.7119962241]}, "type": "Feature", "properties": {"collection_times": [{"days": "Mon-Fri", "time": "1:45pm"}, {"days": "Sat", "time": "3:30pm"}, {"days": "Sun", "time": "Closed"}], "id": "0603200056", "name": "USPS COLLECTION BOX - PO LOBBY", "address": {"city": "FARMINGTON", "state": "CT", "street": "210 MAIN ST", "postcode": "06032"}}},
{"geometry": {"type": "Point", "coordinates": [-72.8556470412, 41.743262659]}, "type": "Feature", "properties": {"collection_times": [{"days": "Mon-Fri", "time": "2:30pm"}, {"days": "Sat", "time": "11:30am"}, {"days": "Sun", "time": "Closed"}], "id": "0603200057", "name": "USPS COLLECTION BOX - BLUE BOX", "address": {"city": "FARMINGTON", "state": "CT", "street": "34 LAKESHORE DR", "postcode": "06032"}}},
{"geometry": {"type": "Point", "coordinates": [-72.7947754448, 41.7145887956]}, "type": "Feature", "properties": {"collection_times": [{"days": "Mon-Fri", "time": "3:30pm"}, {"days": "Sat", "time": "12:00pm"}, {"days": "Sun", "time": "Closed"}], "id": "0603200058", "name": "USPS COLLECTION BOX - BLUE BOX", "address": {"city": "FARMINGTON", "state": "CT", "street": "74 BATTERSON PARK RD", "postcode": "06032"}}},
{"geometry": {"type": "Point", "coordinates": [-72.6211206849, 41.7212398449]}, "type": "Feature", "properties": {"collection_times": [{"days": "Mon-Fri", "time": "4:15pm"}, {"days": "Sat", "time": "1:15pm"}, {"days": "Sun", "time": "Closed"}], "id": "0603300003", "name": "USPS COLLECTION BOX - BLUE BOX", "address": {"city": "GLASTONBURY", "state": "CT", "street": "180 GLASTONBURY BLVD", "postcode": "06033"}}},
{"geometry": {"type": "Point", "coordinates": [-72.6054996445, 41.7110919689]}, "type": "Feature", "properties": {"collection_times": [{"days": "Mon-Fri", "time": "5:00pm"}, {"days": "Sat", "time": "2:30pm"}, {"days": "Sun", "time": "Closed"}], "id": "0603300010", "name": "USPS COLLECTION BOX - BLUE BOX", "address": {"city": "GLASTONBURY", "state": "CT", "street": "145 NEW LONDON TPKE", "postcode": "06033"}}},
{"geometry": {"type": "Point", "coordinates": [-72.6054996445, 41.7110919689]}, "type": "Feature", "properties": {"collection_times": [{"days": "Mon-Fri", "time": "5:00pm"}, {"days": "Sat", "time": "2:30pm"}, {"days": "Sun", "time": "Closed"}], "id": "0603300014", "name": "USPS COLLECTION BOX - PO LOBBY", "address": {"city": "GLASTONBURY", "state": "CT", "street": "145 NEW LONDON TPKE", "postcode": "06033"}}},
{"geometry": {"type": "Point", "coordinates": [-72.5716256749, 41.7085326788]}, "type": "Feature", "properties": {"collection_times": [{"days": "Mon-Fri", "time": "5:00pm"}, {"days": "Sat", "time": "2:30pm"}, {"days": "Sun", "time": "Closed"}], "id": "0603300015", "name": "USPS COLLECTION BOX - EXPRESS", "address": {"city": "GLASTONBURY", "state": "CT", "street": "145 NEW LONDON TPKE", "postcode": "06033"}}},
{"geometry": {"type": "Point", "coordinates": [-72.6080276278, 41.7068664395]}, "type": "Feature", "properties": {"collection_times": [{"days": "Mon-Sat", "time": "1:00pm"}, {"days": "Sun", "time": "Closed"}], "id": "0603300020", "name": "USPS COLLECTION BOX - BLUE BOX", "address": {"city": "GLASTONBURY", "state": "CT", "street": "2155 MAIN ST", "postcode": "06033"}}},
{"geometry": {"type": "Point", "coordinates": [-72.585095936, 41.7164682508]}, "type": "Feature", "properties": {"collection_times": [{"days": "Mon-Fri", "time": "4:30pm"}, {"days": "Sat", "time": "2:00pm"}, {"days": "Sun", "time": "Closed"}], "id": "0603300021", "name": "USPS COLLECTION BOX - BLUE BOX", "address": {"city": "GLASTONBURY", "state": "CT", "street": "31 EASTERN BLVD", "postcode": "06033"}}},
{"geometry": {"type": "Point", "coordinates": [-72.590747733, 41.7141442507]}, "type": "Feature", "properties": {"collection_times": [{"days": "Mon-Fri", "time": "4:30pm"}, {"days": "Sat", "time": "2:00pm"}, {"days": "Sun", "time": "Closed"}], "id": "0603300025", "name": "USPS COLLECTION BOX - BLUE BOX", "address": {"city": "GLASTONBURY", "state": "CT", "street": "90 WESTERN BLVD", "postcode": "06033"}}},
{"geometry": {"type": "Point", "coordinates": [-72.590747733, 41.7141442507]}, "type": "Feature", "properties": {"collection_times": [{"days": "Mon-Fri", "time": "4:30pm"}, {"days": "Sat", "time": "2:00pm"}, {"days": "Sun", "time": "Closed"}], "id": "0603300026", "name": "USPS COLLECTION BOX - EXPRESS", "address": {"city": "GLASTONBURY", "state": "CT", "street": "90 WESTERN BLVD", "postcode": "06033"}}},
{"geometry": {"type": "Point", "coordinates": [-72.5716256749, 41.7085326788]}, "type": "Feature", "properties": {"collection_times": [{"days": "Mon-Fri", "time": "4:00pm"}, {"days": "Sat", "time": "1:15pm"}, {"days": "Sun", "time": "Closed"}], "id": "0603300029", "name": "USPS COLLECTION BOX - EXPRESS", "address": {"city": "GLASTONBURY", "state": "CT", "street": "115 GLASTONBURY BLVD", "postcode": "06033"}}},
{"geometry": {"type": "Point", "coordinates": [-72.5944105871, 41.7164093695]}, "type": "Feature", "properties": {"collection_times": [{"days": "Mon-Fri", "time": "4:30pm"}, {"days": "Sat", "time": "2:00pm"}, {"days": "Sun", "time": "Closed"}], "id": "0603300031", "name": "USPS COLLECTION BOX - BLUE BOX", "address": {"city": "GLASTONBURY", "state": "CT", "street": "300 WINDING BROOK DR", "postcode": "06033"}}},
{"geometry": {"type": "Point", "coordinates": [-72.6031886768, 41.7096227623]}, "type": "Feature", "properties": {"collection_times": [{"days": "Mon-Sat", "time": "12:00pm"}, {"days": "Sun", "time": "Closed"}], "id": "0603300036", "name": "USPS COLLECTION BOX - BLUE BOX", "address": {"city": "GLASTONBURY", "state": "CT", "street": "345 NEW LONDON TPKE", "postcode": "06033"}}},
{"geometry": {"type": "Point", "coordinates": [-72.6049925111, 41.7135168812]}, "type": "Feature", "properties": {"collection_times": [{"days": "Mon-Sat", "time": "10:00am"}, {"days": "Sun", "time": "Closed"}], "id": "0603300037", "name": "USPS COLLECTION BOX - BLUE BOX", "address": {"city": "GLASTONBURY", "state": "CT", "street": "117 NEW LONDON TPKE", "postcode": "06033"}}},
{"geometry": {"type": "Point", "coordinates": [-72.6046239758, 41.710420811]}, "type": "Feature", "properties": {"collection_times": [{"days": "Mon-Fri", "time": "5:00pm"}, {"days": "Sat", "time": "2:30pm"}, {"days": "Sun", "time": "Closed"}], "id": "0603300038", "name": "USPS COLLECTION BOX - BLUE BOX", "address": {"city": "GLASTONBURY", "state": "CT", "street": "211 NEW LONDON TPKE", "postcode": "06033"}}},
{"geometry": {"type": "Point", "coordinates": [-72.6012676499, 41.7133991925]}, "type": "Feature", "properties": {"collection_times": [{"days": "Mon-Sat", "time": "12:00pm"}, {"days": "Sun", "time": "Closed"}], "id": "0603300043", "name": "USPS COLLECTION BOX - BLUE BOX", "address": {"city": "GLASTONBURY", "state": "CT", "street": "300 HEBRON AVE", "postcode": "06033"}}},
{"geometry": {"type": "Point", "coordinates": [-72.6185784388, 41.7216238526]}, "type": "Feature", "properties": {"collection_times": [{"days": "Mon-Fri", "time": "4:15pm"}, {"days": "Sat", "time": "1:15pm"}, {"days": "Sun", "time": "Closed"}], "id": "0603300044", "name": "USPS COLLECTION BOX - BLUE BOX", "address": {"city": "GLASTONBURY", "state": "CT", "street": "80 GLASTONBURY BLVD", "postcode": "06033"}}},
{"geometry": {"type": "Point", "coordinates": [-72.6202286666, 41.7215327648]}, "type": "Feature", "properties": {"collection_times": [{"days": "Mon-Fri", "time": "4:00pm"}, {"days": "Sat", "time": "1:15pm"}, {"days": "Sun", "time": "Closed"}], "id": "0603300046", "name": "USPS COLLECTION BOX - BLUE BOX", "address": {"city": "GLASTONBURY", "state": "CT", "street": "115 GLASTONBURY BLVD", "postcode": "06033"}}},
{"geometry": {"type": "Point", "coordinates": [-72.5489478918, 41.6808026889]}, "type": "Feature", "properties": {"collection_times": [{"days": "Mon-Sat", "time": "10:00am"}, {"days": "Sun", "time": "Closed"}], "id": "0603300048", "name": "USPS COLLECTION BOX - BLUE BOX", "address": {"city": "GLASTONBURY", "state": "CT", "street": "39 NEW LONDON TPKE", "postcode": "06033"}}},
{"geometry": {"type": "Point", "coordinates": [-72.571625675, 41.7085327248]}, "type": "Feature", "properties": {"collection_times": [{"days": "Mon-Sat", "time": "10:00am"}, {"days": "Sun", "time": "Closed"}], "id": "0603300049", "name": "USPS COLLECTION BOX - BLUE BOX", "address": {"city": "GLASTONBURY", "state": "CT", "street": "628 HEBRON AVE", "postcode": "06033"}}},
{"geometry": {"type": "Point", "coordinates": [-72.6233989966, 41.7209732252]}, "type": "Feature", "properties": {"collection_times": [{"days": "Mon-Fri", "time": "4:15pm"}, {"days": "Sat", "time": "1:15pm"}, {"days": "Sun", "time": "Closed"}], "id": "0603300050", "name": "USPS COLLECTION BOX - BLUE BOX", "address": {"city": "GLASTONBURY", "state": "CT", "street": "200 GLASTONBURY BLVD", "postcode": "06033"}}},
{"geometry": {"type": "Point", "coordinates": [-72.5876168413, 41.7149723653]}, "type": "Feature", "properties": {"collection_times": [{"days": "Mon-Fri", "time": "4:30pm"}, {"days": "Sat", "time": "2:00pm"}, {"days": "Sun", "time": "Closed"}], "id": "0603300051", "name": "USPS COLLECTION BOX - BLUE BOX", "address": {"city": "GLASTONBURY", "state": "CT", "street": "9 CITIZENS DR", "postcode": "06033"}}},
{"geometry": {"type": "Point", "coordinates": [-72.6164431979, 41.7220378882]}, "type": "Feature", "properties": {"collection_times": [{"days": "Mon-Fri", "time": "4:00pm"}, {"days": "Sat", "time": "1:15pm"}, {"days": "Sun", "time": "Closed"}], "id": "0603300052", "name": "USPS COLLECTION BOX - BLUE BOX", "address": {"city": "GLASTONBURY", "state": "CT", "street": "45 GLASTONBURY BLVD", "postcode": "06033"}}},
{"geometry": {"type": "Point", "coordinates": [-72.59488979, 41.716343053]}, "type": "Feature", "properties": {"collection_times": [{"days": "Mon-Fri", "time": "4:30pm"}, {"days": "Sat", "time": "2:00pm"}, {"days": "Sun", "time": "Closed"}], "id": "0603300053", "name": "USPS COLLECTION BOX - BLUE BOX", "address": {"city": "GLASTONBURY", "state": "CT", "street": "500 WINDING BROOK DR", "postcode": "06033"}}},
{"geometry": {"type": "Point", "coordinates": [-72.5264298895, 41.7141429999]}, "type": "Feature", "properties": {"collection_times": [{"days": "Mon-Sat", "time": "10:00am"}, {"days": "Sun", "time": "Closed"}], "id": "0603300055", "name": "USPS COLLECTION BOX - BLUE BOX", "address": {"city": "GLASTONBURY", "state": "CT", "street": "1320 MANCHESTER RD", "postcode": "06033"}}},
{"geometry": {"type": "Point", "coordinates": [-72.6235232073, 41.7210773256]}, "type": "Feature", "properties": {"collection_times": [{"days": "Mon-Fri", "time": "4:00pm"}, {"days": "Sat", "time": "1:15pm"}, {"days": "Sun", "time": "Closed"}], "id": "0603300057", "name": "USPS COLLECTION BOX - BLUE BOX", "address": {"city": "GLASTONBURY", "state": "CT", "street": "215 GLASTONBURY BLVD", "postcode": "06033"}}},
{"geometry": {"type": "Point", "coordinates": [-72.5716256749, 41.7085326788]}, "type": "Feature", "properties": {"collection_times": [{"days": "Mon-Fri", "time": "4:15pm"}, {"days": "Sat", "time": "1:15pm"}, {"days": "Sun", "time": "Closed"}], "id": "0603300060", "name": "USPS COLLECTION BOX - EXPRESS", "address": {"city": "GLASTONBURY", "state": "CT", "street": "80 GLASTONBURY BLVD", "postcode": "06033"}}},
{"geometry": {"type": "Point", "coordinates": [-72.6054996445, 41.7110919689]}, "type": "Feature", "properties": {"collection_times": [{"days": "Mon-Fri", "time": "5:00pm"}, {"days": "Sat", "time": "2:30pm"}, {"days": "Sun", "time": "Closed"}], "id": "0603300064", "name": "USPS COLLECTION BOX - APC", "address": {"city": "GLASTONBURY", "state": "CT", "street": "145 NEW LONDON TPKE", "postcode": "06033"}}},
{"geometry": {"type": "Point", "coordinates": [-72.7853058583, 41.9525445403]}, "type": "Feature", "properties": {"collection_times": [{"days": "Mon-Fri", "time": "5:00pm"}, {"days": "Sat", "time": "1:00pm"}, {"days": "Sun", "time": "Closed"}], "id": "0603500001", "name": "USPS COLLECTION BOX - BLUE BOX", "address": {"city": "GRANBY", "state": "CT", "street": "10 BANK ST", "postcode": "06035"}}},
{"geometry": {"type": "Point", "coordinates": [-72.7853058583, 41.9525445403]}, "type": "Feature", "properties": {"collection_times": [{"days": "Mon-Fri", "time": "5:00pm"}, {"days": "Sat", "time": "1:00pm"}, {"days": "Sun", "time": "Closed"}], "id": "0603500005", "name": "USPS COLLECTION BOX - PO LOBBY", "address": {"city": "GRANBY", "state": "CT", "street": "10 BANK ST", "postcode": "06035"}}},
{"geometry": {"type": "Point", "coordinates": [-72.7891101837, 41.6342136333]}, "type": "Feature", "properties": {"collection_times": [{"days": "Mon-Fri", "time": "2:00pm"}, {"days": "Sat", "time": "1:00pm"}, {"days": "Sun", "time": "Closed"}], "id": "0603700001", "name": "USPS COLLECTION BOX - BLUE BOX", "address": {"city": "KENSINGTON", "state": "CT", "street": "45 CHAMBERLAIN HWY", "postcode": "06037"}}},
{"geometry": {"type": "Point", "coordinates": [-72.7672270807, 41.6344175158]}, "type": "Feature", "properties": {"collection_times": [{"days": "Mon-Fri", "time": "2:00pm"}, {"days": "Sat", "time": "1:00pm"}, {"days": "Sun", "time": "Closed"}], "id": "0603700002", "name": "USPS COLLECTION BOX - BLUE BOX", "address": {"city": "KENSINGTON", "state": "CT", "street": "384 MAIN ST", "postcode": "06037"}}},
{"geometry": {"type": "Point", "coordinates": [-72.7702278633, 41.6428577129]}, "type": "Feature", "properties": {"collection_times": [{"days": "Mon-Fri", "time": "2:00pm"}, {"days": "Sat", "time": "12:45pm"}, {"days": "Sun", "time": "Closed"}], "id": "0603700003", "name": "USPS COLLECTION BOX - BLUE BOX", "address": {"city": "KENSINGTON", "state": "CT", "street": "211 NEW BRITAIN RD", "postcode": "06037"}}},
{"geometry": {"type": "Point", "coordinates": [-72.7576729614, 41.6293417928]}, "type": "Feature", "properties": {"collection_times": [{"days": "Mon-Fri", "time": "2:00pm"}, {"days": "Sat", "time": "1:00pm"}, {"days": "Sun", "time": "Closed"}], "id": "0603700005", "name": "USPS COLLECTION BOX - BLUE BOX", "address": {"city": "KENSINGTON", "state": "CT", "street": "1135 FARMINGTON AVE", "postcode": "06037"}}},
{"geometry": {"type": "Point", "coordinates": [-72.7456137206, 41.6219731991]}, "type": "Feature", "properties": {"collection_times": [{"days": "Mon-Fri", "time": "4:00pm"}, {"days": "Sat", "time": "1:00pm"}, {"days": "Sun", "time": "Closed"}], "id": "0603700006", "name": "USPS COLLECTION BOX - BLUE BOX", "address": {"city": "KENSINGTON", "state": "CT", "street": "780 WORTHINGTON RDG", "postcode": "06037"}}},
{"geometry": {"type": "Point", "coordinates": [-72.7688122382, 41.6318847848]}, "type": "Feature", "properties": {"collection_times": [{"days": "Mon-Fri", "time": "4:00pm"}, {"days": "Sat", "time": "1:00pm"}, {"days": "Sun", "time": "Closed"}], "id": "0603700008", "name": "USPS COLLECTION BOX - BLUE BOX", "address": {"city": "KENSINGTON", "state": "CT", "street": "24 BROOK ST", "postcode": "06037"}}},
{"geometry": {"type": "Point", "coordinates": [-72.7490414137, 41.6264150459]}, "type": "Feature", "properties": {"collection_times": [{"days": "Mon-Fri", "time": "2:00pm"}, {"days": "Sat", "time": "1:00pm"}, {"days": "Sun", "time": "Closed"}], "id": "0603700010", "name": "USPS COLLECTION BOX - BLUE BOX", "address": {"city": "KENSINGTON", "state": "CT", "street": "25 WEBSTER SQUARE RD", "postcode": "06037"}}},
{"geometry": {"type": "Point", "coordinates": [-72.73235114, 41.642982122]}, "type": "Feature", "properties": {"collection_times": [{"days": "Mon-Fri", "time": "2:00pm"}, {"days": "Sat", "time": "1:00pm"}, {"days": "Sun", "time": "Closed"}], "id": "0603700011", "name": "USPS COLLECTION BOX - BLUE BOX", "address": {"city": "KENSINGTON", "state": "CT", "street": "273 BERLIN TPKE", "postcode": "06037"}}},
{"geometry": {"type": "Point", "coordinates": [-72.7437118381, 41.6306980777]}, "type": "Feature", "properties": {"collection_times": [{"days": "Mon-Fri", "time": "2:00pm"}, {"days": "Sat", "time": "1:00pm"}, {"days": "Sun", "time": "Closed"}], "id": "0603700012", "name": "USPS COLLECTION BOX - BLUE BOX", "address": {"city": "KENSINGTON", "state": "CT", "street": "207 WEBSTER SQUARE RD", "postcode": "06037"}}},
{"geometry": {"type": "Point", "coordinates": [-72.727891518, 41.648326675]}, "type": "Feature", "properties": {"collection_times": [{"days": "Mon-Fri", "time": "2:00pm"}, {"days": "Sat", "time": "1:00pm"}, {"days": "Sun", "time": "Closed"}], "id": "0603700014", "name": "USPS COLLECTION BOX - BLUE BOX", "address": {"city": "KENSINGTON", "state": "CT", "street": "107 SELDEN ST", "postcode": "06037"}}},
{"geometry": {"type": "Point", "coordinates": [-72.7273319599, 41.6475853773]}, "type": "Feature", "properties": {"collection_times": [{"days": "Mon-Fri", "time": "2:00pm"}, {"days": "Sat", "time": "1:00pm"}, {"days": "Sun", "time": "Closed"}], "id": "0603700015", "name": "USPS COLLECTION BOX - BLUE BOX", "address": {"city": "KENSINGTON", "state": "CT", "street": "107 SELDEN ST", "postcode": "06037"}}},
{"geometry": {"type": "Point", "coordinates": [-72.7648990047, 41.6338410027]}, "type": "Feature", "properties": {"collection_times": [{"days": "Mon-Fri", "time": "5:00pm"}, {"days": "Sat", "time": "12:45pm"}, {"days": "Sun", "time": "Closed"}], "id": "0603700017", "name": "USPS COLLECTION BOX - PO LOBBY", "address": {"city": "KENSINGTON", "state": "CT", "street": "62 KENSINGTON RD", "postcode": "06037"}}},
{"geometry": {"type": "Point", "coordinates": [-72.7660777061, 41.6196816613]}, "type": "Feature", "properties": {"collection_times": [{"days": "Mon-Fri", "time": "3:00pm"}, {"days": "Sat", "time": "12:00pm"}, {"days": "Sun", "time": "Closed"}], "id": "0603700018", "name": "USPS COLLECTION BOX - PO LOBBY", "address": {"city": "KENSINGTON", "state": "CT", "street": "780 WORTHINGTON RDG", "postcode": "06037"}}},
{"geometry": {"type": "Point", "coordinates": [-73.4367075801, 41.9560416184]}, "type": "Feature", "properties": {"collection_times": [{"days": "Mon-Fri", "time": "4:30pm"}, {"days": "Sat", "time": "12:00pm"}, {"days": "Sun", "time": "Closed"}], "id": "0603900003", "name": "USPS COLLECTION BOX - BLUE BOX", "address": {"city": "LAKEVILLE", "state": "CT", "street": "339 MAIN ST", "postcode": "06039"}}},
{"geometry": {"type": "Point", "coordinates": [-73.4367075801, 41.9560416184]}, "type": "Feature", "properties": {"collection_times": [{"days": "Mon-Fri", "time": "4:30pm"}, {"days": "Sat", "time": "12:00pm"}, {"days": "Sun", "time": "Closed"}], "id": "0603900006", "name": "USPS COLLECTION BOX - PO LOBBY", "address": {"city": "LAKEVILLE", "state": "CT", "street": "339 MAIN ST", "postcode": "06039"}}},
{"geometry": {"type": "Point", "coordinates": [-72.5227244568, 41.7753159941]}, "type": "Feature", "properties": {"collection_times": [{"days": "Mon-Sat", "time": "4:30pm"}, {"days": "Sun", "time": "Closed"}], "id": "0604000008", "name": "USPS COLLECTION BOX - BLUE BOX", "address": {"city": "MANCHESTER", "state": "CT", "street": "41 CENTER CTR", "postcode": "06040"}}},
{"geometry": {"type": "Point", "coordinates": [-72.5206585639, 41.7685714016]}, "type": "Feature", "properties": {"collection_times": [{"days": "Mon-Sat", "time": "11:00am"}, {"days": "Sun", "time": "Closed"}], "id": "0604000012", "name": "USPS COLLECTION BOX - BLUE BOX", "address": {"city": "MANCHESTER", "state": "CT", "street": "549 E MIDDLE TNPK", "postcode": "06040"}}},
{"geometry": {"type": "Point", "coordinates": [-72.5206585639, 41.7685714016]}, "type": "Feature", "properties": {"collection_times": [{"days": "Mon-Sat", "time": "10:00am"}, {"days": "Sun", "time": "Closed"}], "id": "0604000013", "name": "USPS COLLECTION BOX - BLUE BOX", "address": {"city": "MANCHESTER", "state": "CT", "street": "239 E MIDDLE TNPK", "postcode": "06040"}}},
{"geometry": {"type": "Point", "coordinates": [-72.5061000647, 41.7967463666]}, "type": "Feature", "properties": {"collection_times": [{"days": "Mon-Sat", "time": "1:30pm"}, {"days": "Sun", "time": "Closed"}], "id": "0604000014", "name": "USPS COLLECTION BOX - BLUE BOX", "address": {"city": "MANCHESTER", "state": "CT", "street": "1 COLONIAL", "postcode": "06040"}}},
{"geometry": {"type": "Point", "coordinates": [-72.5446151125, 41.7708278478]}, "type": "Feature", "properties": {"collection_times": [{"days": "Mon-Sat", "time": "1:30pm"}, {"days": "Sun", "time": "Closed"}], "id": "0604000015", "name": "USPS COLLECTION BOX - BLUE BOX", "address": {"city": "MANCHESTER", "state": "CT", "street": "202 W CENTER ST", "postcode": "06040"}}},
{"geometry": {"type": "Point", "coordinates": [-72.5375989829, 41.772754888]}, "type": "Feature", "properties": {"collection_times": [{"days": "Mon-Sat", "time": "9:30am"}, {"days": "Sun", "time": "Closed"}], "id": "0604000016", "name": "USPS COLLECTION BOX - BLUE BOX", "address": {"city": "MANCHESTER", "state": "CT", "street": "410 CENTER CTR", "postcode": "06040"}}},
{"geometry": {"type": "Point", "coordinates": [-72.5078653183, 41.791006766]}, "type": "Feature", "properties": {"collection_times": [{"days": "Mon-Sat", "time": "10:00am"}, {"days": "Sun", "time": "Closed"}], "id": "0604000018", "name": "USPS COLLECTION BOX - BLUE BOX", "address": {"city": "MANCHESTER", "state": "CT", "street": "315 GREEN RD", "postcode": "06040"}}},
{"geometry": {"type": "Point", "coordinates": [-72.5167587948, 41.7881865877]}, "type": "Feature", "properties": {"collection_times": [{"days": "Mon-Sat", "time": "1:00pm"}, {"days": "Sun", "time": "Closed"}], "id": "0604000022", "name": "USPS COLLECTION BOX - BLUE BOX", "address": {"city": "MANCHESTER", "state": "CT", "street": "182 ELM ST", "postcode": "06040"}}},
{"geometry": {"type": "Point", "coordinates": [-72.5282972804, 41.7698711675]}, "type": "Feature", "properties": {"collection_times": [{"days": "Mon-Sat", "time": "9:15am"}, {"days": "Sun", "time": "Closed"}], "id": "0604000028", "name": "USPS COLLECTION BOX - BLUE BOX", "address": {"city": "MANCHESTER", "state": "CT", "street": "46 HOUSE DR", "postcode": "06040"}}},
{"geometry": {"type": "Point", "coordinates": [-72.5509657839, 41.76950512]}, "type": "Feature", "properties": {"collection_times": [{"days": "Mon-Sat", "time": "9:15am"}, {"days": "Sun", "time": "Closed"}], "id": "0604000029", "name": "USPS COLLECTION BOX - BLUE BOX", "address": {"city": "MANCHESTER", "state": "CT", "street": "24 BLUEFIELD DR", "postcode": "06040"}}},
{"geometry": {"type": "Point", "coordinates": [-72.5676478079, 41.7684698594]}, "type": "Feature", "properties": {"collection_times": [{"days": "Mon-Sat", "time": "9:15am"}, {"days": "Sun", "time": "Closed"}], "id": "0604000030", "name": "USPS COLLECTION BOX - BLUE BOX", "address": {"city": "MANCHESTER", "state": "CT", "street": "50 PASCAL LN", "postcode": "06040"}}},
{"geometry": {"type": "Point", "coordinates": [-72.569999975, 41.7668564286]}, "type": "Feature", "properties": {"collection_times": [{"days": "Mon-Sat", "time": "9:15am"}, {"days": "Sun", "time": "Closed"}], "id": "0604000031", "name": "USPS COLLECTION BOX - BLUE BOX", "address": {"city": "MANCHESTER", "state": "CT", "street": "214 SPENCER ST", "postcode": "06040"}}},
{"geometry": {"type": "Point", "coordinates": [-72.5628634375, 41.7678314127]}, "type": "Feature", "properties": {"collection_times": [{"days": "Mon-Sat", "time": "9:15am"}, {"days": "Sun", "time": "Closed"}], "id": "0604000032", "name": "USPS COLLECTION BOX - BLUE BOX", "address": {"city": "MANCHESTER", "state": "CT", "street": "48 SPENCER ST", "postcode": "06040"}}},
{"geometry": {"type": "Point", "coordinates": [-72.5364188399, 41.7903338968]}, "type": "Feature", "properties": {"collection_times": [{"days": "Mon-Sat", "time": "11:00am"}, {"days": "Sun", "time": "Closed"}], "id": "0604000033", "name": "USPS COLLECTION BOX - BLUE BOX", "address": {"city": "MANCHESTER", "state": "CT", "street": "1 BROAD", "postcode": "06040"}}},
{"geometry": {"type": "Point", "coordinates": [-72.5128474259, 41.7773909217]}, "type": "Feature", "properties": {"collection_times": [{"days": "Mon-Sat", "time": "1:30pm"}, {"days": "Sun", "time": "Closed"}], "id": "0604000036", "name": "USPS COLLECTION BOX - BLUE BOX", "address": {"city": "MANCHESTER", "state": "CT", "street": "193 E CENTER ST", "postcode": "06040"}}},
{"geometry": {"type": "Point", "coordinates": [-72.5385341515, 41.7677142017]}, "type": "Feature", "properties": {"collection_times": [{"days": "Mon-Sat", "time": "1:00pm"}, {"days": "Sun", "time": "Closed"}], "id": "0604000037", "name": "USPS COLLECTION BOX - BLUE BOX", "address": {"city": "MANCHESTER", "state": "CT", "street": "130 WEST ST", "postcode": "06040"}}},
{"geometry": {"type": "Point", "coordinates": [-72.5748686153, 41.779615766]}, "type": "Feature", "properties": {"collection_times": [{"days": "Mon-Sat", "time": "11:00am"}, {"days": "Sun", "time": "Closed"}], "id": "0604000040", "name": "USPS COLLECTION BOX - BLUE BOX", "address": {"city": "MANCHESTER", "state": "CT", "street": "175 DOWNEY DR", "postcode": "06040"}}},
{"geometry": {"type": "Point", "coordinates": [-72.5083124678, 41.7626654309]}, "type": "Feature", "properties": {"collection_times": [{"days": "Mon-Sat", "time": "10:00am"}, {"days": "Sun", "time": "Closed"}], "id": "0604000041", "name": "USPS COLLECTION BOX - BLUE BOX", "address": {"city": "MANCHESTER", "state": "CT", "street": "17 SYCAMORE LN", "postcode": "06040"}}},
{"geometry": {"type": "Point", "coordinates": [-72.5414483313, 41.7645025662]}, "type": "Feature", "properties": {"collection_times": [{"days": "Mon-Sat", "time": "11:00am"}, {"days": "Sun", "time": "Closed"}], "id": "0604000042", "name": "USPS COLLECTION BOX - BLUE BOX", "address": {"city": "MANCHESTER", "state": "CT", "street": "455 HARTFORD RD", "postcode": "06040"}}},
{"geometry": {"type": "Point", "coordinates": [-72.5152240598, 41.7987280328]}, "type": "Feature", "properties": {"collection_times": [{"days": "Mon-Sat", "time": "5:30pm"}, {"days": "Sun", "time": "Closed"}], "id": "0604000047", "name": "USPS COLLECTION BOX - BLUE BOX", "address": {"city": "MANCHESTER", "state": "CT", "street": "111 SHELDON", "postcode": "06040"}}},
{"geometry": {"type": "Point", "coordinates": [-72.5204441544, 41.7562324021]}, "type": "Feature", "properties": {"collection_times": [{"days": "Mon-Sat", "time": "9:15am"}, {"days": "Sun", "time": "Closed"}], "id": "0604000051", "name": "USPS COLLECTION BOX - BLUE BOX", "address": {"city": "MANCHESTER", "state": "CT", "street": "223 N MAIN", "postcode": "06040"}}},
{"geometry": {"type": "Point", "coordinates": [-72.5282972804, 41.7698711675]}, "type": "Feature", "properties": {"collection_times": [{"days": "Mon-Sat", "time": "9:30am"}, {"days": "Sun", "time": "Closed"}], "id": "0604000052", "name": "USPS COLLECTION BOX - BLUE BOX", "address": {"city": "MANCHESTER", "state": "CT", "street": "156 MAIN ST", "postcode": "06040"}}},
{"geometry": {"type": "Point", "coordinates": [-72.5259466873, 41.7810133684]}, "type": "Feature", "properties": {"collection_times": [{"days": "Mon-Sat", "time": "2:30pm"}, {"days": "Sun", "time": "Closed"}], "id": "0604000054", "name": "USPS COLLECTION BOX - BLUE BOX", "address": {"city": "MANCHESTER", "state": "CT", "street": "29 HAYNES ST", "postcode": "06040"}}},
{"geometry": {"type": "Point", "coordinates": [-72.5259385563, 41.7810072097]}, "type": "Feature", "properties": {"collection_times": [{"days": "Mon-Sat", "time": "3:00pm"}, {"days": "Sun", "time": "Closed"}], "id": "0604000055", "name": "USPS COLLECTION BOX - BLUE BOX", "address": {"city": "MANCHESTER", "state": "CT", "street": "71 HAYNES ST", "postcode": "06040"}}},
{"geometry": {"type": "Point", "coordinates": [-72.5217236735, 41.7804358405]}, "type": "Feature", "properties": {"collection_times": [{"days": "Mon-Sat", "time": "2:00pm"}, {"days": "Sun", "time": "Closed"}], "id": "0604000056", "name": "USPS COLLECTION BOX - BLUE BOX", "address": {"city": "MANCHESTER", "state": "CT", "street": "378 MAIN ST", "postcode": "06040"}}},
{"geometry": {"type": "Point", "coordinates": [-72.5206585639, 41.7685714016]}, "type": "Feature", "properties": {"collection_times": [{"days": "Mon-Sat", "time": "4:30pm"}, {"days": "Sun", "time": "Closed"}], "id": "0604000057", "name": "USPS COLLECTION BOX - BLUE BOX", "address": {"city": "MANCHESTER", "state": "CT", "street": "116 E CENTER ST", "postcode": "06040"}}},
{"geometry": {"type": "Point", "coordinates": [-72.5128474259, 41.7773909217]}, "type": "Feature", "properties": {"collection_times": [{"days": "Mon-Sat", "time": "4:30pm"}, {"days": "Sun", "time": "Closed"}], "id": "0604000058", "name": "USPS COLLECTION BOX - BLUE BOX", "address": {"city": "MANCHESTER", "state": "CT", "street": "164 E CENTER ST", "postcode": "06040"}}},
{"geometry": {"type": "Point", "coordinates": [-72.5282972804, 41.7698711675]}, "type": "Feature", "properties": {"collection_times": [{"days": "Mon-Sat", "time": "4:30pm"}, {"days": "Sun", "time": "Closed"}], "id": "0604000061", "name": "USPS COLLECTION BOX - BLUE BOX", "address": {"city": "MANCHESTER", "state": "CT", "street": "299 E CENTER ST", "postcode": "06040"}}},
{"geometry": {"type": "Point", "coordinates": [-72.5203886834, 41.7669874024]}, "type": "Feature", "properties": {"collection_times": [{"days": "Mon-Sat", "time": "4:30pm"}, {"days": "Sun", "time": "Closed"}], "id": "0604000064", "name": "USPS COLLECTION BOX - BLUE BOX", "address": {"city": "MANCHESTER", "state": "CT", "street": "1087 MAIN ST", "postcode": "06040"}}},
{"geometry": {"type": "Point", "coordinates": [-72.5204679597, 41.7680386467]}, "type": "Feature", "properties": {"collection_times": [{"days": "Mon-Sat", "time": "4:30pm"}, {"days": "Sun", "time": "Closed"}], "id": "0604000066", "name": "USPS COLLECTION BOX - BLUE BOX", "address": {"city": "MANCHESTER", "state": "CT", "street": "1015 MAIN ST", "postcode": "06040"}}},
{"geometry": {"type": "Point", "coordinates": [-72.7383038826, 41.5735001734]}, "type": "Feature", "properties": {"collection_times": [{"days": "Mon-Sat", "time": "4:00pm"}, {"days": "Sun", "time": "Closed"}], "id": "0604000068", "name": "USPS COLLECTION BOX - BLUE BOX", "address": {"city": "MANCHESTER", "state": "CT", "street": "953 MAIN ST", "postcode": "06040"}}},
{"geometry": {"type": "Point", "coordinates": [-72.5208946126, 41.770486061]}, "type": "Feature", "properties": {"collection_times": [{"days": "Mon-Sat", "time": "1:30pm"}, {"days": "Sun", "time": "Closed"}], "id": "0604000069", "name": "USPS COLLECTION BOX - BLUE BOX", "address": {"city": "MANCHESTER", "state": "CT", "street": "841 MAIN ST", "postcode": "06040"}}},
{"geometry": {"type": "Point", "coordinates": [-72.52151329, 41.774602755]}, "type": "Feature", "properties": {"collection_times": [{"days": "Mon-Sat", "time": "1:30pm"}, {"days": "Sun", "time": "Closed"}], "id": "0604000072", "name": "USPS COLLECTION BOX - BLUE BOX", "address": {"city": "MANCHESTER", "state": "CT", "street": "575 MAIN ST", "postcode": "06040"}}},
{"geometry": {"type": "Point", "coordinates": [-72.7383038826, 41.5735001734]}, "type": "Feature", "properties": {"collection_times": [{"days": "Mon-Sat", "time": "12:00pm"}, {"days": "Sun", "time": "Closed"}], "id": "0604000073", "name": "USPS COLLECTION BOX - BLUE BOX", "address": {"city": "MANCHESTER", "state": "CT", "street": "681 BOSTON", "postcode": "06040"}}},
{"geometry": {"type": "Point", "coordinates": [-72.5412320857, 41.7805954111]}, "type": "Feature", "properties": {"collection_times": [{"days": "Mon-Sat", "time": "2:30pm"}, {"days": "Sun", "time": "Closed"}], "id": "0604000083", "name": "USPS COLLECTION BOX - BLUE BOX", "address": {"city": "MANCHESTER", "state": "CT", "street": "384 MIDDLE TPKE W", "postcode": "06040"}}},
{"geometry": {"type": "Point", "coordinates": [-72.5282972804, 41.7698711675]}, "type": "Feature", "properties": {"collection_times": [{"days": "Mon-Fri", "time": "10:00am"}, {"days": "Sat-Sun", "time": "Closed"}], "id": "0604000084", "name": "USPS COLLECTION BOX - BLUE BOX", "address": {"city": "MANCHESTER", "state": "CT", "street": "360 TOLLAND", "postcode": "06040"}}},
{"geometry": {"type": "Point", "coordinates": [-72.520428878, 41.7645839363]}, "type": "Feature", "properties": {"collection_times": [{"days": "Mon-Fri", "time": "4:30pm"}, {"days": "Sat", "time": "2:00pm"}, {"days": "Sun", "time": "Closed"}], "id": "0604000085", "name": "USPS COLLECTION BOX - BLUE BOX", "address": {"city": "MANCHESTER", "state": "CT", "street": "146 HARTFORD RD", "postcode": "06040"}}},
{"geometry": {"type": "Point", "coordinates": [-72.5282972804, 41.7698711675]}, "type": "Feature", "properties": {"collection_times": [{"days": "Mon-Sat", "time": "11:00am"}, {"days": "Sun", "time": "Closed"}], "id": "0604000088", "name": "USPS COLLECTION BOX - BLUE BOX", "address": {"city": "MANCHESTER", "state": "CT", "street": "391 BROAD ST", "postcode": "06040"}}},
{"geometry": {"type": "Point", "coordinates": [-72.4900202184, 41.7660979263]}, "type": "Feature", "properties": {"collection_times": [{"days": "Mon-Sat", "time": "2:00pm"}, {"days": "Sun", "time": "Closed"}], "id": "0604000089", "name": "USPS COLLECTION BOX - BLUE BOX", "address": {"city": "MANCHESTER", "state": "CT", "street": "317 HIGHLAND ST", "postcode": "06040"}}},
{"geometry": {"type": "Point", "coordinates": [-72.5232187818, 41.7833515733]}, "type": "Feature", "properties": {"collection_times": [{"days": "Mon-Sat", "time": "5:00pm"}, {"days": "Sun", "time": "Closed"}], "id": "0604000096", "name": "USPS COLLECTION BOX - BLUE BOX", "address": {"city": "MANCHESTER", "state": "CT", "street": "699 MIDDLE TPKE E", "postcode": "06040"}}},
{"geometry": {"type": "Point", "coordinates": [-72.5152848279, 41.7986616893]}, "type": "Feature", "properties": {"collection_times": [{"days": "Mon-Sat", "time": "5:30pm"}, {"days": "Sun", "time": "Closed"}], "id": "0604000097", "name": "USPS COLLECTION BOX - PO LOBBY", "address": {"city": "MANCHESTER", "state": "CT", "street": "111 SHELDON RD", "postcode": "06040"}}},
{"geometry": {"type": "Point", "coordinates": [-72.7383038826, 41.5735001734]}, "type": "Feature", "properties": {"collection_times": [{"days": "Mon-Fri", "time": "5:00pm"}, {"days": "Sat", "time": "12:00pm"}, {"days": "Sun", "time": "Closed"}], "id": "0604000099", "name": "USPS COLLECTION BOX - PO LOBBY", "address": {"city": "MANCHESTER", "state": "CT", "street": "681 BOSTON TPKE", "postcode": "06040"}}},
{"geometry": {"type": "Point", "coordinates": [-72.5152848279, 41.7986616893]}, "type": "Feature", "properties": {"collection_times": [{"days": "Mon-Sat", "time": "5:30pm"}, {"days": "Sun", "time": "Closed"}], "id": "0604000100", "name": "USPS COLLECTION BOX - APC", "address": {"city": "MANCHESTER", "state": "CT", "street": "111 SHELDON RD", "postcode": "06040"}}},
{"geometry": {"type": "Point", "coordinates": [-72.7936367703, 41.6785601744]}, "type": "Feature", "properties": {"collection_times": [{"days": "Mon-Sat", "time": "1:15pm"}, {"days": "Sun", "time": "Closed"}], "id": "0605000001", "name": "USPS COLLECTION BOX - BLUE BOX", "address": {"city": "NEW BRITAIN", "state": "CT", "street": "510 BURRITT", "postcode": "06050"}}},
{"geometry": {"type": "Point", "coordinates": [-72.7795203939, 41.6823354908]}, "type": "Feature", "properties": {"collection_times": [{"days": "Mon-Sat", "time": "1:00pm"}, {"days": "Sun", "time": "Closed"}], "id": "0605000004", "name": "USPS COLLECTION BOX - BLUE BOX", "address": {"city": "NEW BRITAIN", "state": "CT", "street": "220 ALLEN", "postcode": "06050"}}},
{"geometry": {"type": "Point", "coordinates": [-72.7820206486, 41.6646672763]}, "type": "Feature", "properties": {"collection_times": [{"days": "Mon-Sat", "time": "3:00pm"}, {"days": "Sun", "time": "Closed"}], "id": "0605000006", "name": "USPS COLLECTION BOX - BLUE BOX", "address": {"city": "NEW BRITAIN", "state": "CT", "street": "100 ARCH", "postcode": "06050"}}},
{"geometry": {"type": "Point", "coordinates": [-72.7767664196, 41.666012455]}, "type": "Feature", "properties": {"collection_times": [{"days": "Mon-Sat", "time": "5:00pm"}, {"days": "Sun", "time": "Closed"}], "id": "0605000011", "name": "USPS COLLECTION BOX - EXPRESS", "address": {"city": "NEW BRITAIN", "state": "CT", "street": "135 CHESTNUT ST", "postcode": "06050"}}},
{"geometry": {"type": "Point", "coordinates": [-72.772425207, 41.6985241154]}, "type": "Feature", "properties": {"collection_times": [{"days": "Mon-Sat", "time": "12:45pm"}, {"days": "Sun", "time": "Closed"}], "id": "0605000016", "name": "USPS COLLECTION BOX - BLUE BOX", "address": {"city": "NEW BRITAIN", "state": "CT", "street": "44 BARBOUR", "postcode": "06050"}}},
{"geometry": {"type": "Point", "coordinates": [-72.7798464987, 41.6570855538]}, "type": "Feature", "properties": {"collection_times": [{"days": "Mon-Sat", "time": "11:30am"}, {"days": "Sun", "time": "Closed"}], "id": "0605000018", "name": "USPS COLLECTION BOX - BLUE BOX", "address": {"city": "NEW BRITAIN", "state": "CT", "street": "140 BASSETT", "postcode": "06050"}}},
{"geometry": {"type": "Point", "coordinates": [-72.7550583539, 41.6670634773]}, "type": "Feature", "properties": {"collection_times": [{"days": "Mon-Sat", "time": "2:15pm"}, {"days": "Sun", "time": "Closed"}], "id": "0605000020", "name": "USPS COLLECTION BOX - BLUE BOX", "address": {"city": "NEW BRITAIN", "state": "CT", "street": "480 JOHN DOWNEY", "postcode": "06050"}}},
{"geometry": {"type": "Point", "coordinates": [-72.7821472821, 41.6677212296]}, "type": "Feature", "properties": {"collection_times": [{"days": "Mon-Sat", "time": "2:00pm"}, {"days": "Sun", "time": "Closed"}], "id": "0605000021", "name": "USPS COLLECTION BOX - BLUE BOX", "address": {"city": "NEW BRITAIN", "state": "CT", "street": "96 GARDEN ST", "postcode": "06050"}}},
{"geometry": {"type": "Point", "coordinates": [-72.7769539284, 41.6647865178]}, "type": "Feature", "properties": {"collection_times": [{"days": "Mon-Sat", "time": "5:00pm"}, {"days": "Sun", "time": "Closed"}], "id": "0605000024", "name": "USPS COLLECTION BOX - BLUE BOX", "address": {"city": "NEW BRITAIN", "state": "CT", "street": "2 BOSCO DR", "postcode": "06050"}}},
{"geometry": {"type": "Point", "coordinates": [-72.769108999, 41.711125178]}, "type": "Feature", "properties": {"collection_times": [{"days": "Mon-Sat", "time": "2:00pm"}, {"days": "Sun", "time": "Closed"}], "id": "0605000026", "name": "USPS COLLECTION BOX - BLUE BOX", "address": {"city": "NEW BRITAIN", "state": "CT", "street": "100 VILLAGE SQUARE DR", "postcode": "06050"}}},
{"geometry": {"type": "Point", "coordinates": [-72.7876933427, 41.6732901275]}, "type": "Feature", "properties": {"collection_times": [{"days": "Mon-Sat", "time": "10:00am"}, {"days": "Sun", "time": "Closed"}], "id": "0605000028", "name": "USPS COLLECTION BOX - BLUE BOX", "address": {"city": "NEW BRITAIN", "state": "CT", "street": "113 BROAD ST", "postcode": "06050"}}},
{"geometry": {"type": "Point", "coordinates": [-72.7753219192, 41.6894011757]}, "type": "Feature", "properties": {"collection_times": [{"days": "Mon-Sat", "time": "9:30am"}, {"days": "Sun", "time": "Closed"}], "id": "0605000032", "name": "USPS COLLECTION BOX - BLUE BOX", "address": {"city": "NEW BRITAIN", "state": "CT", "street": "244 CARLTON", "postcode": "06050"}}},
{"geometry": {"type": "Point", "coordinates": [-72.7764727037, 41.6660176835]}, "type": "Feature", "properties": {"collection_times": [{"days": "Mon-Sat", "time": "5:00pm"}, {"days": "Sun", "time": "Closed"}], "id": "0605000035", "name": "USPS COLLECTION BOX - BLUE BOX", "address": {"city": "NEW BRITAIN", "state": "CT", "street": "135 CHESTNUT ST", "postcode": "06050"}}},
{"geometry": {"type": "Point", "coordinates": [-72.7620275006, 41.6756990386]}, "type": "Feature", "properties": {"collection_times": [{"days": "Mon-Sat", "time": "12:30pm"}, {"days": "Sun", "time": "Closed"}], "id": "0605000039", "name": "USPS COLLECTION BOX - BLUE BOX", "address": {"city": "NEW BRITAIN", "state": "CT", "street": "847 EAST", "postcode": "06050"}}},
{"geometry": {"type": "Point", "coordinates": [-72.7383038826, 41.5735001734]}, "type": "Feature", "properties": {"collection_times": [{"days": "Mon-Sat", "time": "11:30am"}, {"days": "Sun", "time": "Closed"}], "id": "0605000040", "name": "USPS COLLECTION BOX - BLUE BOX", "address": {"city": "NEW BRITAIN", "state": "CT", "street": "96 NORTH", "postcode": "06050"}}},
{"geometry": {"type": "Point", "coordinates": [-72.8045955309, 41.6736875275]}, "type": "Feature", "properties": {"collection_times": [{"days": "Mon-Sat", "time": "9:30am"}, {"days": "Sun", "time": "Closed"}], "id": "0605000041", "name": "USPS COLLECTION BOX - BLUE BOX", "address": {"city": "NEW BRITAIN", "state": "CT", "street": "1480 CORBIN", "postcode": "06050"}}},
{"geometry": {"type": "Point", "coordinates": [-72.7383038826, 41.5735001734]}, "type": "Feature", "properties": {"collection_times": [{"days": "Mon-Sat", "time": "10:30am"}, {"days": "Sun", "time": "Closed"}], "id": "0605000043", "name": "USPS COLLECTION BOX - BLUE BOX", "address": {"city": "NEW BRITAIN", "state": "CT", "street": "10 CHESTNUT ST", "postcode": "06050"}}},
{"geometry": {"type": "Point", "coordinates": [-72.7998327862, 41.6889215877]}, "type": "Feature", "properties": {"collection_times": [{"days": "Mon-Sat", "time": "11:00am"}, {"days": "Sun", "time": "Closed"}], "id": "0605000046", "name": "USPS COLLECTION BOX - BLUE BOX", "address": {"city": "NEW BRITAIN", "state": "CT", "street": "2150 CORBIN", "postcode": "06050"}}},
{"geometry": {"type": "Point", "coordinates": [-72.7767664197, 41.6660125006]}, "type": "Feature", "properties": {"collection_times": [{"days": "Mon-Sat", "time": "10:00am"}, {"days": "Sun", "time": "Closed"}], "id": "0605000050", "name": "USPS COLLECTION BOX - BLUE BOX", "address": {"city": "NEW BRITAIN", "state": "CT", "street": "146 EAST", "postcode": "06050"}}},
{"geometry": {"type": "Point", "coordinates": [-72.764924487, 41.6623431676]}, "type": "Feature", "properties": {"collection_times": [{"days": "Mon-Sat", "time": "11:00am"}, {"days": "Sun", "time": "Closed"}], "id": "0605000052", "name": "USPS COLLECTION BOX - BLUE BOX", "address": {"city": "NEW BRITAIN", "state": "CT", "street": "347 EAST", "postcode": "06050"}}},
{"geometry": {"type": "Point", "coordinates": [-72.7770317701, 41.6572553015]}, "type": "Feature", "properties": {"collection_times": [{"days": "Mon-Sat", "time": "12:15pm"}, {"days": "Sun", "time": "Closed"}], "id": "0605000057", "name": "USPS COLLECTION BOX - BLUE BOX", "address": {"city": "NEW BRITAIN", "state": "CT", "street": "272 S MAIN", "postcode": "06050"}}},
{"geometry": {"type": "Point", "coordinates": [-72.7821472821, 41.6677212296]}, "type": "Feature", "properties": {"collection_times": [{"days": "Mon-Sat", "time": "2:00pm"}, {"days": "Sun", "time": "Closed"}], "id": "0605000059", "name": "USPS COLLECTION BOX - BLUE BOX", "address": {"city": "NEW BRITAIN", "state": "CT", "street": "350 FARMINGTON AVE", "postcode": "06050"}}},
{"geometry": {"type": "Point", "coordinates": [-72.7821472821, 41.6677212296]}, "type": "Feature", "properties": {"collection_times": [{"days": "Mon-Sat", "time": "2:00pm"}, {"days": "Sun", "time": "Closed"}], "id": "0605000060", "name": "USPS COLLECTION BOX - BLUE BOX", "address": {"city": "NEW BRITAIN", "state": "CT", "street": "693 FARMINGTON AVE", "postcode": "06050"}}},
{"geometry": {"type": "Point", "coordinates": [-72.7781856, 41.6659192123]}, "type": "Feature", "properties": {"collection_times": [{"days": "Mon-Sat", "time": "9:30am"},