{"type": "FeatureCollection", "features": [
{"geometry": {"type": "Point", "coordinates": [-72.6615459447, 41.7901059477]}, "type": "Feature", "properties": {"collection_times": [{"days": "Mon-Sun", "time": "6:00pm"}], "id": "0610100001", "name": "USPS COLLECTION BOX - BLUE BOX", "address": {"city": "HARTFORD", "state": "CT", "street": "141 WESTON ST", "postcode": "06101"}}},
{"geometry": {"type": "Point", "coordinates": [-72.6615459447, 41.7901059477]}, "type": "Feature", "properties": {"collection_times": [{"days": "Mon-Sun", "time": "6:00pm"}], "id": "0610100003", "name": "USPS COLLECTION BOX - EXPRESS", "address": {"city": "HARTFORD", "state": "CT", "street": "141 WESTON ST", "postcode": "06101"}}},
{"geometry": {"type": "Point", "coordinates": [-72.6612525005, 41.7906069217]}, "type": "Feature", "properties": {"collection_times": [{"days": "Mon-Fri", "time": "6:00pm"}, {"days": "Sat-Sun", "time": "Closed"}], "id": "0610100004", "name": "USPS COLLECTION BOX - BLUE BOX", "address": {"city": "HARTFORD", "state": "CT", "street": "141 WESTON ST", "postcode": "06101"}}},
{"geometry": {"type": "Point", "coordinates": [-72.6612525005, 41.7906069217]}, "type": "Feature", "properties": {"collection_times": [{"days": "Mon-Sat", "time": "8:00pm"}, {"days": "Sun", "time": "Closed"}], "id": "0610100006", "name": "USPS COLLECTION BOX - APC", "address": {"city": "HARTFORD", "state": "CT", "street": "141 WESTON ST", "postcode": "06101"}}},
{"geometry": {"type": "Point", "coordinates": [-72.6753061961, 41.7670903639]}, "type": "Feature", "properties": {"collection_times": [{"days": "Mon-Fri", "time": "2:00pm"}, {"days": "Sat-Sun", "time": "Closed"}], "id": "0610300002", "name": "USPS COLLECTION BOX - BLUE BOX", "address": {"city": "HARTFORD", "state": "CT", "street": "179 ALLYN ST", "postcode": "06103"}}},
{"geometry": {"type": "Point", "coordinates": [-72.6758638414, 41.7636910552]}, "type": "Feature", "properties": {"collection_times": [{"days": "Mon-Fri", "time": "9:30am"}, {"days": "Sat-Sun", "time": "Closed"}], "id": "0610300027", "name": "USPS COLLECTION BOX - BLUE BOX", "address": {"city": "HARTFORD", "state": "CT", "street": "100 WELLS", "postcode": "06103"}}},
{"geometry": {"type": "Point", "coordinates": [-72.6754042386, 41.7649544565]}, "type": "Feature", "properties": {"collection_times": [{"days": "Mon-Fri", "time": "3:00pm"}, {"days": "Sat-Sun", "time": "Closed"}], "id": "0610300029", "name": "USPS COLLECTION BOX - BLUE BOX", "address": {"city": "HARTFORD", "state": "CT", "street": "15 LEWIS ST", "postcode": "06103"}}},
{"geometry": {"type": "Point", "coordinates": [-72.6743632347, 41.7624797064]}, "type": "Feature", "properties": {"collection_times": [{"days": "Mon-Fri", "time": "10:30am"}, {"days": "Sat-Sun", "time": "Closed"}], "id": "0610300034", "name": "USPS COLLECTION BOX - BLUE BOX", "address": {"city": "HARTFORD", "state": "CT", "street": "525 MAIN ST", "postcode": "06103"}}},
{"geometry": {"type": "Point", "coordinates": [-72.6734133187, 41.7655861566]}, "type": "Feature", "properties": {"collection_times": [{"days": "Mon-Fri", "time": "4:00pm"}, {"days": "Sat-Sun", "time": "Closed"}], "id": "0610300042", "name": "USPS COLLECTION BOX - BLUE BOX", "address": {"city": "HARTFORD", "state": "CT", "street": "755 MAIN ST", "postcode": "06103"}}},
{"geometry": {"type": "Point", "coordinates": [-72.6753061961, 41.7670903639]}, "type": "Feature", "properties": {"collection_times": [{"days": "Mon-Fri", "time": "11:30am"}, {"days": "Sat-Sun", "time": "Closed"}], "id": "0610300052", "name": "USPS COLLECTION BOX - BLUE BOX", "address": {"city": "HARTFORD", "state": "CT", "street": "956 MAIN ST", "postcode": "06103"}}},
{"geometry": {"type": "Point", "coordinates": [-72.6753061961, 41.7670903639]}, "type": "Feature", "properties": {"collection_times": [{"days": "Mon-Fri", "time": "11:00am"}, {"days": "Sat-Sun", "time": "Closed"}], "id": "0610300053", "name": "USPS COLLECTION BOX - BLUE BOX", "address": {"city": "HARTFORD", "state": "CT", "street": "106 MARKET ST", "postcode": "06103"}}},
{"geometry": {"type": "Point", "coordinates": [-72.6715265128, 41.7657840375]}, "type": "Feature", "properties": {"collection_times": [{"days": "Mon-Fri", "time": "11:00am"}, {"days": "Sat-Sun", "time": "Closed"}], "id": "0610300055", "name": "USPS COLLECTION BOX - BLUE BOX", "address": {"city": "HARTFORD", "state": "CT", "street": "160 MARKET ST", "postcode": "06103"}}},
{"geometry": {"type": "Point", "coordinates": [-72.6742413899, 41.7667241631]}, "type": "Feature", "properties": {"collection_times": [{"days": "Mon-Fri", "time": "3:00pm"}, {"days": "Sat-Sun", "time": "Closed"}], "id": "0610300056", "name": "USPS COLLECTION BOX - BLUE BOX", "address": {"city": "HARTFORD", "state": "CT", "street": "55 ASYLUM ST", "postcode": "06103"}}},
{"geometry": {"type": "Point", "coordinates": [-72.6753192312, 41.7671033529]}, "type": "Feature", "properties": {"collection_times": [{"days": "Mon-Fri", "time": "5:00pm"}, {"days": "Sat-Sun", "time": "Closed"}], "id": "0610300057", "name": "USPS COLLECTION BOX - BLUE BOX", "address": {"city": "HARTFORD", "state": "CT", "street": "185 ANN ST", "postcode": "06103"}}},
{"geometry": {"type": "Point", "coordinates": [-72.6778825376, 41.7679485257]}, "type": "Feature", "properties": {"collection_times": [{"days": "Mon-Fri", "time": "5:00pm"}, {"days": "Sat-Sun", "time": "Closed"}], "id": "0610300058", "name": "USPS COLLECTION BOX - BLUE BOX", "address": {"city": "HARTFORD", "state": "CT", "street": "185 ANN ST", "postcode": "06103"}}},
{"geometry": {"type": "Point", "coordinates": [-72.6753192312, 41.7671033529]}, "type": "Feature", "properties": {"collection_times": [{"days": "Mon-Fri", "time": "5:00pm"}, {"days": "Sat-Sun", "time": "Closed"}], "id": "0610300059", "name": "USPS COLLECTION BOX - EXPRESS", "address": {"city": "HARTFORD", "state": "CT", "street": "185 ANN ST", "postcode": "06103"}}},
{"geometry": {"type": "Point", "coordinates": [-72.6753061961, 41.7670903639]}, "type": "Feature", "properties": {"collection_times": [{"days": "Mon-Fri", "time": "10:00am"}, {"days": "Sat-Sun", "time": "Closed"}], "id": "0610300071", "name": "USPS COLLECTION BOX - BLUE BOX", "address": {"city": "HARTFORD", "state": "CT", "street": "46 PROSPECT ST", "postcode": "06103"}}},
{"geometry": {"type": "Point", "coordinates": [-72.671195316, 41.765839349]}, "type": "Feature", "properties": {"collection_times": [{"days": "Mon-Fri", "time": "5:00pm"}, {"days": "Sat", "time": "12:00pm"}, {"days": "Sun", "time": "Closed"}], "id": "0610300076", "name": "USPS COLLECTION BOX - BLUE BOX", "address": {"city": "HARTFORD", "state": "CT", "street": "80 STATE ST", "postcode": "06103"}}},
{"geometry": {"type": "Point", "coordinates": [-72.671195316, 41.765839349]}, "type": "Feature", "properties": {"collection_times": [{"days": "Mon-Fri", "time": "5:00pm"}, {"days": "Sat-Sun", "time": "Closed"}], "id": "0610300077", "name": "USPS COLLECTION BOX - EXPRESS", "address": {"city": "HARTFORD", "state": "CT", "street": "80 STATE ST", "postcode": "06103"}}},
{"geometry": {"type": "Point", "coordinates": [-72.6754858628, 41.7682004959]}, "type": "Feature", "properties": {"collection_times": [{"days": "Mon-Fri", "time": "3:30pm"}, {"days": "Sat-Sun", "time": "Closed"}], "id": "0610300089", "name": "USPS COLLECTION BOX - BLUE BOX", "address": {"city": "HARTFORD", "state": "CT", "street": "242 TRUMBULL ST", "postcode": "06103"}}},
{"geometry": {"type": "Point", "coordinates": [-72.6733648173, 41.765747039]}, "type": "Feature", "properties": {"collection_times": [{"days": "Mon-Fri", "time": "4:00pm"}, {"days": "Sat-Sun", "time": "Closed"}], "id": "0610300091", "name": "USPS COLLECTION BOX - BLUE BOX", "address": {"city": "HARTFORD", "state": "CT", "street": "750 MAIN ST", "postcode": "06103"}}},
{"geometry": {"type": "Point", "coordinates": [-72.671195316, 41.765839349]}, "type": "Feature", "properties": {"collection_times": [{"days": "Mon-Fri", "time": "5:00pm"}, {"days": "Sat", "time": "12:00pm"}, {"days": "Sun", "time": "Closed"}], "id": "0610300100", "name": "USPS COLLECTION BOX - PO LOBBY", "address": {"city": "HARTFORD", "state": "CT", "street": "80 STATE ST", "postcode": "06103"}}},
{"geometry": {"type": "Point", "coordinates": [-72.671195316, 41.765839349]}, "type": "Feature", "properties": {"collection_times": [{"days": "Mon-Fri", "time": "5:00pm"}, {"days": "Sat", "time": "12:00pm"}, {"days": "Sun", "time": "Closed"}], "id": "0610300101", "name": "USPS COLLECTION BOX - PO LOBBY", "address": {"city": "HARTFORD", "state": "CT", "street": "80 STATE ST", "postcode": "06103"}}},
{"geometry": {"type": "Point", "coordinates": [-72.6798687257, 41.7697347937]}, "type": "Feature", "properties": {"collection_times": [{"days": "Mon-Fri", "time": "2:00pm"}, {"days": "Sat-Sun", "time": "Closed"}], "id": "0610300106", "name": "USPS COLLECTION BOX - BLUE BOX", "address": {"city": "HARTFORD", "state": "CT", "street": "135 HIGH ST", "postcode": "06103"}}},
{"geometry": {"type": "Point", "coordinates": [-72.6798687257, 41.7697347937]}, "type": "Feature", "properties": {"collection_times": [{"days": "Mon-Fri", "time": "2:00pm"}, {"days": "Sat-Sun", "time": "Closed"}], "id": "0610300107", "name": "USPS COLLECTION BOX - BLUE BOX", "address": {"city": "HARTFORD", "state": "CT", "street": "135 HIGH ST", "postcode": "06103"}}},
{"geometry": {"type": "Point", "coordinates": [-72.6753061961, 41.7670903639]}, "type": "Feature", "properties": {"collection_times": [{"days": "Mon-Fri", "time": "3:30pm"}, {"days": "Sat-Sun", "time": "Closed"}], "id": "0610300108", "name": "USPS COLLECTION BOX - BLUE BOX", "address": {"city": "HARTFORD", "state": "CT", "street": "196 TRUMBULL ST", "postcode": "06103"}}},
{"geometry": {"type": "Point", "coordinates": [-72.7383038826, 41.5735001734]}, "type": "Feature", "properties": {"collection_times": [{"days": "Mon-Fri", "time": "11:00am"}, {"days": "Sat-Sun", "time": "Closed"}], "id": "0610500007", "name": "USPS COLLECTION BOX - BLUE BOX", "address": {"city": "HARTFORD", "state": "CT", "street": "999 ASYLUM AVE", "postcode": "06105"}}},
{"geometry": {"type": "Point", "coordinates": [-72.6990977237, 41.7718948768]}, "type": "Feature", "properties": {"collection_times": [{"days": "Mon-Fri", "time": "11:00am"}, {"days": "Sat-Sun", "time": "Closed"}], "id": "0610500010", "name": "USPS COLLECTION BOX - BLUE BOX", "address": {"city": "HARTFORD", "state": "CT", "street": "1000 ASYLUM AVE", "postcode": "06105"}}},
{"geometry": {"type": "Point", "coordinates": [-72.7149576546, 41.7904211971]}, "type": "Feature", "properties": {"collection_times": [{"days": "Mon-Sat", "time": "11:30am"}, {"days": "Sun", "time": "Closed"}], "id": "0610500014", "name": "USPS COLLECTION BOX - BLUE BOX", "address": {"city": "HARTFORD", "state": "CT", "street": "100 BLOOMFIELD AVE", "postcode": "06105"}}},
{"geometry": {"type": "Point", "coordinates": [-72.7000770722, 41.7688327114]}, "type": "Feature", "properties": {"collection_times": [{"days": "Mon-Sat", "time": "11:00am"}, {"days": "Sun", "time": "Closed"}], "id": "0610500018", "name": "USPS COLLECTION BOX - BLUE BOX", "address": {"city": "HARTFORD", "state": "CT", "street": "65 ELIZABETH ST", "postcode": "06105"}}},
{"geometry": {"type": "Point", "coordinates": [-72.7000770722, 41.7688327114]}, "type": "Feature", "properties": {"collection_times": [{"days": "Mon-Sat", "time": "1:00pm"}, {"days": "Sun", "time": "Closed"}], "id": "0610500025", "name": "USPS COLLECTION BOX - BLUE BOX", "address": {"city": "HARTFORD", "state": "CT", "street": "9 EVERGREEN AVE", "postcode": "06105"}}},
{"geometry": {"type": "Point", "coordinates": [-72.7145436189, 41.7657754301]}, "type": "Feature", "properties": {"collection_times": [{"days": "Mon-Fri", "time": "12:00pm"}, {"days": "Sat-Sun", "time": "Closed"}], "id": "0610500029", "name": "USPS COLLECTION BOX - BLUE BOX", "address": {"city": "HARTFORD", "state": "CT", "street": "635 FARMINGTON AVE", "postcode": "06105"}}},
{"geometry": {"type": "Point", "coordinates": [-72.7000770722, 41.7688327114]}, "type": "Feature", "properties": {"collection_times": [{"days": "Mon-Sat", "time": "1:00pm"}, {"days": "Sun", "time": "Closed"}], "id": "0610500032", "name": "USPS COLLECTION BOX - BLUE BOX", "address": {"city": "HARTFORD", "state": "CT", "street": "126 KENYON ST", "postcode": "06105"}}},
{"geometry": {"type": "Point", "coordinates": [-72.7047274254, 41.7657565027]}, "type": "Feature", "properties": {"collection_times": [{"days": "Mon-Sat", "time": "1:00pm"}, {"days": "Sun", "time": "Closed"}], "id": "0610500033", "name": "USPS COLLECTION BOX - BLUE BOX", "address": {"city": "HARTFORD", "state": "CT", "street": "35 OWEN ST", "postcode": "06105"}}},
{"geometry": {"type": "Point", "coordinates": [-72.7000770722, 41.7688327114]}, "type": "Feature", "properties": {"collection_times": [{"days": "Mon-Sat", "time": "11:00am"}, {"days": "Sun", "time": "Closed"}], "id": "0610500042", "name": "USPS COLLECTION BOX - BLUE BOX", "address": {"city": "HARTFORD", "state": "CT", "street": "682 PROSPECT AVE", "postcode": "06105"}}},
{"geometry": {"type": "Point", "coordinates": [-72.7071244243, 41.7692923141]}, "type": "Feature", "properties": {"collection_times": [{"days": "Mon-Sat", "time": "10:30am"}, {"days": "Sun", "time": "Closed"}], "id": "0610500045", "name": "USPS COLLECTION BOX - BLUE BOX", "address": {"city": "HARTFORD", "state": "CT", "street": "77 SHERMAN ST", "postcode": "06105"}}},
{"geometry": {"type": "Point", "coordinates": [-72.7118358258, 41.7722994488]}, "type": "Feature", "properties": {"collection_times": [{"days": "Mon-Sat", "time": "12:00pm"}, {"days": "Sun", "time": "Closed"}], "id": "0610500049", "name": "USPS COLLECTION BOX - BLUE BOX", "address": {"city": "HARTFORD", "state": "CT", "street": "178 S WHITNEY ST", "postcode": "06105"}}},
{"geometry": {"type": "Point", "coordinates": [-72.7019001535, 41.7689422112]}, "type": "Feature", "properties": {"collection_times": [{"days": "Mon-Sat", "time": "12:30pm"}, {"days": "Sun", "time": "Closed"}], "id": "0610500052", "name": "USPS COLLECTION BOX - BLUE BOX", "address": {"city": "HARTFORD", "state": "CT", "street": "21 WOODLAND", "postcode": "06105"}}},
{"geometry": {"type": "Point", "coordinates": [-72.7383038826, 41.5735001734]}, "type": "Feature", "properties": {"collection_times": [{"days": "Mon-Sat", "time": "10:30am"}, {"days": "Sun", "time": "Closed"}], "id": "0610500056", "name": "USPS COLLECTION BOX - BLUE BOX", "address": {"city": "HARTFORD", "state": "CT", "street": "36 WOODLAND", "postcode": "06105"}}},
{"geometry": {"type": "Point", "coordinates": [-72.7014802031, 41.770359396]}, "type": "Feature", "properties": {"collection_times": [{"days": "Mon-Sat", "time": "10:00am"}, {"days": "Sun", "time": "Closed"}], "id": "0610500057", "name": "USPS COLLECTION BOX - BLUE BOX", "address": {"city": "HARTFORD", "state": "CT", "street": "43 WOODLAND", "postcode": "06105"}}},
{"geometry": {"type": "Point", "coordinates": [-72.7000770722, 41.7688327114]}, "type": "Feature", "properties": {"collection_times": [{"days": "Mon-Sat", "time": "11:30am"}, {"days": "Sun", "time": "Closed"}], "id": "0610500063", "name": "USPS COLLECTION BOX - BLUE BOX", "address": {"city": "HARTFORD", "state": "CT", "street": "69 GILLETT ST", "postcode": "06105"}}},
{"geometry": {"type": "Point", "coordinates": [-72.7068271776, 41.762893742]}, "type": "Feature", "properties": {"collection_times": [{"days": "Mon-Sat", "time": "10:30am"}, {"days": "Sun", "time": "Closed"}], "id": "0610500070", "name": "USPS COLLECTION BOX - BLUE BOX", "address": {"city": "HARTFORD", "state": "CT", "street": "170 SISSON AVE", "postcode": "06105"}}},
{"geometry": {"type": "Point", "coordinates": [-72.7071938949, 41.7654335549]}, "type": "Feature", "properties": {"collection_times": [{"days": "Mon-Sat", "time": "11:00am"}, {"days": "Sun", "time": "Closed"}], "id": "0610500073", "name": "USPS COLLECTION BOX - BLUE BOX", "address": {"city": "HARTFORD", "state": "CT", "street": "233 SISSON AVE", "postcode": "06105"}}},
{"geometry": {"type": "Point", "coordinates": [-72.6938144947, 41.7667163973]}, "type": "Feature", "properties": {"collection_times": [{"days": "Mon-Fri", "time": "11:00am"}, {"days": "Sat-Sun", "time": "Closed"}], "id": "0610500074", "name": "USPS COLLECTION BOX - BLUE BOX", "address": {"city": "HARTFORD", "state": "CT", "street": "77 SIGOURNEY ST", "postcode": "06105"}}},
{"geometry": {"type": "Point", "coordinates": [-72.7151859656, 41.7592265692]}, "type": "Feature", "properties": {"collection_times": [{"days": "Mon-Sat", "time": "11:00am"}, {"days": "Sun", "time": "Closed"}], "id": "0610500076", "name": "USPS COLLECTION BOX - BLUE BOX", "address": {"city": "HARTFORD", "state": "CT", "street": "414 PROSPECT ST", "postcode": "06105"}}},
{"geometry": {"type": "Point", "coordinates": [-72.7023571612, 41.7673915532]}, "type": "Feature", "properties": {"collection_times": [{"days": "Mon-Sat", "time": "10:00am"}, {"days": "Sun", "time": "Closed"}], "id": "0610500077", "name": "USPS COLLECTION BOX - BLUE BOX", "address": {"city": "HARTFORD", "state": "CT", "street": "61 WOODLAND ST", "postcode": "06105"}}},
{"geometry": {"type": "Point", "coordinates": [-72.7383038826, 41.5735001734]}, "type": "Feature", "properties": {"collection_times": [{"days": "Mon-Fri", "time": "11:00am"}, {"days": "Sat-Sun", "time": "Closed"}], "id": "0610500078", "name": "USPS COLLECTION BOX - BLUE BOX", "address": {"city": "HARTFORD", "state": "CT", "street": "690 ASYLUM AVE", "postcode": "06105"}}},
{"geometry": {"type": "Point", "coordinates": [-72.6913870618, 41.7521305104]}, "type": "Feature", "properties": {"collection_times": [{"days": "Mon-Sat", "time": "11:00am"}, {"days": "Sun", "time": "Closed"}], "id": "0610600001", "name": "USPS COLLECTION BOX - BLUE BOX", "address": {"city": "HARTFORD", "state": "CT", "street": "56 ARBOR ST", "postcode": "06106"}}},
{"geometry": {"type": "Point", "coordinates": [-72.7028879242, 41.7275717703]}, "type": "Feature", "properties": {"collection_times": [{"days": "Mon-Sat", "time": "11:00am"}, {"days": "Sun", "time": "Closed"}], "id": "0610600005", "name": "USPS COLLECTION BOX - BLUE BOX", "address": {"city": "HARTFORD", "state": "CT", "street": "4 SOMERS ST", "postcode": "06106"}}},
{"geometry": {"type": "Point", "coordinates": [-72.67922944, 41.760853269]}, "type": "Feature", "properties": {"collection_times": [{"days": "Mon-Sat", "time": "11:00am"}, {"days": "Sun", "time": "Closed"}], "id": "0610600014", "name": "USPS COLLECTION BOX - BLUE BOX", "address": {"city": "HARTFORD", "state": "CT", "street": "237 BUCKINGHAM ST", "postcode": "06106"}}},
{"geometry": {"type": "Point", "coordinates": [-72.6913870618, 41.7521305104]}, "type": "Feature", "properties": {"collection_times": [{"days": "Mon-Sat", "time": "1:00pm"}, {"days": "Sun", "time": "Closed"}], "id": "0610600017", "name": "USPS COLLECTION BOX - BLUE BOX", "address": {"city": "HARTFORD", "state": "CT", "street": "460 CAPITOL AVE", "postcode": "06106"}}},
{"geometry": {"type": "Point", "coordinates": [-72.6913870618, 41.7521305104]}, "type": "Feature", "properties": {"collection_times": [{"days": "Mon-Fri", "time": "1:00pm"}, {"days": "Sat-Sun", "time": "Closed"}], "id": "0610600018", "name": "USPS COLLECTION BOX - BLUE BOX", "address": {"city": "HARTFORD", "state": "CT", "street": "903 CAPITOL AVE", "postcode": "06106"}}},
{"geometry": {"type": "Point", "coordinates": [-72.6707386484, 41.7589722331]}, "type": "Feature", "properties": {"collection_times": [{"days": "Mon-Sat", "time": "12:30pm"}, {"days": "Sun", "time": "Closed"}], "id": "0610600019", "name": "USPS COLLECTION BOX - BLUE BOX", "address": {"city": "HARTFORD", "state": "CT", "street": "80 CHARTER OAK", "postcode": "06106"}}},
{"geometry": {"type": "Point", "coordinates": [-72.6736442622, 41.7563714534]}, "type": "Feature", "properties": {"collection_times": [{"days": "Mon-Fri", "time": "12:00pm"}, {"days": "Sat-Sun", "time": "Closed"}], "id": "0610600024", "name": "USPS COLLECTION BOX - BLUE BOX", "address": {"city": "HARTFORD", "state": "CT", "street": "3 GROTON ST", "postcode": "06106"}}},
{"geometry": {"type": "Point", "coordinates": [-72.6766498944, 41.76295289]}, "type": "Feature", "properties": {"collection_times": [{"days": "Mon-Sat", "time": "12:00pm"}, {"days": "Sun", "time": "Closed"}], "id": "0610600026", "name": "USPS COLLECTION BOX - BLUE BOX", "address": {"city": "HARTFORD", "state": "CT", "street": "55 ELM ST", "postcode": "06106"}}},
{"geometry": {"type": "Point", "coordinates": [-72.6982850309, 41.7444750709]}, "type": "Feature", "properties": {"collection_times": [{"days": "Mon-Sat", "time": "11:00am"}, {"days": "Sun", "time": "Closed"}], "id": "0610600027", "name": "USPS COLLECTION BOX - BLUE BOX", "address": {"city": "HARTFORD", "state": "CT", "street": "275 HILLSIDE AVE", "postcode": "06106"}}},
{"geometry": {"type": "Point", "coordinates": [-72.697013137, 41.734512743]}, "type": "Feature", "properties": {"collection_times": [{"days": "Mon-Sat", "time": "12:30pm"}, {"days": "Sun", "time": "Closed"}], "id": "0610600031", "name": "USPS COLLECTION BOX - BLUE BOX", "address": {"city": "HARTFORD", "state": "CT", "street": "237 WHITE ST", "postcode": "06106"}}},
{"geometry": {"type": "Point", "coordinates": [-72.6643194073, 41.7557881519]}, "type": "Feature", "properties": {"collection_times": [{"days": "Mon-Sat", "time": "11:30am"}, {"days": "Sun", "time": "Closed"}], "id": "0610600032", "name": "USPS COLLECTION BOX - BLUE BOX", "address": {"city": "HARTFORD", "state": "CT", "street": "140 HUYSHOPE AVE", "postcode": "06106"}}},
{"geometry": {"type": "Point", "coordinates": [-72.6833337686, 41.7592577375]}, "type": "Feature", "properties": {"collection_times": [{"days": "Mon-Sat", "time": "10:30am"}, {"days": "Sun", "time": "Closed"}], "id": "0610600033", "name": "USPS COLLECTION BOX - BLUE BOX", "address": {"city": "HARTFORD", "state": "CT", "street": "2 GRAND ST", "postcode": "06106"}}},
{"geometry": {"type": "Point", "coordinates": [-72.6826406273, 41.7612185473]}, "type": "Feature", "properties": {"collection_times": [{"days": "Mon-Sat", "time": "10:00am"}, {"days": "Sun", "time": "Closed"}], "id": "0610600035", "name": "USPS COLLECTION BOX - BLUE BOX", "address": {"city": "HARTFORD", "state": "CT", "street": "101 LAFAYETTE ST", "postcode": "06106"}}},
{"geometry": {"type": "Point", "coordinates": [-72.6968276255, 41.7597612667]}, "type": "Feature", "properties": {"collection_times": [{"days": "Mon-Sat", "time": "1:00pm"}, {"days": "Sun", "time": "Closed"}], "id": "0610600037", "name": "USPS COLLECTION BOX - BLUE BOX", "address": {"city": "HARTFORD", "state": "CT", "street": "25 LAUREL ST", "postcode": "06106"}}},
{"geometry": {"type": "Point", "coordinates": [-72.6754551058, 41.7580447932]}, "type": "Feature", "properties": {"collection_times": [{"days": "Mon-Fri", "time": "12:00pm"}, {"days": "Sat-Sun", "time": "Closed"}], "id": "0610600039", "name": "USPS COLLECTION BOX - BLUE BOX", "address": {"city": "HARTFORD", "state": "CT", "street": "175 MAIN ST", "postcode": "06106"}}},
{"geometry": {"type": "Point", "coordinates": [-72.6752824513, 41.7588517088]}, "type": "Feature", "properties": {"collection_times": [{"days": "Mon-Sat", "time": "12:00pm"}, {"days": "Sun", "time": "Closed"}], "id": "0610600040", "name": "USPS COLLECTION BOX - BLUE BOX", "address": {"city": "HARTFORD", "state": "CT", "street": "214 MAIN ST", "postcode": "06106"}}},
{"geometry": {"type": "Point", "coordinates": [-72.675335627, 41.7587557516]}, "type": "Feature", "properties": {"collection_times": [{"days": "Mon-Sat", "time": "12:00pm"}, {"days": "Sun", "time": "Closed"}], "id": "0610600041", "name": "USPS COLLECTION BOX - BLUE BOX", "address": {"city": "HARTFORD", "state": "CT", "street": "241 MAIN ST", "postcode": "06106"}}},
{"geometry": {"type": "Point", "coordinates": [-72.6913870618, 41.7521305104]}, "type": "Feature", "properties": {"collection_times": [{"days": "Mon-Fri", "time": "12:00pm"}, {"days": "Sat-Sun", "time": "Closed"}], "id": "0610600050", "name": "USPS COLLECTION BOX - BLUE BOX", "address": {"city": "HARTFORD", "state": "CT", "street": "269 NEW BRITAIN AVE", "postcode": "06106"}}},
{"geometry": {"type": "Point", "coordinates": [-72.6970630343, 41.7395918163]}, "type": "Feature", "properties": {"collection_times": [{"days": "Mon-Sat", "time": "12:00pm"}, {"days": "Sun", "time": "Closed"}], "id": "0610600051", "name": "USPS COLLECTION BOX - BLUE BOX", "address": {"city": "HARTFORD", "state": "CT", "street": "432 NEW BRITAIN AVE", "postcode": "06106"}}},
{"geometry": {"type": "Point", "coordinates": [-72.6905837804, 41.7580813439]}, "type": "Feature", "properties": {"collection_times": [{"days": "Mon-Sat", "time": "12:00pm"}, {"days": "Sun", "time": "Closed"}], "id": "0610600061", "name": "USPS COLLECTION BOX - BLUE BOX", "address": {"city": "HARTFORD", "state": "CT", "street": "801 PARK PARK", "postcode": "06106"}}},
{"geometry": {"type": "Point", "coordinates": [-72.6913870618, 41.7521305104]}, "type": "Feature", "properties": {"collection_times": [{"days": "Mon-Sat", "time": "10:00am"}, {"days": "Sun", "time": "Closed"}], "id": "0610600062", "name": "USPS COLLECTION BOX - BLUE BOX", "address": {"city": "HARTFORD", "state": "CT", "street": "1461 PARK PARK", "postcode": "06106"}}},
{"geometry": {"type": "Point", "coordinates": [-72.7138007207, 41.7562431467]}, "type": "Feature", "properties": {"collection_times": [{"days": "Mon-Sat", "time": "11:00am"}, {"days": "Sun", "time": "Closed"}], "id": "0610600067", "name": "USPS COLLECTION BOX - BLUE BOX", "address": {"city": "HARTFORD", "state": "CT", "street": "2074 PARK PARK", "postcode": "06106"}}},
{"geometry": {"type": "Point", "coordinates": [-72.6842581802, 41.7612470294]}, "type": "Feature", "properties": {"collection_times": [{"days": "Mon-Sat", "time": "11:00am"}, {"days": "Sun", "time": "Closed"}], "id": "0610600071", "name": "USPS COLLECTION BOX - BLUE BOX", "address": {"city": "HARTFORD", "state": "CT", "street": "43 RUSS ST", "postcode": "06106"}}},
{"geometry": {"type": "Point", "coordinates": [-72.6807358347, 41.7543717056]}, "type": "Feature", "properties": {"collection_times": [{"days": "Mon-Fri", "time": "4:00pm"}, {"days": "Sat-Sun", "time": "Closed"}], "id": "0610600074", "name": "USPS COLLECTION BOX - BLUE BOX", "address": {"city": "HARTFORD", "state": "CT", "street": "80 SEYMOUR ST", "postcode": "06106"}}},
{"geometry": {"type": "Point", "coordinates": [-72.680618156, 41.7637682575]}, "type": "Feature", "properties": {"collection_times": [{"days": "Mon-Sat", "time": "12:30pm"}, {"days": "Sun", "time": "Closed"}], "id": "0610600081", "name": "USPS COLLECTION BOX - BLUE BOX", "address": {"city": "HARTFORD", "state": "CT", "street": "30 TRINITY ST", "postcode": "06106"}}},
{"geometry": {"type": "Point", "coordinates": [-72.6913870618, 41.7521305104]}, "type": "Feature", "properties": {"collection_times": [{"days": "Mon-Sat", "time": "12:00pm"}, {"days": "Sun", "time": "Closed"}], "id": "0610600086", "name": "USPS COLLECTION BOX - BLUE BOX", "address": {"city": "HARTFORD", "state": "CT", "street": "95 WASHINGTON ST", "postcode": "06106"}}},
{"geometry": {"type": "Point", "coordinates": [-72.6789176267, 41.759955272]}, "type": "Feature", "properties": {"collection_times": [{"days": "Mon-Sat", "time": "12:00pm"}, {"days": "Sun", "time": "Closed"}], "id": "0610600094", "name": "USPS COLLECTION BOX - BLUE BOX", "address": {"city": "HARTFORD", "state": "CT", "street": "84 WADSWORTH ST", "postcode": "06106"}}},
{"geometry": {"type": "Point", "coordinates": [-72.6703080514, 41.7604911524]}, "type": "Feature", "properties": {"collection_times": [{"days": "Mon-Sat", "time": "11:00am"}, {"days": "Sun", "time": "Closed"}], "id": "0610600096", "name": "USPS COLLECTION BOX - BLUE BOX", "address": {"city": "HARTFORD", "state": "CT", "street": "50 COLUMBUS BLVD", "postcode": "06106"}}},
{"geometry": {"type": "Point", "coordinates": [-72.685539831, 41.7594241234]}, "type": "Feature", "properties": {"collection_times": [{"days": "Mon-Sat", "time": "12:00pm"}, {"days": "Sun", "time": "Closed"}], "id": "0610600099", "name": "USPS COLLECTION BOX - BLUE BOX", "address": {"city": "HARTFORD", "state": "CT", "street": "28 GRAND ST", "postcode": "06106"}}},
{"geometry": {"type": "Point", "coordinates": [-72.7100803147, 41.756551899]}, "type": "Feature", "properties": {"collection_times": [{"days": "Mon-Sat", "time": "10:00am"}, {"days": "Sun", "time": "Closed"}], "id": "0610600103", "name": "USPS COLLECTION BOX - BLUE BOX", "address": {"city": "HARTFORD", "state": "CT", "street": "1881 PARK ST", "postcode": "06106"}}},
{"geometry": {"type": "Point", "coordinates": [-72.7151504769, 41.7488721294]}, "type": "Feature", "properties": {"collection_times": [{"days": "Mon-Sat", "time": "12:00pm"}, {"days": "Sun", "time": "Closed"}], "id": "0610600104", "name": "USPS COLLECTION BOX - BLUE BOX", "address": {"city": "HARTFORD", "state": "CT", "street": "112 PROSPECT AVE", "postcode": "06106"}}},
{"geometry": {"type": "Point", "coordinates": [-72.6788431003, 41.7532916641]}, "type": "Feature", "properties": {"collection_times": [{"days": "Mon-Sat", "time": "11:00am"}, {"days": "Sun", "time": "Closed"}], "id": "0610600108", "name": "USPS COLLECTION BOX - BLUE BOX", "address": {"city": "HARTFORD", "state": "CT", "street": "100 RETREAT AVE", "postcode": "06106"}}},
{"geometry": {"type": "Point", "coordinates": [-72.6780197609, 41.7633196072]}, "type": "Feature", "properties": {"collection_times": [{"days": "Mon-Sat", "time": "12:00pm"}, {"days": "Sun", "time": "Closed"}], "id": "0610600109", "name": "USPS COLLECTION BOX - BLUE BOX", "address": {"city": "HARTFORD", "state": "CT", "street": "75 ELM ST", "postcode": "06106"}}},
{"geometry": {"type": "Point", "coordinates": [-72.6939181048, 41.7639597579]}, "type": "Feature", "properties": {"collection_times": [{"days": "Mon-Fri", "time": "12:00pm"}, {"days": "Sat-Sun", "time": "Closed"}], "id": "0610600118", "name": "USPS COLLECTION BOX - BLUE BOX", "address": {"city": "HARTFORD", "state": "CT", "street": "25 SIGOURNEY ST", "postcode": "06106"}}},
{"geometry": {"type": "Point", "coordinates": [-72.6913870618, 41.7521305104]}, "type": "Feature", "properties": {"collection_times": [{"days": "Mon-Sat", "time": "12:00pm"}, {"days": "Sun", "time": "Closed"}], "id": "0610600120", "name": "USPS COLLECTION BOX - BLUE BOX", "address": {"city": "HARTFORD", "state": "CT", "street": "165 CAPITOL AVE", "postcode": "06106"}}},
{"geometry": {"type": "Point", "coordinates": [-72.6913870618, 41.7521305104]}, "type": "Feature", "properties": {"collection_times": [{"days": "Mon-Sat", "time": "5:00pm"}, {"days": "Sun", "time": "Closed"}], "id": "0610600124", "name": "USPS COLLECTION BOX - BLUE BOX", "address": {"city": "HARTFORD", "state": "CT", "street": "189 WASHINGTON ST", "postcode": "06106"}}},
{"geometry": {"type": "Point", "coordinates": [-72.6913870618, 41.7521305104]}, "type": "Feature", "properties": {"collection_times": [{"days": "Mon-Sat", "time": "5:00pm"}, {"days": "Sun", "time": "Closed"}], "id": "0610600125", "name": "USPS COLLECTION BOX - EXPRESS", "address": {"city": "HARTFORD", "state": "CT", "street": "189 WASHINGTON ST", "postcode": "06106"}}},
{"geometry": {"type": "Point", "coordinates": [-72.6913870618, 41.7521305104]}, "type": "Feature", "properties": {"collection_times": [{"days": "Mon-Fri", "time": "5:00pm"}, {"days": "Sat", "time": "3:00pm"}, {"days": "Sun", "time": "Closed"}], "id": "0610600126", "name": "USPS COLLECTION BOX - PO LOBBY", "address": {"city": "HARTFORD", "state": "CT", "street": "189 WASHINGTON ST", "postcode": "06106"}}},
{"geometry": {"type": "Point", "coordinates": [-72.7095692765, 41.7523452969]}, "type": "Feature", "properties": {"collection_times": [{"days": "Mon-Sat", "time": "10:00am"}, {"days": "Sun", "time": "Closed"}], "id": "0610600129", "name": "USPS COLLECTION BOX - BLUE BOX", "address": {"city": "HARTFORD", "state": "CT", "street": "151 NEW PARK AVE", "postcode": "06106"}}},
{"geometry": {"type": "Point", "coordinates": [-72.7582645993, 41.7330465044]}, "type": "Feature", "properties": {"collection_times": [{"days": "Mon-Sat", "time": "11:00am"}, {"days": "Sun", "time": "Closed"}], "id": "0610700002", "name": "USPS COLLECTION BOX - BLUE BOX", "address": {"city": "WEST HARTFORD", "state": "CT", "street": "338 RIDGEWOOD RD", "postcode": "06107"}}},
{"geometry": {"type": "Point", "coordinates": [-72.7389823682, 41.7589899774]}, "type": "Feature", "properties": {"collection_times": [{"days": "Mon-Sat", "time": "10:30am"}, {"days": "Sun", "time": "Closed"}], "id": "0610700005", "name": "USPS COLLECTION BOX - BLUE BOX", "address": {"city": "WEST HARTFORD", "state": "CT", "street": "103 RAYMOND RD", "postcode": "06107"}}},
{"geometry": {"type": "Point", "coordinates": [-72.7812184362, 41.745993436]}, "type": "Feature", "properties": {"collection_times": [{"days": "Mon-Fri", "time": "11:00am"}, {"days": "Sat-Sun", "time": "Closed"}], "id": "0610700013", "name": "USPS COLLECTION BOX - BLUE BOX", "address": {"city": "WEST HARTFORD", "state": "CT", "street": "964 FARMINGTON AVE", "postcode": "06107"}}},
{"geometry": {"type": "Point", "coordinates": [-72.7519260234, 41.7566015205]}, "type": "Feature", "properties": {"collection_times": [{"days": "Mon-Fri", "time": "11:30am"}, {"days": "Sat-Sun", "time": "Closed"}], "id": "0610700015", "name": "USPS COLLECTION BOX - BLUE BOX", "address": {"city": "WEST HARTFORD", "state": "CT", "street": "977 FARMINGTON AVE", "postcode": "06107"}}},
{"geometry": {"type": "Point", "coordinates": [-72.7519260234, 41.7566015205]}, "type": "Feature", "properties": {"collection_times": [{"days": "Mon-Fri", "time": "11:30am"}, {"days": "Sat-Sun", "time": "Closed"}], "id": "0610700017", "name": "USPS COLLECTION BOX - BLUE BOX", "address": {"city": "WEST HARTFORD", "state": "CT", "street": "989 FARMINGTON AVE", "postcode": "06107"}}},
{"geometry": {"type": "Point", "coordinates": [-72.7812184362, 41.745993436]}, "type": "Feature", "properties": {"collection_times": [{"days": "Mon-Fri", "time": "12:00pm"}, {"days": "Sat-Sun", "time": "Closed"}], "id": "0610700018", "name": "USPS COLLECTION BOX - BLUE BOX", "address": {"city": "WEST HARTFORD", "state": "CT", "street": "998 FARMINGTON AVE", "postcode": "06107"}}},
{"geometry": {"type": "Point", "coordinates": [-72.7495248985, 41.7596299582]}, "type": "Feature", "properties": {"collection_times": [{"days": "Mon-Fri", "time": "12:00pm"}, {"days": "Sat-Sun", "time": "Closed"}], "id": "0610700021", "name": "USPS COLLECTION BOX - BLUE BOX", "address": {"city": "WEST HARTFORD", "state": "CT", "street": "1043 FARMINGTON AVE", "postcode": "06107"}}},
{"geometry": {"type": "Point", "coordinates": [-72.7528330205, 41.767375481]}, "type": "Feature", "properties": {"collection_times": [{"days": "Mon-Fri", "time": "1:00pm"}, {"days": "Sat-Sun", "time": "Closed"}], "id": "0610700023", "name": "USPS COLLECTION BOX - BLUE BOX", "address": {"city": "WEST HARTFORD", "state": "CT", "street": "575 FERN ST", "postcode": "06107"}}},
{"geometry": {"type": "Point", "coordinates": [-72.7519260234, 41.7566015205]}, "type": "Feature", "properties": {"collection_times": [{"days": "Mon-Sat", "time": "12:00pm"}, {"days": "Sun", "time": "Closed"}], "id": "0610700026", "name": "USPS COLLECTION BOX - BLUE BOX", "address": {"city": "WEST HARTFORD", "state": "CT", "street": "126 WEBSTER HILL BLVD", "postcode": "06107"}}},
{"geometry": {"type": "Point", "coordinates": [-72.7400750895, 41.7597093875]}, "type": "Feature", "properties": {"collection_times": [{"days": "Mon-Sat", "time": "10:00am"}, {"days": "Sun", "time": "Closed"}], "id": "0610700027", "name": "USPS COLLECTION BOX - BLUE BOX", "address": {"city": "WEST HARTFORD", "state": "CT", "street": "75 MEMORIAL RD", "postcode": "06107"}}},
{"geometry": {"type": "Point", "coordinates": [-72.7443825759, 41.7591070904]}, "type": "Feature", "properties": {"collection_times": [{"days": "Mon-Fri", "time": "5:00pm"}, {"days": "Sat", "time": "2:00pm"}, {"days": "Sun", "time": "Closed"}], "id": "0610700030", "name": "USPS COLLECTION BOX - BLUE BOX", "address": {"city": "WEST HARTFORD", "state": "CT", "street": "102 LASALLE RD", "postcode": "06107"}}},
{"geometry": {"type": "Point", "coordinates": [-72.7519260232, 41.7566014746]}, "type": "Feature", "properties": {"collection_times": [{"days": "Mon-Fri", "time": "5:00pm"}, {"days": "Sat", "time": "2:00pm"}, {"days": "Sun", "time": "Closed"}], "id": "0610700032", "name": "USPS COLLECTION BOX - EXPRESS", "address": {"city": "WEST HARTFORD", "state": "CT", "street": "102 LASALLE RD", "postcode": "06107"}}},
{"geometry": {"type": "Point", "coordinates": [-72.7446485574, 41.7571220508]}, "type": "Feature", "properties": {"collection_times": [{"days": "Mon-Sat", "time": "12:00pm"}, {"days": "Sun", "time": "Closed"}], "id": "0610700033", "name": "USPS COLLECTION BOX - BLUE BOX", "address": {"city": "WEST HARTFORD", "state": "CT", "street": "65 LASALLE RD", "postcode": "06107"}}},
{"geometry": {"type": "Point", "coordinates": [-72.7417859783, 41.7629352088]}, "type": "Feature", "properties": {"collection_times": [{"days": "Mon-Sat", "time": "11:30am"}, {"days": "Sun", "time": "Closed"}], "id": "0610700038", "name": "USPS COLLECTION BOX - BLUE BOX", "address": {"city": "WEST HARTFORD", "state": "CT", "street": "10 N MAIN ST", "postcode": "06107"}}},
{"geometry": {"type": "Point", "coordinates": [-72.7421041969, 41.7644280398]}, "type": "Feature", "properties": {"collection_times": [{"days": "Mon-Sat", "time": "1:00pm"}, {"days": "Sun", "time": "Closed"}], "id": "0610700040", "name": "USPS COLLECTION BOX - BLUE BOX", "address": {"city": "WEST HARTFORD", "state": "CT", "street": "35 N MAIN ST", "postcode": "06107"}}},
{"geometry": {"type": "Point", "coordinates": [-72.7444261649, 41.7587726647]}, "type": "Feature", "properties": {"collection_times": [{"days": "Mon-Fri", "time": "1:00pm"}, {"days": "Sat-Sun", "time": "Closed"}], "id": "0610700043", "name": "USPS COLLECTION BOX - BLUE BOX", "address": {"city": "WEST HARTFORD", "state": "CT", "street": "29 S MAIN ST", "postcode": "06107"}}},
{"geometry": {"type": "Point", "coordinates": [-72.7418664221, 41.7629718173]}, "type": "Feature", "properties": {"collection_times": [{"days": "Mon-Sat", "time": "10:00am"}, {"days": "Sun", "time": "Closed"}], "id": "0610700047", "name": "USPS COLLECTION BOX - BLUE BOX", "address": {"city": "WEST HARTFORD", "state": "CT", "street": "15 S MAIN ST", "postcode": "06107"}}},
{"geometry": {"type": "Point", "coordinates": [-72.7658899528, 41.754794022]}, "type": "Feature", "properties": {"collection_times": [{"days": "Mon-Fri", "time": "12:00pm"}, {"days": "Sat-Sun", "time": "Closed"}], "id": "0610700050", "name": "USPS COLLECTION BOX - BLUE BOX", "address": {"city": "WEST HARTFORD", "state": "CT", "street": "1234 FARMINGTON AVE", "postcode": "06107"}}},
{"geometry": {"type": "Point", "coordinates": [-72.7537906485, 41.7356655755]}, "type": "Feature", "properties": {"collection_times": [{"days": "Mon-Sat", "time": "12:00pm"}, {"days": "Sun", "time": "Closed"}], "id": "0610700051", "name": "USPS COLLECTION BOX - BLUE BOX", "address": {"city": "WEST HARTFORD", "state": "CT", "street": "110 BERKSHIRE RD", "postcode": "06107"}}},
{"geometry": {"type": "Point", "coordinates": [-72.7425359769, 41.7586516512]}, "type": "Feature", "properties": {"collection_times": [{"days": "Mon-Fri", "time": "1:00pm"}, {"days": "Sat-Sun", "time": "Closed"}], "id": "0610700052", "name": "USPS COLLECTION BOX - BLUE BOX", "address": {"city": "WEST HARTFORD", "state": "CT", "street": "45 S MAIN ST", "postcode": "06107"}}},
{"geometry": {"type": "Point", "coordinates": [-72.7443825759, 41.7591070904]}, "type": "Feature", "properties": {"collection_times": [{"days": "Mon-Fri", "time": "5:00pm"}, {"days": "Sat", "time": "2:00pm"}, {"days": "Sun", "time": "Closed"}], "id": "0610700056", "name": "USPS COLLECTION BOX - APC", "address": {"city": "WEST HARTFORD", "state": "CT", "street": "102 LASALLE RD", "postcode": "06107"}}},
{"geometry": {"type": "Point", "coordinates": [-72.7443825759, 41.7591070904]}, "type": "Feature", "properties": {"collection_times": [{"days": "Mon-Fri", "time": "5:00pm"}, {"days": "Sat", "time": "2:00pm"}, {"days": "Sun", "time": "Closed"}], "id": "0610700057", "name": "USPS COLLECTION BOX - BLUE BOX", "address": {"city": "WEST HARTFORD", "state": "CT", "street": "102 LASALLE RD", "postcode": "06107"}}},
{"geometry": {"type": "Point", "coordinates": [-72.6112382171, 41.7801041803]}, "type": "Feature", "properties": {"collection_times": [{"days": "Mon-Sat", "time": "11:00am"}, {"days": "Sun", "time": "Closed"}], "id": "0610800002", "name": "USPS COLLECTION BOX - BLUE BOX", "address": {"city": "EAST HARTFORD", "state": "CT", "street": "31 SCHOOL ST", "postcode": "06108"}}},
{"geometry": {"type": "Point", "coordinates": [-72.6407494557, 41.7740135563]}, "type": "Feature", "properties": {"collection_times": [{"days": "Mon-Sat", "time": "11:00am"}, {"days": "Sun", "time": "Closed"}], "id": "0610800004", "name": "USPS COLLECTION BOX - BLUE BOX", "address": {"city": "EAST HARTFORD", "state": "CT", "street": "1181 MAIN ST", "postcode": "06108"}}},
{"geometry": {"type": "Point", "coordinates": [-72.6233790354, 41.7789218142]}, "type": "Feature", "properties": {"collection_times": [{"days": "Mon-Sat", "time": "1:00pm"}, {"days": "Sun", "time": "Closed"}], "id": "0610800007", "name": "USPS COLLECTION BOX - BLUE BOX", "address": {"city": "EAST HARTFORD", "state": "CT", "street": "297 BURNSIDE AVE", "postcode": "06108"}}},
{"geometry": {"type": "Point", "coordinates": [-72.6233790355, 41.7789304579]}, "type": "Feature", "properties": {"collection_times": [{"days": "Mon-Sat", "time": "12:00pm"}, {"days": "Sun", "time": "Closed"}], "id": "0610800012", "name": "USPS COLLECTION BOX - BLUE BOX", "address": {"city": "EAST HARTFORD", "state": "CT", "street": "700 BURNSIDE AVE", "postcode": "06108"}}},
{"geometry": {"type": "Point", "coordinates": [-72.6417064695, 41.7726342261]}, "type": "Feature", "properties": {"collection_times": [{"days": "Mon-Sat", "time": "10:30am"}, {"days": "Sun", "time": "Closed"}], "id": "0610800017", "name": "USPS COLLECTION BOX - BLUE BOX", "address": {"city": "EAST HARTFORD", "state": "CT", "street": "1085 MAIN ST", "postcode": "06108"}}},
{"geometry": {"type": "Point", "coordinates": [-72.6087758242, 41.7769436519]}, "type": "Feature", "properties": {"collection_times": [{"days": "Mon-Sat", "time": "1:00pm"}, {"days": "Sun", "time": "Closed"}], "id": "0610800018", "name": "USPS COLLECTION BOX - BLUE BOX", "address": {"city": "EAST HARTFORD", "state": "CT", "street": "89 CHURCH ST", "postcode": "06108"}}},
{"geometry": {"type": "Point", "coordinates": [-72.646198474, 41.769406074]}, "type": "Feature", "properties": {"collection_times": [{"days": "Mon-Fri", "time": "12:00pm"}, {"days": "Sat-Sun", "time": "Closed"}], "id": "0610800020", "name": "USPS COLLECTION BOX - BLUE BOX", "address": {"city": "EAST HARTFORD", "state": "CT", "street": "45 CONNECTICUT BLVD", "postcode": "06108"}}},
{"geometry": {"type": "Point", "coordinates": [-72.6488385291, 41.7694272244]}, "type": "Feature", "properties": {"collection_times": [{"days": "Mon-Fri", "time": "11:00am"}, {"days": "Sat-Sun", "time": "Closed"}], "id": "0610800021", "name": "USPS COLLECTION BOX - BLUE BOX", "address": {"city": "EAST HARTFORD", "state": "CT", "street": "101 CONNECTICUT BLVD", "postcode": "06108"}}},
{"geometry": {"type": "Point", "coordinates": [-72.6545273788, 41.7694284073]}, "type": "Feature", "properties": {"collection_times": [{"days": "Mon-Fri", "time": "12:00pm"}, {"days": "Sat-Sun", "time": "Closed"}], "id": "0610800022", "name": "USPS COLLECTION BOX - BLUE BOX", "address": {"city": "EAST HARTFORD", "state": "CT", "street": "477 CONNECTICUT BLVD", "postcode": "06108"}}},
{"geometry": {"type": "Point", "coordinates": [-72.6233790354, 41.7789218142]}, "type": "Feature", "properties": {"collection_times": [{"days": "Mon-Sat", "time": "12:00pm"}, {"days": "Sun", "time": "Closed"}], "id": "0610800027", "name": "USPS COLLECTION BOX - BLUE BOX", "address": {"city": "EAST HARTFORD", "state": "CT", "street": "61 KING ST", "postcode": "06108"}}},
{"geometry": {"type": "Point", "coordinates": [-72.6216925817, 41.7954970679]}, "type": "Feature", "properties": {"collection_times": [{"days": "Mon-Sat", "time": "2:00pm"}, {"days": "Sun", "time": "Closed"}], "id": "0610800028", "name": "USPS COLLECTION BOX - BLUE BOX", "address": {"city": "EAST HARTFORD", "state": "CT", "street": "271 ELLINGTON RD", "postcode": "06108"}}},
{"geometry": {"type": "Point", "coordinates": [-72.6587460276, 41.7638612432]}, "type": "Feature", "properties": {"collection_times": [{"days": "Mon-Fri", "time": "12:00pm"}, {"days": "Sat-Sun", "time": "Closed"}], "id": "0610800031", "name": "USPS COLLECTION BOX - BLUE BOX", "address": {"city": "EAST HARTFORD", "state": "CT", "street": "111 FOUNDERS PLZ", "postcode": "06108"}}},
{"geometry": {"type": "Point", "coordinates": [-72.644650133, 41.768002903]}, "type": "Feature", "properties": {"collection_times": [{"days": "Mon-Sat", "time": "12:00pm"}, {"days": "Sun", "time": "Closed"}], "id": "0610800032", "name": "USPS COLLECTION BOX - BLUE BOX", "address": {"city": "EAST HARTFORD", "state": "CT", "street": "775 MAIN ST", "postcode": "06108"}}},
{"geometry": {"type": "Point", "coordinates": [-72.6174132242, 41.7905181998]}, "type": "Feature", "properties": {"collection_times": [{"days": "Mon-Sat", "time": "1:00pm"}, {"days": "Sun", "time": "Closed"}], "id": "0610800033", "name": "USPS COLLECTION BOX - BLUE BOX", "address": {"city": "EAST HARTFORD", "state": "CT", "street": "284 GOODWIN ST", "postcode": "06108"}}},
{"geometry": {"type": "Point", "coordinates": [-72.6534177633, 41.7716062348]}, "type": "Feature", "properties": {"collection_times": [{"days": "Mon-Sat", "time": "12:30pm"}, {"days": "Sun", "time": "Closed"}], "id": "0610800034", "name": "USPS COLLECTION BOX - BLUE BOX", "address": {"city": "EAST HARTFORD", "state": "CT", "street": "19 THOMAS ST", "postcode": "06108"}}},
{"geometry": {"type": "Point", "coordinates": [-72.5945620059, 41.7850399168]}, "type": "Feature", "properties": {"collection_times": [{"days": "Mon-Sat", "time": "11:00am"}, {"days": "Sun", "time": "Closed"}], "id": "0610800038", "name": "USPS COLLECTION BOX - BLUE BOX", "address": {"city": "EAST HARTFORD", "state": "CT", "street": "110 LONG HILL DR", "postcode": "06108"}}},
{"geometry": {"type": "Point", "coordinates": [-72.6463628888, 41.7636496645]}, "type": "Feature", "properties": {"collection_times": [{"days": "Mon-Sat", "time": "1:00pm"}, {"days": "Sun", "time": "Closed"}], "id": "0610800039", "name": "USPS COLLECTION BOX - BLUE BOX", "address": {"city": "EAST HARTFORD", "state": "CT", "street": "740 MAIN ST", "postcode": "06108"}}},
{"geometry": {"type": "Point", "coordinates": [-72.6439098408, 41.7689803775]}, "type": "Feature", "properties": {"collection_times": [{"days": "Mon-Fri", "time": "5:00pm"}, {"days": "Sat", "time": "1:00pm"}, {"days": "Sun", "time": "Closed"}], "id": "0610800041", "name": "USPS COLLECTION BOX - BLUE BOX", "address": {"city": "EAST HARTFORD", "state": "CT", "street": "850 MAIN ST", "postcode": "06108"}}},
{"geometry": {"type": "Point", "coordinates": [-72.6233790355, 41.7789304579]}, "type": "Feature", "properties": {"collection_times": [{"days": "Mon-Fri", "time": "5:00pm"}, {"days": "Sat", "time": "1:00pm"}, {"days": "Sun", "time": "Closed"}], "id": "0610800044", "name": "USPS COLLECTION BOX - EXPRESS", "address": {"city": "EAST HARTFORD", "state": "CT", "street": "850 MAIN ST", "postcode": "06108"}}},
{"geometry": {"type": "Point", "coordinates": [-72.6383078284, 41.7770336505]}, "type": "Feature", "properties": {"collection_times": [{"days": "Mon-Sat", "time": "1:00pm"}, {"days": "Sun", "time": "Closed"}], "id": "0610800048", "name": "USPS COLLECTION BOX - BLUE BOX", "address": {"city": "EAST HARTFORD", "state": "CT", "street": "1403 MAIN ST", "postcode": "06108"}}},
{"geometry": {"type": "Point", "coordinates": [-72.6368249469, 41.7790956491]}, "type": "Feature", "properties": {"collection_times": [{"days": "Mon-Sat", "time": "12:00pm"}, {"days": "Sun", "time": "Closed"}], "id": "0610800049", "name": "USPS COLLECTION BOX - BLUE BOX", "address": {"city": "EAST HARTFORD", "state": "CT", "street": "1515 MAIN ST", "postcode": "06108"}}},
{"geometry": {"type": "Point", "coordinates": [-72.6233790354, 41.7789218142]}, "type": "Feature", "properties": {"collection_times": [{"days": "Mon-Sat", "time": "11:30am"}, {"days": "Sun", "time": "Closed"}], "id": "0610800053", "name": "USPS COLLECTION BOX - BLUE BOX", "address": {"city": "EAST HARTFORD", "state": "CT", "street": "98 PARK AVE", "postcode": "06108"}}},
{"geometry": {"type": "Point", "coordinates": [-72.6219447138, 41.7834096082]}, "type": "Feature", "properties": {"collection_times": [{"days": "Mon-Sat", "time": "1:00pm"}, {"days": "Sun", "time": "Closed"}], "id": "0610800054", "name": "USPS COLLECTION BOX - BLUE BOX", "address": {"city": "EAST HARTFORD", "state": "CT", "street": "207 MEADOW MDW", "postcode": "06108"}}},
{"geometry": {"type": "Point", "coordinates": [-72.6097121614, 41.7864417232]}, "type": "Feature", "properties": {"collection_times": [{"days": "Mon-Sat", "time": "11:00am"}, {"days": "Sun", "time": "Closed"}], "id": "0610800056", "name": "USPS COLLECTION BOX - BLUE BOX", "address": {"city": "EAST HARTFORD", "state": "CT", "street": "100 PRESTIGE PARK RD", "postcode": "06108"}}},
{"geometry": {"type": "Point", "coordinates": [-72.6099167995, 41.7794030855]}, "type": "Feature", "properties": {"collection_times": [{"days": "Mon-Fri", "time": "12:00pm"}, {"days": "Sat-Sun", "time": "Closed"}], "id": "0610800060", "name": "USPS COLLECTION BOX - BLUE BOX", "address": {"city": "EAST HARTFORD", "state": "CT", "street": "99 RIVER VIEW EAST", "postcode": "06108"}}},
{"geometry": {"type": "Point", "coordinates": [-72.6115236187, 41.7715180781]}, "type": "Feature", "properties": {"collection_times": [{"days": "Mon-Sat", "time": "11:30am"}, {"days": "Sun", "time": "Closed"}], "id": "0610800066", "name": "USPS COLLECTION BOX - BLUE BOX", "address": {"city": "EAST HARTFORD", "state": "CT", "street": "121 ROBERTS ST", "postcode": "06108"}}},
{"geometry": {"type": "Point", "coordinates": [-72.5860911161, 41.7837873535]}, "type": "Feature", "properties": {"collection_times": [{"days": "Mon-Sat", "time": "11:00am"}, {"days": "Sun", "time": "Closed"}], "id": "0610800071", "name": "USPS COLLECTION BOX - BLUE BOX", "address": {"city": "EAST HARTFORD", "state": "CT", "street": "1217 BURNSIDE AVE", "postcode": "06108"}}},
{"geometry": {"type": "Point", "coordinates": [-72.6233790354, 41.7789218142]}, "type": "Feature", "properties": {"collection_times": [{"days": "Mon-Sat", "time": "1:00pm"}, {"days": "Sun", "time": "Closed"}], "id": "0610800074", "name": "USPS COLLECTION BOX - BLUE BOX", "address": {"city": "EAST HARTFORD", "state": "CT", "street": "199 GREAT HILL RD", "postcode": "06108"}}},
{"geometry": {"type": "Point", "coordinates": [-72.6200003555, 41.7688795144]}, "type": "Feature", "properties": {"collection_times": [{"days": "Mon-Sat", "time": "11:00am"}, {"days": "Sun", "time": "Closed"}], "id": "0610800077", "name": "USPS COLLECTION BOX - BLUE BOX", "address": {"city": "EAST HARTFORD", "state": "CT", "street": "330 ROBERTS ST", "postcode": "06108"}}},
{"geometry": {"type": "Point", "coordinates": [-72.6588180869, 41.7636507782]}, "type": "Feature", "properties": {"collection_times": [{"days": "Mon-Fri", "time": "10:30am"}, {"days": "Sat-Sun", "time": "Closed"}], "id": "0610800078", "name": "USPS COLLECTION BOX - BLUE BOX", "address": {"city": "EAST HARTFORD", "state": "CT", "street": "155 FOUNDERS PLZ", "postcode": "06108"}}},
{"geometry": {"type": "Point", "coordinates": [-72.6755799315, 41.7020021355]}, "type": "Feature", "properties": {"collection_times": [{"days": "Mon-Fri", "time": "5:00pm"}, {"days": "Sat", "time": "1:00pm"}, {"days": "Sun", "time": "Closed"}], "id": "0610900001", "name": "USPS COLLECTION BOX - BLUE BOX", "address": {"city": "HARTFORD", "state": "CT", "street": "67 BEAVER RD", "postcode": "06109"}}},
{"geometry": {"type": "Point", "coordinates": [-72.6755799315, 41.7020021355]}, "type": "Feature", "properties": {"collection_times": [{"days": "Mon-Fri", "time": "5:00pm"}, {"days": "Sat", "time": "1:00pm"}, {"days": "Sun", "time": "Closed"}], "id": "0610900002", "name": "USPS COLLECTION BOX - BLUE BOX", "address": {"city": "HARTFORD", "state": "CT", "street": "67 BEAVER RD", "postcode": "06109"}}},
{"geometry": {"type": "Point", "coordinates": [-72.6755799315, 41.7020021355]}, "type": "Feature", "properties": {"collection_times": [{"days": "Mon-Fri", "time": "5:00pm"}, {"days": "Sat", "time": "1:00pm"}, {"days": "Sun", "time": "Closed"}], "id": "0610900003", "name": "USPS COLLECTION BOX - BLUE BOX", "address": {"city": "HARTFORD", "state": "CT", "street": "67 BEAVER RD", "postcode": "06109"}}},
{"geometry": {"type": "Point", "coordinates": [-72.6740172824, 41.7634933878]}, "type": "Feature", "properties": {"collection_times": [{"days": "Mon-Fri", "time": "5:00pm"}, {"days": "Sat", "time": "1:00pm"}, {"days": "Sun", "time": "Closed"}], "id": "0610900005", "name": "USPS COLLECTION BOX - EXPRESS", "address": {"city": "HARTFORD", "state": "CT", "street": "67 BEAVER RD", "postcode": "06109"}}},
{"geometry": {"type": "Point", "coordinates": [-72.696057519, 41.7169712749]}, "type": "Feature", "properties": {"collection_times": [{"days": "Mon-Sat", "time": "10:00am"}, {"days": "Sun", "time": "Closed"}], "id": "0610900006", "name": "USPS COLLECTION BOX - BLUE BOX", "address": {"city": "HARTFORD", "state": "CT", "street": "1380 BERLIN TPKE", "postcode": "06109"}}},
{"geometry": {"type": "Point", "coordinates": [-72.653201243, 41.707892559]}, "type": "Feature", "properties": {"collection_times": [{"days": "Mon-Fri", "time": "1:00pm"}, {"days": "Sat", "time": "10:00am"}, {"days": "Sun", "time": "Closed"}], "id": "0610900007", "name": "USPS COLLECTION BOX - BLUE BOX", "address": {"city": "HARTFORD", "state": "CT", "street": "139 BROAD ST", "postcode": "06109"}}},
{"geometry": {"type": "Point", "coordinates": [-72.6755668961, 41.7020021818]}, "type": "Feature", "properties": {"collection_times": [{"days": "Mon-Sat", "time": "10:00am"}, {"days": "Sun", "time": "Closed"}], "id": "0610900009", "name": "USPS COLLECTION BOX - BLUE BOX", "address": {"city": "HARTFORD", "state": "CT", "street": "60 STATE ST", "postcode": "06109"}}},
{"geometry": {"type": "Point", "coordinates": [-72.6755668961, 41.7020021818]}, "type": "Feature", "properties": {"collection_times": [{"days": "Mon-Fri", "time": "1:00pm"}, {"days": "Sat", "time": "10:00am"}, {"days": "Sun", "time": "Closed"}], "id": "0610900017", "name": "USPS COLLECTION BOX - BLUE BOX", "address": {"city": "HARTFORD", "state": "CT", "street": "236 WOLCOTT HILL RD", "postcode": "06109"}}},
{"geometry": {"type": "Point", "coordinates": [-72.6821459217, 41.7009776698]}, "type": "Feature", "properties": {"collection_times": [{"days": "Mon-Fri", "time": "1:00pm"}, {"days": "Sat", "time": "10:00am"}, {"days": "Sun", "time": "Closed"}], "id": "0610900018", "name": "USPS COLLECTION BOX - BLUE BOX", "address": {"city": "HARTFORD", "state": "CT", "street": "18 JAMESWELL RD", "postcode": "06109"}}},
{"geometry": {"type": "Point", "coordinates": [-72.6660423014, 41.7241163471]}, "type": "Feature", "properties": {"collection_times": [{"days": "Mon-Fri", "time": "10:00am"}, {"days": "Sat-Sun", "time": "Closed"}], "id": "0610900019", "name": "USPS COLLECTION BOX - BLUE BOX", "address": {"city": "HARTFORD", "state": "CT", "street": "30 JORDAN LN", "postcode": "06109"}}},
{"geometry": {"type": "Point", "coordinates": [-72.6740172824, 41.7634933878]}, "type": "Feature", "properties": {"collection_times": [{"days": "Mon-Sat", "time": "10:00am"}, {"days": "Sun", "time": "Closed"}], "id": "0610900020", "name": "USPS COLLECTION BOX - BLUE BOX", "address": {"city": "HARTFORD", "state": "CT", "street": "66 WOLCOTT HILL RD", "postcode": "06109"}}},
{"geometry": {"type": "Point", "coordinates": [-72.6740172824, 41.7634933878]}, "type": "Feature", "properties": {"collection_times": [{"days": "Mon-Fri", "time": "1:00pm"}, {"days": "Sat", "time": "10:00am"}, {"days": "Sun", "time": "Closed"}], "id": "0610900021", "name": "USPS COLLECTION BOX - BLUE BOX", "address": {"city": "HARTFORD", "state": "CT", "street": "165 MAIN ST", "postcode": "06109"}}},
{"geometry": {"type": "Point", "coordinates": [-72.666980664, 41.675777293]}, "type": "Feature", "properties": {"collection_times": [{"days": "Mon-Fri", "time": "1:00pm"}, {"days": "Sat", "time": "10:00am"}, {"days": "Sun", "time": "Closed"}], "id": "0610900023", "name": "USPS COLLECTION BOX - BLUE BOX", "address": {"city": "HARTFORD", "state": "CT", "street": "15 FOX HILL RD", "postcode": "06109"}}},
{"geometry": {"type": "Point", "coordinates": [-72.6681385046, 41.6973436199]}, "type": "Feature", "properties": {"collection_times": [{"days": "Mon-Fri", "time": "1:00pm"}, {"days": "Sat", "time": "10:00am"}, {"days": "Sun", "time": "Closed"}], "id": "0610900024", "name": "USPS COLLECTION BOX - BLUE BOX", "address": {"city": "HARTFORD", "state": "CT", "street": "720 WOLCOTT HILL RD", "postcode": "06109"}}},
{"geometry": {"type": "Point", "coordinates": [-72.693408874, 41.7114835284]}, "type": "Feature", "properties": {"collection_times": [{"days": "Mon-Fri", "time": "1:00pm"}, {"days": "Sat", "time": "10:00am"}, {"days": "Sun", "time": "Closed"}], "id": "0610900025", "name": "USPS COLLECTION BOX - BLUE BOX", "address": {"city": "HARTFORD", "state": "CT", "street": "11 MOHAWK LN", "postcode": "06109"}}},
{"geometry": {"type": "Point", "coordinates": [-72.6837015128, 41.7132437713]}, "type": "Feature", "properties": {"collection_times": [{"days": "Mon-Fri", "time": "1:00pm"}, {"days": "Sat", "time": "10:00am"}, {"days": "Sun", "time": "Closed"}], "id": "0610900027", "name": "USPS COLLECTION BOX - BLUE BOX", "address": {"city": "HARTFORD", "state": "CT", "street": "531 NOTT ST", "postcode": "06109"}}},
{"geometry": {"type": "Point", "coordinates": [-72.6675762781, 41.7213813795]}, "type": "Feature", "properties": {"collection_times": [{"days": "Mon-Sat", "time": "10:00am"}, {"days": "Sun", "time": "Closed"}], "id": "0610900029", "name": "USPS COLLECTION BOX - BLUE BOX", "address": {"city": "HARTFORD", "state": "CT", "street": "188 SILAS DEANE HWY", "postcode": "06109"}}},
{"geometry": {"type": "Point", "coordinates": [-72.6740172824, 41.7634933878]}, "type": "Feature", "properties": {"collection_times": [{"days": "Mon-Fri", "time": "11:00am"}, {"days": "Sat-Sun", "time": "Closed"}], "id": "0610900031", "name": "USPS COLLECTION BOX - BLUE BOX", "address": {"city": "HARTFORD", "state": "CT", "street": "936 SILAS DEANE HWY", "postcode": "06109"}}},
{"geometry": {"type": "Point", "coordinates": [-72.7383038826, 41.5735001734]}, "type": "Feature", "properties": {"collection_times": [{"days": "Mon-Sat", "time": "10:00am"}, {"days": "Sun", "time": "Closed"}], "id": "0610900034", "name": "USPS COLLECTION BOX - BLUE BOX", "address": {"city": "HARTFORD", "state": "CT", "street": "1065 SILAS DEANE HWY", "postcode": "06109"}}},
{"geometry": {"type": "Point", "coordinates": [-72.6556642024, 41.6895372736]}, "type": "Feature", "properties": {"collection_times": [{"days": "Mon-Sat", "time": "10:00am"}, {"days": "Sun", "time": "Closed"}], "id": "0610900037", "name": "USPS COLLECTION BOX - BLUE BOX", "address": {"city": "HARTFORD", "state": "CT", "street": "1177 SILAS DEANE HWY", "postcode": "06109"}}},
{"geometry": {"type": "Point", "coordinates": [-72.6560309196, 41.699877518]}, "type": "Feature", "properties": {"collection_times": [{"days": "Mon-Sat", "time": "10:00am"}, {"days": "Sun", "time": "Closed"}], "id": "0610900041", "name": "USPS COLLECTION BOX - BLUE BOX", "address": {"city": "HARTFORD", "state": "CT", "street": "225 SPRING ST", "postcode": "06109"}}},
{"geometry": {"type": "Point", "coordinates": [-72.6655762155, 41.7048849833]}, "type": "Feature", "properties": {"collection_times": [{"days": "Mon-Fri", "time": "1:00pm"}, {"days": "Sat", "time": "10:00am"}, {"days": "Sun", "time": "Closed"}], "id": "0610900043", "name": "USPS COLLECTION BOX - BLUE BOX", "address": {"city": "HARTFORD", "state": "CT", "street": "117 WELLS RD", "postcode": "06109"}}},
{"geometry": {"type": "Point", "coordinates": [-72.6755668961, 41.7020021818]}, "type": "Feature", "properties": {"collection_times": [{"days": "Mon-Sat", "time": "10:00am"}, {"days": "Sun", "time": "Closed"}], "id": "0610900048", "name": "USPS COLLECTION BOX - BLUE BOX", "address": {"city": "HARTFORD", "state": "CT", "street": "226 PROSPECT ST", "postcode": "06109"}}},
{"geometry": {"type": "Point", "coordinates": [-72.6740172824, 41.7634933878]}, "type": "Feature", "properties": {"collection_times": [{"days": "Mon-Sat", "time": "10:00am"}, {"days": "Sun", "time": "Closed"}], "id": "0610900050", "name": "USPS COLLECTION BOX - BLUE BOX", "address": {"city": "HARTFORD", "state": "CT", "street": "912 SILAS DEANE HWY", "postcode": "06109"}}},
{"geometry": {"type": "Point", "coordinates": [-72.6633818266, 41.7117556089]}, "type": "Feature", "properties": {"collection_times": [{"days": "Mon-Sat", "time": "11:00am"}, {"days": "Sun", "time": "Closed"}], "id": "0610900054", "name": "USPS COLLECTION BOX - BLUE BOX", "address": {"city": "HARTFORD", "state": "CT", "street": "505 SILAS DEANE HWY", "postcode": "06109"}}},
{"geometry": {"type": "Point", "coordinates": [-72.6740172824, 41.7634933878]}, "type": "Feature", "properties": {"collection_times": [{"days": "Mon-Fri", "time": "5:00pm"}, {"days": "Sat", "time": "1:00pm"}, {"days": "Sun", "time": "Closed"}], "id": "0610900055", "name": "USPS COLLECTION BOX - PO LOBBY", "address": {"city": "HARTFORD", "state": "CT", "street": "67 BEAVER RD", "postcode": "06109"}}},
{"geometry": {"type": "Point", "coordinates": [-72.731817338, 41.7322130047]}, "type": "Feature", "properties": {"collection_times": [{"days": "Mon-Sat", "time": "10:30am"}, {"days": "Sun", "time": "Closed"}], "id": "0611000001", "name": "USPS COLLECTION BOX - BLUE BOX", "address": {"city": "WEST HARTFORD", "state": "CT", "street": "945 NEW BRITAIN AVE", "postcode": "06110"}}},
{"geometry": {"type": "Point", "coordinates": [-72.7343972192, 41.7235225017]}, "type": "Feature", "properties": {"collection_times": [{"days": "Mon-Sat", "time": "10:30am"}, {"days": "Sun", "time": "Closed"}], "id": "0611000002", "name": "USPS COLLECTION BOX - BLUE BOX", "address": {"city": "WEST HARTFORD", "state": "CT", "street": "15 BROOK ST", "postcode": "06110"}}},
{"geometry": {"type": "Point", "coordinates": [-72.7581628648, 41.7267354183]}, "type": "Feature", "properties": {"collection_times": [{"days": "Mon-Sat", "time": "12:30pm"}, {"days": "Sun", "time": "Closed"}], "id": "0611000004", "name": "USPS COLLECTION BOX - BLUE BOX", "address": {"city": "WEST HARTFORD", "state": "CT", "street": "1445 NEW BRITAIN AVE", "postcode": "06110"}}},
{"geometry": {"type": "Point", "coordinates": [-72.7299646263, 41.7437099081]}, "type": "Feature", "properties": {"collection_times": [{"days": "Mon-Sat", "time": "1:00pm"}, {"days": "Sun", "time": "Closed"}], "id": "0611000010", "name": "USPS COLLECTION BOX - BLUE BOX", "address": {"city": "WEST HARTFORD", "state": "CT", "street": "610 QUAKER LN S", "postcode": "06110"}}},
{"geometry": {"type": "Point", "coordinates": [-72.7318260277, 41.7322216488]}, "type": "Feature", "properties": {"collection_times": [{"days": "Mon-Sat", "time": "1:00pm"}, {"days": "Sun", "time": "Closed"}], "id": "0611000011", "name": "USPS COLLECTION BOX - BLUE BOX", "address": {"city": "WEST HARTFORD", "state": "CT", "street": "10 GRASSMERE AVE", "postcode": "06110"}}},
{"geometry": {"type": "Point", "coordinates": [-72.7374886577, 41.7356059696]}, "type": "Feature", "properties": {"collection_times": [{"days": "Mon-Sat", "time": "12:00pm"}, {"days": "Sun", "time": "Closed"}], "id": "0611000013", "name": "USPS COLLECTION BOX - BLUE BOX", "address": {"city": "WEST HARTFORD", "state": "CT", "street": "104 MAYFLOWER ST", "postcode": "06110"}}},
{"geometry": {"type": "Point", "coordinates": [-72.720094326, 41.727286081]}, "type": "Feature", "properties": {"collection_times": [{"days": "Mon-Sat", "time": "5:00pm"}, {"days": "Sun", "time": "Closed"}], "id": "0611000014", "name": "USPS COLLECTION BOX - BLUE BOX", "address": {"city": "WEST HARTFORD", "state": "CT", "street": "121 SHIELD ST", "postcode": "06110"}}},
{"geometry": {"type": "Point", "coordinates": [-72.720094326, 41.727286081]}, "type": "Feature", "properties": {"collection_times": [{"days": "Mon-Sat", "time": "5:00pm"}, {"days": "Sun", "time": "Closed"}], "id": "0611000015", "name": "USPS COLLECTION BOX - BLUE BOX", "address": {"city": "WEST HARTFORD", "state": "CT", "street": "121 SHIELD ST", "postcode": "06110"}}},
{"geometry": {"type": "Point", "coordinates": [-72.720094326, 41.727286081]}, "type": "Feature", "properties": {"collection_times": [{"days": "Mon-Sat", "time": "5:00pm"}, {"days": "Sun", "time": "Closed"}], "id": "0611000016", "name": "USPS COLLECTION BOX - BLUE BOX", "address": {"city": "WEST HARTFORD", "state": "CT", "street": "121 SHIELD ST", "postcode": "06110"}}},
{"geometry": {"type": "Point", "coordinates": [-72.720094326, 41.727286081]}, "type": "Feature", "properties": {"collection_times": [{"days": "Mon-Fri", "time": "5:00pm"}, {"days": "Sat-Sun", "time": "Closed"}], "id": "0611000017", "name": "USPS COLLECTION BOX - EXPRESS", "address": {"city": "WEST HARTFORD", "state": "CT", "street": "121 SHIELD ST", "postcode": "06110"}}},
{"geometry": {"type": "Point", "coordinates": [-72.731817338, 41.7322130047]}, "type": "Feature", "properties": {"collection_times": [{"days": "Mon-Sat", "time": "11:30am"}, {"days": "Sun", "time": "Closed"}], "id": "0611000018", "name": "USPS COLLECTION BOX - BLUE BOX", "address": {"city": "WEST HARTFORD", "state": "CT", "street": "1161 NEW BRITAIN AVE", "postcode": "06110"}}},
{"geometry": {"type": "Point", "coordinates": [-72.7336070249, 41.7327703443]}, "type": "Feature", "properties": {"collection_times": [{"days": "Mon-Sat", "time": "11:00am"}, {"days": "Sun", "time": "Closed"}], "id": "0611000019", "name": "USPS COLLECTION BOX - BLUE BOX", "address": {"city": "WEST HARTFORD", "state": "CT", "street": "1138 NEW BRITAIN AVE", "postcode": "06110"}}},
{"geometry": {"type": "Point", "coordinates": [-72.7479101595, 41.7309786921]}, "type": "Feature", "properties": {"collection_times": [{"days": "Mon-Sat", "time": "1:00pm"}, {"days": "Sun", "time": "Closed"}], "id": "0611000020", "name": "USPS COLLECTION BOX - BLUE BOX", "address": {"city": "WEST HARTFORD", "state": "CT", "street": "1 VALLEY CREST DR", "postcode": "06110"}}},
{"geometry": {"type": "Point", "coordinates": [-72.7256594992, 41.7302504079]}, "type": "Feature", "properties": {"collection_times": [{"days": "Mon-Sat", "time": "11:00am"}, {"days": "Sun", "time": "Closed"}], "id": "0611000021", "name": "USPS COLLECTION BOX - BLUE BOX", "address": {"city": "WEST HARTFORD", "state": "CT", "street": "603 NEW PARK AVE", "postcode": "06110"}}},
{"geometry": {"type": "Point", "coordinates": [-72.742788621, 41.720631883]}, "type": "Feature", "properties": {"collection_times": [{"days": "Mon-Sat", "time": "2:00pm"}, {"days": "Sun", "time": "Closed"}], "id": "0611000031", "name": "USPS COLLECTION BOX - BLUE BOX", "address": {"city": "WEST HARTFORD", "state": "CT", "street": "433 S MAIN ST", "postcode": "06110"}}},
{"geometry": {"type": "Point", "coordinates": [-72.762229378, 41.718484101]}, "type": "Feature", "properties": {"collection_times": [{"days": "Mon-Sat", "time": "10:30am"}, {"days": "Sun", "time": "Closed"}], "id": "0611000033", "name": "USPS COLLECTION BOX - BLUE BOX", "address": {"city": "WEST HARTFORD", "state": "CT", "street": "1099 NEW BRITAIN AVE", "postcode": "06110"}}},
{"geometry": {"type": "Point", "coordinates": [-72.731817338, 41.7322130047]}, "type": "Feature", "properties": {"collection_times": [{"days": "Mon-Sat", "time": "12:00pm"}, {"days": "Sun", "time": "Closed"}], "id": "0611000035", "name": "USPS COLLECTION BOX - BLUE BOX", "address": {"city": "WEST HARTFORD", "state": "CT", "street": "1106 NEW BRITAIN AVE", "postcode": "06110"}}},
{"geometry": {"type": "Point", "coordinates": [-72.720094326, 41.727286081]}, "type": "Feature", "properties": {"collection_times": [{"days": "Mon-Sat", "time": "5:00pm"}, {"days": "Sun", "time": "Closed"}], "id": "0611000037", "name": "USPS COLLECTION BOX - PO LOBBY", "address": {"city": "WEST HARTFORD", "state": "CT", "street": "121 SHIELD ST", "postcode": "06110"}}},
{"geometry": {"type": "Point", "coordinates": [-72.7201594038, 41.7025240808]}, "type": "Feature", "properties": {"collection_times": [{"days": "Mon-Sat", "time": "9:30am"}, {"days": "Sun", "time": "Closed"}], "id": "0611100003", "name": "USPS COLLECTION BOX - BLUE BOX", "address": {"city": "NEWINGTON", "state": "CT", "street": "6 KNOLLWOOD RD", "postcode": "06111"}}},
{"geometry": {"type": "Point", "coordinates": [-72.7383157952, 41.69629549]}, "type": "Feature", "properties": {"collection_times": [{"days": "Mon-Sat", "time": "9:30am"}, {"days": "Sun", "time": "Closed"}], "id": "0611100004", "name": "USPS COLLECTION BOX - BLUE BOX", "address": {"city": "NEWINGTON", "state": "CT", "street": "312 CEDAR ST", "postcode": "06111"}}},
{"geometry": {"type": "Point", "coordinates": [-72.7186969878, 41.7157540102]}, "type": "Feature", "properties": {"collection_times": [{"days": "Mon-Sat", "time": "1:00pm"}, {"days": "Sun", "time": "Closed"}], "id": "0611100005", "name": "USPS COLLECTION BOX - BLUE BOX", "address": {"city": "NEWINGTON", "state": "CT", "street": "32 GARVAN ST", "postcode": "06111"}}},
{"geometry": {"type": "Point", "coordinates": [-72.7206483724, 41.6953711745]}, "type": "Feature", "properties": {"collection_times": [{"days": "Mon-Sat", "time": "1:00pm"}, {"days": "Sun", "time": "Closed"}], "id": "0611100006", "name": "USPS COLLECTION BOX - BLUE BOX", "address": {"city": "NEWINGTON", "state": "CT", "street": "56 CHURCH HILL", "postcode": "06111"}}},
{"geometry": {"type": "Point", "coordinates": [-72.73482156, 41.702348602]}, "type": "Feature", "properties": {"collection_times": [{"days": "Mon-Sat", "time": "11:00am"}, {"days": "Sun", "time": "Closed"}], "id": "0611100007", "name": "USPS COLLECTION BOX - BLUE BOX", "address": {"city": "NEWINGTON", "state": "CT", "street": "555 WILLARD AVE", "postcode": "06111"}}},
{"geometry": {"type": "Point", "coordinates": [-72.7186271704, 41.6956024631]}, "type": "Feature", "properties": {"collection_times": [{"days": "Mon-Sat", "time": "10:00am"}, {"days": "Sun", "time": "Closed"}], "id": "0611100008", "name": "USPS COLLECTION BOX - BLUE BOX", "address": {"city": "NEWINGTON", "state": "CT", "street": "65 CONSTANCE LEIGH DR", "postcode": "06111"}}},
{"geometry": {"type": "Point", "coordinates": [-72.7309643894, 41.6871471612]}, "type": "Feature", "properties": {"collection_times": [{"days": "Mon-Sat", "time": "12:00pm"}, {"days": "Sun", "time": "Closed"}], "id": "0611100010", "name": "USPS COLLECTION BOX - BLUE BOX", "address": {"city": "NEWINGTON", "state": "CT", "street": "181 PATRICIA GENOVA", "postcode": "06111"}}},
{"geometry": {"type": "Point", "coordinates": [-72.7350513955, 41.6551853283]}, "type": "Feature", "properties": {"collection_times": [{"days": "Mon-Sat", "time": "12:00pm"}, {"days": "Sun", "time": "Closed"}], "id": "0611100011", "name": "USPS COLLECTION BOX - BLUE BOX", "address": {"city": "NEWINGTON", "state": "CT", "street": "240 PANE RD", "postcode": "06111"}}},
{"geometry": {"type": "Point", "coordinates": [-72.7466313808, 41.7096381124]}, "type": "Feature", "properties": {"collection_times": [{"days": "Mon-Sat", "time": "11:00am"}, {"days": "Sun", "time": "Closed"}], "id": "0611100016", "name": "USPS COLLECTION BOX - BLUE BOX", "address": {"city": "NEWINGTON", "state": "CT", "street": "20 HOLMES RD", "postcode": "06111"}}},
{"geometry": {"type": "Point", "coordinates": [-72.7297664952, 41.6881329244]}, "type": "Feature", "properties": {"collection_times": [{"days": "Mon-Sat", "time": "11:00am"}, {"days": "Sun", "time": "Closed"}], "id": "0611100017", "name": "USPS COLLECTION BOX - BLUE BOX", "address": {"city": "NEWINGTON", "state": "CT", "street": "260 HARTFORD AVE", "postcode": "06111"}}},
{"geometry": {"type": "Point", "coordinates": [-72.7211338833, 41.6953444192]}, "type": "Feature", "properties": {"collection_times": [{"days": "Mon-Sat", "time": "5:00pm"}, {"days": "Sun", "time": "Closed"}], "id": "0611100022", "name": "USPS COLLECTION BOX - BLUE BOX", "address": {"city": "NEWINGTON", "state": "CT", "street": "75 LOWREY PL", "postcode": "06111"}}},
{"geometry": {"type": "Point", "coordinates": [-72.7263079103, 41.7125756064]}, "type": "Feature", "properties": {"collection_times": [{"days": "Mon-Sat", "time": "1:00pm"}, {"days": "Sun", "time": "Closed"}], "id": "0611100027", "name": "USPS COLLECTION BOX - BLUE BOX", "address": {"city": "NEWINGTON", "state": "CT", "street": "289 MAIN ST", "postcode": "06111"}}},
{"geometry": {"type": "Point", "coordinates": [-72.723044362, 41.6964824257]}, "type": "Feature", "properties": {"collection_times": [{"days": "Mon-Sat", "time": "11:00am"}, {"days": "Sun", "time": "Closed"}], "id": "0611100028", "name": "USPS COLLECTION BOX - BLUE BOX", "address": {"city": "NEWINGTON", "state": "CT", "street": "1133 MAIN ST", "postcode": "06111"}}},
{"geometry": {"type": "Point", "coordinates": [-72.7229493068, 41.696271154]}, "type": "Feature", "properties": {"collection_times": [{"days": "Mon-Sat", "time": "11:00am"}, {"days": "Sun", "time": "Closed"}], "id": "0611100029", "name": "USPS COLLECTION BOX - BLUE BOX", "address": {"city": "NEWINGTON", "state": "CT", "street": "64 MARKET SQ", "postcode": "06111"}}},
{"geometry": {"type": "Point", "coordinates": [-72.7291238988, 41.6615848167]}, "type": "Feature", "properties": {"collection_times": [{"days": "Mon-Sat", "time": "11:00am"}, {"days": "Sun", "time": "Closed"}], "id": "0611100034", "name": "USPS COLLECTION BOX - BLUE BOX", "address": {"city": "NEWINGTON", "state": "CT", "street": "230 RICHARD ST", "postcode": "06111"}}},
{"geometry": {"type": "Point", "coordinates": [-72.7413033337, 41.6809182346]}, "type": "Feature", "properties": {"collection_times": [{"days": "Mon-Sat", "time": "12:00pm"}, {"days": "Sun", "time": "Closed"}], "id": "0611100035", "name": "USPS COLLECTION BOX - BLUE BOX", "address": {"city": "NEWINGTON", "state": "CT", "street": "434 ROBBINS AVE", "postcode": "06111"}}},
{"geometry": {"type": "Point", "coordinates": [-72.7375936382, 41.7164075402]}, "type": "Feature", "properties": {"collection_times": [{"days": "Mon-Sat", "time": "1:00pm"}, {"days": "Sun", "time": "Closed"}], "id": "0611100036", "name": "USPS COLLECTION BOX - BLUE BOX", "address": {"city": "NEWINGTON", "state": "CT", "street": "230 W HILL RD", "postcode": "06111"}}},
{"geometry": {"type": "Point", "coordinates": [-72.7351460323, 41.7042615639]}, "type": "Feature", "properties": {"collection_times": [{"days": "Mon-Sat", "time": "11:00am"}, {"days": "Sun", "time": "Closed"}], "id": "0611100037", "name": "USPS COLLECTION BOX - BLUE BOX", "address": {"city": "NEWINGTON", "state": "CT", "street": "505 WILLARD AVE", "postcode": "06111"}}},
{"geometry": {"type": "Point", "coordinates": [-72.736371564, 41.7097075729]}, "type": "Feature", "properties": {"collection_times": [{"days": "Mon-Sat", "time": "12:00pm"}, {"days": "Sun", "time": "Closed"}], "id": "0611100038", "name": "USPS COLLECTION BOX - BLUE BOX", "address": {"city": "NEWINGTON", "state": "CT", "street": "375 WILLARD AVE", "postcode": "06111"}}},
{"geometry": {"type": "Point", "coordinates": [-72.7287411682, 41.6971918375]}, "type": "Feature", "properties": {"collection_times": [{"days": "Mon-Sat", "time": "11:00am"}, {"days": "Sun", "time": "Closed"}], "id": "0611100040", "name": "USPS COLLECTION BOX - BLUE BOX", "address": {"city": "NEWINGTON", "state": "CT", "street": "12 MILL STREET EXT", "postcode": "06111"}}},
{"geometry": {"type": "Point", "coordinates": [-72.715665064, 41.6637404875]}, "type": "Feature", "properties": {"collection_times": [{"days": "Mon-Sat", "time": "11:00am"}, {"days": "Sun", "time": "Closed"}], "id": "0611100042", "name": "USPS COLLECTION BOX - BLUE BOX", "address": {"city": "NEWINGTON", "state": "CT", "street": "30 CANDLEWYCK DR", "postcode": "06111"}}},
{"geometry": {"type": "Point", "coordinates": [-72.7297664952, 41.6881329244]}, "type": "Feature", "properties": {"collection_times": [{"days": "Mon-Sat", "time": "11:00am"}, {"days": "Sun", "time": "Closed"}], "id": "0611100045", "name": "USPS COLLECTION BOX - BLUE BOX", "address": {"city": "NEWINGTON", "state": "CT", "street": "464 NEW BRITAIN AVE", "postcode": "06111"}}},
{"geometry": {"type": "Point", "coordinates": [-72.7311003126, 41.6970254039]}, "type": "Feature", "properties": {"collection_times": [{"days": "Mon-Sat", "time": "1:00pm"}, {"days": "Sun", "time": "Closed"}], "id": "0611100048", "name": "USPS COLLECTION BOX - BLUE BOX", "address": {"city": "NEWINGTON", "state": "CT", "street": "131 CEDAR ST", "postcode": "06111"}}},
{"geometry": {"type": "Point", "coordinates": [-72.7163106045, 41.6720202882]}, "type": "Feature", "properties": {"collection_times": [{"days": "Mon-Sat", "time": "12:00pm"}, {"days": "Sun", "time": "Closed"}], "id": "0611100049", "name": "USPS COLLECTION BOX - BLUE BOX", "address": {"city": "NEWINGTON", "state": "CT", "street": "2800 BERLIN TPKE", "postcode": "06111"}}},
{"geometry": {"type": "Point", "coordinates": [-72.7566298535, 41.6971525865]}, "type": "Feature", "properties": {"collection_times": [{"days": "Mon-Sat", "time": "9:30am"}, {"days": "Sun", "time": "Closed"}], "id": "0611100050", "name": "USPS COLLECTION BOX - BLUE BOX", "address": {"city": "NEWINGTON", "state": "CT", "street": "44 FENN RD", "postcode": "06111"}}},
{"geometry": {"type": "Point", "coordinates": [-72.7582260882, 41.693423681]}, "type": "Feature", "properties": {"collection_times": [{"days": "Mon-Sat", "time": "11:00am"}, {"days": "Sun", "time": "Closed"}], "id": "0611100052", "name": "USPS COLLECTION BOX - BLUE BOX", "address": {"city": "NEWINGTON", "state": "CT", "street": "66 CEDAR ST", "postcode": "06111"}}},
{"geometry": {"type": "Point", "coordinates": [-72.7211338833, 41.6953444192]}, "type": "Feature", "properties": {"collection_times": [{"days": "Mon-Sat", "time": "5:00pm"}, {"days": "Sun", "time": "Closed"}], "id": "0611100056", "name": "USPS COLLECTION BOX - APC", "address": {"city": "NEWINGTON", "state": "CT", "street": "75 LOWREY PL", "postcode": "06111"}}},
{"geometry": {"type": "Point", "coordinates": [-72.7297664952, 41.6881329244]}, "type": "Feature", "properties": {"collection_times": [{"days": "Mon-Sat", "time": "1:00pm"}, {"days": "Sun", "time": "Closed"}], "id": "0611100057", "name": "USPS COLLECTION BOX - BLUE BOX", "address": {"city": "NEWINGTON", "state": "CT", "street": "196 KITTS LN", "postcode": "06111"}}},
{"geometry": {"type": "Point", "coordinates": [-72.7542759384, 41.6721141318]}, "type": "Feature", "properties": {"collection_times": [{"days": "Mon-Sat", "time": "10:00am"}, {"days": "Sun", "time": "Closed"}], "id": "0611100059", "name": "USPS COLLECTION BOX - BLUE BOX", "address": {"city": "NEWINGTON", "state": "CT", "street": "719 NEW BRITAIN AVE", "postcode": "06111"}}},
{"geometry": {"type": "Point", "coordinates": [-72.6952584615, 41.7914701896]}, "type": "Feature", "properties": {"collection_times": [{"days": "Mon-Sat", "time": "12:00pm"}, {"days": "Sun", "time": "Closed"}], "id": "0611200004", "name": "USPS COLLECTION BOX - BLUE BOX", "address": {"city": "HARTFORD", "state": "CT", "street": "639 BLUE HILLS AVE", "postcode": "06112"}}},
{"geometry": {"type": "Point", "coordinates": [-72.6952584615, 41.7914701896]}, "type": "Feature", "properties": {"collection_times": [{"days": "Mon-Sat", "time": "11:30am"}, {"days": "Sun", "time": "Closed"}], "id": "0611200011", "name": "USPS COLLECTION BOX - BLUE BOX", "address": {"city": "HARTFORD", "state": "CT", "street": "256 GRANBY ST", "postcode": "06112"}}},
{"geometry": {"type": "Point", "coordinates": [-72.6952497714, 41.7915440089]}, "type": "Feature", "properties": {"collection_times": [{"days": "Mon-Sat", "time": "11:30am"}, {"days": "Sun", "time": "Closed"}], "id": "0611200014", "name": "USPS COLLECTION BOX - BLUE BOX", "address": {"city": "HARTFORD", "state": "CT", "street": "410 GARDEN ST", "postcode": "06112"}}},
{"geometry": {"type": "Point", "coordinates": [-72.6952584615, 41.7914701896]}, "type": "Feature", "properties": {"collection_times": [{"days": "Mon-Sat", "time": "10:30am"}, {"days": "Sun", "time": "Closed"}], "id": "0611200019", "name": "USPS COLLECTION BOX - BLUE BOX", "address": {"city": "HARTFORD", "state": "CT", "street": "675 TOWER AVE", "postcode": "06112"}}},
{"geometry": {"type": "Point", "coordinates": [-72.6952497714, 41.7915440089]}, "type": "Feature", "properties": {"collection_times": [{"days": "Mon-Fri", "time": "5:00pm"}, {"days": "Sat", "time": "12:00pm"}, {"days": "Sun", "time": "Closed"}], "id": "0611200021", "name": "USPS COLLECTION BOX - EXPRESS", "address": {"city": "HARTFORD", "state": "CT", "street": "433 WOODLAND ST", "postcode": "06112"}}},
{"geometry": {"type": "Point", "coordinates": [-72.6964538107, 41.7816057869]}, "type": "Feature", "properties": {"collection_times": [{"days": "Mon-Fri", "time": "5:00pm"}, {"days": "Sat", "time": "12:00pm"}, {"days": "Sun", "time": "Closed"}], "id": "0611200023", "name": "USPS COLLECTION BOX - BLUE BOX", "address": {"city": "HARTFORD", "state": "CT", "street": "433 WOODLAND ST", "postcode": "06112"}}},
{"geometry": {"type": "Point", "coordinates": [-72.6964538107, 41.7816057869]}, "type": "Feature", "properties": {"collection_times": [{"days": "Mon-Fri", "time": "5:00pm"}, {"days": "Sat", "time": "12:00pm"}, {"days": "Sun", "time": "Closed"}], "id": "0611200025", "name": "USPS COLLECTION BOX - PO LOBBY", "address": {"city": "HARTFORD", "state": "CT", "street": "433 WOODLAND ST", "postcode": "06112"}}},
{"geometry": {"type": "Point", "coordinates": [-72.6812897519, 41.7348346557]}, "type": "Feature", "properties": {"collection_times": [{"days": "Mon-Fri", "time": "1:00pm"}, {"days": "Sat-Sun", "time": "Closed"}], "id": "0611400011", "name": "USPS COLLECTION BOX - BLUE BOX", "address": {"city": "HARTFORD", "state": "CT", "street": "255 CAMPFIELD AVE", "postcode": "06114"}}},
{"geometry": {"type": "Point", "coordinates": [-72.680812727, 41.7287641929]}, "type": "Feature", "properties": {"collection_times": [{"days": "Mon-Fri", "time": "1:00pm"}, {"days": "Sat-Sun", "time": "Closed"}], "id": "0611400012", "name": "USPS COLLECTION BOX - BLUE BOX", "address": {"city": "HARTFORD", "state": "CT", "street": "432 CAMPFIELD AVE", "postcode": "06114"}}},
{"geometry": {"type": "Point", "coordinates": [-72.6779088548, 41.7406119001]}, "type": "Feature", "properties": {"collection_times": [{"days": "Mon-Fri", "time": "1:00pm"}, {"days": "Sat-Sun", "time": "Closed"}], "id": "0611400014", "name": "USPS COLLECTION BOX - BLUE BOX", "address": {"city": "HARTFORD", "state": "CT", "street": "636 FRANKLIN AVE", "postcode": "06114"}}},
{"geometry": {"type": "Point", "coordinates": [-72.6752693813, 41.7370413568]}, "type": "Feature", "properties": {"collection_times": [{"days": "Mon-Fri", "time": "1:00pm"}, {"days": "Sat-Sun", "time": "Closed"}], "id": "0611400015", "name": "USPS COLLECTION BOX - BLUE BOX", "address": {"city": "HARTFORD", "state": "CT", "street": "452 FRANKLIN AVE", "postcode": "06114"}}},
{"geometry": {"type": "Point", "coordinates": [-72.6779088548, 41.7406119001]}, "type": "Feature", "properties": {"collection_times": [{"days": "Mon-Fri", "time": "1:00pm"}, {"days": "Sat-Sun", "time": "Closed"}], "id": "0611400018", "name": "USPS COLLECTION BOX - BLUE BOX", "address": {"city": "HARTFORD", "state": "CT", "street": "367 FAIRFIELD AVE", "postcode": "06114"}}},
{"geometry": {"type": "Point", "coordinates": [-72.6779088548, 41.7406119001]}, "type": "Feature", "properties": {"collection_times": [{"days": "Mon-Fri", "time": "1:00pm"}, {"days": "Sat-Sun", "time": "Closed"}], "id": "0611400021", "name": "USPS COLLECTION BOX - BLUE BOX", "address": {"city": "HARTFORD", "state": "CT", "street": "695 FRANKLIN AVE", "postcode": "06114"}}},
{"geometry": {"type": "Point", "coordinates": [-72.6790950706, 41.7358276409]}, "type": "Feature", "properties": {"collection_times": [{"days": "Mon-Fri", "time": "1:00pm"}, {"days": "Sat-Sun", "time": "Closed"}], "id": "0611400024", "name": "USPS COLLECTION BOX - BLUE BOX", "address": {"city": "HARTFORD", "state": "CT", "street": "177 STANDISH ST", "postcode": "06114"}}},
{"geometry": {"type": "Point", "coordinates": [-72.6662777102, 41.7391836955]}, "type": "Feature", "properties": {"collection_times": [{"days": "Mon-Fri", "time": "1:00pm"}, {"days": "Sat-Sun", "time": "Closed"}], "id": "0611400028", "name": "USPS COLLECTION BOX - BLUE BOX", "address": {"city": "HARTFORD", "state": "CT", "street": "330 LOCUST ST", "postcode": "06114"}}},
{"geometry": {"type": "Point", "coordinates": [-72.6779088548, 41.7406119001]}, "type": "Feature", "properties": {"collection_times": [{"days": "Mon-Fri", "time": "5:00pm"}, {"days": "Sat", "time": "2:00pm"}, {"days": "Sun", "time": "Closed"}], "id": "0611400032", "name": "USPS COLLECTION BOX - BLUE BOX", "address": {"city": "HARTFORD", "state": "CT", "street": "645 MAPLE AVE", "postcode": "06114"}}},
{"geometry": {"type": "Point", "coordinates": [-72.6779088548, 41.7406119001]}, "type": "Feature", "properties": {"collection_times": [{"days": "Mon-Fri", "time": "5:00pm"}, {"days": "Sat", "time": "2:00pm"}, {"days": "Sun", "time": "Closed"}], "id": "0611400033", "name": "USPS COLLECTION BOX - EXPRESS", "address": {"city": "HARTFORD", "state": "CT", "street": "645 MAPLE AVE", "postcode": "06114"}}},
{"geometry": {"type": "Point", "coordinates": [-72.6779088548, 41.7406119001]}, "type": "Feature", "properties": {"collection_times": [{"days": "Mon-Fri", "time": "1:00pm"}, {"days": "Sat-Sun", "time": "Closed"}], "id": "0611400034", "name": "USPS COLLECTION BOX - BLUE BOX", "address": {"city": "HARTFORD", "state": "CT", "street": "889 MAPLE AVE", "postcode": "06114"}}},
{"geometry": {"type": "Point", "coordinates": [-72.6832200485, 41.7471970595]}, "type": "Feature", "properties": {"collection_times": [{"days": "Mon-Fri", "time": "1:00pm"}, {"days": "Sat-Sun", "time": "Closed"}], "id": "0611400038", "name": "USPS COLLECTION BOX - BLUE BOX", "address": {"city": "HARTFORD", "state": "CT", "street": "120 WEBSTER ST", "postcode": "06114"}}},
{"geometry": {"type": "Point", "coordinates": [-72.6706996108, 41.7359080821]}, "type": "Feature", "properties": {"collection_times": [{"days": "Mon-Fri", "time": "1:00pm"}, {"days": "Sat-Sun", "time": "Closed"}], "id": "0611400041", "name": "USPS COLLECTION BOX - BLUE BOX", "address": {"city": "HARTFORD", "state": "CT", "street": "731 WETHERSFIELD AVE", "postcode": "06114"}}},
{"geometry": {"type": "Point", "coordinates": [-72.6767788369, 41.7457219097]}, "type": "Feature", "properties": {"collection_times": [{"days": "Mon-Fri", "time": "1:00pm"}, {"days": "Sat-Sun", "time": "Closed"}], "id": "0611400047", "name": "USPS COLLECTION BOX - BLUE BOX", "address": {"city": "HARTFORD", "state": "CT", "street": "200 FRANKLIN AVE", "postcode": "06114"}}},
{"geometry": {"type": "Point", "coordinates": [-72.6779088548, 41.7406119001]}, "type": "Feature", "properties": {"collection_times": [{"days": "Mon-Fri", "time": "3:00pm"}, {"days": "Sat-Sun", "time": "Closed"}], "id": "0611400050", "name": "USPS COLLECTION BOX - BLUE BOX", "address": {"city": "HARTFORD", "state": "CT", "street": "864 WETHERSFIELD AVE", "postcode": "06114"}}},
{"geometry": {"type": "Point", "coordinates": [-72.653253332, 41.7419920401]}, "type": "Feature", "properties": {"collection_times": [{"days": "Mon-Sat", "time": "5:00pm"}, {"days": "Sun", "time": "Closed"}], "id": "0611400052", "name": "USPS COLLECTION BOX - BLUE BOX", "address": {"city": "HARTFORD", "state": "CT", "street": "70 MURPHY RD", "postcode": "06114"}}},
{"geometry": {"type": "Point", "coordinates": [-72.6779088548, 41.7406119001]}, "type": "Feature", "properties": {"collection_times": [{"days": "Mon-Fri", "time": "5:00pm"}, {"days": "Sat", "time": "10:00am"}, {"days": "Sun", "time": "Closed"}], "id": "0611400058", "name": "USPS COLLECTION BOX - PO LOBBY", "address": {"city": "HARTFORD", "state": "CT", "street": "645 MAPLE AVE", "postcode": "06114"}}},
{"geometry": {"type": "Point", "coordinates": [-72.6600257721, 41.7396142925]}, "type": "Feature", "properties": {"collection_times": [{"days": "Mon-Fri", "time": "1:00pm"}, {"days": "Sat-Sun", "time": "Closed"}], "id": "0611400059", "name": "USPS COLLECTION BOX - BLUE BOX", "address": {"city": "HARTFORD", "state": "CT", "street": "40 BRAINARD RD", "postcode": "06114"}}},
{"geometry": {"type": "Point", "coordinates": [-72.7448060444, 41.7860643948]}, "type": "Feature", "properties": {"collection_times": [{"days": "Mon-Sat", "time": "12:00pm"}, {"days": "Sun", "time": "Closed"}], "id": "0611700002", "name": "USPS COLLECTION BOX - BLUE BOX", "address": {"city": "HARTFORD", "state": "CT", "street": "2475 ALBANY AVE", "postcode": "06117"}}},
{"geometry": {"type": "Point", "coordinates": [-72.7452086444, 41.7879029406]}, "type": "Feature", "properties": {"collection_times": [{"days": "Mon-Fri", "time": "2:00pm"}, {"days": "Sat", "time": "10:30am"}, {"days": "Sun", "time": "Closed"}], "id": "0611700004", "name": "USPS COLLECTION BOX - BLUE BOX", "address": {"city": "HARTFORD", "state": "CT", "street": "1678 ASYLUM AVE", "postcode": "06117"}}},
{"geometry": {"type": "Point", "coordinates": [-72.7402079137, 41.7790919991]}, "type": "Feature", "properties": {"collection_times": [{"days": "Mon-Sat", "time": "10:30am"}, {"days": "Sun", "time": "Closed"}], "id": "0611700006", "name": "USPS COLLECTION BOX - BLUE BOX", "address": {"city": "HARTFORD", "state": "CT", "street": "1800 ASYLUM AVE", "postcode": "06117"}}},
{"geometry": {"type": "Point", "coordinates": [-72.7520883705, 41.7792150269]}, "type": "Feature", "properties": {"collection_times": [{"days": "Mon-Sat", "time": "11:00am"}, {"days": "Sun", "time": "Closed"}], "id": "0611700007", "name": "USPS COLLECTION BOX - BLUE BOX", "address": {"city": "HARTFORD", "state": "CT", "street": "2 HARVEST LN", "postcode": "06117"}}},
{"geometry": {"type": "Point", "coordinates": [-72.720681993, 41.7792067461]}, "type": "Feature", "properties": {"collection_times": [{"days": "Mon-Sat", "time": "11:30am"}, {"days": "Sun", "time": "Closed"}], "id": "0611700009", "name": "USPS COLLECTION BOX - BLUE BOX", "address": {"city": "HARTFORD", "state": "CT", "street": "15 VARDON RD", "postcode": "06117"}}},
{"geometry": {"type": "Point", "coordinates": [-72.7164079622, 41.7935796976]}, "type": "Feature", "properties": {"collection_times": [{"days": "Mon-Sat", "time": "10:30am"}, {"days": "Sun", "time": "Closed"}], "id": "0611700010", "name": "USPS COLLECTION BOX - BLUE BOX", "address": {"city": "HARTFORD", "state": "CT", "street": "200 BLOOMFIELD AVE", "postcode": "06117"}}},
{"geometry": {"type": "Point", "coordinates": [-72.7288242995, 41.8027961309]}, "type": "Feature", "properties": {"collection_times": [{"days": "Mon-Sat", "time": "10:00am"}, {"days": "Sun", "time": "Closed"}], "id": "0611700012", "name": "USPS COLLECTION BOX - BLUE BOX", "address": {"city": "HARTFORD", "state": "CT", "street": "1 ABRAHMS BLVD", "postcode": "06117"}}},
{"geometry": {"type": "Point", "coordinates": [-72.7452086444, 41.7879029406]}, "type": "Feature", "properties": {"collection_times": [{"days": "Mon-Sat", "time": "10:00am"}, {"days": "Sun", "time": "Closed"}], "id": "0611700013", "name": "USPS COLLECTION BOX - BLUE BOX", "address": {"city": "HARTFORD", "state": "CT", "street": "29 PIONEER DR", "postcode": "06117"}}},
{"geometry": {"type": "Point", "coordinates": [-72.74589276, 41.786234498]}, "type": "Feature", "properties": {"collection_times": [{"days": "Mon-Fri", "time": "5:00pm"}, {"days": "Sat", "time": "2:00pm"}, {"days": "Sun", "time": "Closed"}], "id": "0611700014", "name": "USPS COLLECTION BOX - BLUE BOX", "address": {"city": "HARTFORD", "state": "CT", "street": "12 CROSSROADS PLZ", "postcode": "06117"}}},
{"geometry": {"type": "Point", "coordinates": [-72.74589276, 41.786234498]}, "type": "Feature", "properties": {"collection_times": [{"days": "Mon-Fri", "time": "5:00pm"}, {"days": "Sat", "time": "2:00pm"}, {"days": "Sun", "time": "Closed"}], "id": "0611700015", "name": "USPS COLLECTION BOX - BLUE BOX", "address": {"city": "HARTFORD", "state": "CT", "street": "12 CROSSROADS PLZ", "postcode": "06117"}}},
{"geometry": {"type": "Point", "coordinates": [-72.74589276, 41.786234498]}, "type": "Feature", "properties": {"collection_times": [{"days": "Mon-Fri", "time": "5:00pm"}, {"days": "Sat", "time": "2:00pm"}, {"days": "Sun", "time": "Closed"}], "id": "0611700018", "name": "USPS COLLECTION BOX - EXPRESS", "address": {"city": "HARTFORD", "state": "CT", "street": "12 CROSSROADS PLZ", "postcode": "06117"}}},
{"geometry": {"type": "Point", "coordinates": [-72.7452086444, 41.7879029406]}, "type": "Feature", "properties": {"collection_times": [{"days": "Mon-Sat", "time": "11:00am"}, {"days": "Sun", "time": "Closed"}], "id": "0611700019", "name": "USPS COLLECTION BOX - BLUE BOX", "address": {"city": "HARTFORD", "state": "CT", "street": "36 BRIGHTVIEW DR", "postcode": "06117"}}},
{"geometry": {"type": "Point", "coordinates": [-72.7452086444, 41.7879029406]}, "type": "Feature", "properties": {"collection_times": [{"days": "Mon-Sat", "time": "11:00am"}, {"days": "Sun", "time": "Closed"}], "id": "0611700023", "name": "USPS COLLECTION BOX - BLUE BOX", "address": {"city": "HARTFORD", "state": "CT", "street": "36 LYMAN RD", "postcode": "06117"}}},
{"geometry": {"type": "Point", "coordinates": [-72.7452260247, 41.7879028942]}, "type": "Feature", "properties": {"collection_times": [{"days": "Mon-Sat", "time": "11:30am"}, {"days": "Sun", "time": "Closed"}], "id": "0611700027", "name": "USPS COLLECTION BOX - BLUE BOX", "address": {"city": "HARTFORD", "state": "CT", "street": "342 N MAIN ST", "postcode": "06117"}}},
{"geometry": {"type": "Point", "coordinates": [-72.7479042827, 41.7875034443]}, "type": "Feature", "properties": {"collection_times": [{"days": "Mon-Sat", "time": "11:00am"}, {"days": "Sun", "time": "Closed"}], "id": "0611700030", "name": "USPS COLLECTION BOX - BLUE BOX", "address": {"city": "HARTFORD", "state": "CT", "street": "740 N MAIN ST", "postcode": "06117"}}},
{"geometry": {"type": "Point", "coordinates": [-72.7452086444, 41.7879029406]}, "type": "Feature", "properties": {"collection_times": [{"days": "Mon-Fri", "time": "2:00pm"}, {"days": "Sat", "time": "10:30am"}, {"days": "Sun", "time": "Closed"}], "id": "0611700039", "name": "USPS COLLECTION BOX - BLUE BOX", "address": {"city": "HARTFORD", "state": "CT", "street": "1678 ASYLUM AVE", "postcode": "06117"}}},
{"geometry": {"type": "Point", "coordinates": [-72.74589276, 41.786234498]}, "type": "Feature", "properties": {"collection_times": [{"days": "Mon-Fri", "time": "5:00pm"}, {"days": "Sat", "time": "2:00pm"}, {"days": "Sun", "time": "Closed"}], "id": "0611700044", "name": "USPS COLLECTION BOX - PO LOBBY", "address": {"city": "HARTFORD", "state": "CT", "street": "12 CROSSROADS PLZ", "postcode": "06117"}}},
{"geometry": {"type": "Point", "coordinates": [-72.7249229009, 41.8011861237]}, "type": "Feature", "properties": {"collection_times": [{"days": "Mon-Sat", "time": "10:00am"}, {"days": "Sun", "time": "Closed"}], "id": "0611700046", "name": "USPS COLLECTION BOX - BLUE BOX", "address": {"city": "HARTFORD", "state": "CT", "street": "335 BLOOMFIELD AVE", "postcode": "06117"}}},
{"geometry": {"type": "Point", "coordinates": [-72.6102962235, 41.7482200054]}, "type": "Feature", "properties": {"collection_times": [{"days": "Mon-Sat", "time": "1:00pm"}, {"days": "Sun", "time": "Closed"}], "id": "0611800001", "name": "USPS COLLECTION BOX - BLUE BOX", "address": {"city": "EAST HARTFORD", "state": "CT", "street": "640 FORBES ST", "postcode": "06118"}}},
{"geometry": {"type": "Point", "coordinates": [-72.6102962235, 41.7482200054]}, "type": "Feature", "properties": {"collection_times": [{"days": "Mon-Sat", "time": "10:00am"}, {"days": "Sun", "time": "Closed"}], "id": "0611800004", "name": "USPS COLLECTION BOX - BLUE BOX", "address": {"city": "EAST HARTFORD", "state": "CT", "street": "599 BREWER ST", "postcode": "06118"}}},
{"geometry": {"type": "Point", "coordinates": [-72.6165078427, 41.7275800717]}, "type": "Feature", "properties": {"collection_times": [{"days": "Mon-Sat", "time": "1:00pm"}, {"days": "Sun", "time": "Closed"}], "id": "0611800009", "name": "USPS COLLECTION BOX - BLUE BOX", "address": {"city": "EAST HARTFORD", "state": "CT", "street": "367 MAIN ST", "postcode": "06118"}}},
{"geometry": {"type": "Point", "coordinates": [-72.6044610065, 41.7324017917]}, "type": "Feature", "properties": {"collection_times": [{"days": "Mon-Sat", "time": "12:00pm"}, {"days": "Sun", "time": "Closed"}], "id": "0611800011", "name": "USPS COLLECTION BOX - BLUE BOX", "address": {"city": "EAST HARTFORD", "state": "CT", "street": "1452 FORBES ST", "postcode": "06118"}}},
{"geometry": {"type": "Point", "coordinates": [-72.6002937434, 41.7406580938]}, "type": "Feature", "properties": {"collection_times": [{"days": "Mon-Sat", "time": "11:00am"}, {"days": "Sun", "time": "Closed"}], "id": "0611800016", "name": "USPS COLLECTION BOX - BLUE BOX", "address": {"city": "EAST HARTFORD", "state": "CT", "street": "104 HILLS ST", "postcode": "06118"}}},
{"geometry": {"type": "Point", "coordinates": [-72.6175128061, 41.7285712215]}, "type": "Feature", "properties": {"collection_times": [{"days": "Mon-Sat", "time": "10:30am"}, {"days": "Sun", "time": "Closed"}], "id": "0611800020", "name": "USPS COLLECTION BOX - BLUE BOX", "address": {"city": "EAST HARTFORD", "state": "CT", "street": "17 MAIN ST", "postcode": "06118"}}},
{"geometry": {"type": "Point", "coordinates": [-72.6412427496, 41.7538500207]}, "type": "Feature", "properties": {"collection_times": [{"days": "Mon-Sat", "time": "11:00am"}, {"days": "Sun", "time": "Closed"}], "id": "0611800021", "name": "USPS COLLECTION BOX - BLUE BOX", "address": {"city": "EAST HARTFORD", "state": "CT", "street": "452 MAIN ST", "postcode": "06118"}}},
{"geometry": {"type": "Point", "coordinates": [-72.6102962235, 41.7482200054]}, "type": "Feature", "properties": {"collection_times": [{"days": "Mon-Sat", "time": "12:00pm"}, {"days": "Sun", "time": "Closed"}], "id": "0611800022", "name": "USPS COLLECTION BOX - BLUE BOX", "address": {"city": "EAST HARTFORD", "state": "CT", "street": "194 MAIN ST", "postcode": "06118"}}},
{"geometry": {"type": "Point", "coordinates": [-72.6233790287, 41.7352657282]}, "type": "Feature", "properties": {"collection_times": [{"days": "Mon-Sat", "time": "11:00am"}, {"days": "Sun", "time": "Closed"}], "id": "0611800027", "name": "USPS COLLECTION BOX - BLUE BOX", "address": {"city": "EAST HARTFORD", "state": "CT", "street": "40 ELMS VLG", "postcode": "06118"}}},
{"geometry": {"type": "Point", "coordinates": [-72.608521518, 41.7646406701]}, "type": "Feature", "properties": {"collection_times": [{"days": "Mon-Sat", "time": "11:00am"}, {"days": "Sun", "time": "Closed"}], "id": "0611800030", "name": "USPS COLLECTION BOX - BLUE BOX", "address": {"city": "EAST HARTFORD", "state": "CT", "street": "800 SILVER LN", "postcode": "06118"}}},
{"geometry": {"type": "Point", "coordinates": [-72.6048927865, 41.7650692036]}, "type": "Feature", "properties": {"collection_times": [{"days": "Mon-Sat", "time": "5:00pm"}, {"days": "Sun", "time": "Closed"}], "id": "0611800031", "name": "USPS COLLECTION BOX - BLUE BOX", "address": {"city": "EAST HARTFORD", "state": "CT", "street": "888 SILVER LN", "postcode": "06118"}}},
{"geometry": {"type": "Point", "coordinates": [-72.6103092589, 41.748224304]}, "type": "Feature", "properties": {"collection_times": [{"days": "Mon-Sat", "time": "5:00pm"}, {"days": "Sun", "time": "Closed"}], "id": "0611800035", "name": "USPS COLLECTION BOX - EXPRESS", "address": {"city": "EAST HARTFORD", "state": "CT", "street": "888 SILVER LN", "postcode": "06118"}}},
{"geometry": {"type": "Point", "coordinates": [-72.632600203, 41.742314344]}, "type": "Feature", "properties": {"collection_times": [{"days": "Mon-Sat", "time": "11:00am"}, {"days": "Sun", "time": "Closed"}], "id": "0611800042", "name": "USPS COLLECTION BOX - BLUE BOX", "address": {"city": "EAST HARTFORD", "state": "CT", "street": "287 MAIN ST", "postcode": "06118"}}},
{"geometry": {"type": "Point", "coordinates": [-72.6034050531, 41.7653422546]}, "type": "Feature", "properties": {"collection_times": [{"days": "Mon-Sat", "time": "11:00am"}, {"days": "Sun", "time": "Closed"}], "id": "0611800045", "name": "USPS COLLECTION BOX - BLUE BOX", "address": {"city": "EAST HARTFORD", "state": "CT", "street": "940 SILVER LN", "postcode": "06118"}}},
{"geometry": {"type": "Point", "coordinates": [-72.604954059, 41.7650874469]}, "type": "Feature", "properties": {"collection_times": [{"days": "Mon-Fri", "time": "5:00pm"}, {"days": "Sat", "time": "12:00pm"}, {"days": "Sun", "time": "Closed"}], "id": "0611800046", "name": "USPS COLLECTION BOX - PO LOBBY", "address": {"city": "EAST HARTFORD", "state": "CT", "street": "888 SILVER LN", "postcode": "06118"}}},
{"geometry": {"type": "Point", "coordinates": [-72.7276765472, 41.7633406245]}, "type": "Feature", "properties": {"collection_times": [{"days": "Mon-Sat", "time": "1:00pm"}, {"days": "Sun", "time": "Closed"}], "id": "0611900004", "name": "USPS COLLECTION BOX - BLUE BOX", "address": {"city": "WEST HARTFORD", "state": "CT", "street": "129 PENN DR", "postcode": "06119"}}},
{"geometry": {"type": "Point", "coordinates": [-72.7322832708, 41.7578459922]}, "type": "Feature", "properties": {"collection_times": [{"days": "Mon-Sat", "time": "10:00am"}, {"days": "Sun", "time": "Closed"}], "id": "0611900005", "name": "USPS COLLECTION BOX - BLUE BOX", "address": {"city": "WEST HARTFORD", "state": "CT", "street": "1402 BOULEVARD", "postcode": "06119"}}},
{"geometry": {"type": "Point", "coordinates": [-72.7165825282, 41.7602173391]}, "type": "Feature", "properties": {"collection_times": [{"days": "Mon-Sat", "time": "10:00am"}, {"days": "Sun", "time": "Closed"}], "id": "0611900008", "name": "USPS COLLECTION BOX - BLUE BOX", "address": {"city": "WEST HARTFORD", "state": "CT", "street": "1044 BOULEVARD", "postcode": "06119"}}},
{"geometry": {"type": "Point", "coordinates": [-72.7350265534, 41.7694911042]}, "type": "Feature", "properties": {"collection_times": [{"days": "Mon-Sat", "time": "1:00pm"}, {"days": "Sun", "time": "Closed"}], "id": "0611900011", "name": "USPS COLLECTION BOX - BLUE BOX", "address": {"city": "WEST HARTFORD", "state": "CT", "street": "373 FERN ST", "postcode": "06119"}}},
{"geometry": {"type": "Point", "coordinates": [-72.737234795, 41.763134034]}, "type": "Feature", "properties": {"collection_times": [{"days": "Mon-Sat", "time": "10:00am"}, {"days": "Sun", "time": "Closed"}], "id": "0611900013", "name": "USPS COLLECTION BOX - BLUE BOX", "address": {"city": "WEST HARTFORD", "state": "CT", "street": "901 FARMINGTON AVE", "postcode": "06119"}}},
{"geometry": {"type": "Point", "coordinates": [-72.7178265145, 41.7514366494]}, "type": "Feature", "properties": {"collection_times": [{"days": "Mon-Sat", "time": "12:00pm"}, {"days": "Sun", "time": "Closed"}], "id": "0611900017", "name": "USPS COLLECTION BOX - BLUE BOX", "address": {"city": "WEST HARTFORD", "state": "CT", "street": "100 KANE ST", "postcode": "06119"}}},
{"geometry": {"type": "Point", "coordinates": [-72.7290724284, 41.7536100795]}, "type": "Feature", "properties": {"collection_times": [{"days": "Mon-Sat", "time": "12:00pm"}, {"days": "Sun", "time": "Closed"}], "id": "0611900020", "name": "USPS COLLECTION BOX - BLUE BOX", "address": {"city": "WEST HARTFORD", "state": "CT", "street": "326 N QUAKER LN", "postcode": "06119"}}},
{"geometry": {"type": "Point", "coordinates": [-72.7313167707, 41.7554564619]}, "type": "Feature", "properties": {"collection_times": [{"days": "Mon-Sat", "time": "10:00am"}, {"days": "Sun", "time": "Closed"}], "id": "0611900023", "name": "USPS COLLECTION BOX - BLUE BOX", "address": {"city": "WEST HARTFORD", "state": "CT", "street": "388 PARK RD", "postcode": "06119"}}},
{"geometry": {"type": "Point", "coordinates": [-72.7207328602, 41.7576567827]}, "type": "Feature", "properties": {"collection_times": [{"days": "Mon-Fri", "time": "11:00am"}, {"days": "Sat", "time": "10:00am"}, {"days": "Sun", "time": "Closed"}], "id": "0611900024", "name": "USPS COLLECTION BOX - BLUE BOX", "address": {"city": "WEST HARTFORD", "state": "CT", "street": "132 PARK RD", "postcode": "06119"}}},
{"geometry": {"type": "Point", "coordinates": [-72.7290555138, 41.7526903325]}, "type": "Feature", "properties": {"collection_times": [{"days": "Mon-Sat", "time": "11:30am"}, {"days": "Sun", "time": "Closed"}], "id": "0611900025", "name": "USPS COLLECTION BOX - BLUE BOX", "address": {"city": "WEST HARTFORD", "state": "CT", "street": "348 S QUAKER LN", "postcode": "06119"}}},
{"geometry": {"type": "Point", "coordinates": [-72.7276765472, 41.7633406245]}, "type": "Feature", "properties": {"collection_times": [{"days": "Mon-Sat", "time": "11:00am"}, {"days": "Sun", "time": "Closed"}], "id": "0611900026", "name": "USPS COLLECTION BOX - BLUE BOX", "address": {"city": "WEST HARTFORD", "state": "CT", "street": "836 FARMINGTON AVE", "postcode": "06119"}}},
{"geometry": {"type": "Point", "coordinates": [-72.7261709226, 41.7649225166]}, "type": "Feature", "properties": {"collection_times": [{"days": "Mon-Sat", "time": "10:00am"}, {"days": "Sun", "time": "Closed"}], "id": "0611900029", "name": "USPS COLLECTION BOX - BLUE BOX", "address": {"city": "WEST HARTFORD", "state": "CT", "street": "776 FARMINGTON AVE", "postcode": "06119"}}},
{"geometry": {"type": "Point", "coordinates": [-72.6763056533, 41.7774938216]}, "type": "Feature", "properties": {"collection_times": [{"days": "Mon-Sat", "time": "11:30am"}, {"days": "Sun", "time": "Closed"}], "id": "0612000005", "name": "USPS COLLECTION BOX - BLUE BOX", "address": {"city": "HARTFORD", "state": "CT", "street": "1630 MAIN ST", "postcode": "06120"}}},
{"geometry": {"type": "Point", "coordinates": [-72.66829275, 41.7960428]}, "type": "Feature", "properties": {"collection_times": [{"days": "Mon-Sat", "time": "10:30am"}, {"days": "Sun", "time": "Closed"}], "id": "0612000007", "name": "USPS COLLECTION BOX - BLUE BOX", "address": {"city": "HARTFORD", "state": "CT", "street": "89 MONTVILLE ST", "postcode": "06120"}}},
{"geometry": {"type": "Point", "coordinates": [-72.6812031034, 41.7765332589]}, "type": "Feature", "properties": {"collection_times": [{"days": "Mon-Sat", "time": "1:00pm"}, {"days": "Sun", "time": "Closed"}], "id": "0612000016", "name": "USPS COLLECTION BOX - BLUE BOX", "address": {"city": "HARTFORD", "state": "CT", "street": "284 ALBANY AVE", "postcode": "06120"}}},
{"geometry": {"type": "Point", "coordinates": [-72.6772957897, 41.7930580128]}, "type": "Feature", "properties": {"collection_times": [{"days": "Mon-Fri", "time": "4:00pm"}, {"days": "Sat", "time": "12:00pm"}, {"days": "Sun", "time": "Closed"}], "id": "0612000018", "name": "USPS COLLECTION BOX - BLUE BOX", "address": {"city": "HARTFORD", "state": "CT", "street": "271 BARBOUR ST", "postcode": "06120"}}},
{"geometry": {"type": "Point", "coordinates": [-72.6615364107, 41.8001013503]}, "type": "Feature", "properties": {"collection_times": [{"days": "Mon-Sat", "time": "11:00am"}, {"days": "Sun", "time": "Closed"}], "id": "0612000020", "name": "USPS COLLECTION BOX - BLUE BOX", "address": {"city": "HARTFORD", "state": "CT", "street": "3580 MAIN ST", "postcode": "06120"}}},
{"geometry": {"type": "Point", "coordinates": [-72.67439809, 41.7857738415]}, "type": "Feature", "properties": {"collection_times": [{"days": "Mon-Fri", "time": "4:00pm"}, {"days": "Sat", "time": "12:00pm"}, {"days": "Sun", "time": "Closed"}], "id": "0612000021", "name": "USPS COLLECTION BOX - EXPRESS", "address": {"city": "HARTFORD", "state": "CT", "street": "271 BARBOUR ST", "postcode": "06120"}}},
{"geometry": {"type": "Point", "coordinates": [-72.6772957897, 41.7930580128]}, "type": "Feature", "properties": {"collection_times": [{"days": "Mon-Fri", "time": "4:00pm"}, {"days": "Sat", "time": "12:00pm"}, {"days": "Sun", "time": "Closed"}], "id": "0612000022", "name": "USPS COLLECTION BOX - PO LOBBY", "address": {"city": "HARTFORD", "state": "CT", "street": "271 BARBOUR ST", "postcode": "06120"}}},
{"geometry": {"type": "Point", "coordinates": [-72.672156292, 41.924890011]}, "type": "Feature", "properties": {"collection_times": [{"days": "Mon-Sat", "time": "6:00pm"}, {"days": "Sun", "time": "6:45pm"}], "id": "0619900000", "name": "USPS COLLECTION BOX - EXPRESS", "address": {"city": "WINDSOR LOCKS", "state": "CT", "street": "10 SCHOEPHOESTER RD", "postcode": "06199"}}},
{"geometry": {"type": "Point", "coordinates": [-72.6707231048, 41.9248274444]}, "type": "Feature", "properties": {"collection_times": [{"days": "Mon-Sun", "time": "6:00pm"}], "id": "0619900001", "name": "USPS COLLECTION BOX - BLUE BOX", "address": {"city": "WINDSOR LOCKS", "state": "CT", "street": "10 SCHOEPHOESTER RD", "postcode": "06199"}}},
{"geometry": {"type": "Point", "coordinates": [-72.6707231048, 41.9248274444]}, "type": "Feature", "properties": {"collection_times": [{"days": "Mon-Sun", "time": "6:00pm"}], "id": "0619900002", "name": "USPS COLLECTION BOX - BLUE BOX", "address": {"city": "WINDSOR LOCKS", "state": "CT", "street": "10 SCHOEPHOESTER RD", "postcode": "06199"}}}
]}
