{"type": "FeatureCollection", "features": [
{"geometry": {"type": "Point", "coordinates": [-72.212457433, 41.713602325]}, "type": "Feature", "properties": {"collection_times": [{"days": "Mon-Sat", "time": "2:30pm"}, {"days": "Sun", "time": "Closed"}], "id": "0622600001", "name": "USPS COLLECTION BOX - BLUE BOX", "address": {"city": "WILLIMANTIC", "state": "CT", "street": "7 STORRS RD", "postcode": "06226"}}},
{"geometry": {"type": "Point", "coordinates": [-72.2118227305, 41.7134153003]}, "type": "Feature", "properties": {"collection_times": [{"days": "Mon-Sat", "time": "2:30pm"}, {"days": "Sun", "time": "Closed"}], "id": "0622600003", "name": "USPS COLLECTION BOX - BLUE BOX", "address": {"city": "WILLIMANTIC", "state": "CT", "street": "108 VALLEY VLY", "postcode": "06226"}}},
{"geometry": {"type": "Point", "coordinates": [-72.207830244, 41.7126309986]}, "type": "Feature", "properties": {"collection_times": [{"days": "Mon-Sat", "time": "9:30am"}, {"days": "Sun", "time": "Closed"}], "id": "0622600004", "name": "USPS COLLECTION BOX - BLUE BOX", "address": {"city": "WILLIMANTIC", "state": "CT", "street": "10 VALLEY VLY", "postcode": "06226"}}},
{"geometry": {"type": "Point", "coordinates": [-72.2394550905, 41.7231290786]}, "type": "Feature", "properties": {"collection_times": [{"days": "Mon-Sat", "time": "3:30pm"}, {"days": "Sun", "time": "Closed"}], "id": "0622600011", "name": "USPS COLLECTION BOX - BLUE BOX", "address": {"city": "WILLIMANTIC", "state": "CT", "street": "1601 MAIN ST", "postcode": "06226"}}},
{"geometry": {"type": "Point", "coordinates": [-72.2141318664, 41.71221578]}, "type": "Feature", "properties": {"collection_times": [{"days": "Mon-Sat", "time": "3:30pm"}, {"days": "Sun", "time": "Closed"}], "id": "0622600012", "name": "USPS COLLECTION BOX - BLUE BOX", "address": {"city": "WILLIMANTIC", "state": "CT", "street": "803 MAIN ST", "postcode": "06226"}}},
{"geometry": {"type": "Point", "coordinates": [-72.2128952924, 41.7118969685]}, "type": "Feature", "properties": {"collection_times": [{"days": "Mon-Sat", "time": "3:30pm"}, {"days": "Sun", "time": "Closed"}], "id": "0622600013", "name": "USPS COLLECTION BOX - BLUE BOX", "address": {"city": "WILLIMANTIC", "state": "CT", "street": "738 MAIN ST", "postcode": "06226"}}},
{"geometry": {"type": "Point", "coordinates": [-72.2114438012, 41.7114890069]}, "type": "Feature", "properties": {"collection_times": [{"days": "Mon-Sat", "time": "3:30pm"}, {"days": "Sun", "time": "Closed"}], "id": "0622600015", "name": "USPS COLLECTION BOX - BLUE BOX", "address": {"city": "WILLIMANTIC", "state": "CT", "street": "676 MAIN ST", "postcode": "06226"}}},
{"geometry": {"type": "Point", "coordinates": [-72.206332618, 41.7075217988]}, "type": "Feature", "properties": {"collection_times": [{"days": "Mon-Sat", "time": "12:00pm"}, {"days": "Sun", "time": "Closed"}], "id": "0622600017", "name": "USPS COLLECTION BOX - BLUE BOX", "address": {"city": "WILLIMANTIC", "state": "CT", "street": "48 S PARK ST", "postcode": "06226"}}},
{"geometry": {"type": "Point", "coordinates": [-72.2263009653, 41.714233908]}, "type": "Feature", "properties": {"collection_times": [{"days": "Mon-Sat", "time": "3:00pm"}, {"days": "Sun", "time": "Closed"}], "id": "0622600021", "name": "USPS COLLECTION BOX - BLUE BOX", "address": {"city": "WILLIMANTIC", "state": "CT", "street": "1225 MAIN ST", "postcode": "06226"}}},
{"geometry": {"type": "Point", "coordinates": [-72.2063263371, 41.7105426925]}, "type": "Feature", "properties": {"collection_times": [{"days": "Mon-Sat", "time": "10:00am"}, {"days": "Sun", "time": "Closed"}], "id": "0622600022", "name": "USPS COLLECTION BOX - BLUE BOX", "address": {"city": "WILLIMANTIC", "state": "CT", "street": "621 VALLEY VLY", "postcode": "06226"}}},
{"geometry": {"type": "Point", "coordinates": [-72.2238510573, 41.7172398067]}, "type": "Feature", "properties": {"collection_times": [{"days": "Mon-Sat", "time": "3:00pm"}, {"days": "Sun", "time": "Closed"}], "id": "0622600026", "name": "USPS COLLECTION BOX - BLUE BOX", "address": {"city": "WILLIMANTIC", "state": "CT", "street": "132 MANSFIELD AVE", "postcode": "06226"}}},
{"geometry": {"type": "Point", "coordinates": [-72.2289015934, 41.715151394]}, "type": "Feature", "properties": {"collection_times": [{"days": "Mon-Sat", "time": "3:00pm"}, {"days": "Sun", "time": "Closed"}], "id": "0622600031", "name": "USPS COLLECTION BOX - BLUE BOX", "address": {"city": "WILLIMANTIC", "state": "CT", "street": "1320 MAIN ST", "postcode": "06226"}}},
{"geometry": {"type": "Point", "coordinates": [-72.2164141183, 41.7127435956]}, "type": "Feature", "properties": {"collection_times": [{"days": "Mon-Sat", "time": "5:30pm"}, {"days": "Sun", "time": "Closed"}], "id": "0622600033", "name": "USPS COLLECTION BOX - BLUE BOX", "address": {"city": "WILLIMANTIC", "state": "CT", "street": "919 MAIN ST", "postcode": "06226"}}},
{"geometry": {"type": "Point", "coordinates": [-72.210607858, 41.7151414321]}, "type": "Feature", "properties": {"collection_times": [{"days": "Mon-Sat", "time": "5:30pm"}, {"days": "Sun", "time": "Closed"}], "id": "0622600040", "name": "USPS COLLECTION BOX - EXPRESS", "address": {"city": "WILLIMANTIC", "state": "CT", "street": "919 MAIN ST", "postcode": "06226"}}},
{"geometry": {"type": "Point", "coordinates": [-72.2105991681, 41.7151327881]}, "type": "Feature", "properties": {"collection_times": [{"days": "Mon-Sat", "time": "5:30pm"}, {"days": "Sun", "time": "Closed"}], "id": "0622600042", "name": "USPS COLLECTION BOX - BLUE BOX", "address": {"city": "WILLIMANTIC", "state": "CT", "street": "919 MAIN ST", "postcode": "06226"}}},
{"geometry": {"type": "Point", "coordinates": [-72.2164141183, 41.7127435956]}, "type": "Feature", "properties": {"collection_times": [{"days": "Mon-Sat", "time": "5:30pm"}, {"days": "Sun", "time": "Closed"}], "id": "0622600044", "name": "USPS COLLECTION BOX - PO LOBBY", "address": {"city": "WILLIMANTIC", "state": "CT", "street": "919 MAIN ST", "postcode": "06226"}}},
{"geometry": {"type": "Point", "coordinates": [-72.3436362991, 41.6291188275]}, "type": "Feature", "properties": {"collection_times": [{"days": "Mon-Fri", "time": "4:45pm"}, {"days": "Sat", "time": "1:00pm"}, {"days": "Sun", "time": "Closed"}], "id": "0623100001", "name": "USPS COLLECTION BOX - BLUE BOX", "address": {"city": "AMSTON", "state": "CT", "street": "540 CHURCH ST", "postcode": "06231"}}},
{"geometry": {"type": "Point", "coordinates": [-72.3436362991, 41.6291188275]}, "type": "Feature", "properties": {"collection_times": [{"days": "Mon-Sat", "time": "12:00pm"}, {"days": "Sun", "time": "Closed"}], "id": "0623100003", "name": "USPS COLLECTION BOX - PO LOBBY", "address": {"city": "AMSTON", "state": "CT", "street": "540 CHURCH ST", "postcode": "06231"}}},
{"geometry": {"type": "Point", "coordinates": [-72.372945953, 41.733790242]}, "type": "Feature", "properties": {"collection_times": [{"days": "Mon-Fri", "time": "4:45pm"}, {"days": "Sat", "time": "12:00pm"}, {"days": "Sun", "time": "Closed"}], "id": "0623200001", "name": "USPS COLLECTION BOX - BLUE BOX", "address": {"city": "ANDOVER", "state": "CT", "street": "335 ROUTE 6", "postcode": "06232"}}},
{"geometry": {"type": "Point", "coordinates": [-72.3773470807, 41.7401702833]}, "type": "Feature", "properties": {"collection_times": [{"days": "Mon-Fri", "time": "4:45pm"}, {"days": "Sat", "time": "12:15pm"}, {"days": "Sun", "time": "Closed"}], "id": "0623200006", "name": "USPS COLLECTION BOX - PO LOBBY", "address": {"city": "ANDOVER", "state": "CT", "street": "335 ROUTE 6", "postcode": "06232"}}},
{"geometry": {"type": "Point", "coordinates": [-71.8627113019, 41.8729588459]}, "type": "Feature", "properties": {"collection_times": [{"days": "Mon-Fri", "time": "4:45pm"}, {"days": "Sat", "time": "11:45am"}, {"days": "Sun", "time": "Closed"}], "id": "0623300001", "name": "USPS COLLECTION BOX - BLUE BOX", "address": {"city": "BALLOUVILLE", "state": "CT", "street": "252 BALLOUVILLE RD", "postcode": "06233"}}},
{"geometry": {"type": "Point", "coordinates": [-71.8627113019, 41.8729588459]}, "type": "Feature", "properties": {"collection_times": [{"days": "Mon-Fri", "time": "2:00pm"}, {"days": "Sat", "time": "11:45am"}, {"days": "Sun", "time": "Closed"}], "id": "0623300003", "name": "USPS COLLECTION BOX - PO LOBBY", "address": {"city": "BALLOUVILLE", "state": "CT", "street": "252 BALLOUVILLE RD", "postcode": "06233"}}},
{"geometry": {"type": "Point", "coordinates": [-71.9345870384, 41.7855436025]}, "type": "Feature", "properties": {"collection_times": [{"days": "Mon-Fri", "time": "5:00pm"}, {"days": "Sat", "time": "12:00pm"}, {"days": "Sun", "time": "Closed"}], "id": "0623400002", "name": "USPS COLLECTION BOX - BLUE BOX", "address": {"city": "BROOKLYN", "state": "CT", "street": "29 CANTERBURY RD", "postcode": "06234"}}},
{"geometry": {"type": "Point", "coordinates": [-71.9495358858, 41.7862299735]}, "type": "Feature", "properties": {"collection_times": [{"days": "Mon-Fri", "time": "5:00pm"}, {"days": "Sat", "time": "12:00pm"}, {"days": "Sun", "time": "Closed"}], "id": "0623400005", "name": "USPS COLLECTION BOX - PO LOBBY", "address": {"city": "BROOKLYN", "state": "CT", "street": "29 CANTERBURY RD", "postcode": "06234"}}},
{"geometry": {"type": "Point", "coordinates": [-71.9345870384, 41.7855436025]}, "type": "Feature", "properties": {"collection_times": [{"days": "Mon-Sat", "time": "10:30am"}, {"days": "Sun", "time": "Closed"}], "id": "0623400007", "name": "USPS COLLECTION BOX - BLUE BOX", "address": {"city": "BROOKLYN", "state": "CT", "street": "566 PROVIDENCE RD", "postcode": "06234"}}},
{"geometry": {"type": "Point", "coordinates": [-72.1438465113, 41.7595707652]}, "type": "Feature", "properties": {"collection_times": [{"days": "Mon-Fri", "time": "4:45pm"}, {"days": "Sat", "time": "11:45am"}, {"days": "Sun", "time": "Closed"}], "id": "0623500001", "name": "USPS COLLECTION BOX - BLUE BOX", "address": {"city": "CHAPLIN", "state": "CT", "street": "181 WILLIMANTIC RD", "postcode": "06235"}}},
{"geometry": {"type": "Point", "coordinates": [-72.1438465113, 41.7595707652]}, "type": "Feature", "properties": {"collection_times": [{"days": "Mon-Fri", "time": "4:45pm"}, {"days": "Sat", "time": "11:45am"}, {"days": "Sun", "time": "Closed"}], "id": "0623500003", "name": "USPS COLLECTION BOX - PO LOBBY", "address": {"city": "CHAPLIN", "state": "CT", "street": "181 WILLIMANTIC RD", "postcode": "06235"}}},
{"geometry": {"type": "Point", "coordinates": [-72.271965093, 41.719851304]}, "type": "Feature", "properties": {"collection_times": [{"days": "Mon-Fri", "time": "4:45pm"}, {"days": "Sat", "time": "12:00pm"}, {"days": "Sun", "time": "Closed"}], "id": "0623700001", "name": "USPS COLLECTION BOX - BLUE BOX", "address": {"city": "COLUMBIA", "state": "CT", "street": "172 ROUTE 66", "postcode": "06237"}}},
{"geometry": {"type": "Point", "coordinates": [-72.3439874045, 41.6687618189]}, "type": "Feature", "properties": {"collection_times": [{"days": "Mon-Fri", "time": "4:45pm"}, {"days": "Sat", "time": "12:00pm"}, {"days": "Sun", "time": "Closed"}], "id": "0623700004", "name": "USPS COLLECTION BOX - PO LOBBY", "address": {"city": "COLUMBIA", "state": "CT", "street": "172 ROUTE 66", "postcode": "06237"}}},
{"geometry": {"type": "Point", "coordinates": [-72.3055376461, 41.7711058028]}, "type": "Feature", "properties": {"collection_times": [{"days": "Mon-Fri", "time": "4:45pm"}, {"days": "Sat", "time": "12:00pm"}, {"days": "Sun", "time": "Closed"}], "id": "0623800002", "name": "USPS COLLECTION BOX - BLUE BOX", "address": {"city": "COVENTRY", "state": "CT", "street": "1376 MAIN ST", "postcode": "06238"}}},
{"geometry": {"type": "Point", "coordinates": [-72.3729629814, 41.7982082959]}, "type": "Feature", "properties": {"collection_times": [{"days": "Mon-Fri", "time": "12:00pm"}, {"days": "Sat", "time": "9:30am"}, {"days": "Sun", "time": "Closed"}], "id": "0623800004", "name": "USPS COLLECTION BOX - BLUE BOX", "address": {"city": "COVENTRY", "state": "CT", "street": "1687 BOSTON TPKE", "postcode": "06238"}}},
{"geometry": {"type": "Point", "coordinates": [-72.3334641215, 41.8195084083]}, "type": "Feature", "properties": {"collection_times": [{"days": "Mon-Sat", "time": "9:30am"}, {"days": "Sun", "time": "Closed"}], "id": "0623800005", "name": "USPS COLLECTION BOX - BLUE BOX", "address": {"city": "COVENTRY", "state": "CT", "street": "745 MERROW RD", "postcode": "06238"}}},
{"geometry": {"type": "Point", "coordinates": [-72.2665166531, 41.7491331843]}, "type": "Feature", "properties": {"collection_times": [{"days": "Mon-Fri", "time": "4:45pm"}, {"days": "Sat", "time": "12:00pm"}, {"days": "Sun", "time": "Closed"}], "id": "0623800007", "name": "USPS COLLECTION BOX - PO LOBBY", "address": {"city": "COVENTRY", "state": "CT", "street": "1376 MAIN ST", "postcode": "06238"}}},
{"geometry": {"type": "Point", "coordinates": [-71.87806742, 41.8093225155]}, "type": "Feature", "properties": {"collection_times": [{"days": "Mon-Sat", "time": "11:00am"}, {"days": "Sun", "time": "Closed"}], "id": "0623900007", "name": "USPS COLLECTION BOX - BLUE BOX", "address": {"city": "DANIELSON", "state": "CT", "street": "25 WESCOTT RD", "postcode": "06239"}}},
{"geometry": {"type": "Point", "coordinates": [-71.8750887293, 41.8093402599]}, "type": "Feature", "properties": {"collection_times": [{"days": "Mon-Fri", "time": "4:45pm"}, {"days": "Sat", "time": "11:00am"}, {"days": "Sun", "time": "Closed"}], "id": "0623900009", "name": "USPS COLLECTION BOX - BLUE BOX", "address": {"city": "DANIELSON", "state": "CT", "street": "71 WESTCOTT RD", "postcode": "06239"}}},
{"geometry": {"type": "Point", "coordinates": [-71.880903817, 41.8069753585]}, "type": "Feature", "properties": {"collection_times": [{"days": "Mon-Fri", "time": "4:45pm"}, {"days": "Sat", "time": "1:30pm"}, {"days": "Sun", "time": "Closed"}], "id": "0623900010", "name": "USPS COLLECTION BOX - BLUE BOX", "address": {"city": "DANIELSON", "state": "CT", "street": "15 REYNOLDS ST", "postcode": "06239"}}},
{"geometry": {"type": "Point", "coordinates": [-71.8830803182, 41.8056487413]}, "type": "Feature", "properties": {"collection_times": [{"days": "Mon-Fri", "time": "4:45pm"}, {"days": "Sat", "time": "1:30pm"}, {"days": "Sun", "time": "Closed"}], "id": "0623900012", "name": "USPS COLLECTION BOX - BLUE BOX", "address": {"city": "DANIELSON", "state": "CT", "street": "163 MAIN ST", "postcode": "06239"}}},
{"geometry": {"type": "Point", "coordinates": [-71.885634508, 41.803236094]}, "type": "Feature", "properties": {"collection_times": [{"days": "Mon-Fri", "time": "5:00pm"}, {"days": "Sat", "time": "3:00pm"}, {"days": "Sun", "time": "Closed"}], "id": "0623900019", "name": "USPS COLLECTION BOX - EXPRESS", "address": {"city": "DANIELSON", "state": "CT", "street": "70 WATER ST", "postcode": "06239"}}},
{"geometry": {"type": "Point", "coordinates": [-71.8852501318, 41.8031599419]}, "type": "Feature", "properties": {"collection_times": [{"days": "Mon-Fri", "time": "5:00pm"}, {"days": "Sat", "time": "2:30pm"}, {"days": "Sun", "time": "Closed"}], "id": "0623900023", "name": "USPS COLLECTION BOX - BLUE BOX", "address": {"city": "DANIELSON", "state": "CT", "street": "10 COTTAGE ST", "postcode": "06239"}}},
{"geometry": {"type": "Point", "coordinates": [-71.8857140667, 41.8032350086]}, "type": "Feature", "properties": {"collection_times": [{"days": "Mon-Fri", "time": "5:00pm"}, {"days": "Sat", "time": "3:00pm"}, {"days": "Sun", "time": "Closed"}], "id": "0623900025", "name": "USPS COLLECTION BOX - PO LOBBY", "address": {"city": "DANIELSON", "state": "CT", "street": "70 WATER ST", "postcode": "06239"}}},
{"geometry": {"type": "Point", "coordinates": [-71.8766771341, 41.8150059378]}, "type": "Feature", "properties": {"collection_times": [{"days": "Mon-Sat", "time": "11:00am"}, {"days": "Sun", "time": "Closed"}], "id": "0623900026", "name": "USPS COLLECTION BOX - BLUE BOX", "address": {"city": "DANIELSON", "state": "CT", "street": "542 MAIN ST", "postcode": "06239"}}},
{"geometry": {"type": "Point", "coordinates": [-71.8802050268, 41.8028245219]}, "type": "Feature", "properties": {"collection_times": [{"days": "Mon-Sat", "time": "1:15pm"}, {"days": "Sun", "time": "Closed"}], "id": "0623900027", "name": "USPS COLLECTION BOX - BLUE BOX", "address": {"city": "DANIELSON", "state": "CT", "street": "150 BROAD ST", "postcode": "06239"}}},
{"geometry": {"type": "Point", "coordinates": [-71.8857140667, 41.8032350086]}, "type": "Feature", "properties": {"collection_times": [{"days": "Mon-Fri", "time": "5:00pm"}, {"days": "Sat", "time": "3:00pm"}, {"days": "Sun", "time": "Closed"}], "id": "0623900029", "name": "USPS COLLECTION BOX - BLUE BOX", "address": {"city": "DANIELSON", "state": "CT", "street": "70 WATER ST", "postcode": "06239"}}},
{"geometry": {"type": "Point", "coordinates": [-71.8770445693, 41.8360112903]}, "type": "Feature", "properties": {"collection_times": [{"days": "Mon-Fri", "time": "5:00pm"}, {"days": "Sat", "time": "12:00pm"}, {"days": "Sun", "time": "Closed"}], "id": "0624100001", "name": "USPS COLLECTION BOX - BLUE BOX", "address": {"city": "DAYVILLE", "state": "CT", "street": "988 N MAIN ST", "postcode": "06241"}}},
{"geometry": {"type": "Point", "coordinates": [-71.8824176959, 41.8442021578]}, "type": "Feature", "properties": {"collection_times": [{"days": "Mon-Sat", "time": "11:00am"}, {"days": "Sun", "time": "Closed"}], "id": "0624100002", "name": "USPS COLLECTION BOX - BLUE BOX", "address": {"city": "DAYVILLE", "state": "CT", "street": "561 HARTFORD PIKE", "postcode": "06241"}}},
{"geometry": {"type": "Point", "coordinates": [-71.8761013642, 41.8381941731]}, "type": "Feature", "properties": {"collection_times": [{"days": "Mon-Sat", "time": "10:00am"}, {"days": "Sun", "time": "Closed"}], "id": "0624100003", "name": "USPS COLLECTION BOX - BLUE BOX", "address": {"city": "DAYVILLE", "state": "CT", "street": "1058 N MAIN ST", "postcode": "06241"}}},
{"geometry": {"type": "Point", "coordinates": [-71.8763868303, 41.8373297333]}, "type": "Feature", "properties": {"collection_times": [{"days": "Mon-Fri", "time": "5:00pm"}, {"days": "Sat", "time": "12:00pm"}, {"days": "Sun", "time": "Closed"}], "id": "0624100005", "name": "USPS COLLECTION BOX - PO LOBBY", "address": {"city": "DAYVILLE", "state": "CT", "street": "988 N MAIN ST", "postcode": "06241"}}},
{"geometry": {"type": "Point", "coordinates": [-72.0794259314, 41.9025659106]}, "type": "Feature", "properties": {"collection_times": [{"days": "Mon-Fri", "time": "4:00pm"}, {"days": "Sat", "time": "11:30am"}, {"days": "Sun", "time": "Closed"}], "id": "0624200001", "name": "USPS COLLECTION BOX - BLUE BOX", "address": {"city": "EASTFORD", "state": "CT", "street": "6 COUNTY RD", "postcode": "06242"}}},
{"geometry": {"type": "Point", "coordinates": [-72.0794259314, 41.9025659106]}, "type": "Feature", "properties": {"collection_times": [{"days": "Mon-Fri", "time": "4:30pm"}, {"days": "Sat", "time": "12:00pm"}, {"days": "Sun", "time": "Closed"}], "id": "0624200003", "name": "USPS COLLECTION BOX - PO LOBBY", "address": {"city": "EASTFORD", "state": "CT", "street": "6 COUNTY RD", "postcode": "06242"}}},
{"geometry": {"type": "Point", "coordinates": [-71.8199571031, 41.8490241323]}, "type": "Feature", "properties": {"collection_times": [{"days": "Mon-Fri", "time": "4:30pm"}, {"days": "Sat", "time": "11:30am"}, {"days": "Sun", "time": "Closed"}], "id": "0624300001", "name": "USPS COLLECTION BOX - BLUE BOX", "address": {"city": "EAST KILLINGLY", "state": "CT", "street": "1289 HARTFORD PIKE", "postcode": "06243"}}},
{"geometry": {"type": "Point", "coordinates": [-71.8166633139, 41.8490188255]}, "type": "Feature", "properties": {"collection_times": [{"days": "Mon-Fri", "time": "4:30pm"}, {"days": "Sat", "time": "11:30am"}, {"days": "Sun", "time": "Closed"}], "id": "0624300003", "name": "USPS COLLECTION BOX - PO LOBBY", "address": {"city": "EAST KILLINGLY", "state": "CT", "street": "1289 HARTFORD PIKE", "postcode": "06243"}}},
{"geometry": {"type": "Point", "coordinates": [-71.9772819846, 41.9837246663]}, "type": "Feature", "properties": {"collection_times": [{"days": "Mon-Fri", "time": "4:30pm"}, {"days": "Sat", "time": "11:30am"}, {"days": "Sun", "time": "Closed"}], "id": "0624400001", "name": "USPS COLLECTION BOX - BLUE BOX", "address": {"city": "EAST WOODSTOCK", "state": "CT", "street": "217 WOODSTOCK RD", "postcode": "06244"}}},
{"geometry": {"type": "Point", "coordinates": [-71.9772819846, 41.9837246663]}, "type": "Feature", "properties": {"collection_times": [{"days": "Mon-Fri", "time": "12:00pm"}, {"days": "Sat", "time": "11:30am"}, {"days": "Sun", "time": "Closed"}], "id": "0624400002", "name": "USPS COLLECTION BOX - PO LOBBY", "address": {"city": "EAST WOODSTOCK", "state": "CT", "street": "217 WOODSTOCK RD", "postcode": "06244"}}},
{"geometry": {"type": "Point", "coordinates": [-72.7383038826, 41.5735001734]}, "type": "Feature", "properties": {"collection_times": [{"days": "Mon-Fri", "time": "4:45pm"}, {"days": "Sat", "time": "11:15am"}, {"days": "Sun", "time": "Closed"}], "id": "0624600001", "name": "USPS COLLECTION BOX - BLUE BOX", "address": {"city": "GROSVENORDALE", "state": "CT", "street": "655 RIVERSIDE DR", "postcode": "06246"}}},
{"geometry": {"type": "Point", "coordinates": [-72.7383038826, 41.5735001734]}, "type": "Feature", "properties": {"collection_times": [{"days": "Mon-Fri", "time": "12:00pm"}, {"days": "Sat", "time": "11:15am"}, {"days": "Sun", "time": "Closed"}], "id": "0624600003", "name": "USPS COLLECTION BOX - PO LOBBY", "address": {"city": "GROSVENORDALE", "state": "CT", "street": "655 RIVERSIDE DR", "postcode": "06246"}}},
{"geometry": {"type": "Point", "coordinates": [-72.0549113144, 41.7819578434]}, "type": "Feature", "properties": {"collection_times": [{"days": "Mon-Fri", "time": "4:45pm"}, {"days": "Sat", "time": "11:45am"}, {"days": "Sun", "time": "Closed"}], "id": "0624700001", "name": "USPS COLLECTION BOX - BLUE BOX", "address": {"city": "HAMPTON", "state": "CT", "street": "222 MAIN ST", "postcode": "06247"}}},
{"geometry": {"type": "Point", "coordinates": [-72.0549113144, 41.7819578434]}, "type": "Feature", "properties": {"collection_times": [{"days": "Mon-Fri", "time": "5:00pm"}, {"days": "Sat", "time": "12:00pm"}, {"days": "Sun", "time": "Closed"}], "id": "0624700003", "name": "USPS COLLECTION BOX - PO LOBBY", "address": {"city": "HAMPTON", "state": "CT", "street": "222 MAIN ST", "postcode": "06247"}}},
{"geometry": {"type": "Point", "coordinates": [-72.3907561313, 41.6816632106]}, "type": "Feature", "properties": {"collection_times": [{"days": "Mon-Fri", "time": "4:30pm"}, {"days": "Sat", "time": "11:30am"}, {"days": "Sun", "time": "Closed"}], "id": "0624800001", "name": "USPS COLLECTION BOX - BLUE BOX", "address": {"city": "HEBRON", "state": "CT", "street": "93 MAIN ST", "postcode": "06248"}}},
{"geometry": {"type": "Point", "coordinates": [-72.3555013775, 41.6608457869]}, "type": "Feature", "properties": {"collection_times": [{"days": "Mon-Sat", "time": "11:30am"}, {"days": "Sun", "time": "Closed"}], "id": "0624800002", "name": "USPS COLLECTION BOX - BLUE BOX", "address": {"city": "HEBRON", "state": "CT", "street": "127 MAIN ST", "postcode": "06248"}}},
{"geometry": {"type": "Point", "coordinates": [-72.3907561313, 41.6816632106]}, "type": "Feature", "properties": {"collection_times": [{"days": "Mon-Fri", "time": "5:00pm"}, {"days": "Sat", "time": "11:30am"}, {"days": "Sun", "time": "Closed"}], "id": "0624800006", "name": "USPS COLLECTION BOX - PO LOBBY", "address": {"city": "HEBRON", "state": "CT", "street": "93 MAIN ST", "postcode": "06248"}}},
{"geometry": {"type": "Point", "coordinates": [-72.3907561313, 41.6816632106]}, "type": "Feature", "properties": {"collection_times": [{"days": "Mon-Fri", "time": "4:30pm"}, {"days": "Sat", "time": "11:30am"}, {"days": "Sun", "time": "Closed"}], "id": "0624800007", "name": "USPS COLLECTION BOX - BLUE BOX", "address": {"city": "HEBRON", "state": "CT", "street": "93 MAIN ST", "postcode": "06248"}}},
{"geometry": {"type": "Point", "coordinates": [-72.7383038826, 41.5735001734]}, "type": "Feature", "properties": {"collection_times": [{"days": "Mon-Fri", "time": "4:15pm"}, {"days": "Sat", "time": "11:45am"}, {"days": "Sun", "time": "Closed"}], "id": "0624900001", "name": "USPS COLLECTION BOX - BLUE BOX", "address": {"city": "LEBANON", "state": "CT", "street": "562 EXETER RD", "postcode": "06249"}}},
{"geometry": {"type": "Point", "coordinates": [-72.2396364617, 41.6261448686]}, "type": "Feature", "properties": {"collection_times": [{"days": "Mon-Fri", "time": "12:00pm"}, {"days": "Sat", "time": "11:45am"}, {"days": "Sun", "time": "Closed"}], "id": "0624900002", "name": "USPS COLLECTION BOX - BLUE BOX", "address": {"city": "LEBANON", "state": "CT", "street": "903 EXETER RD", "postcode": "06249"}}},
{"geometry": {"type": "Point", "coordinates": [-72.2357752836, 41.679523526]}, "type": "Feature", "properties": {"collection_times": [{"days": "Mon-Sat", "time": "11:00am"}, {"days": "Sun", "time": "Closed"}], "id": "0624900003", "name": "USPS COLLECTION BOX - BLUE BOX", "address": {"city": "LEBANON", "state": "CT", "street": "385 BEAUMONT HWY", "postcode": "06249"}}},
{"geometry": {"type": "Point", "coordinates": [-72.7383038826, 41.5735001734]}, "type": "Feature", "properties": {"collection_times": [{"days": "Mon-Fri", "time": "4:30pm"}, {"days": "Sat", "time": "11:45am"}, {"days": "Sun", "time": "Closed"}], "id": "0624900005", "name": "USPS COLLECTION BOX - PO LOBBY", "address": {"city": "LEBANON", "state": "CT", "street": "562 EXETERD", "postcode": "06249"}}},
{"geometry": {"type": "Point", "coordinates": [-72.1972924456, 41.7637064348]}, "type": "Feature", "properties": {"collection_times": [{"days": "Mon-Fri", "time": "5:00pm"}, {"days": "Sat", "time": "11:45am"}, {"days": "Sun", "time": "Closed"}], "id": "0625000001", "name": "USPS COLLECTION BOX - BLUE BOX", "address": {"city": "MANSFIELD CTR", "state": "CT", "street": "522 STORRS RD", "postcode": "06250"}}},
{"geometry": {"type": "Point", "coordinates": [-72.1972924456, 41.7637064348]}, "type": "Feature", "properties": {"collection_times": [{"days": "Mon-Fri", "time": "5:00pm"}, {"days": "Sat", "time": "11:45am"}, {"days": "Sun", "time": "Closed"}], "id": "0625000003", "name": "USPS COLLECTION BOX - PO LOBBY", "address": {"city": "MANSFIELD CTR", "state": "CT", "street": "522 STORRS RD", "postcode": "06250"}}},
{"geometry": {"type": "Point", "coordinates": [-72.1593610428, 41.6275608614]}, "type": "Feature", "properties": {"collection_times": [{"days": "Mon-Fri", "time": "4:30pm"}, {"days": "Sat", "time": "11:30am"}, {"days": "Sun", "time": "Closed"}], "id": "0625400001", "name": "USPS COLLECTION BOX - BLUE BOX", "address": {"city": "NORTH FRANKLIN", "state": "CT", "street": "683 ROUTE 32", "postcode": "06254"}}},
{"geometry": {"type": "Point", "coordinates": [-72.1596104769, 41.6280571145]}, "type": "Feature", "properties": {"collection_times": [{"days": "Mon-Fri", "time": "12:00pm"}, {"days": "Sat", "time": "11:30am"}, {"days": "Sun", "time": "Closed"}], "id": "0625400003", "name": "USPS COLLECTION BOX - PO LOBBY", "address": {"city": "NORTH FRANKLIN", "state": "CT", "street": "683 ROUTE 32", "postcode": "06254"}}},
{"geometry": {"type": "Point", "coordinates": [-71.9000536222, 41.9782312256]}, "type": "Feature", "properties": {"collection_times": [{"days": "Mon-Fri", "time": "4:30pm"}, {"days": "Sat", "time": "12:00pm"}, {"days": "Sun", "time": "Closed"}], "id": "0625500001", "name": "USPS COLLECTION BOX - BLUE BOX", "address": {"city": "N GROSVENORDL", "state": "CT", "street": "831 RIVERSIDE DR", "postcode": "06255"}}},
{"geometry": {"type": "Point", "coordinates": [-71.9000536222, 41.9782312256]}, "type": "Feature", "properties": {"collection_times": [{"days": "Mon-Fri", "time": "5:00pm"}, {"days": "Sat", "time": "12:00pm"}, {"days": "Sun", "time": "Closed"}], "id": "0625500003", "name": "USPS COLLECTION BOX - PO LOBBY", "address": {"city": "N GROSVENORDL", "state": "CT", "street": "831 RIVERSIDE DR", "postcode": "06255"}}},
{"geometry": {"type": "Point", "coordinates": [-71.9004621618, 41.9774990196]}, "type": "Feature", "properties": {"collection_times": [{"days": "Mon-Fri", "time": "4:30pm"}, {"days": "Sat", "time": "12:00pm"}, {"days": "Sun", "time": "Closed"}], "id": "0625500004", "name": "USPS COLLECTION BOX - BLUE BOX", "address": {"city": "N GROSVENORDL", "state": "CT", "street": "815 RIVERSIDE DR", "postcode": "06255"}}},
{"geometry": {"type": "Point", "coordinates": [-72.1520426675, 41.7509395126]}, "type": "Feature", "properties": {"collection_times": [{"days": "Mon-Fri", "time": "4:45pm"}, {"days": "Sat", "time": "11:45am"}, {"days": "Sun", "time": "Closed"}], "id": "0625600001", "name": "USPS COLLECTION BOX - BLUE BOX", "address": {"city": "NORTH WINDHAM", "state": "CT", "street": "690 BOSTON POST RD", "postcode": "06256"}}},
{"geometry": {"type": "Point", "coordinates": [-72.1955468202, 41.7199631925]}, "type": "Feature", "properties": {"collection_times": [{"days": "Mon-Fri", "time": "4:45pm"}, {"days": "Sat", "time": "11:45am"}, {"days": "Sun", "time": "Closed"}], "id": "0625600004", "name": "USPS COLLECTION BOX - PO LOBBY", "address": {"city": "NORTH WINDHAM", "state": "CT", "street": "690 BOSTON POST RD", "postcode": "06256"}}},
{"geometry": {"type": "Point", "coordinates": [-71.9597921211, 41.897734495]}, "type": "Feature", "properties": {"collection_times": [{"days": "Mon-Fri", "time": "4:30pm"}, {"days": "Sat", "time": "11:15am"}, {"days": "Sun", "time": "Closed"}], "id": "0625800001", "name": "USPS COLLECTION BOX - BLUE BOX", "address": {"city": "POMFRET", "state": "CT", "street": "32 PUTNAM RD", "postcode": "06258"}}},
{"geometry": {"type": "Point", "coordinates": [-71.9597921211, 41.897734495]}, "type": "Feature", "properties": {"collection_times": [{"days": "Mon-Fri", "time": "4:45pm"}, {"days": "Sat", "time": "11:30am"}, {"days": "Sun", "time": "Closed"}], "id": "0625800003", "name": "USPS COLLECTION BOX - PO LOBBY", "address": {"city": "POMFRET", "state": "CT", "street": "32 PUTNAM RD", "postcode": "06258"}}},
{"geometry": {"type": "Point", "coordinates": [-71.9630133373, 41.8705264464]}, "type": "Feature", "properties": {"collection_times": [{"days": "Mon-Fri", "time": "4:45pm"}, {"days": "Sat", "time": "11:45am"}, {"days": "Sun", "time": "Closed"}], "id": "0625900001", "name": "USPS COLLECTION BOX - BLUE BOX", "address": {"city": "POMFRET CENTER", "state": "CT", "street": "144 MURDOCK RD", "postcode": "06259"}}},
{"geometry": {"type": "Point", "coordinates": [-71.96273601, 41.8702327128]}, "type": "Feature", "properties": {"collection_times": [{"days": "Mon-Fri", "time": "4:45pm"}, {"days": "Sat", "time": "12:00pm"}, {"days": "Sun", "time": "Closed"}], "id": "0625900003", "name": "USPS COLLECTION BOX - PO LOBBY", "address": {"city": "POMFRET CENTER", "state": "CT", "street": "144 MURDOCK RD", "postcode": "06259"}}},
{"geometry": {"type": "Point", "coordinates": [-71.8946180784, 41.908950375]}, "type": "Feature", "properties": {"collection_times": [{"days": "Mon-Fri", "time": "9:00am"}, {"days": "Sat", "time": "1:00pm"}, {"days": "Sun", "time": "Closed"}], "id": "0626000002", "name": "USPS COLLECTION BOX - BLUE BOX", "address": {"city": "PUTNAM", "state": "CT", "street": "46 GROVE ST", "postcode": "06260"}}},
{"geometry": {"type": "Point", "coordinates": [-71.8999710882, 41.9104903491]}, "type": "Feature", "properties": {"collection_times": [{"days": "Mon-Fri", "time": "2:00pm"}, {"days": "Sat", "time": "1:00pm"}, {"days": "Sun", "time": "Closed"}], "id": "0626000003", "name": "USPS COLLECTION BOX - BLUE BOX", "address": {"city": "PUTNAM", "state": "CT", "street": "175 GROVE ST", "postcode": "06260"}}},
{"geometry": {"type": "Point", "coordinates": [-71.9061591465, 41.9249508395]}, "type": "Feature", "properties": {"collection_times": [{"days": "Mon-Sat", "time": "10:00am"}, {"days": "Sun", "time": "Closed"}], "id": "0626000007", "name": "USPS COLLECTION BOX - BLUE BOX", "address": {"city": "PUTNAM", "state": "CT", "street": "65 BALLOU ST", "postcode": "06260"}}},
{"geometry": {"type": "Point", "coordinates": [-72.7383038826, 41.5735001734]}, "type": "Feature", "properties": {"collection_times": [{"days": "Mon-Fri", "time": "5:00pm"}, {"days": "Sat", "time": "3:30pm"}, {"days": "Sun", "time": "Closed"}], "id": "0626000008", "name": "USPS COLLECTION BOX - BLUE BOX", "address": {"city": "PUTNAM", "state": "CT", "street": "189 MAIN ST", "postcode": "06260"}}},
{"geometry": {"type": "Point", "coordinates": [-71.9123022524, 41.9241913799]}, "type": "Feature", "properties": {"collection_times": [{"days": "Mon-Fri", "time": "2:00pm"}, {"days": "Sat", "time": "1:00pm"}, {"days": "Sun", "time": "Closed"}], "id": "0626000010", "name": "USPS COLLECTION BOX - BLUE BOX", "address": {"city": "PUTNAM", "state": "CT", "street": "243 PROVIDENCE", "postcode": "06260"}}},
{"geometry": {"type": "Point", "coordinates": [-71.9213625351, 41.9168108989]}, "type": "Feature", "properties": {"collection_times": [{"days": "Mon-Fri", "time": "2:00pm"}, {"days": "Sat", "time": "1:00pm"}, {"days": "Sun", "time": "Closed"}], "id": "0626000019", "name": "USPS COLLECTION BOX - BLUE BOX", "address": {"city": "PUTNAM", "state": "CT", "street": "207 SABIN ST", "postcode": "06260"}}},
{"geometry": {"type": "Point", "coordinates": [-71.91499585, 41.9074714378]}, "type": "Feature", "properties": {"collection_times": [{"days": "Mon-Fri", "time": "2:00pm"}, {"days": "Sat", "time": "1:00pm"}, {"days": "Sun", "time": "Closed"}], "id": "0626000021", "name": "USPS COLLECTION BOX - BLUE BOX", "address": {"city": "PUTNAM", "state": "CT", "street": "320 POMFRET ST", "postcode": "06260"}}},
{"geometry": {"type": "Point", "coordinates": [-71.91499585, 41.9074714378]}, "type": "Feature", "properties": {"collection_times": [{"days": "Mon-Fri", "time": "2:00pm"}, {"days": "Sat", "time": "1:00pm"}, {"days": "Sun", "time": "Closed"}], "id": "0626000022", "name": "USPS COLLECTION BOX - BLUE BOX", "address": {"city": "PUTNAM", "state": "CT", "street": "320 POMFRET ST", "postcode": "06260"}}},
{"geometry": {"type": "Point", "coordinates": [-72.7383038826, 41.5735001734]}, "type": "Feature", "properties": {"collection_times": [{"days": "Mon-Fri", "time": "5:00pm"}, {"days": "Sat", "time": "3:30pm"}, {"days": "Sun", "time": "Closed"}], "id": "0626000023", "name": "USPS COLLECTION BOX - EXPRESS", "address": {"city": "PUTNAM", "state": "CT", "street": "189 MAIN ST", "postcode": "06260"}}},
{"geometry": {"type": "Point", "coordinates": [-72.7383038826, 41.5735001734]}, "type": "Feature", "properties": {"collection_times": [{"days": "Mon-Fri", "time": "5:00pm"}, {"days": "Sat", "time": "3:00pm"}, {"days": "Sun", "time": "Closed"}], "id": "0626000027", "name": "USPS COLLECTION BOX - PO LOBBY", "address": {"city": "PUTNAM", "state": "CT", "street": "189 MAIN ST", "postcode": "06260"}}},
{"geometry": {"type": "Point", "coordinates": [-72.7383038826, 41.5735001734]}, "type": "Feature", "properties": {"collection_times": [{"days": "Mon-Fri", "time": "1:00pm"}, {"days": "Sat", "time": "12:00pm"}, {"days": "Sun", "time": "Closed"}], "id": "0626000028", "name": "USPS COLLECTION BOX - BLUE BOX", "address": {"city": "PUTNAM", "state": "CT", "street": "60 PROVIDENCE PIKE", "postcode": "06260"}}},
{"geometry": {"type": "Point", "coordinates": [-71.9490916867, 42.0234184306]}, "type": "Feature", "properties": {"collection_times": [{"days": "Mon-Fri", "time": "4:30pm"}, {"days": "Sat", "time": "11:00am"}, {"days": "Sun", "time": "Closed"}], "id": "0626200001", "name": "USPS COLLECTION BOX - BLUE BOX", "address": {"city": "QUINEBAUG", "state": "CT", "street": "734 QUINEBAUG RD", "postcode": "06262"}}},
{"geometry": {"type": "Point", "coordinates": [-71.9490916867, 42.0234184306]}, "type": "Feature", "properties": {"collection_times": [{"days": "Mon-Fri", "time": "4:30pm"}, {"days": "Sat", "time": "11:00am"}, {"days": "Sun", "time": "Closed"}], "id": "0626200003", "name": "USPS COLLECTION BOX - PO LOBBY", "address": {"city": "QUINEBAUG", "state": "CT", "street": "734 QUINEBAUG RD", "postcode": "06262"}}},
{"geometry": {"type": "Point", "coordinates": [-72.7383038826, 41.5735001734]}, "type": "Feature", "properties": {"collection_times": [{"days": "Mon-Fri", "time": "5:00pm"}, {"days": "Sat", "time": "11:30am"}, {"days": "Sun", "time": "Closed"}], "id": "0626300001", "name": "USPS COLLECTION BOX - BLUE BOX", "address": {"city": "ROGERS", "state": "CT", "street": "29 WILLIAMSVILLE", "postcode": "06263"}}},
{"geometry": {"type": "Point", "coordinates": [-71.9099055177, 41.8425952494]}, "type": "Feature", "properties": {"collection_times": [{"days": "Mon-Fri", "time": "5:00pm"}, {"days": "Sat", "time": "12:00pm"}, {"days": "Sun", "time": "Closed"}], "id": "0626300003", "name": "USPS COLLECTION BOX - PO LOBBY", "address": {"city": "ROGERS", "state": "CT", "street": "29 WILLIAMSVILLE", "postcode": "06263"}}},
{"geometry": {"type": "Point", "coordinates": [-72.1016589253, 41.6913867837]}, "type": "Feature", "properties": {"collection_times": [{"days": "Mon-Fri", "time": "4:30pm"}, {"days": "Sat", "time": "11:30am"}, {"days": "Sun", "time": "Closed"}], "id": "0626400001", "name": "USPS COLLECTION BOX - BLUE BOX", "address": {"city": "SCOTLAND", "state": "CT", "street": "10 PALMER RD", "postcode": "06264"}}},
{"geometry": {"type": "Point", "coordinates": [-72.1016589253, 41.6913867837]}, "type": "Feature", "properties": {"collection_times": [{"days": "Mon-Fri", "time": "4:30pm"}, {"days": "Sat", "time": "11:30am"}, {"days": "Sun", "time": "Closed"}], "id": "0626400003", "name": "USPS COLLECTION BOX - PO LOBBY", "address": {"city": "SCOTLAND", "state": "CT", "street": "10 PALMER RD", "postcode": "06264"}}},
{"geometry": {"type": "Point", "coordinates": [-72.1691181799, 41.6794168452]}, "type": "Feature", "properties": {"collection_times": [{"days": "Mon-Fri", "time": "4:45pm"}, {"days": "Sat", "time": "11:45am"}, {"days": "Sun", "time": "Closed"}], "id": "0626600001", "name": "USPS COLLECTION BOX - BLUE BOX", "address": {"city": "SOUTH WINDHAM", "state": "CT", "street": "12 MAIN ST", "postcode": "06266"}}},
{"geometry": {"type": "Point", "coordinates": [-72.1691181799, 41.6794168452]}, "type": "Feature", "properties": {"collection_times": [{"days": "Mon-Fri", "time": "4:45pm"}, {"days": "Sat", "time": "11:45am"}, {"days": "Sun", "time": "Closed"}], "id": "0626600003", "name": "USPS COLLECTION BOX - PO LOBBY", "address": {"city": "SOUTH WINDHAM", "state": "CT", "street": "12 MAIN ST", "postcode": "06266"}}},
{"geometry": {"type": "Point", "coordinates": [-71.9597590319, 41.939111407]}, "type": "Feature", "properties": {"collection_times": [{"days": "Mon-Fri", "time": "4:00pm"}, {"days": "Sat", "time": "11:00am"}, {"days": "Sun", "time": "Closed"}], "id": "0626700001", "name": "USPS COLLECTION BOX - BLUE BOX", "address": {"city": "SOUTH WOODSTOCK", "state": "CT", "street": "310 ROUTE 169", "postcode": "06267"}}},
{"geometry": {"type": "Point", "coordinates": [-71.9597937846, 41.9379500375]}, "type": "Feature", "properties": {"collection_times": [{"days": "Mon-Fri", "time": "4:30pm"}, {"days": "Sat", "time": "11:30am"}, {"days": "Sun", "time": "Closed"}], "id": "0626700003", "name": "USPS COLLECTION BOX - PO LOBBY", "address": {"city": "SOUTH WOODSTOCK", "state": "CT", "street": "310 ROUTE 169", "postcode": "06267"}}},
{"geometry": {"type": "Point", "coordinates": [-72.241180542, 41.8010297783]}, "type": "Feature", "properties": {"collection_times": [{"days": "Mon-Fri", "time": "5:00pm"}, {"days": "Sat", "time": "4:30pm"}, {"days": "Sun", "time": "Closed"}], "id": "0626800002", "name": "USPS COLLECTION BOX - BLUE BOX", "address": {"city": "STORRS", "state": "CT", "street": "2 S EAGLEVILLE", "postcode": "06268"}}},
{"geometry": {"type": "Point", "coordinates": [-72.2010070603, 41.7686403671]}, "type": "Feature", "properties": {"collection_times": [{"days": "Mon-Sat", "time": "2:45pm"}, {"days": "Sun", "time": "Closed"}], "id": "0626800003", "name": "USPS COLLECTION BOX - BLUE BOX", "address": {"city": "STORRS", "state": "CT", "street": "1244 STORRS RD", "postcode": "06268"}}},
{"geometry": {"type": "Point", "coordinates": [-72.2422780091, 41.8026222359]}, "type": "Feature", "properties": {"collection_times": [{"days": "Mon-Sat", "time": "2:45pm"}, {"days": "Sun", "time": "Closed"}], "id": "0626800004", "name": "USPS COLLECTION BOX - BLUE BOX", "address": {"city": "STORRS", "state": "CT", "street": "1232 STORRS RD", "postcode": "06268"}}},
{"geometry": {"type": "Point", "coordinates": [-72.2518318355, 41.8076859727]}, "type": "Feature", "properties": {"collection_times": [{"days": "Mon-Sat", "time": "3:00pm"}, {"days": "Sun", "time": "Closed"}], "id": "0626800006", "name": "USPS COLLECTION BOX - BLUE BOX", "address": {"city": "STORRS", "state": "CT", "street": "332 FAIRFIELD", "postcode": "06268"}}},
{"geometry": {"type": "Point", "coordinates": [-72.254270399, 41.8061575066]}, "type": "Feature", "properties": {"collection_times": [{"days": "Mon-Sat", "time": "3:00pm"}, {"days": "Sun", "time": "Closed"}], "id": "0626800007", "name": "USPS COLLECTION BOX - BLUE BOX", "address": {"city": "STORRS", "state": "CT", "street": "2110 HILLSIDE RD", "postcode": "06268"}}},
{"geometry": {"type": "Point", "coordinates": [-72.2725392824, 41.8304726388]}, "type": "Feature", "properties": {"collection_times": [{"days": "Mon-Sat", "time": "3:00pm"}, {"days": "Sun", "time": "Closed"}], "id": "0626800008", "name": "USPS COLLECTION BOX - BLUE BOX", "address": {"city": "STORRS", "state": "CT", "street": "1733 STORRS RD", "postcode": "06268"}}},
{"geometry": {"type": "Point", "coordinates": [-72.2707530143, 41.8256769232]}, "type": "Feature", "properties": {"collection_times": [{"days": "Mon-Sat", "time": "3:00pm"}, {"days": "Sun", "time": "Closed"}], "id": "0626800009", "name": "USPS COLLECTION BOX - BLUE BOX", "address": {"city": "STORRS", "state": "CT", "street": "591 MIDDLE TPKE", "postcode": "06268"}}},
{"geometry": {"type": "Point", "coordinates": [-72.2508012284, 41.7939097431]}, "type": "Feature", "properties": {"collection_times": [{"days": "Mon-Sat", "time": "3:00pm"}, {"days": "Sun", "time": "Closed"}], "id": "0626800010", "name": "USPS COLLECTION BOX - BLUE BOX", "address": {"city": "STORRS", "state": "CT", "street": "303 MAPLE RD", "postcode": "06268"}}},
{"geometry": {"type": "Point", "coordinates": [-72.2502824498, 41.8043647006]}, "type": "Feature", "properties": {"collection_times": [{"days": "Mon-Sat", "time": "3:00pm"}, {"days": "Sun", "time": "Closed"}], "id": "0626800012", "name": "USPS COLLECTION BOX - BLUE BOX", "address": {"city": "STORRS", "state": "CT", "street": "3 GILBERT RD", "postcode": "06268"}}},
{"geometry": {"type": "Point", "coordinates": [-72.2506131379, 41.8113489242]}, "type": "Feature", "properties": {"collection_times": [{"days": "Mon-Fri", "time": "5:00pm"}, {"days": "Sat", "time": "4:00pm"}, {"days": "Sun", "time": "Closed"}], "id": "0626800014", "name": "USPS COLLECTION BOX - PO LOBBY", "address": {"city": "STORRS", "state": "CT", "street": "2 S EAGLEVILLE ROAD EXT", "postcode": "06268"}}},
{"geometry": {"type": "Point", "coordinates": [-72.2416510408, 41.8006975617]}, "type": "Feature", "properties": {"collection_times": [{"days": "Mon-Sat", "time": "2:45pm"}, {"days": "Sun", "time": "Closed"}], "id": "0626800015", "name": "USPS COLLECTION BOX - BLUE BOX", "address": {"city": "STORRS", "state": "CT", "street": "4 S EAGLEVILLE RD", "postcode": "06268"}}},
{"geometry": {"type": "Point", "coordinates": [-71.8645129306, 41.9600358988]}, "type": "Feature", "properties": {"collection_times": [{"days": "Mon-Fri", "time": "4:15pm"}, {"days": "Sat", "time": "11:15am"}, {"days": "Sun", "time": "Closed"}], "id": "0627700001", "name": "USPS COLLECTION BOX - BLUE BOX", "address": {"city": "THOMPSON", "state": "CT", "street": "366 THOMPSON HILL RD", "postcode": "06277"}}},
{"geometry": {"type": "Point", "coordinates": [-71.8645129306, 41.9600358988]}, "type": "Feature", "properties": {"collection_times": [{"days": "Mon-Fri", "time": "4:45pm"}, {"days": "Sat", "time": "12:00pm"}, {"days": "Sun", "time": "Closed"}], "id": "0627700003", "name": "USPS COLLECTION BOX - PO LOBBY", "address": {"city": "THOMPSON", "state": "CT", "street": "366 THOMPSON HILL RD", "postcode": "06277"}}},
{"geometry": {"type": "Point", "coordinates": [-72.1887278226, 41.8631069278]}, "type": "Feature", "properties": {"collection_times": [{"days": "Mon-Fri", "time": "4:45pm"}, {"days": "Sat", "time": "12:15pm"}, {"days": "Sun", "time": "Closed"}], "id": "0627800001", "name": "USPS COLLECTION BOX - BLUE BOX", "address": {"city": "ASHFORD", "state": "CT", "street": "141 NOTT HWY", "postcode": "06278"}}},
{"geometry": {"type": "Point", "coordinates": [-72.1740043877, 41.8580329227]}, "type": "Feature", "properties": {"collection_times": [{"days": "Mon-Sat", "time": "12:00pm"}, {"days": "Sun", "time": "Closed"}], "id": "0627800003", "name": "USPS COLLECTION BOX - BLUE BOX", "address": {"city": "ASHFORD", "state": "CT", "street": "141 NOTT HWY", "postcode": "06278"}}},
{"geometry": {"type": "Point", "coordinates": [-72.1887278226, 41.8631069278]}, "type": "Feature", "properties": {"collection_times": [{"days": "Mon-Fri", "time": "5:00pm"}, {"days": "Sat", "time": "12:30pm"}, {"days": "Sun", "time": "Closed"}], "id": "0627800005", "name": "USPS COLLECTION BOX - PO LOBBY", "address": {"city": "ASHFORD", "state": "CT", "street": "141 NOTT HWY", "postcode": "06278"}}},
{"geometry": {"type": "Point", "coordinates": [-72.3030584407, 41.8802740283]}, "type": "Feature", "properties": {"collection_times": [{"days": "Mon-Fri", "time": "4:45pm"}, {"days": "Sat", "time": "12:00pm"}, {"days": "Sun", "time": "Closed"}], "id": "0627900002", "name": "USPS COLLECTION BOX - BLUE BOX", "address": {"city": "WILLINGTON", "state": "CT", "street": "11 PHELPS WAY", "postcode": "06279"}}},
{"geometry": {"type": "Point", "coordinates": [-72.3030584407, 41.8802740283]}, "type": "Feature", "properties": {"collection_times": [{"days": "Mon-Fri", "time": "5:00pm"}, {"days": "Sat", "time": "12:00pm"}, {"days": "Sun", "time": "Closed"}], "id": "0627900004", "name": "USPS COLLECTION BOX - PO LOBBY", "address": {"city": "WILLINGTON", "state": "CT", "street": "11 PHELPS WAY", "postcode": "06279"}}},
{"geometry": {"type": "Point", "coordinates": [-72.1575864187, 41.6997208922]}, "type": "Feature", "properties": {"collection_times": [{"days": "Mon-Fri", "time": "4:30pm"}, {"days": "Sat", "time": "12:00pm"}, {"days": "Sun", "time": "Closed"}], "id": "0628000001", "name": "USPS COLLECTION BOX - BLUE BOX", "address": {"city": "WINDHAM", "state": "CT", "street": "6 SCOTLAND RD", "postcode": "06280"}}},
{"geometry": {"type": "Point", "coordinates": [-72.1575864187, 41.6997208922]}, "type": "Feature", "properties": {"collection_times": [{"days": "Mon-Fri", "time": "4:30pm"}, {"days": "Sat", "time": "12:00pm"}, {"days": "Sun", "time": "Closed"}], "id": "0628000003", "name": "USPS COLLECTION BOX - PO LOBBY", "address": {"city": "WINDHAM", "state": "CT", "street": "6 SCOTLAND RD", "postcode": "06280"}}},
{"geometry": {"type": "Point", "coordinates": [-71.9967075819, 41.9615423955]}, "type": "Feature", "properties": {"collection_times": [{"days": "Mon-Fri", "time": "4:30pm"}, {"days": "Sat", "time": "12:00pm"}, {"days": "Sun", "time": "Closed"}], "id": "0628100001", "name": "USPS COLLECTION BOX - BLUE BOX", "address": {"city": "WOODSTOCK", "state": "CT", "street": "679 ROUTE 169", "postcode": "06281"}}},
{"geometry": {"type": "Point", "coordinates": [-71.9967075819, 41.9615423955]}, "type": "Feature", "properties": {"collection_times": [{"days": "Mon-Fri", "time": "5:00pm"}, {"days": "Sat", "time": "12:00pm"}, {"days": "Sun", "time": "Closed"}], "id": "0628100003", "name": "USPS COLLECTION BOX - PO LOBBY", "address": {"city": "WOODSTOCK", "state": "CT", "street": "679 ROUTE 169", "postcode": "06281"}}}
]}
