{"type": "FeatureCollection", "features": [
{"geometry": {"type": "Point", "coordinates": [-72.0955178749, 41.3553029386]}, "type": "Feature", "properties": {"collection_times": [{"days": "Mon-Fri", "time": "5:00pm"}, {"days": "Sat", "time": "12:00pm"}, {"days": "Sun", "time": "Closed"}], "id": "0632000001", "name": "USPS COLLECTION BOX - BLUE BOX", "address": {"city": "NEW LONDON", "state": "CT", "street": "27 MASONIC ST", "postcode": "06320"}}},
{"geometry": {"type": "Point", "coordinates": [-72.1040857031, 41.3495135643]}, "type": "Feature", "properties": {"collection_times": [{"days": "Mon-Fri", "time": "5:00pm"}, {"days": "Sat", "time": "12:00pm"}, {"days": "Sun", "time": "Closed"}], "id": "0632000003", "name": "USPS COLLECTION BOX - EXPRESS", "address": {"city": "NEW LONDON", "state": "CT", "street": "27 MASONIC ST", "postcode": "06320"}}},
{"geometry": {"type": "Point", "coordinates": [-72.1036675489, 41.378189979]}, "type": "Feature", "properties": {"collection_times": [{"days": "Mon-Fri", "time": "1:45pm"}, {"days": "Sat", "time": "8:15am"}, {"days": "Sun", "time": "Closed"}], "id": "0632000008", "name": "USPS COLLECTION BOX - BLUE BOX", "address": {"city": "NEW LONDON", "state": "CT", "street": "270 MOHEGAN AVE", "postcode": "06320"}}},
{"geometry": {"type": "Point", "coordinates": [-72.1036675489, 41.378189979]}, "type": "Feature", "properties": {"collection_times": [{"days": "Mon-Fri", "time": "1:45pm"}, {"days": "Sat", "time": "8:15am"}, {"days": "Sun", "time": "Closed"}], "id": "0632000009", "name": "USPS COLLECTION BOX - BLUE BOX", "address": {"city": "NEW LONDON", "state": "CT", "street": "270 MOHEGAN AVE", "postcode": "06320"}}},
{"geometry": {"type": "Point", "coordinates": [-72.1028822212, 41.3510192637]}, "type": "Feature", "properties": {"collection_times": [{"days": "Mon-Fri", "time": "1:45pm"}, {"days": "Sat", "time": "8:15am"}, {"days": "Sun", "time": "Closed"}], "id": "0632000010", "name": "USPS COLLECTION BOX - BLUE BOX", "address": {"city": "NEW LONDON", "state": "CT", "street": "58 MOHEGAN AVE", "postcode": "06320"}}},
{"geometry": {"type": "Point", "coordinates": [-72.1028822212, 41.3510192637]}, "type": "Feature", "properties": {"collection_times": [{"days": "Mon-Fri", "time": "1:45pm"}, {"days": "Sat", "time": "8:15am"}, {"days": "Sun", "time": "Closed"}], "id": "0632000011", "name": "USPS COLLECTION BOX - BLUE BOX", "address": {"city": "NEW LONDON", "state": "CT", "street": "1 MUNROE HALL", "postcode": "06320"}}},
{"geometry": {"type": "Point", "coordinates": [-72.0968916737, 41.3564089468]}, "type": "Feature", "properties": {"collection_times": [{"days": "Mon-Fri", "time": "11:00am"}, {"days": "Sat", "time": "10:15am"}, {"days": "Sun", "time": "Closed"}], "id": "0632000012", "name": "USPS COLLECTION BOX - BLUE BOX", "address": {"city": "NEW LONDON", "state": "CT", "street": "111 UNION UN", "postcode": "06320"}}},
{"geometry": {"type": "Point", "coordinates": [-72.115407374, 41.3715021287]}, "type": "Feature", "properties": {"collection_times": [{"days": "Mon-Fri", "time": "10:15am"}, {"days": "Sat", "time": "8:45am"}, {"days": "Sun", "time": "Closed"}], "id": "0632000018", "name": "USPS COLLECTION BOX - BLUE BOX", "address": {"city": "NEW LONDON", "state": "CT", "street": "400 BAYONET ST", "postcode": "06320"}}},
{"geometry": {"type": "Point", "coordinates": [-72.1224651846, 41.366346854]}, "type": "Feature", "properties": {"collection_times": [{"days": "Mon-Fri", "time": "11:15am"}, {"days": "Sat", "time": "10:30am"}, {"days": "Sun", "time": "Closed"}], "id": "0632000022", "name": "USPS COLLECTION BOX - BLUE BOX", "address": {"city": "NEW LONDON", "state": "CT", "street": "597 BROAD ST", "postcode": "06320"}}},
{"geometry": {"type": "Point", "coordinates": [-72.1192683502, 41.3694448244]}, "type": "Feature", "properties": {"collection_times": [{"days": "Mon-Fri", "time": "11:15am"}, {"days": "Sat", "time": "10:30am"}, {"days": "Sun", "time": "Closed"}], "id": "0632000024", "name": "USPS COLLECTION BOX - BLUE BOX", "address": {"city": "NEW LONDON", "state": "CT", "street": "292 S FRONTAGE RD", "postcode": "06320"}}},
{"geometry": {"type": "Point", "coordinates": [-72.1143991625, 41.3630084362]}, "type": "Feature", "properties": {"collection_times": [{"days": "Mon-Fri", "time": "11:30am"}, {"days": "Sat", "time": "10:30am"}, {"days": "Sun", "time": "Closed"}], "id": "0632000025", "name": "USPS COLLECTION BOX - BLUE BOX", "address": {"city": "NEW LONDON", "state": "CT", "street": "430 BROAD ST", "postcode": "06320"}}},
{"geometry": {"type": "Point", "coordinates": [-72.1078721406, 41.3600603742]}, "type": "Feature", "properties": {"collection_times": [{"days": "Mon-Fri", "time": "11:30am"}, {"days": "Sat", "time": "10:30am"}, {"days": "Sun", "time": "Closed"}], "id": "0632000026", "name": "USPS COLLECTION BOX - BLUE BOX", "address": {"city": "NEW LONDON", "state": "CT", "street": "240 BROAD ST", "postcode": "06320"}}},
{"geometry": {"type": "Point", "coordinates": [-72.1037394185, 41.358219572]}, "type": "Feature", "properties": {"collection_times": [{"days": "Mon-Fri", "time": "4:15pm"}, {"days": "Sat", "time": "10:30am"}, {"days": "Sun", "time": "Closed"}], "id": "0632000027", "name": "USPS COLLECTION BOX - BLUE BOX", "address": {"city": "NEW LONDON", "state": "CT", "street": "120 BROAD ST", "postcode": "06320"}}},
{"geometry": {"type": "Point", "coordinates": [-72.1040770132, 41.3495005752]}, "type": "Feature", "properties": {"collection_times": [{"days": "Mon-Fri", "time": "11:45am"}, {"days": "Sat", "time": "10:45am"}, {"days": "Sun", "time": "Closed"}], "id": "0632000033", "name": "USPS COLLECTION BOX - BLUE BOX", "address": {"city": "NEW LONDON", "state": "CT", "street": "951 BANK ST", "postcode": "06320"}}},
{"geometry": {"type": "Point", "coordinates": [-72.0909398849, 41.3260875746]}, "type": "Feature", "properties": {"collection_times": [{"days": "Mon-Fri", "time": "12:30pm"}, {"days": "Sat", "time": "11:00am"}, {"days": "Sun", "time": "Closed"}], "id": "0632000036", "name": "USPS COLLECTION BOX - BLUE BOX", "address": {"city": "NEW LONDON", "state": "CT", "street": "527 PEQUOT AVE", "postcode": "06320"}}},
{"geometry": {"type": "Point", "coordinates": [-72.0956977642, 41.3275856536]}, "type": "Feature", "properties": {"collection_times": [{"days": "Mon-Fri", "time": "12:30pm"}, {"days": "Sat", "time": "11:00am"}, {"days": "Sun", "time": "Closed"}], "id": "0632000041", "name": "USPS COLLECTION BOX - BLUE BOX", "address": {"city": "NEW LONDON", "state": "CT", "street": "701 MONTAUK AVE", "postcode": "06320"}}},
{"geometry": {"type": "Point", "coordinates": [-72.1017345297, 41.3350183645]}, "type": "Feature", "properties": {"collection_times": [{"days": "Mon-Fri", "time": "12:30pm"}, {"days": "Sat", "time": "11:00am"}, {"days": "Sun", "time": "Closed"}], "id": "0632000043", "name": "USPS COLLECTION BOX - BLUE BOX", "address": {"city": "NEW LONDON", "state": "CT", "street": "432 MONTAUK AVE", "postcode": "06320"}}},
{"geometry": {"type": "Point", "coordinates": [-72.1039627509, 41.337752219]}, "type": "Feature", "properties": {"collection_times": [{"days": "Mon-Fri", "time": "4:30pm"}, {"days": "Sat", "time": "11:00am"}, {"days": "Sun", "time": "Closed"}], "id": "0632000044", "name": "USPS COLLECTION BOX - BLUE BOX", "address": {"city": "NEW LONDON", "state": "CT", "street": "342 MONTAUK AVE", "postcode": "06320"}}},
{"geometry": {"type": "Point", "coordinates": [-72.1050009772, 41.3459111563]}, "type": "Feature", "properties": {"collection_times": [{"days": "Mon-Fri", "time": "12:45pm"}, {"days": "Sat", "time": "11:15am"}, {"days": "Sun", "time": "Closed"}], "id": "0632000046", "name": "USPS COLLECTION BOX - BLUE BOX", "address": {"city": "NEW LONDON", "state": "CT", "street": "94 MONTAUK AVE", "postcode": "06320"}}},
{"geometry": {"type": "Point", "coordinates": [-72.0955097354, 41.3559756866]}, "type": "Feature", "properties": {"collection_times": [{"days": "Mon-Fri", "time": "5:00pm"}, {"days": "Sat", "time": "12:00pm"}, {"days": "Sun", "time": "Closed"}], "id": "0632000047", "name": "USPS COLLECTION BOX - BLUE BOX", "address": {"city": "NEW LONDON", "state": "CT", "street": "125 EUGENE ONEILL DR", "postcode": "06320"}}},
{"geometry": {"type": "Point", "coordinates": [-72.1020718277, 41.3565847516]}, "type": "Feature", "properties": {"collection_times": [{"days": "Mon-Fri", "time": "11:30am"}, {"days": "Sat", "time": "10:30am"}, {"days": "Sun", "time": "Closed"}], "id": "0632000048", "name": "USPS COLLECTION BOX - BLUE BOX", "address": {"city": "NEW LONDON", "state": "CT", "street": "145 HEMPSTEAD ST", "postcode": "06320"}}},
{"geometry": {"type": "Point", "coordinates": [-72.1084057163, 41.3410172967]}, "type": "Feature", "properties": {"collection_times": [{"days": "Mon-Sat", "time": "9:00am"}, {"days": "Sun", "time": "Closed"}], "id": "0632000050", "name": "USPS COLLECTION BOX - BLUE BOX", "address": {"city": "NEW LONDON", "state": "CT", "street": "225 OCEAN AVE", "postcode": "06320"}}},
{"geometry": {"type": "Point", "coordinates": [-72.1042087573, 41.3325442575]}, "type": "Feature", "properties": {"collection_times": [{"days": "Mon-Fri", "time": "12:00pm"}, {"days": "Sat", "time": "10:45am"}, {"days": "Sun", "time": "Closed"}], "id": "0632000054", "name": "USPS COLLECTION BOX - BLUE BOX", "address": {"city": "NEW LONDON", "state": "CT", "street": "501 OCEAN AVE", "postcode": "06320"}}},
{"geometry": {"type": "Point", "coordinates": [-72.1034632679, 41.3367863494]}, "type": "Feature", "properties": {"collection_times": [{"days": "Mon-Fri", "time": "12:45pm"}, {"days": "Sat", "time": "11:00am"}, {"days": "Sun", "time": "Closed"}], "id": "0632000055", "name": "USPS COLLECTION BOX - BLUE BOX", "address": {"city": "NEW LONDON", "state": "CT", "street": "365 MONTAUK AVE", "postcode": "06320"}}},
{"geometry": {"type": "Point", "coordinates": [-72.1033628673, 41.3495689516]}, "type": "Feature", "properties": {"collection_times": [{"days": "Mon-Fri", "time": "4:45pm"}, {"days": "Sat", "time": "11:15am"}, {"days": "Sun", "time": "Closed"}], "id": "0632000056", "name": "USPS COLLECTION BOX - BLUE BOX", "address": {"city": "NEW LONDON", "state": "CT", "street": "3 SHAWS CV", "postcode": "06320"}}},
{"geometry": {"type": "Point", "coordinates": [-72.0994529131, 41.3505581703]}, "type": "Feature", "properties": {"collection_times": [{"days": "Mon-Fri", "time": "1:00pm"}, {"days": "Sat", "time": "11:15am"}, {"days": "Sun", "time": "Closed"}], "id": "0632000058", "name": "USPS COLLECTION BOX - BLUE BOX", "address": {"city": "NEW LONDON", "state": "CT", "street": "410 BANK ST", "postcode": "06320"}}},
{"geometry": {"type": "Point", "coordinates": [-72.1040770132, 41.3495005752]}, "type": "Feature", "properties": {"collection_times": [{"days": "Mon-Fri", "time": "10:45am"}, {"days": "Sat", "time": "10:00am"}, {"days": "Sun", "time": "Closed"}], "id": "0632000059", "name": "USPS COLLECTION BOX - BLUE BOX", "address": {"city": "NEW LONDON", "state": "CT", "street": "169 BANK ST", "postcode": "06320"}}},
{"geometry": {"type": "Point", "coordinates": [-72.1040770132, 41.3495005752]}, "type": "Feature", "properties": {"collection_times": [{"days": "Mon-Fri", "time": "4:45pm"}, {"days": "Sat", "time": "10:00am"}, {"days": "Sun", "time": "Closed"}], "id": "0632000060", "name": "USPS COLLECTION BOX - BLUE BOX", "address": {"city": "NEW LONDON", "state": "CT", "street": "61 BANK ST", "postcode": "06320"}}},
{"geometry": {"type": "Point", "coordinates": [-72.0931408796, 41.3547532115]}, "type": "Feature", "properties": {"collection_times": [{"days": "Mon-Sat", "time": "2:00pm"}, {"days": "Sun", "time": "Closed"}], "id": "0632000061", "name": "USPS COLLECTION BOX - BLUE BOX", "address": {"city": "NEW LONDON", "state": "CT", "street": "27 WATER ST", "postcode": "06320"}}},
{"geometry": {"type": "Point", "coordinates": [-72.0951013777, 41.3543225968]}, "type": "Feature", "properties": {"collection_times": [{"days": "Mon-Fri", "time": "10:45am"}, {"days": "Sat", "time": "10:00am"}, {"days": "Sun", "time": "Closed"}], "id": "0632000062", "name": "USPS COLLECTION BOX - BLUE BOX", "address": {"city": "NEW LONDON", "state": "CT", "street": "94 STATE ST", "postcode": "06320"}}},
{"geometry": {"type": "Point", "coordinates": [-72.0981153687, 41.3549847064]}, "type": "Feature", "properties": {"collection_times": [{"days": "Mon-Fri", "time": "10:45am"}, {"days": "Sat", "time": "10:00am"}, {"days": "Sun", "time": "Closed"}], "id": "0632000068", "name": "USPS COLLECTION BOX - BLUE BOX", "address": {"city": "NEW LONDON", "state": "CT", "street": "281 STATE ST", "postcode": "06320"}}},
{"geometry": {"type": "Point", "coordinates": [-72.1013192932, 41.3483766606]}, "type": "Feature", "properties": {"collection_times": [{"days": "Mon-Fri", "time": "1:00pm"}, {"days": "Sat", "time": "11:15am"}, {"days": "Sun", "time": "Closed"}], "id": "0632000076", "name": "USPS COLLECTION BOX - BLUE BOX", "address": {"city": "NEW LONDON", "state": "CT", "street": "70 HOWARD ST", "postcode": "06320"}}},
{"geometry": {"type": "Point", "coordinates": [-72.1020815049, 41.3739002331]}, "type": "Feature", "properties": {"collection_times": [{"days": "Mon-Fri", "time": "1:45pm"}, {"days": "Sat", "time": "8:15am"}, {"days": "Sun", "time": "Closed"}], "id": "0632000077", "name": "USPS COLLECTION BOX - BLUE BOX", "address": {"city": "NEW LONDON", "state": "CT", "street": "15 MOHEGAN AVE", "postcode": "06320"}}},
{"geometry": {"type": "Point", "coordinates": [-72.103669667, 41.3593931368]}, "type": "Feature", "properties": {"collection_times": [{"days": "Mon-Fri", "time": "11:30am"}, {"days": "Sat", "time": "10:30am"}, {"days": "Sun", "time": "Closed"}], "id": "0632000078", "name": "USPS COLLECTION BOX - BLUE BOX", "address": {"city": "NEW LONDON", "state": "CT", "street": "64 GRANITE ST", "postcode": "06320"}}},
{"geometry": {"type": "Point", "coordinates": [-72.1033628673, 41.3495689516]}, "type": "Feature", "properties": {"collection_times": [{"days": "Mon-Fri", "time": "4:45pm"}, {"days": "Sat", "time": "11:15am"}, {"days": "Sun", "time": "Closed"}], "id": "0632000081", "name": "USPS COLLECTION BOX - BLUE BOX", "address": {"city": "NEW LONDON", "state": "CT", "street": "3 SHAWS CV", "postcode": "06320"}}},
{"geometry": {"type": "Point", "coordinates": [-72.0955178749, 41.3553029386]}, "type": "Feature", "properties": {"collection_times": [{"days": "Mon-Fri", "time": "5:00pm"}, {"days": "Sat", "time": "2:30pm"}, {"days": "Sun", "time": "Closed"}], "id": "0632000083", "name": "USPS COLLECTION BOX - PO LOBBY", "address": {"city": "NEW LONDON", "state": "CT", "street": "27 MASONIC ST", "postcode": "06320"}}},
{"geometry": {"type": "Point", "coordinates": [-72.119397056, 41.370343847]}, "type": "Feature", "properties": {"collection_times": [{"days": "Mon-Fri", "time": "10:15am"}, {"days": "Sat", "time": "8:45am"}, {"days": "Sun", "time": "Closed"}], "id": "0632000084", "name": "USPS COLLECTION BOX - BLUE BOX", "address": {"city": "NEW LONDON", "state": "CT", "street": "351 N FRONTAGE RD", "postcode": "06320"}}},
{"geometry": {"type": "Point", "coordinates": [-72.1040770132, 41.3495005752]}, "type": "Feature", "properties": {"collection_times": [{"days": "Mon-Fri", "time": "12:00pm"}, {"days": "Sat", "time": "10:45am"}, {"days": "Sun", "time": "Closed"}], "id": "0632000085", "name": "USPS COLLECTION BOX - BLUE BOX", "address": {"city": "NEW LONDON", "state": "CT", "street": "612 OCEAN AVE", "postcode": "06320"}}},
{"geometry": {"type": "Point", "coordinates": [-72.084705509, 41.6169745707]}, "type": "Feature", "properties": {"collection_times": [{"days": "Mon-Fri", "time": "4:45pm"}, {"days": "Sat", "time": "11:45am"}, {"days": "Sun", "time": "Closed"}], "id": "0633000001", "name": "USPS COLLECTION BOX - BLUE BOX", "address": {"city": "BALTIC", "state": "CT", "street": "2 MAIN ST", "postcode": "06330"}}},
{"geometry": {"type": "Point", "coordinates": [-72.084705509, 41.6169745707]}, "type": "Feature", "properties": {"collection_times": [{"days": "Mon-Fri", "time": "4:45pm"}, {"days": "Sat", "time": "11:45am"}, {"days": "Sun", "time": "Closed"}], "id": "0633000002", "name": "USPS COLLECTION BOX - PO LOBBY", "address": {"city": "BALTIC", "state": "CT", "street": "2 MAIN ST", "postcode": "06330"}}},
{"geometry": {"type": "Point", "coordinates": [-71.9983760644, 41.6853217057]}, "type": "Feature", "properties": {"collection_times": [{"days": "Mon-Fri", "time": "5:00pm"}, {"days": "Sat", "time": "12:00pm"}, {"days": "Sun", "time": "Closed"}], "id": "0633100002", "name": "USPS COLLECTION BOX - BLUE BOX", "address": {"city": "CANTERBURY", "state": "CT", "street": "168 WESTMINSTER RD", "postcode": "06331"}}},
{"geometry": {"type": "Point", "coordinates": [-71.993926334, 41.6979129509]}, "type": "Feature", "properties": {"collection_times": [{"days": "Mon-Fri", "time": "5:00pm"}, {"days": "Sat", "time": "12:00pm"}, {"days": "Sun", "time": "Closed"}], "id": "0633100003", "name": "USPS COLLECTION BOX - BLUE BOX", "address": {"city": "CANTERBURY", "state": "CT", "street": "168 WESTMINSTER RD", "postcode": "06331"}}},
{"geometry": {"type": "Point", "coordinates": [-71.9983760644, 41.6853217057]}, "type": "Feature", "properties": {"collection_times": [{"days": "Mon-Fri", "time": "5:00pm"}, {"days": "Sat", "time": "12:00pm"}, {"days": "Sun", "time": "Closed"}], "id": "0633100004", "name": "USPS COLLECTION BOX - PO LOBBY", "address": {"city": "CANTERBURY", "state": "CT", "street": "168 WESTMINSTER RD", "postcode": "06331"}}},
{"geometry": {"type": "Point", "coordinates": [-71.9090800416, 41.7229438396]}, "type": "Feature", "properties": {"collection_times": [{"days": "Mon-Fri", "time": "4:30pm"}, {"days": "Sat", "time": "11:30am"}, {"days": "Sun", "time": "Closed"}], "id": "0633200001", "name": "USPS COLLECTION BOX - BLUE BOX", "address": {"city": "CENTRAL VILLAGE", "state": "CT", "street": "29 SCHOOL ST", "postcode": "06332"}}},
{"geometry": {"type": "Point", "coordinates": [-71.9090800416, 41.7229438396]}, "type": "Feature", "properties": {"collection_times": [{"days": "Mon-Fri", "time": "4:45pm"}, {"days": "Sat", "time": "11:45am"}, {"days": "Sun", "time": "Closed"}], "id": "0633200002", "name": "USPS COLLECTION BOX - PO LOBBY", "address": {"city": "CENTRAL VILLAGE", "state": "CT", "street": "29 SCHOOL ST", "postcode": "06332"}}},
{"geometry": {"type": "Point", "coordinates": [-72.2221842681, 41.3684301603]}, "type": "Feature", "properties": {"collection_times": [{"days": "Mon-Fri", "time": "5:00pm"}, {"days": "Sat", "time": "12:00pm"}, {"days": "Sun", "time": "Closed"}], "id": "0633300004", "name": "USPS COLLECTION BOX - BLUE BOX", "address": {"city": "EAST LYME", "state": "CT", "street": "225 BOSTON POST RD", "postcode": "06333"}}},
{"geometry": {"type": "Point", "coordinates": [-72.2280660896, 41.3683926595]}, "type": "Feature", "properties": {"collection_times": [{"days": "Mon-Sat", "time": "10:00am"}, {"days": "Sun", "time": "Closed"}], "id": "0633300006", "name": "USPS COLLECTION BOX - BLUE BOX", "address": {"city": "EAST LYME", "state": "CT", "street": "339 FLANDERS RD", "postcode": "06333"}}},
{"geometry": {"type": "Point", "coordinates": [-72.2221842681, 41.3684301603]}, "type": "Feature", "properties": {"collection_times": [{"days": "Mon-Fri", "time": "5:00pm"}, {"days": "Sat", "time": "12:00pm"}, {"days": "Sun", "time": "Closed"}], "id": "0633300007", "name": "USPS COLLECTION BOX - PO LOBBY", "address": {"city": "EAST LYME", "state": "CT", "street": "225 BOSTON POST RD", "postcode": "06333"}}},
{"geometry": {"type": "Point", "coordinates": [-72.1520418992, 41.5662741324]}, "type": "Feature", "properties": {"collection_times": [{"days": "Mon-Fri", "time": "4:15pm"}, {"days": "Sat", "time": "11:30am"}, {"days": "Sun", "time": "Closed"}], "id": "0633400001", "name": "USPS COLLECTION BOX - BLUE BOX", "address": {"city": "BOZRAH", "state": "CT", "street": "181 FITCHVILLE RD", "postcode": "06334"}}},
{"geometry": {"type": "Point", "coordinates": [-72.1520418992, 41.5662741324]}, "type": "Feature", "properties": {"collection_times": [{"days": "Mon-Fri", "time": "4:15pm"}, {"days": "Sat", "time": "11:30am"}, {"days": "Sun", "time": "Closed"}], "id": "0633400002", "name": "USPS COLLECTION BOX - PO LOBBY", "address": {"city": "BOZRAH", "state": "CT", "street": "181 FITCHVILLE RD", "postcode": "06334"}}},
{"geometry": {"type": "Point", "coordinates": [-72.084044235, 41.4286451376]}, "type": "Feature", "properties": {"collection_times": [{"days": "Mon-Fri", "time": "4:30pm"}, {"days": "Sat", "time": "12:00pm"}, {"days": "Sun", "time": "Closed"}], "id": "0633500001", "name": "USPS COLLECTION BOX - BLUE BOX", "address": {"city": "GALES FERRY", "state": "CT", "street": "12 MILITARY HWY", "postcode": "06335"}}},
{"geometry": {"type": "Point", "coordinates": [-72.084044235, 41.4286451376]}, "type": "Feature", "properties": {"collection_times": [{"days": "Mon-Fri", "time": "4:30pm"}, {"days": "Sat", "time": "12:00pm"}, {"days": "Sun", "time": "Closed"}], "id": "0633500006", "name": "USPS COLLECTION BOX - PO LOBBY", "address": {"city": "GALES FERRY", "state": "CT", "street": "12 MILITARY HWY", "postcode": "06335"}}},
{"geometry": {"type": "Point", "coordinates": [-72.1937798817, 41.5763540127]}, "type": "Feature", "properties": {"collection_times": [{"days": "Mon-Fri", "time": "4:45pm"}, {"days": "Sat", "time": "10:45am"}, {"days": "Sun", "time": "Closed"}], "id": "0633600001", "name": "USPS COLLECTION BOX - BLUE BOX", "address": {"city": "GILMAN", "state": "CT", "street": "26 GILMAN RD", "postcode": "06336"}}},
{"geometry": {"type": "Point", "coordinates": [-72.1937798817, 41.5763540127]}, "type": "Feature", "properties": {"collection_times": [{"days": "Mon-Fri", "time": "5:00pm"}, {"days": "Sat", "time": "11:00am"}, {"days": "Sun", "time": "Closed"}], "id": "0633600002", "name": "USPS COLLECTION BOX - PO LOBBY", "address": {"city": "GILMAN", "state": "CT", "street": "26 GILMAN RD", "postcode": "06336"}}},
{"geometry": {"type": "Point", "coordinates": [-71.9930396771, 41.3989028605]}, "type": "Feature", "properties": {"collection_times": [{"days": "Mon-Fri", "time": "5:00pm"}, {"days": "Sat", "time": "12:00pm"}, {"days": "Sun", "time": "Closed"}], "id": "0633900002", "name": "USPS COLLECTION BOX - BLUE BOX", "address": {"city": "LEDYARD", "state": "CT", "street": "764 COLONEL LEDYARD HWY", "postcode": "06339"}}},
{"geometry": {"type": "Point", "coordinates": [-71.9930396771, 41.3989028605]}, "type": "Feature", "properties": {"collection_times": [{"days": "Mon-Fri", "time": "5:00pm"}, {"days": "Sat", "time": "12:00pm"}, {"days": "Sun", "time": "Closed"}], "id": "0633900004", "name": "USPS COLLECTION BOX - PO LOBBY", "address": {"city": "LEDYARD", "state": "CT", "street": "764 COLONEL LEDYARD HWY", "postcode": "06339"}}},
{"geometry": {"type": "Point", "coordinates": [-72.0529971285, 41.3528331485]}, "type": "Feature", "properties": {"collection_times": [{"days": "Mon-Fri", "time": "5:15pm"}, {"days": "Sat", "time": "2:00pm"}, {"days": "Sun", "time": "Closed"}], "id": "0634000002", "name": "USPS COLLECTION BOX - EXPRESS", "address": {"city": "GROTON", "state": "CT", "street": "100 PLAZA CT", "postcode": "06340"}}},
{"geometry": {"type": "Point", "coordinates": [-72.0521859671, 41.3492910672]}, "type": "Feature", "properties": {"collection_times": [{"days": "Mon-Fri", "time": "5:15pm"}, {"days": "Sat", "time": "2:00pm"}, {"days": "Sun", "time": "Closed"}], "id": "0634000006", "name": "USPS COLLECTION BOX - BLUE BOX", "address": {"city": "GROTON", "state": "CT", "street": "100 PLAZA CT", "postcode": "06340"}}},
{"geometry": {"type": "Point", "coordinates": [-72.0521859671, 41.3492910672]}, "type": "Feature", "properties": {"collection_times": [{"days": "Mon-Fri", "time": "5:15pm"}, {"days": "Sat", "time": "2:00pm"}, {"days": "Sun", "time": "Closed"}], "id": "0634000008", "name": "USPS COLLECTION BOX - BLUE BOX", "address": {"city": "GROTON", "state": "CT", "street": "100 PLAZA CT", "postcode": "06340"}}},
{"geometry": {"type": "Point", "coordinates": [-72.0707384363, 41.3548405022]}, "type": "Feature", "properties": {"collection_times": [{"days": "Mon-Fri", "time": "2:30pm"}, {"days": "Sat", "time": "12:00pm"}, {"days": "Sun", "time": "Closed"}], "id": "0634000011", "name": "USPS COLLECTION BOX - BLUE BOX", "address": {"city": "GROTON", "state": "CT", "street": "46 BEACH ST", "postcode": "06340"}}},
{"geometry": {"type": "Point", "coordinates": [-71.970447168, 41.356734074]}, "type": "Feature", "properties": {"collection_times": [{"days": "Mon-Fri", "time": "3:00pm"}, {"days": "Sat", "time": "12:00pm"}, {"days": "Sun", "time": "Closed"}], "id": "0634000012", "name": "USPS COLLECTION BOX - BLUE BOX", "address": {"city": "GROTON", "state": "CT", "street": "19 PEARL ST", "postcode": "06340"}}},
{"geometry": {"type": "Point", "coordinates": [-72.0275792376, 41.3463348528]}, "type": "Feature", "properties": {"collection_times": [{"days": "Mon-Sat", "time": "12:00pm"}, {"days": "Sun", "time": "Closed"}], "id": "0634000013", "name": "USPS COLLECTION BOX - BLUE BOX", "address": {"city": "GROTON", "state": "CT", "street": "116 FORT HILL RD", "postcode": "06340"}}},
{"geometry": {"type": "Point", "coordinates": [-72.0292586081, 41.3494298615]}, "type": "Feature", "properties": {"collection_times": [{"days": "Mon-Sat", "time": "12:00pm"}, {"days": "Sun", "time": "Closed"}], "id": "0634000014", "name": "USPS COLLECTION BOX - BLUE BOX", "address": {"city": "GROTON", "state": "CT", "street": "102 NEWTOWN RD", "postcode": "06340"}}},
{"geometry": {"type": "Point", "coordinates": [-72.0529971281, 41.3528331947]}, "type": "Feature", "properties": {"collection_times": [{"days": "Mon-Sat", "time": "12:30pm"}, {"days": "Sun", "time": "Closed"}], "id": "0634000018", "name": "USPS COLLECTION BOX - BLUE BOX", "address": {"city": "GROTON", "state": "CT", "street": "39 BROAD STREET EXT", "postcode": "06340"}}},
{"geometry": {"type": "Point", "coordinates": [-72.078507769, 41.361779624]}, "type": "Feature", "properties": {"collection_times": [{"days": "Mon-Fri", "time": "10:00am"}, {"days": "Sat-Sun", "time": "Closed"}], "id": "0634000019", "name": "USPS COLLECTION BOX - BLUE BOX", "address": {"city": "GROTON", "state": "CT", "street": "174 BRIDGE ST", "postcode": "06340"}}},
{"geometry": {"type": "Point", "coordinates": [-72.0839933677, 41.3570773032]}, "type": "Feature", "properties": {"collection_times": [{"days": "Mon-Fri", "time": "3:30pm"}, {"days": "Sat", "time": "12:30pm"}, {"days": "Sun", "time": "Closed"}], "id": "0634000024", "name": "USPS COLLECTION BOX - BLUE BOX", "address": {"city": "GROTON", "state": "CT", "street": "202 THAMES ST", "postcode": "06340"}}},
{"geometry": {"type": "Point", "coordinates": [-72.07870909, 41.3462165569]}, "type": "Feature", "properties": {"collection_times": [{"days": "Mon-Fri", "time": "12:15pm"}, {"days": "Sat", "time": "12:30pm"}, {"days": "Sun", "time": "Closed"}], "id": "0634000026", "name": "USPS COLLECTION BOX - BLUE BOX", "address": {"city": "GROTON", "state": "CT", "street": "66 EASTERN POINT RD", "postcode": "06340"}}},
{"geometry": {"type": "Point", "coordinates": [-72.0645407905, 41.3199371235]}, "type": "Feature", "properties": {"collection_times": [{"days": "Mon-Fri", "time": "10:00am"}, {"days": "Sat-Sun", "time": "Closed"}], "id": "0634000033", "name": "USPS COLLECTION BOX - BLUE BOX", "address": {"city": "GROTON", "state": "CT", "street": "1084 SCHENNECOSSETT", "postcode": "06340"}}},
{"geometry": {"type": "Point", "coordinates": [-72.070233122, 41.368598392]}, "type": "Feature", "properties": {"collection_times": [{"days": "Mon-Sat", "time": "12:00pm"}, {"days": "Sun", "time": "Closed"}], "id": "0634000039", "name": "USPS COLLECTION BOX - BLUE BOX", "address": {"city": "GROTON", "state": "CT", "street": "220 ROUTE 12", "postcode": "06340"}}},
{"geometry": {"type": "Point", "coordinates": [-72.7383038826, 41.5735001734]}, "type": "Feature", "properties": {"collection_times": [{"days": "Mon-Fri", "time": "3:00pm"}, {"days": "Sat-Sun", "time": "Closed"}], "id": "0634000042", "name": "USPS COLLECTION BOX - BLUE BOX", "address": {"city": "GROTON", "state": "CT", "street": "295 MERIDIAN ST", "postcode": "06340"}}},
{"geometry": {"type": "Point", "coordinates": [-72.0761172269, 41.3465087478]}, "type": "Feature", "properties": {"collection_times": [{"days": "Mon-Sat", "time": "12:00pm"}, {"days": "Sun", "time": "Closed"}], "id": "0634000044", "name": "USPS COLLECTION BOX - BLUE BOX", "address": {"city": "GROTON", "state": "CT", "street": "32 CHICAGO AVE", "postcode": "06340"}}},
{"geometry": {"type": "Point", "coordinates": [-72.0707384363, 41.3548405022]}, "type": "Feature", "properties": {"collection_times": [{"days": "Mon-Sat", "time": "11:00am"}, {"days": "Sun", "time": "Closed"}], "id": "0634000054", "name": "USPS COLLECTION BOX - BLUE BOX", "address": {"city": "GROTON", "state": "CT", "street": "600 MERIDIAN", "postcode": "06340"}}},
{"geometry": {"type": "Point", "coordinates": [-72.0700107928, 41.3813386086]}, "type": "Feature", "properties": {"collection_times": [{"days": "Mon-Fri", "time": "12:00pm"}, {"days": "Sat-Sun", "time": "Closed"}], "id": "0634000063", "name": "USPS COLLECTION BOX - BLUE BOX", "address": {"city": "GROTON", "state": "CT", "street": "24 SAILFISH DR", "postcode": "06340"}}},
{"geometry": {"type": "Point", "coordinates": [-72.0258381522, 41.3830071813]}, "type": "Feature", "properties": {"collection_times": [{"days": "Mon-Fri", "time": "11:00am"}, {"days": "Sat-Sun", "time": "Closed"}], "id": "0634000066", "name": "USPS COLLECTION BOX - BLUE BOX", "address": {"city": "GROTON", "state": "CT", "street": "1311 ROUTE 184", "postcode": "06340"}}},
{"geometry": {"type": "Point", "coordinates": [-72.0569532917, 41.3508371946]}, "type": "Feature", "properties": {"collection_times": [{"days": "Mon-Fri", "time": "1:45pm"}, {"days": "Sat-Sun", "time": "Closed"}], "id": "0634000069", "name": "USPS COLLECTION BOX - BLUE BOX", "address": {"city": "GROTON", "state": "CT", "street": "625 LONG HILL RD", "postcode": "06340"}}},
{"geometry": {"type": "Point", "coordinates": [-72.0631401912, 41.3688373669]}, "type": "Feature", "properties": {"collection_times": [{"days": "Mon-Sat", "time": "10:30am"}, {"days": "Sun", "time": "Closed"}], "id": "0634000084", "name": "USPS COLLECTION BOX - BLUE BOX", "address": {"city": "GROTON", "state": "CT", "street": "150 ROUTE 184", "postcode": "06340"}}},
{"geometry": {"type": "Point", "coordinates": [-72.0530396859, 41.3723903729]}, "type": "Feature", "properties": {"collection_times": [{"days": "Mon-Sat", "time": "12:00pm"}, {"days": "Sun", "time": "Closed"}], "id": "0634000085", "name": "USPS COLLECTION BOX - BLUE BOX", "address": {"city": "GROTON", "state": "CT", "street": "481 ROUTE 184", "postcode": "06340"}}},
{"geometry": {"type": "Point", "coordinates": [-72.0786747842, 41.3472824029]}, "type": "Feature", "properties": {"collection_times": [{"days": "Mon-Sat", "time": "12:15pm"}, {"days": "Sun", "time": "Closed"}], "id": "0634000096", "name": "USPS COLLECTION BOX - BLUE BOX", "address": {"city": "GROTON", "state": "CT", "street": "75 EASTERN POINT RD", "postcode": "06340"}}},
{"geometry": {"type": "Point", "coordinates": [-72.0529971285, 41.3528331485]}, "type": "Feature", "properties": {"collection_times": [{"days": "Mon-Fri", "time": "3:45pm"}, {"days": "Sat-Sun", "time": "Closed"}], "id": "0634000099", "name": "USPS COLLECTION BOX - BLUE BOX", "address": {"city": "GROTON", "state": "CT", "street": "45 FORT HILL RD", "postcode": "06340"}}},
{"geometry": {"type": "Point", "coordinates": [-72.0521859671, 41.3492910672]}, "type": "Feature", "properties": {"collection_times": [{"days": "Mon-Sat", "time": "3:00pm"}, {"days": "Sun", "time": "Closed"}], "id": "0634000100", "name": "USPS COLLECTION BOX - BLUE BOX", "address": {"city": "GROTON", "state": "CT", "street": "90 PLAZA CT", "postcode": "06340"}}},
{"geometry": {"type": "Point", "coordinates": [-72.7383038826, 41.5735001734]}, "type": "Feature", "properties": {"collection_times": [{"days": "Mon-Fri", "time": "4:45pm"}, {"days": "Sat", "time": "11:45am"}, {"days": "Sun", "time": "Closed"}], "id": "0635000001", "name": "USPS COLLECTION BOX - BLUE BOX", "address": {"city": "HANOVER", "state": "CT", "street": "290 MAIN ST", "postcode": "06350"}}},
{"geometry": {"type": "Point", "coordinates": [-72.0670145036, 41.6390450638]}, "type": "Feature", "properties": {"collection_times": [{"days": "Mon-Fri", "time": "4:45pm"}, {"days": "Sat", "time": "11:45am"}, {"days": "Sun", "time": "Closed"}], "id": "0635000002", "name": "USPS COLLECTION BOX - PO LOBBY", "address": {"city": "HANOVER", "state": "CT", "street": "290 MAIN ST", "postcode": "06350"}}},
{"geometry": {"type": "Point", "coordinates": [-71.980775913, 41.6000980103]}, "type": "Feature", "properties": {"collection_times": [{"days": "Mon-Sat", "time": "12:00pm"}, {"days": "Sun", "time": "Closed"}], "id": "0635100003", "name": "USPS COLLECTION BOX - BLUE BOX", "address": {"city": "JEWETT CITY", "state": "CT", "street": "91 SLATER AVE", "postcode": "06351"}}},
{"geometry": {"type": "Point", "coordinates": [-71.9916373954, 41.5872834837]}, "type": "Feature", "properties": {"collection_times": [{"days": "Mon-Sat", "time": "9:00am"}, {"days": "Sun", "time": "Closed"}], "id": "0635100006", "name": "USPS COLLECTION BOX - BLUE BOX", "address": {"city": "JEWETT CITY", "state": "CT", "street": "142 RIVER RD", "postcode": "06351"}}},
{"geometry": {"type": "Point", "coordinates": [-71.9694391704, 41.592837476]}, "type": "Feature", "properties": {"collection_times": [{"days": "Mon-Sat", "time": "9:00am"}, {"days": "Sun", "time": "Closed"}], "id": "0635100007", "name": "USPS COLLECTION BOX - BLUE BOX", "address": {"city": "JEWETT CITY", "state": "CT", "street": "461 VOLUNTOWN RD", "postcode": "06351"}}},
{"geometry": {"type": "Point", "coordinates": [-71.8742163552, 41.5727625656]}, "type": "Feature", "properties": {"collection_times": [{"days": "Mon-Sat", "time": "10:00am"}, {"days": "Sun", "time": "Closed"}], "id": "0635100008", "name": "USPS COLLECTION BOX - BLUE BOX", "address": {"city": "JEWETT CITY", "state": "CT", "street": "659 VOLUNTOWN RD", "postcode": "06351"}}},
{"geometry": {"type": "Point", "coordinates": [-72.035812632, 41.5623242325]}, "type": "Feature", "properties": {"collection_times": [{"days": "Mon-Sat", "time": "11:00am"}, {"days": "Sun", "time": "Closed"}], "id": "0635100009", "name": "USPS COLLECTION BOX - BLUE BOX", "address": {"city": "JEWETT CITY", "state": "CT", "street": "210 BUNDY HILL RD", "postcode": "06351"}}},
{"geometry": {"type": "Point", "coordinates": [-71.9838207494, 41.60489969]}, "type": "Feature", "properties": {"collection_times": [{"days": "Mon-Sat", "time": "9:00am"}, {"days": "Sun", "time": "Closed"}], "id": "0635100010", "name": "USPS COLLECTION BOX - BLUE BOX", "address": {"city": "JEWETT CITY", "state": "CT", "street": "28 MAIN ST", "postcode": "06351"}}},
{"geometry": {"type": "Point", "coordinates": [-71.9825646801, 41.6058235622]}, "type": "Feature", "properties": {"collection_times": [{"days": "Mon-Fri", "time": "5:00pm"}, {"days": "Sat", "time": "3:30pm"}, {"days": "Sun", "time": "Closed"}], "id": "0635100011", "name": "USPS COLLECTION BOX - PO LOBBY", "address": {"city": "JEWETT CITY", "state": "CT", "street": "54 MAIN ST", "postcode": "06351"}}},
{"geometry": {"type": "Point", "coordinates": [-71.9760085198, 41.6113277707]}, "type": "Feature", "properties": {"collection_times": [{"days": "Mon-Sat", "time": "1:00pm"}, {"days": "Sun", "time": "Closed"}], "id": "0635100012", "name": "USPS COLLECTION BOX - BLUE BOX", "address": {"city": "JEWETT CITY", "state": "CT", "street": "141 BROWN AVE", "postcode": "06351"}}},
{"geometry": {"type": "Point", "coordinates": [-71.9597663451, 41.5954018164]}, "type": "Feature", "properties": {"collection_times": [{"days": "Mon-Sat", "time": "10:00am"}, {"days": "Sun", "time": "Closed"}], "id": "0635100013", "name": "USPS COLLECTION BOX - BLUE BOX", "address": {"city": "JEWETT CITY", "state": "CT", "street": "91 ASHLAND ST", "postcode": "06351"}}},
{"geometry": {"type": "Point", "coordinates": [-71.9825646801, 41.6058235622]}, "type": "Feature", "properties": {"collection_times": [{"days": "Mon-Fri", "time": "5:00pm"}, {"days": "Sat", "time": "3:30pm"}, {"days": "Sun", "time": "Closed"}], "id": "0635100014", "name": "USPS COLLECTION BOX - BLUE BOX", "address": {"city": "JEWETT CITY", "state": "CT", "street": "54 MAIN ST", "postcode": "06351"}}},
{"geometry": {"type": "Point", "coordinates": [-72.1340792762, 41.4537937424]}, "type": "Feature", "properties": {"collection_times": [{"days": "Mon-Fri", "time": "4:45pm"}, {"days": "Sat", "time": "12:00pm"}, {"days": "Sun", "time": "Closed"}], "id": "0635300001", "name": "USPS COLLECTION BOX - BLUE BOX", "address": {"city": "MONTVILLE", "state": "CT", "street": "293 ROUTE 163", "postcode": "06353"}}},
{"geometry": {"type": "Point", "coordinates": [-72.1340792762, 41.4537937424]}, "type": "Feature", "properties": {"collection_times": [{"days": "Mon-Fri", "time": "4:45pm"}, {"days": "Sat", "time": "12:00pm"}, {"days": "Sun", "time": "Closed"}], "id": "0635300002", "name": "USPS COLLECTION BOX - PO LOBBY", "address": {"city": "MONTVILLE", "state": "CT", "street": "293 ROUTE 163", "postcode": "06353"}}},
{"geometry": {"type": "Point", "coordinates": [-71.8813702414, 41.7120726419]}, "type": "Feature", "properties": {"collection_times": [{"days": "Mon-Fri", "time": "5:00pm"}, {"days": "Sat", "time": "12:45pm"}, {"days": "Sun", "time": "Closed"}], "id": "0635400005", "name": "USPS COLLECTION BOX - BLUE BOX", "address": {"city": "MOOSUP", "state": "CT", "street": "21 S MAIN ST", "postcode": "06354"}}},
{"geometry": {"type": "Point", "coordinates": [-71.8813702414, 41.7120726419]}, "type": "Feature", "properties": {"collection_times": [{"days": "Mon-Fri", "time": "5:00pm"}, {"days": "Sat", "time": "1:00pm"}, {"days": "Sun", "time": "Closed"}], "id": "0635400006", "name": "USPS COLLECTION BOX - PO LOBBY", "address": {"city": "MOOSUP", "state": "CT", "street": "21 S MAIN ST", "postcode": "06354"}}},
{"geometry": {"type": "Point", "coordinates": [-71.9665421039, 41.3541837855]}, "type": "Feature", "properties": {"collection_times": [{"days": "Mon-Fri", "time": "5:00pm"}, {"days": "Sat", "time": "2:15pm"}, {"days": "Sun", "time": "Closed"}], "id": "0635500001", "name": "USPS COLLECTION BOX - BLUE BOX", "address": {"city": "MYSTIC", "state": "CT", "street": "23 E MAIN ST", "postcode": "06355"}}},
{"geometry": {"type": "Point", "coordinates": [-71.9727361869, 41.3616839247]}, "type": "Feature", "properties": {"collection_times": [{"days": "Mon-Fri", "time": "2:00pm"}, {"days": "Sat", "time": "2:15pm"}, {"days": "Sun", "time": "Closed"}], "id": "0635500003", "name": "USPS COLLECTION BOX - EXPRESS", "address": {"city": "MYSTIC", "state": "CT", "street": "23 E MAIN ST", "postcode": "06355"}}},
{"geometry": {"type": "Point", "coordinates": [-71.9745708464, 41.3539460108]}, "type": "Feature", "properties": {"collection_times": [{"days": "Mon-Fri", "time": "11:00am"}, {"days": "Sat-Sun", "time": "Closed"}], "id": "0635500006", "name": "USPS COLLECTION BOX - BLUE BOX", "address": {"city": "MYSTIC", "state": "CT", "street": "40 LIBRARY ST", "postcode": "06355"}}},
{"geometry": {"type": "Point", "coordinates": [-71.9727274968, 41.3616839706]}, "type": "Feature", "properties": {"collection_times": [{"days": "Mon-Fri", "time": "1:00pm"}, {"days": "Sat", "time": "1:30pm"}, {"days": "Sun", "time": "Closed"}], "id": "0635500007", "name": "USPS COLLECTION BOX - BLUE BOX", "address": {"city": "MYSTIC", "state": "CT", "street": "18 OCEAN VIEW AVE", "postcode": "06355"}}},
{"geometry": {"type": "Point", "coordinates": [-71.9778535575, 41.354429841]}, "type": "Feature", "properties": {"collection_times": [{"days": "Mon-Sat", "time": "11:00am"}, {"days": "Sun", "time": "Closed"}], "id": "0635500008", "name": "USPS COLLECTION BOX - BLUE BOX", "address": {"city": "MYSTIC", "state": "CT", "street": "11 ALLYN ST", "postcode": "06355"}}},
{"geometry": {"type": "Point", "coordinates": [-71.9788935104, 41.3798936368]}, "type": "Feature", "properties": {"collection_times": [{"days": "Mon-Fri", "time": "1:00pm"}, {"days": "Sat", "time": "1:30pm"}, {"days": "Sun", "time": "Closed"}], "id": "0635500009", "name": "USPS COLLECTION BOX - BLUE BOX", "address": {"city": "MYSTIC", "state": "CT", "street": "18 LAMPHERE RD", "postcode": "06355"}}},
{"geometry": {"type": "Point", "coordinates": [-71.9727274968, 41.3616839706]}, "type": "Feature", "properties": {"collection_times": [{"days": "Mon-Fri", "time": "1:00pm"}, {"days": "Sat-Sun", "time": "Closed"}], "id": "0635500010", "name": "USPS COLLECTION BOX - BLUE BOX", "address": {"city": "MYSTIC", "state": "CT", "street": "39 WHITEHALL AVE", "postcode": "06355"}}},
{"geometry": {"type": "Point", "coordinates": [-72.7383038826, 41.5735001734]}, "type": "Feature", "properties": {"collection_times": [{"days": "Mon-Sat", "time": "11:00am"}, {"days": "Sun", "time": "Closed"}], "id": "0635500011", "name": "USPS COLLECTION BOX - BLUE BOX", "address": {"city": "MYSTIC", "state": "CT", "street": "27 COOGAN BLVD", "postcode": "06355"}}},
{"geometry": {"type": "Point", "coordinates": [-71.9578592194, 41.3725701786]}, "type": "Feature", "properties": {"collection_times": [{"days": "Mon-Fri", "time": "12:45pm"}, {"days": "Sat", "time": "12:30pm"}, {"days": "Sun", "time": "Closed"}], "id": "0635500013", "name": "USPS COLLECTION BOX - BLUE BOX", "address": {"city": "MYSTIC", "state": "CT", "street": "27 COOGAN BLVD", "postcode": "06355"}}},
{"geometry": {"type": "Point", "coordinates": [-71.9637869925, 41.3589688545]}, "type": "Feature", "properties": {"collection_times": [{"days": "Mon-Fri", "time": "11:00am"}, {"days": "Sat", "time": "1:00pm"}, {"days": "Sun", "time": "Closed"}], "id": "0635500016", "name": "USPS COLLECTION BOX - BLUE BOX", "address": {"city": "MYSTIC", "state": "CT", "street": "35 GREENMANVILLE AVE", "postcode": "06355"}}},
{"geometry": {"type": "Point", "coordinates": [-71.9594999947, 41.3501421111]}, "type": "Feature", "properties": {"collection_times": [{"days": "Mon-Fri", "time": "11:00am"}, {"days": "Sat-Sun", "time": "Closed"}], "id": "0635500017", "name": "USPS COLLECTION BOX - BLUE BOX", "address": {"city": "MYSTIC", "state": "CT", "street": "12 ROOSEVELT AVE", "postcode": "06355"}}},
{"geometry": {"type": "Point", "coordinates": [-71.9707581697, 41.3546735305]}, "type": "Feature", "properties": {"collection_times": [{"days": "Mon-Sat", "time": "10:00am"}, {"days": "Sun", "time": "Closed"}], "id": "0635500019", "name": "USPS COLLECTION BOX - BLUE BOX", "address": {"city": "MYSTIC", "state": "CT", "street": "46 W MAIN ST", "postcode": "06355"}}},
{"geometry": {"type": "Point", "coordinates": [-71.9727274968, 41.3616839706]}, "type": "Feature", "properties": {"collection_times": [{"days": "Mon-Fri", "time": "10:00am"}, {"days": "Sat-Sun", "time": "Closed"}], "id": "0635500020", "name": "USPS COLLECTION BOX - BLUE BOX", "address": {"city": "MYSTIC", "state": "CT", "street": "2 HIGH", "postcode": "06355"}}},
{"geometry": {"type": "Point", "coordinates": [-71.9594999947, 41.3501421111]}, "type": "Feature", "properties": {"collection_times": [{"days": "Mon-Sat", "time": "10:00am"}, {"days": "Sun", "time": "Closed"}], "id": "0635500022", "name": "USPS COLLECTION BOX - BLUE BOX", "address": {"city": "MYSTIC", "state": "CT", "street": "15 W MAIN ST", "postcode": "06355"}}},
{"geometry": {"type": "Point", "coordinates": [-72.7383038826, 41.5735001734]}, "type": "Feature", "properties": {"collection_times": [{"days": "Mon-Fri", "time": "12:45pm"}, {"days": "Sat-Sun", "time": "Closed"}], "id": "0635500024", "name": "USPS COLLECTION BOX - BLUE BOX", "address": {"city": "MYSTIC", "state": "CT", "street": "86 DENISON AVE", "postcode": "06355"}}},
{"geometry": {"type": "Point", "coordinates": [-71.9727274968, 41.3616839706]}, "type": "Feature", "properties": {"collection_times": [{"days": "Mon-Fri", "time": "10:30am"}, {"days": "Sat-Sun", "time": "Closed"}], "id": "0635500025", "name": "USPS COLLECTION BOX - BLUE BOX", "address": {"city": "MYSTIC", "state": "CT", "street": "11 DANIEL BROWN DR", "postcode": "06355"}}},
{"geometry": {"type": "Point", "coordinates": [-71.9594999947, 41.3501421111]}, "type": "Feature", "properties": {"collection_times": [{"days": "Mon-Fri", "time": "5:00pm"}, {"days": "Sat", "time": "2:15pm"}, {"days": "Sun", "time": "Closed"}], "id": "0635500026", "name": "USPS COLLECTION BOX - BLUE BOX", "address": {"city": "MYSTIC", "state": "CT", "street": "26 WILLOW ST", "postcode": "06355"}}},
{"geometry": {"type": "Point", "coordinates": [-71.9572491994, 41.3715219495]}, "type": "Feature", "properties": {"collection_times": [{"days": "Mon-Fri", "time": "10:00am"}, {"days": "Sat-Sun", "time": "Closed"}], "id": "0635500027", "name": "USPS COLLECTION BOX - BLUE BOX", "address": {"city": "MYSTIC", "state": "CT", "street": "14 CLARA DR", "postcode": "06355"}}},
{"geometry": {"type": "Point", "coordinates": [-71.9594999947, 41.3501421111]}, "type": "Feature", "properties": {"collection_times": [{"days": "Mon-Sat", "time": "11:00am"}, {"days": "Sun", "time": "Closed"}], "id": "0635500028", "name": "USPS COLLECTION BOX - BLUE BOX", "address": {"city": "MYSTIC", "state": "CT", "street": "179 STONINGTON RD", "postcode": "06355"}}},
{"geometry": {"type": "Point", "coordinates": [-72.7383038826, 41.5735001734]}, "type": "Feature", "properties": {"collection_times": [{"days": "Mon-Sat", "time": "11:00am"}, {"days": "Sun", "time": "Closed"}], "id": "0635500031", "name": "USPS COLLECTION BOX - BLUE BOX", "address": {"city": "MYSTIC", "state": "CT", "street": "55 COOGAN BLVD", "postcode": "06355"}}},
{"geometry": {"type": "Point", "coordinates": [-71.9665421039, 41.3541837855]}, "type": "Feature", "properties": {"collection_times": [{"days": "Mon-Fri", "time": "5:00pm"}, {"days": "Sat", "time": "2:00pm"}, {"days": "Sun", "time": "Closed"}], "id": "0635500032", "name": "USPS COLLECTION BOX - PO LOBBY", "address": {"city": "MYSTIC", "state": "CT", "street": "23 E MAIN ST", "postcode": "06355"}}},
{"geometry": {"type": "Point", "coordinates": [-71.9639478749, 41.3526305604]}, "type": "Feature", "properties": {"collection_times": [{"days": "Mon-Fri", "time": "2:00pm"}, {"days": "Sat", "time": "12:30pm"}, {"days": "Sun", "time": "Closed"}], "id": "0635500034", "name": "USPS COLLECTION BOX - BLUE BOX", "address": {"city": "MYSTIC", "state": "CT", "street": "25 BROADWAY AVE", "postcode": "06355"}}},
{"geometry": {"type": "Point", "coordinates": [-71.957516127, 41.3490189867]}, "type": "Feature", "properties": {"collection_times": [{"days": "Mon-Fri", "time": "11:00am"}, {"days": "Sat", "time": "12:00pm"}, {"days": "Sun", "time": "Closed"}], "id": "0635500035", "name": "USPS COLLECTION BOX - BLUE BOX", "address": {"city": "MYSTIC", "state": "CT", "street": "45 WILLIAMS ST", "postcode": "06355"}}},
{"geometry": {"type": "Point", "coordinates": [-71.9659819605, 41.3544971012]}, "type": "Feature", "properties": {"collection_times": [{"days": "Mon-Fri", "time": "5:00pm"}, {"days": "Sat", "time": "2:15pm"}, {"days": "Sun", "time": "Closed"}], "id": "0635500037", "name": "USPS COLLECTION BOX - BLUE BOX", "address": {"city": "MYSTIC", "state": "CT", "street": "26 WILLOW ST", "postcode": "06355"}}},
{"geometry": {"type": "Point", "coordinates": [-72.1931804802, 41.3260139837]}, "type": "Feature", "properties": {"collection_times": [{"days": "Mon-Fri", "time": "5:00pm"}, {"days": "Sat", "time": "11:00am"}, {"days": "Sun", "time": "Closed"}], "id": "0635700001", "name": "USPS COLLECTION BOX - BLUE BOX", "address": {"city": "NIANTIC", "state": "CT", "street": "58 PENNSYLVANIA AVE", "postcode": "06357"}}},
{"geometry": {"type": "Point", "coordinates": [-72.2102375655, 41.3500730031]}, "type": "Feature", "properties": {"collection_times": [{"days": "Mon-Fri", "time": "10:15am"}, {"days": "Sat", "time": "10:45am"}, {"days": "Sun", "time": "Closed"}], "id": "0635700004", "name": "USPS COLLECTION BOX - BLUE BOX", "address": {"city": "NIANTIC", "state": "CT", "street": "170 FLANDERS RD", "postcode": "06357"}}},
{"geometry": {"type": "Point", "coordinates": [-72.2096389215, 41.3212623846]}, "type": "Feature", "properties": {"collection_times": [{"days": "Mon-Fri", "time": "10:30am"}, {"days": "Sat", "time": "10:45am"}, {"days": "Sun", "time": "Closed"}], "id": "0635700005", "name": "USPS COLLECTION BOX - BLUE BOX", "address": {"city": "NIANTIC", "state": "CT", "street": "39 SOCIETY RD", "postcode": "06357"}}},
{"geometry": {"type": "Point", "coordinates": [-72.1923464151, 41.3244929221]}, "type": "Feature", "properties": {"collection_times": [{"days": "Mon-Fri", "time": "11:00am"}, {"days": "Sat", "time": "11:15am"}, {"days": "Sun", "time": "Closed"}], "id": "0635700008", "name": "USPS COLLECTION BOX - BLUE BOX", "address": {"city": "NIANTIC", "state": "CT", "street": "2 GRAND ST", "postcode": "06357"}}},
{"geometry": {"type": "Point", "coordinates": [-72.240636062, 41.3173499922]}, "type": "Feature", "properties": {"collection_times": [{"days": "Mon-Fri", "time": "11:00am"}, {"days": "Sat", "time": "11:15am"}, {"days": "Sun", "time": "Closed"}], "id": "0635700009", "name": "USPS COLLECTION BOX - BLUE BOX", "address": {"city": "NIANTIC", "state": "CT", "street": "243 MAIN ST", "postcode": "06357"}}},
{"geometry": {"type": "Point", "coordinates": [-72.2041642542, 41.3587287139]}, "type": "Feature", "properties": {"collection_times": [{"days": "Mon-Fri", "time": "10:00am"}, {"days": "Sat", "time": "11:15am"}, {"days": "Sun", "time": "Closed"}], "id": "0635700012", "name": "USPS COLLECTION BOX - BLUE BOX", "address": {"city": "NIANTIC", "state": "CT", "street": "10 KING ARTHUR DR", "postcode": "06357"}}},
{"geometry": {"type": "Point", "coordinates": [-72.2096389215, 41.3212623846]}, "type": "Feature", "properties": {"collection_times": [{"days": "Mon-Fri", "time": "10:30am"}, {"days": "Sat", "time": "11:15am"}, {"days": "Sun", "time": "Closed"}], "id": "0635700015", "name": "USPS COLLECTION BOX - BLUE BOX", "address": {"city": "NIANTIC", "state": "CT", "street": "229 W MAIN ST", "postcode": "06357"}}},
{"geometry": {"type": "Point", "coordinates": [-72.1931804802, 41.3260139837]}, "type": "Feature", "properties": {"collection_times": [{"days": "Mon-Fri", "time": "5:00pm"}, {"days": "Sat", "time": "11:00am"}, {"days": "Sun", "time": "Closed"}], "id": "0635700016", "name": "USPS COLLECTION BOX - BLUE BOX", "address": {"city": "NIANTIC", "state": "CT", "street": "58 PENNSYLVANIA AVE", "postcode": "06357"}}},
{"geometry": {"type": "Point", "coordinates": [-72.1931804802, 41.3260139837]}, "type": "Feature", "properties": {"collection_times": [{"days": "Mon-Fri", "time": "5:00pm"}, {"days": "Sat", "time": "12:30pm"}, {"days": "Sun", "time": "Closed"}], "id": "0635700017", "name": "USPS COLLECTION BOX - PO LOBBY", "address": {"city": "NIANTIC", "state": "CT", "street": "58 PENNSYLVANIA AVE", "postcode": "06357"}}},
{"geometry": {"type": "Point", "coordinates": [-71.8968752846, 41.44832366]}, "type": "Feature", "properties": {"collection_times": [{"days": "Mon-Fri", "time": "4:00pm"}, {"days": "Sat", "time": "12:00pm"}, {"days": "Sun", "time": "Closed"}], "id": "0635900001", "name": "USPS COLLECTION BOX - BLUE BOX", "address": {"city": "NO STONINGTON", "state": "CT", "street": "391 NORWICH-WESTERLY", "postcode": "06359"}}},
{"geometry": {"type": "Point", "coordinates": [-71.8810435225, 41.4407510969]}, "type": "Feature", "properties": {"collection_times": [{"days": "Mon-Fri", "time": "10:00am"}, {"days": "Sat", "time": "11:45am"}, {"days": "Sun", "time": "Closed"}], "id": "0635900003", "name": "USPS COLLECTION BOX - BLUE BOX", "address": {"city": "NO STONINGTON", "state": "CT", "street": "40 MAIN ST", "postcode": "06359"}}},
{"geometry": {"type": "Point", "coordinates": [-71.8968752846, 41.44832366]}, "type": "Feature", "properties": {"collection_times": [{"days": "Mon-Fri", "time": "4:00pm"}, {"days": "Sat", "time": "12:00pm"}, {"days": "Sun", "time": "Closed"}], "id": "0635900004", "name": "USPS COLLECTION BOX - PO LOBBY", "address": {"city": "NO STONINGTON", "state": "CT", "street": "391 NORWICH-WESTERLY RD", "postcode": "06359"}}},
{"geometry": {"type": "Point", "coordinates": [-72.0713546341, 41.524169074]}, "type": "Feature", "properties": {"collection_times": [{"days": "Mon-Fri", "time": "5:00pm"}, {"days": "Sat", "time": "1:00pm"}, {"days": "Sun", "time": "Closed"}], "id": "0636000002", "name": "USPS COLLECTION BOX - BLUE BOX", "address": {"city": "NORWICH", "state": "CT", "street": "340 MAIN ST", "postcode": "06360"}}},
{"geometry": {"type": "Point", "coordinates": [-72.0827864862, 41.5333724721]}, "type": "Feature", "properties": {"collection_times": [{"days": "Mon-Fri", "time": "5:00pm"}, {"days": "Sat", "time": "1:00pm"}, {"days": "Sun", "time": "Closed"}], "id": "0636000003", "name": "USPS COLLECTION BOX - EXPRESS", "address": {"city": "NORWICH", "state": "CT", "street": "340 MAIN ST", "postcode": "06360"}}},
{"geometry": {"type": "Point", "coordinates": [-72.0725648012, 41.5243003825]}, "type": "Feature", "properties": {"collection_times": [{"days": "Mon-Fri", "time": "10:30am"}, {"days": "Sat-Sun", "time": "Closed"}], "id": "0636000008", "name": "USPS COLLECTION BOX - BLUE BOX", "address": {"city": "NORWICH", "state": "CT", "street": "300 MAIN ST", "postcode": "06360"}}},
{"geometry": {"type": "Point", "coordinates": [-72.0742173948, 41.5258098381]}, "type": "Feature", "properties": {"collection_times": [{"days": "Mon-Fri", "time": "10:30am"}, {"days": "Sat-Sun", "time": "Closed"}], "id": "0636000009", "name": "USPS COLLECTION BOX - BLUE BOX", "address": {"city": "NORWICH", "state": "CT", "street": "66 FRANKLIN ST", "postcode": "06360"}}},
{"geometry": {"type": "Point", "coordinates": [-72.0796933119, 41.5143434168]}, "type": "Feature", "properties": {"collection_times": [{"days": "Mon-Sat", "time": "9:30am"}, {"days": "Sun", "time": "Closed"}], "id": "0636000012", "name": "USPS COLLECTION BOX - BLUE BOX", "address": {"city": "NORWICH", "state": "CT", "street": "1 THAMES PLZ", "postcode": "06360"}}},
{"geometry": {"type": "Point", "coordinates": [-72.0817528434, 41.5221355675]}, "type": "Feature", "properties": {"collection_times": [{"days": "Mon-Sat", "time": "9:30am"}, {"days": "Sun", "time": "Closed"}], "id": "0636000017", "name": "USPS COLLECTION BOX - BLUE BOX", "address": {"city": "NORWICH", "state": "CT", "street": "70 THAMES ST", "postcode": "06360"}}},
{"geometry": {"type": "Point", "coordinates": [-72.0789788047, 41.5243879214]}, "type": "Feature", "properties": {"collection_times": [{"days": "Mon-Fri", "time": "1:00pm"}, {"days": "Sat-Sun", "time": "Closed"}], "id": "0636000019", "name": "USPS COLLECTION BOX - BLUE BOX", "address": {"city": "NORWICH", "state": "CT", "street": "40 MAIN ST", "postcode": "06360"}}},
{"geometry": {"type": "Point", "coordinates": [-72.0935540436, 41.5200508423]}, "type": "Feature", "properties": {"collection_times": [{"days": "Mon-Sat", "time": "10:30am"}, {"days": "Sun", "time": "Closed"}], "id": "0636000021", "name": "USPS COLLECTION BOX - BLUE BOX", "address": {"city": "NORWICH", "state": "CT", "street": "425 W MAIN ST", "postcode": "06360"}}},
{"geometry": {"type": "Point", "coordinates": [-72.1033603117, 41.5149769407]}, "type": "Feature", "properties": {"collection_times": [{"days": "Mon-Sat", "time": "9:15am"}, {"days": "Sun", "time": "Closed"}], "id": "0636000022", "name": "USPS COLLECTION BOX - BLUE BOX", "address": {"city": "NORWICH", "state": "CT", "street": "680 W MAIN ST", "postcode": "06360"}}},
{"geometry": {"type": "Point", "coordinates": [-72.104498539, 41.5146218612]}, "type": "Feature", "properties": {"collection_times": [{"days": "Mon-Sat", "time": "10:15am"}, {"days": "Sun", "time": "Closed"}], "id": "0636000023", "name": "USPS COLLECTION BOX - BLUE BOX", "address": {"city": "NORWICH", "state": "CT", "street": "624 W MAIN ST", "postcode": "06360"}}},
{"geometry": {"type": "Point", "coordinates": [-72.0998047972, 41.5164159609]}, "type": "Feature", "properties": {"collection_times": [{"days": "Mon-Sat", "time": "9:15am"}, {"days": "Sun", "time": "Closed"}], "id": "0636000024", "name": "USPS COLLECTION BOX - BLUE BOX", "address": {"city": "NORWICH", "state": "CT", "street": "590 W MAIN ST", "postcode": "06360"}}},
{"geometry": {"type": "Point", "coordinates": [-72.0876936634, 41.5233137947]}, "type": "Feature", "properties": {"collection_times": [{"days": "Mon-Sat", "time": "10:30am"}, {"days": "Sun", "time": "Closed"}], "id": "0636000026", "name": "USPS COLLECTION BOX - BLUE BOX", "address": {"city": "NORWICH", "state": "CT", "street": "257 MAIN ST", "postcode": "06360"}}},
{"geometry": {"type": "Point", "coordinates": [-72.0889406652, 41.505937369]}, "type": "Feature", "properties": {"collection_times": [{"days": "Mon-Fri", "time": "10:00am"}, {"days": "Sat-Sun", "time": "Closed"}], "id": "0636000028", "name": "USPS COLLECTION BOX - BLUE BOX", "address": {"city": "NORWICH", "state": "CT", "street": "401 W THAMES ST", "postcode": "06360"}}},
{"geometry": {"type": "Point", "coordinates": [-72.0521078918, 41.5520289406]}, "type": "Feature", "properties": {"collection_times": [{"days": "Mon-Sat", "time": "11:00am"}, {"days": "Sun", "time": "Closed"}], "id": "0636000029", "name": "USPS COLLECTION BOX - BLUE BOX", "address": {"city": "NORWICH", "state": "CT", "street": "20 NORWICH AVE", "postcode": "06360"}}},
{"geometry": {"type": "Point", "coordinates": [-72.0471551894, 41.5313688016]}, "type": "Feature", "properties": {"collection_times": [{"days": "Mon-Sat", "time": "10:15am"}, {"days": "Sun", "time": "Closed"}], "id": "0636000030", "name": "USPS COLLECTION BOX - BLUE BOX", "address": {"city": "NORWICH", "state": "CT", "street": "469 HAMILTON AVE", "postcode": "06360"}}},
{"geometry": {"type": "Point", "coordinates": [-72.067949855, 41.523578724]}, "type": "Feature", "properties": {"collection_times": [{"days": "Mon-Fri", "time": "2:30pm"}, {"days": "Sat-Sun", "time": "Closed"}], "id": "0636000031", "name": "USPS COLLECTION BOX - BLUE BOX", "address": {"city": "NORWICH", "state": "CT", "street": "410 E MAIN ST", "postcode": "06360"}}},
{"geometry": {"type": "Point", "coordinates": [-72.0963221661, 41.5412143297]}, "type": "Feature", "properties": {"collection_times": [{"days": "Mon-Fri", "time": "10:15am"}, {"days": "Sat-Sun", "time": "Closed"}], "id": "0636000032", "name": "USPS COLLECTION BOX - BLUE BOX", "address": {"city": "NORWICH", "state": "CT", "street": "108 NEW LONDON TPKE", "postcode": "06360"}}},
{"geometry": {"type": "Point", "coordinates": [-72.1108749272, 41.5121715042]}, "type": "Feature", "properties": {"collection_times": [{"days": "Mon-Fri", "time": "4:00pm"}, {"days": "Sat", "time": "1:15pm"}, {"days": "Sun", "time": "Closed"}], "id": "0636000035", "name": "USPS COLLECTION BOX - BLUE BOX", "address": {"city": "NORWICH", "state": "CT", "street": "77 SALEM TPKE", "postcode": "06360"}}},
{"geometry": {"type": "Point", "coordinates": [-72.1101485904, 41.5570742606]}, "type": "Feature", "properties": {"collection_times": [{"days": "Mon-Fri", "time": "1:30pm"}, {"days": "Sat", "time": "12:30pm"}, {"days": "Sun", "time": "Closed"}], "id": "0636000037", "name": "USPS COLLECTION BOX - BLUE BOX", "address": {"city": "NORWICH", "state": "CT", "street": "220 W TOWN ST", "postcode": "06360"}}},
{"geometry": {"type": "Point", "coordinates": [-72.1030827765, 41.5537536948]}, "type": "Feature", "properties": {"collection_times": [{"days": "Mon-Sat", "time": "11:45am"}, {"days": "Sun", "time": "Closed"}], "id": "0636000038", "name": "USPS COLLECTION BOX - BLUE BOX", "address": {"city": "NORWICH", "state": "CT", "street": "12 CASE ST", "postcode": "06360"}}},
{"geometry": {"type": "Point", "coordinates": [-72.0828169007, 41.5335115587]}, "type": "Feature", "properties": {"collection_times": [{"days": "Mon-Fri", "time": "2:30pm"}, {"days": "Sat", "time": "12:30pm"}, {"days": "Sun", "time": "Closed"}], "id": "0636000040", "name": "USPS COLLECTION BOX - BLUE BOX", "address": {"city": "NORWICH", "state": "CT", "street": "106 W TOWN ST", "postcode": "06360"}}},
{"geometry": {"type": "Point", "coordinates": [-72.092634883, 41.5506188535]}, "type": "Feature", "properties": {"collection_times": [{"days": "Mon-Fri", "time": "4:00pm"}, {"days": "Sat", "time": "10:00am"}, {"days": "Sun", "time": "Closed"}], "id": "0636000041", "name": "USPS COLLECTION BOX - BLUE BOX", "address": {"city": "NORWICH", "state": "CT", "street": "47 TOWN ST", "postcode": "06360"}}},
{"geometry": {"type": "Point", "coordinates": [-72.0916329167, 41.546596793]}, "type": "Feature", "properties": {"collection_times": [{"days": "Mon-Fri", "time": "4:00pm"}, {"days": "Sat", "time": "10:00am"}, {"days": "Sun", "time": "Closed"}], "id": "0636000042", "name": "USPS COLLECTION BOX - BLUE BOX", "address": {"city": "NORWICH", "state": "CT", "street": "42 TOWN ST", "postcode": "06360"}}},
{"geometry": {"type": "Point", "coordinates": [-72.7383038826, 41.5735001734]}, "type": "Feature", "properties": {"collection_times": [{"days": "Mon-Sat", "time": "10:30am"}, {"days": "Sun", "time": "Closed"}], "id": "0636000044", "name": "USPS COLLECTION BOX - BLUE BOX", "address": {"city": "NORWICH", "state": "CT", "street": "326 WASHINGTON ST", "postcode": "06360"}}},
{"geometry": {"type": "Point", "coordinates": [-72.090097436, 41.5358377812]}, "type": "Feature", "properties": {"collection_times": [{"days": "Mon-Sat", "time": "11:00am"}, {"days": "Sun", "time": "Closed"}], "id": "0636000047", "name": "USPS COLLECTION BOX - BLUE BOX", "address": {"city": "NORWICH", "state": "CT", "street": "151 SACHEM ST", "postcode": "06360"}}},
{"geometry": {"type": "Point", "coordinates": [-72.0828169007, 41.5335115587]}, "type": "Feature", "properties": {"collection_times": [{"days": "Mon-Fri", "time": "11:00am"}, {"days": "Sat-Sun", "time": "Closed"}], "id": "0636000049", "name": "USPS COLLECTION BOX - BLUE BOX", "address": {"city": "NORWICH", "state": "CT", "street": "165 MCKINLEY AVE", "postcode": "06360"}}},
{"geometry": {"type": "Point", "coordinates": [-72.0764482943, 41.5294965729]}, "type": "Feature", "properties": {"collection_times": [{"days": "Mon-Sat", "time": "11:15am"}, {"days": "Sun", "time": "Closed"}], "id": "0636000051", "name": "USPS COLLECTION BOX - BLUE BOX", "address": {"city": "NORWICH", "state": "CT", "street": "182 BROADWAY", "postcode": "06360"}}},
{"geometry": {"type": "Point", "coordinates": [-72.0662643617, 41.5326650853]}, "type": "Feature", "properties": {"collection_times": [{"days": "Mon-Sat", "time": "11:00am"}, {"days": "Sun", "time": "Closed"}], "id": "0636000053", "name": "USPS COLLECTION BOX - BLUE BOX", "address": {"city": "NORWICH", "state": "CT", "street": "204 BOSWELL AVE", "postcode": "06360"}}},
{"geometry": {"type": "Point", "coordinates": [-72.0756866299, 41.5265018691]}, "type": "Feature", "properties": {"collection_times": [{"days": "Mon-Fri", "time": "5:00pm"}, {"days": "Sat", "time": "9:30am"}, {"days": "Sun", "time": "Closed"}], "id": "0636000055", "name": "USPS COLLECTION BOX - BLUE BOX", "address": {"city": "NORWICH", "state": "CT", "street": "100 BROADWAY", "postcode": "06360"}}},
{"geometry": {"type": "Point", "coordinates": [-72.0903304789, 41.5504946428]}, "type": "Feature", "properties": {"collection_times": [{"days": "Mon-Sat", "time": "12:00pm"}, {"days": "Sun", "time": "Closed"}], "id": "0636000057", "name": "USPS COLLECTION BOX - BLUE BOX", "address": {"city": "NORWICH", "state": "CT", "street": "23 E TOWN ST", "postcode": "06360"}}},
{"geometry": {"type": "Point", "coordinates": [-72.0836672591, 41.5118231009]}, "type": "Feature", "properties": {"collection_times": [{"days": "Mon-Fri", "time": "9:30am"}, {"days": "Sat-Sun", "time": "Closed"}], "id": "0636000058", "name": "USPS COLLECTION BOX - BLUE BOX", "address": {"city": "NORWICH", "state": "CT", "street": "195 DUNHAM ST", "postcode": "06360"}}},
{"geometry": {"type": "Point", "coordinates": [-72.0754110004, 41.5094708089]}, "type": "Feature", "properties": {"collection_times": [{"days": "Mon-Sat", "time": "10:00am"}, {"days": "Sun", "time": "Closed"}], "id": "0636000065", "name": "USPS COLLECTION BOX - BLUE BOX", "address": {"city": "NORWICH", "state": "CT", "street": "412 LAUREL HILL AVE", "postcode": "06360"}}},
{"geometry": {"type": "Point", "coordinates": [-72.063191048, 41.527997291]}, "type": "Feature", "properties": {"collection_times": [{"days": "Mon-Fri", "time": "10:30am"}, {"days": "Sat-Sun", "time": "Closed"}], "id": "0636000067", "name": "USPS COLLECTION BOX - BLUE BOX", "address": {"city": "NORWICH", "state": "CT", "street": "192 N MAIN ST", "postcode": "06360"}}},
{"geometry": {"type": "Point", "coordinates": [-72.1048453854, 41.5107827104]}, "type": "Feature", "properties": {"collection_times": [{"days": "Mon-Fri", "time": "9:15am"}, {"days": "Sat-Sun", "time": "Closed"}], "id": "0636000071", "name": "USPS COLLECTION BOX - BLUE BOX", "address": {"city": "NORWICH", "state": "CT", "street": "3 SYCAMORE RD", "postcode": "06360"}}},
{"geometry": {"type": "Point", "coordinates": [-72.0955816337, 41.5010919105]}, "type": "Feature", "properties": {"collection_times": [{"days": "Mon-Fri", "time": "1:00pm"}, {"days": "Sat", "time": "10:15am"}, {"days": "Sun", "time": "Closed"}], "id": "0636000074", "name": "USPS COLLECTION BOX - BLUE BOX", "address": {"city": "NORWICH", "state": "CT", "street": "607 W THAMES ST", "postcode": "06360"}}},
{"geometry": {"type": "Point", "coordinates": [-72.0825063883, 41.5319020768]}, "type": "Feature", "properties": {"collection_times": [{"days": "Mon-Fri", "time": "10:30am"}, {"days": "Sat-Sun", "time": "Closed"}], "id": "0636000076", "name": "USPS COLLECTION BOX - BLUE BOX", "address": {"city": "NORWICH", "state": "CT", "street": "151 WASHINGTON ST", "postcode": "06360"}}},
{"geometry": {"type": "Point", "coordinates": [-72.0883608522, 41.5231931329]}, "type": "Feature", "properties": {"collection_times": [{"days": "Mon-Sat", "time": "9:45am"}, {"days": "Sun", "time": "Closed"}], "id": "0636000078", "name": "USPS COLLECTION BOX - BLUE BOX", "address": {"city": "NORWICH", "state": "CT", "street": "276 W MAIN ST", "postcode": "06360"}}},
{"geometry": {"type": "Point", "coordinates": [-72.0885962611, 41.5379174231]}, "type": "Feature", "properties": {"collection_times": [{"days": "Mon-Fri", "time": "10:00am"}, {"days": "Sat-Sun", "time": "Closed"}], "id": "0636000081", "name": "USPS COLLECTION BOX - BLUE BOX", "address": {"city": "NORWICH", "state": "CT", "street": "106 WILLIAMS ST", "postcode": "06360"}}},
{"geometry": {"type": "Point", "coordinates": [-72.0747189694, 41.523850858]}, "type": "Feature", "properties": {"collection_times": [{"days": "Mon-Fri", "time": "5:00pm"}, {"days": "Sat-Sun", "time": "Closed"}], "id": "0636000088", "name": "USPS COLLECTION BOX - BLUE BOX", "address": {"city": "NORWICH", "state": "CT", "street": "2 COURTHOUSE SQ", "postcode": "06360"}}},
{"geometry": {"type": "Point", "coordinates": [-72.1226048103, 41.5073703335]}, "type": "Feature", "properties": {"collection_times": [{"days": "Mon-Fri", "time": "2:30pm"}, {"days": "Sat", "time": "10:00am"}, {"days": "Sun", "time": "Closed"}], "id": "0636000089", "name": "USPS COLLECTION BOX - BLUE BOX", "address": {"city": "NORWICH", "state": "CT", "street": "220B SALEM TPKE", "postcode": "06360"}}},
{"geometry": {"type": "Point", "coordinates": [-72.0713546341, 41.524169074]}, "type": "Feature", "properties": {"collection_times": [{"days": "Mon-Fri", "time": "5:00pm"}, {"days": "Sat", "time": "12:30pm"}, {"days": "Sun", "time": "Closed"}], "id": "0636000095", "name": "USPS COLLECTION BOX - PO LOBBY", "address": {"city": "NORWICH", "state": "CT", "street": "340 MAIN ST", "postcode": "06360"}}},
{"geometry": {"type": "Point", "coordinates": [-72.1173232486, 41.5683789474]}, "type": "Feature", "properties": {"collection_times": [{"days": "Mon-Fri", "time": "4:00pm"}, {"days": "Sat-Sun", "time": "Closed"}], "id": "0636000097", "name": "USPS COLLECTION BOX - BLUE BOX", "address": {"city": "NORWICH", "state": "CT", "street": "8 OXFORD DR", "postcode": "06360"}}},
{"geometry": {"type": "Point", "coordinates": [-72.1136347088, 41.511197947]}, "type": "Feature", "properties": {"collection_times": [{"days": "Mon-Fri", "time": "4:00pm"}, {"days": "Sat", "time": "1:15pm"}, {"days": "Sun", "time": "Closed"}], "id": "0636000101", "name": "USPS COLLECTION BOX - BLUE BOX", "address": {"city": "NORWICH", "state": "CT", "street": "117 SALEM TPKE", "postcode": "06360"}}},
{"geometry": {"type": "Point", "coordinates": [-72.0747189694, 41.523850858]}, "type": "Feature", "properties": {"collection_times": [{"days": "Mon-Fri", "time": "5:00pm"}, {"days": "Sat-Sun", "time": "Closed"}], "id": "0636000102", "name": "USPS COLLECTION BOX - BLUE BOX", "address": {"city": "NORWICH", "state": "CT", "street": "2 COURTHOUSE SQ", "postcode": "06360"}}},
{"geometry": {"type": "Point", "coordinates": [-72.0827864862, 41.5333724721]}, "type": "Feature", "properties": {"collection_times": [{"days": "Mon-Fri", "time": "11:30am"}, {"days": "Sat-Sun", "time": "Closed"}], "id": "0636000105", "name": "USPS COLLECTION BOX - BLUE BOX", "address": {"city": "NORWICH", "state": "CT", "street": "725 BOSWELL AVE", "postcode": "06360"}}},
{"geometry": {"type": "Point", "coordinates": [-72.158624422, 41.4657078894]}, "type": "Feature", "properties": {"collection_times": [{"days": "Mon-Fri", "time": "4:30pm"}, {"days": "Sat", "time": "12:00pm"}, {"days": "Sun", "time": "Closed"}], "id": "0637000001", "name": "USPS COLLECTION BOX - BLUE BOX", "address": {"city": "OAKDALE", "state": "CT", "street": "711 OAKDALE RD", "postcode": "06370"}}},
{"geometry": {"type": "Point", "coordinates": [-72.1921198591, 41.4730203916]}, "type": "Feature", "properties": {"collection_times": [{"days": "Mon-Sat", "time": "9:30am"}, {"days": "Sun", "time": "Closed"}], "id": "0637000003", "name": "USPS COLLECTION BOX - BLUE BOX", "address": {"city": "OAKDALE", "state": "CT", "street": "1226 OLD COLCHESTER RD", "postcode": "06370"}}},
{"geometry": {"type": "Point", "coordinates": [-72.1921198591, 41.4730203916]}, "type": "Feature", "properties": {"collection_times": [{"days": "Mon-Sat", "time": "10:30am"}, {"days": "Sun", "time": "Closed"}], "id": "0637000005", "name": "USPS COLLECTION BOX - BLUE BOX", "address": {"city": "OAKDALE", "state": "CT", "street": "612 NORWICH SALEM TPKE", "postcode": "06370"}}},
{"geometry": {"type": "Point", "coordinates": [-72.158624422, 41.4657078894]}, "type": "Feature", "properties": {"collection_times": [{"days": "Mon-Fri", "time": "4:45pm"}, {"days": "Sat", "time": "12:00pm"}, {"days": "Sun", "time": "Closed"}], "id": "0637000006", "name": "USPS COLLECTION BOX - PO LOBBY", "address": {"city": "OAKDALE", "state": "CT", "street": "711 OAKDALE RD", "postcode": "06370"}}},
{"geometry": {"type": "Point", "coordinates": [-72.3085399369, 41.3278624019]}, "type": "Feature", "properties": {"collection_times": [{"days": "Mon-Fri", "time": "4:30pm"}, {"days": "Sat", "time": "12:30pm"}, {"days": "Sun", "time": "Closed"}], "id": "0637100001", "name": "USPS COLLECTION BOX - EXPRESS", "address": {"city": "OLD LYME", "state": "CT", "street": "12 HALLS RD", "postcode": "06371"}}},
{"geometry": {"type": "Point", "coordinates": [-72.3334285462, 41.3238349733]}, "type": "Feature", "properties": {"collection_times": [{"days": "Mon-Fri", "time": "5:00pm"}, {"days": "Sat", "time": "2:30pm"}, {"days": "Sun", "time": "Closed"}], "id": "0637100003", "name": "USPS COLLECTION BOX - BLUE BOX", "address": {"city": "OLD LYME", "state": "CT", "street": "12 HALLS RD", "postcode": "06371"}}},
{"geometry": {"type": "Point", "coordinates": [-72.3334285462, 41.3238349733]}, "type": "Feature", "properties": {"collection_times": [{"days": "Mon-Fri", "time": "5:00pm"}, {"days": "Sat", "time": "2:30pm"}, {"days": "Sun", "time": "Closed"}], "id": "0637100005", "name": "USPS COLLECTION BOX - BLUE BOX", "address": {"city": "OLD LYME", "state": "CT", "street": "12 HALLS RD", "postcode": "06371"}}},
{"geometry": {"type": "Point", "coordinates": [-72.3503353957, 41.3859829055]}, "type": "Feature", "properties": {"collection_times": [{"days": "Mon-Sat", "time": "12:00pm"}, {"days": "Sun", "time": "Closed"}], "id": "0637100007", "name": "USPS COLLECTION BOX - BLUE BOX", "address": {"city": "OLD LYME", "state": "CT", "street": "254 HAMBURG RD", "postcode": "06371"}}},
{"geometry": {"type": "Point", "coordinates": [-72.2996317908, 41.3483025047]}, "type": "Feature", "properties": {"collection_times": [{"days": "Mon-Sat", "time": "12:00pm"}, {"days": "Sun", "time": "Closed"}], "id": "0637100010", "name": "USPS COLLECTION BOX - BLUE BOX", "address": {"city": "OLD LYME", "state": "CT", "street": "171 BOSTON POST RD", "postcode": "06371"}}},
{"geometry": {"type": "Point", "coordinates": [-72.2866768249, 41.2892133133]}, "type": "Feature", "properties": {"collection_times": [{"days": "Mon-Sat", "time": "11:30am"}, {"days": "Sun", "time": "Closed"}], "id": "0637100011", "name": "USPS COLLECTION BOX - BLUE BOX", "address": {"city": "OLD LYME", "state": "CT", "street": "230 SHORE RD", "postcode": "06371"}}},
{"geometry": {"type": "Point", "coordinates": [-72.2776645842, 41.3468903951]}, "type": "Feature", "properties": {"collection_times": [{"days": "Mon-Sat", "time": "10:00am"}, {"days": "Sun", "time": "Closed"}], "id": "0637100012", "name": "USPS COLLECTION BOX - BLUE BOX", "address": {"city": "OLD LYME", "state": "CT", "street": "1 RYEFIELD RD", "postcode": "06371"}}},
{"geometry": {"type": "Point", "coordinates": [-72.3334285462, 41.3238349733]}, "type": "Feature", "properties": {"collection_times": [{"days": "Mon-Fri", "time": "5:00pm"}, {"days": "Sat", "time": "3:45pm"}, {"days": "Sun", "time": "Closed"}], "id": "0637100013", "name": "USPS COLLECTION BOX - PO LOBBY", "address": {"city": "OLD LYME", "state": "CT", "street": "12 HALLS RD", "postcode": "06371"}}},
{"geometry": {"type": "Point", "coordinates": [-71.9673805338, 41.3545570184]}, "type": "Feature", "properties": {"collection_times": [{"days": "Mon-Fri", "time": "1:15pm"}, {"days": "Sat", "time": "12:30pm"}, {"days": "Sun", "time": "Closed"}], "id": "0637200001", "name": "USPS COLLECTION BOX - BLUE BOX", "address": {"city": "OLD MYSTIC", "state": "CT", "street": "47 MAIN ST", "postcode": "06372"}}},
{"geometry": {"type": "Point", "coordinates": [-71.9673805338, 41.3545570184]}, "type": "Feature", "properties": {"collection_times": [{"days": "Mon-Fri", "time": "4:30pm"}, {"days": "Sat", "time": "12:15pm"}, {"days": "Sun", "time": "Closed"}], "id": "0637200002", "name": "USPS COLLECTION BOX - PO LOBBY", "address": {"city": "OLD MYSTIC", "state": "CT", "street": "47 MAIN ST", "postcode": "06372"}}},
{"geometry": {"type": "Point", "coordinates": [-71.8128374856, 41.6927692075]}, "type": "Feature", "properties": {"collection_times": [{"days": "Mon-Fri", "time": "4:30pm"}, {"days": "Sat", "time": "12:30pm"}, {"days": "Sun", "time": "Closed"}], "id": "0637300001", "name": "USPS COLLECTION BOX - BLUE BOX", "address": {"city": "ONECO", "state": "CT", "street": "1104 PLAINFIELD PIKE", "postcode": "06373"}}},
{"geometry": {"type": "Point", "coordinates": [-71.8128374856, 41.6927692075]}, "type": "Feature", "properties": {"collection_times": [{"days": "Mon-Fri", "time": "4:30pm"}, {"days": "Sat", "time": "12:30pm"}, {"days": "Sun", "time": "Closed"}], "id": "0637300002", "name": "USPS COLLECTION BOX - PO LOBBY", "address": {"city": "ONECO", "state": "CT", "street": "1104 PLAINFIELD PIKE", "postcode": "06373"}}},
{"geometry": {"type": "Point", "coordinates": [-71.9195916456, 41.6799647697]}, "type": "Feature", "properties": {"collection_times": [{"days": "Mon-Fri", "time": "5:15pm"}, {"days": "Sat", "time": "2:00pm"}, {"days": "Sun", "time": "Closed"}], "id": "0637400001", "name": "USPS COLLECTION BOX - BLUE BOX", "address": {"city": "PLAINFIELD", "state": "CT", "street": "42 RAILROAD AVE", "postcode": "06374"}}},
{"geometry": {"type": "Point", "coordinates": [-71.9178952824, 41.6776473531]}, "type": "Feature", "properties": {"collection_times": [{"days": "Mon-Fri", "time": "3:00pm"}, {"days": "Sat", "time": "2:00pm"}, {"days": "Sun", "time": "Closed"}], "id": "0637400002", "name": "USPS COLLECTION BOX - BLUE BOX", "address": {"city": "PLAINFIELD", "state": "CT", "street": "8 COMMUNITY AVE", "postcode": "06374"}}},
{"geometry": {"type": "Point", "coordinates": [-71.92387514, 41.6816315589]}, "type": "Feature", "properties": {"collection_times": [{"days": "Mon-Fri", "time": "2:45pm"}, {"days": "Sat", "time": "2:00pm"}, {"days": "Sun", "time": "Closed"}], "id": "0637400003", "name": "USPS COLLECTION BOX - BLUE BOX", "address": {"city": "PLAINFIELD", "state": "CT", "street": "10 PLEASANT ST", "postcode": "06374"}}},
{"geometry": {"type": "Point", "coordinates": [-71.9049466136, 41.7101408699]}, "type": "Feature", "properties": {"collection_times": [{"days": "Mon-Fri", "time": "3:00pm"}, {"days": "Sat", "time": "2:00pm"}, {"days": "Sun", "time": "Closed"}], "id": "0637400004", "name": "USPS COLLECTION BOX - BLUE BOX", "address": {"city": "PLAINFIELD", "state": "CT", "street": "137 NORWICH RD", "postcode": "06374"}}},
{"geometry": {"type": "Point", "coordinates": [-71.9223846117, 41.6780259]}, "type": "Feature", "properties": {"collection_times": [{"days": "Mon-Sat", "time": "2:00pm"}, {"days": "Sun", "time": "Closed"}], "id": "0637400005", "name": "USPS COLLECTION BOX - BLUE BOX", "address": {"city": "PLAINFIELD", "state": "CT", "street": "29 2ND ST", "postcode": "06374"}}},
{"geometry": {"type": "Point", "coordinates": [-71.9151084546, 41.6740087253]}, "type": "Feature", "properties": {"collection_times": [{"days": "Mon-Fri", "time": "3:00pm"}, {"days": "Sat", "time": "2:00pm"}, {"days": "Sun", "time": "Closed"}], "id": "0637400006", "name": "USPS COLLECTION BOX - BLUE BOX", "address": {"city": "PLAINFIELD", "state": "CT", "street": "1 5TH ST", "postcode": "06374"}}},
{"geometry": {"type": "Point", "coordinates": [-71.9124229142, 41.6629857597]}, "type": "Feature", "properties": {"collection_times": [{"days": "Mon-Fri", "time": "3:00pm"}, {"days": "Sat", "time": "2:00pm"}, {"days": "Sun", "time": "Closed"}], "id": "0637400007", "name": "USPS COLLECTION BOX - BLUE BOX", "address": {"city": "PLAINFIELD", "state": "CT", "street": "83 LATHROP RD", "postcode": "06374"}}},
{"geometry": {"type": "Point", "coordinates": [-71.9195916456, 41.6799647697]}, "type": "Feature", "properties": {"collection_times": [{"days": "Mon-Fri", "time": "5:15pm"}, {"days": "Sat", "time": "3:00pm"}, {"days": "Sun", "time": "Closed"}], "id": "0637400008", "name": "USPS COLLECTION BOX - PO LOBBY", "address": {"city": "PLAINFIELD", "state": "CT", "street": "42 RAILROAD AVE", "postcode": "06374"}}},
{"geometry": {"type": "Point", "coordinates": [-72.1123902977, 41.4034895152]}, "type": "Feature", "properties": {"collection_times": [{"days": "Mon-Fri", "time": "5:00pm"}, {"days": "Sat", "time": "12:00pm"}, {"days": "Sun", "time": "Closed"}], "id": "0637500001", "name": "USPS COLLECTION BOX - BLUE BOX", "address": {"city": "QUAKER HILL", "state": "CT", "street": "132 OLD NORWICH RD", "postcode": "06375"}}},
{"geometry": {"type": "Point", "coordinates": [-72.1123902977, 41.4034895152]}, "type": "Feature", "properties": {"collection_times": [{"days": "Mon-Fri", "time": "5:00pm"}, {"days": "Sat", "time": "12:00pm"}, {"days": "Sun", "time": "Closed"}], "id": "0637500005", "name": "USPS COLLECTION BOX - PO LOBBY", "address": {"city": "QUAKER HILL", "state": "CT", "street": "132 OLD NORWICH RD", "postcode": "06375"}}},
{"geometry": {"type": "Point", "coordinates": [-72.2588156937, 41.2970737386]}, "type": "Feature", "properties": {"collection_times": [{"days": "Mon-Fri", "time": "4:45pm"}, {"days": "Sat", "time": "11:45am"}, {"days": "Sun", "time": "Closed"}], "id": "0637600001", "name": "USPS COLLECTION BOX - BLUE BOX", "address": {"city": "SOUTH LYME", "state": "CT", "street": "389 SHORE RD", "postcode": "06376"}}},
{"geometry": {"type": "Point", "coordinates": [-72.2588156937, 41.2970737386]}, "type": "Feature", "properties": {"collection_times": [{"days": "Mon-Fri", "time": "5:00pm"}, {"days": "Sat", "time": "11:45am"}, {"days": "Sun", "time": "Closed"}], "id": "0637600002", "name": "USPS COLLECTION BOX - PO LOBBY", "address": {"city": "SOUTH LYME", "state": "CT", "street": "389 SHORE RD", "postcode": "06376"}}},
{"geometry": {"type": "Point", "coordinates": [-71.830096068, 41.7073490868]}, "type": "Feature", "properties": {"collection_times": [{"days": "Mon-Fri", "time": "4:30pm"}, {"days": "Sat", "time": "11:30am"}, {"days": "Sun", "time": "Closed"}], "id": "0637700001", "name": "USPS COLLECTION BOX - BLUE BOX", "address": {"city": "STERLING", "state": "CT", "street": "347 STERLING RD", "postcode": "06377"}}},
{"geometry": {"type": "Point", "coordinates": [-71.830096068, 41.7073490868]}, "type": "Feature", "properties": {"collection_times": [{"days": "Mon-Fri", "time": "4:50pm"}, {"days": "Sat", "time": "12:00pm"}, {"days": "Sun", "time": "Closed"}], "id": "0637700002", "name": "USPS COLLECTION BOX - PO LOBBY", "address": {"city": "STERLING", "state": "CT", "street": "347 STERLING RD", "postcode": "06377"}}},
{"geometry": {"type": "Point", "coordinates": [-71.9067955784, 41.336816765]}, "type": "Feature", "properties": {"collection_times": [{"days": "Mon-Fri", "time": "5:00pm"}, {"days": "Sat", "time": "1:30pm"}, {"days": "Sun", "time": "Closed"}], "id": "0637800001", "name": "USPS COLLECTION BOX - BLUE BOX", "address": {"city": "STONINGTON", "state": "CT", "street": "20 BROAD ST", "postcode": "06378"}}},
{"geometry": {"type": "Point", "coordinates": [-71.9001887526, 41.3398841776]}, "type": "Feature", "properties": {"collection_times": [{"days": "Mon-Fri", "time": "12:00pm"}, {"days": "Sat", "time": "11:30am"}, {"days": "Sun", "time": "Closed"}], "id": "0637800003", "name": "USPS COLLECTION BOX - BLUE BOX", "address": {"city": "STONINGTON", "state": "CT", "street": "152 ELM ST", "postcode": "06378"}}},
{"geometry": {"type": "Point", "coordinates": [-71.9116433443, 41.349383338]}, "type": "Feature", "properties": {"collection_times": [{"days": "Mon-Sat", "time": "10:00am"}, {"days": "Sun", "time": "Closed"}], "id": "0637800005", "name": "USPS COLLECTION BOX - BLUE BOX", "address": {"city": "STONINGTON", "state": "CT", "street": "530 STONINGTON RD", "postcode": "06378"}}},
{"geometry": {"type": "Point", "coordinates": [-71.90671227, 41.3341534559]}, "type": "Feature", "properties": {"collection_times": [{"days": "Mon-Fri", "time": "11:00am"}, {"days": "Sat-Sun", "time": "Closed"}], "id": "0637800008", "name": "USPS COLLECTION BOX - BLUE BOX", "address": {"city": "STONINGTON", "state": "CT", "street": "119 WATER ST", "postcode": "06378"}}},
{"geometry": {"type": "Point", "coordinates": [-71.9152995592, 41.3568826936]}, "type": "Feature", "properties": {"collection_times": [{"days": "Mon-Fri", "time": "5:00pm"}, {"days": "Sat", "time": "1:30pm"}, {"days": "Sun", "time": "Closed"}], "id": "0637800010", "name": "USPS COLLECTION BOX - EXPRESS", "address": {"city": "STONINGTON", "state": "CT", "street": "20 BROAD ST", "postcode": "06378"}}},
{"geometry": {"type": "Point", "coordinates": [-71.9067955784, 41.336816765]}, "type": "Feature", "properties": {"collection_times": [{"days": "Mon-Fri", "time": "5:00pm"}, {"days": "Sat", "time": "1:30pm"}, {"days": "Sun", "time": "Closed"}], "id": "0637800012", "name": "USPS COLLECTION BOX - PO LOBBY", "address": {"city": "STONINGTON", "state": "CT", "street": "20 BROAD ST", "postcode": "06378"}}},
{"geometry": {"type": "Point", "coordinates": [-71.8728458391, 41.3636013218]}, "type": "Feature", "properties": {"collection_times": [{"days": "Mon-Fri", "time": "12:30pm"}, {"days": "Sat-Sun", "time": "Closed"}], "id": "0637900009", "name": "USPS COLLECTION BOX - BLUE BOX", "address": {"city": "PAWCATUCK", "state": "CT", "street": "20 S ANGUILLA RD", "postcode": "06379"}}},
{"geometry": {"type": "Point", "coordinates": [-71.8327129081, 41.3776005679]}, "type": "Feature", "properties": {"collection_times": [{"days": "Mon-Sat", "time": "9:00am"}, {"days": "Sun", "time": "Closed"}], "id": "0637900010", "name": "USPS COLLECTION BOX - BLUE BOX", "address": {"city": "PAWCATUCK", "state": "CT", "street": "43 W BROAD ST", "postcode": "06379"}}},
{"geometry": {"type": "Point", "coordinates": [-71.8401594999, 41.3725444916]}, "type": "Feature", "properties": {"collection_times": [{"days": "Mon-Fri", "time": "9:00am"}, {"days": "Sat-Sun", "time": "Closed"}], "id": "0637900011", "name": "USPS COLLECTION BOX - BLUE BOX", "address": {"city": "PAWCATUCK", "state": "CT", "street": "32 COURTLAND ST", "postcode": "06379"}}},
{"geometry": {"type": "Point", "coordinates": [-71.8466101752, 41.374869006]}, "type": "Feature", "properties": {"collection_times": [{"days": "Mon-Sat", "time": "10:00am"}, {"days": "Sun", "time": "Closed"}], "id": "0637900014", "name": "USPS COLLECTION BOX - BLUE BOX", "address": {"city": "PAWCATUCK", "state": "CT", "street": "37 S BROAD ST", "postcode": "06379"}}},
{"geometry": {"type": "Point", "coordinates": [-72.7383038826, 41.5735001734]}, "type": "Feature", "properties": {"collection_times": [{"days": "Mon-Fri", "time": "10:00am"}, {"days": "Sat-Sun", "time": "Closed"}], "id": "0637900016", "name": "USPS COLLECTION BOX - BLUE BOX", "address": {"city": "PAWCATUCK", "state": "CT", "street": "116 W BROAD ST", "postcode": "06379"}}},
{"geometry": {"type": "Point", "coordinates": [-71.8504334985, 41.3735937762]}, "type": "Feature", "properties": {"collection_times": [{"days": "Mon-Fri", "time": "5:00pm"}, {"days": "Sat", "time": "12:00pm"}, {"days": "Sun", "time": "Closed"}], "id": "0637900019", "name": "USPS COLLECTION BOX - BLUE BOX", "address": {"city": "PAWCATUCK", "state": "CT", "street": "66 S BROAD ST", "postcode": "06379"}}},
{"geometry": {"type": "Point", "coordinates": [-71.8474957483, 41.374571211]}, "type": "Feature", "properties": {"collection_times": [{"days": "Mon-Fri", "time": "5:00pm"}, {"days": "Sat", "time": "12:00pm"}, {"days": "Sun", "time": "Closed"}], "id": "0637900020", "name": "USPS COLLECTION BOX - EXPRESS", "address": {"city": "PAWCATUCK", "state": "CT", "street": "66 S BROAD ST", "postcode": "06379"}}},
{"geometry": {"type": "Point", "coordinates": [-71.8388475984, 41.3809435003]}, "type": "Feature", "properties": {"collection_times": [{"days": "Mon-Fri", "time": "10:00am"}, {"days": "Sat-Sun", "time": "Closed"}], "id": "0637900021", "name": "USPS COLLECTION BOX - BLUE BOX", "address": {"city": "PAWCATUCK", "state": "CT", "street": "77 LIBERTY ST", "postcode": "06379"}}},
{"geometry": {"type": "Point", "coordinates": [-71.8504334985, 41.3735937762]}, "type": "Feature", "properties": {"collection_times": [{"days": "Mon-Fri", "time": "5:00pm"}, {"days": "Sat", "time": "3:15pm"}, {"days": "Sun", "time": "Closed"}], "id": "0637900023", "name": "USPS COLLECTION BOX - PO LOBBY", "address": {"city": "PAWCATUCK", "state": "CT", "street": "66 S BROAD ST", "postcode": "06379"}}},
{"geometry": {"type": "Point", "coordinates": [-72.05348458, 41.5675697524]}, "type": "Feature", "properties": {"collection_times": [{"days": "Mon-Fri", "time": "5:00pm"}, {"days": "Sat", "time": "2:00pm"}, {"days": "Sun", "time": "Closed"}], "id": "0638000001", "name": "USPS COLLECTION BOX - BLUE BOX", "address": {"city": "TAFTVILLE", "state": "CT", "street": "72 S B ST", "postcode": "06380"}}},
{"geometry": {"type": "Point", "coordinates": [-72.0489312609, 41.5698641603]}, "type": "Feature", "properties": {"collection_times": [{"days": "Mon-Sat", "time": "2:30pm"}, {"days": "Sun", "time": "Closed"}], "id": "0638000003", "name": "USPS COLLECTION BOX - BLUE BOX", "address": {"city": "TAFTVILLE", "state": "CT", "street": "1 N 2ND AVE", "postcode": "06380"}}},
{"geometry": {"type": "Point", "coordinates": [-72.05348458, 41.5675697524]}, "type": "Feature", "properties": {"collection_times": [{"days": "Mon-Fri", "time": "5:00pm"}, {"days": "Sat", "time": "2:00pm"}, {"days": "Sun", "time": "Closed"}], "id": "0638000004", "name": "USPS COLLECTION BOX - PO LOBBY", "address": {"city": "TAFTVILLE", "state": "CT", "street": "72 S B ST", "postcode": "06380"}}},
{"geometry": {"type": "Point", "coordinates": [-72.102877771, 41.4685097211]}, "type": "Feature", "properties": {"collection_times": [{"days": "Mon-Fri", "time": "4:45pm"}, {"days": "Sat", "time": "3:00pm"}, {"days": "Sun", "time": "Closed"}], "id": "0638200001", "name": "USPS COLLECTION BOX - BLUE BOX", "address": {"city": "UNCASVILLE", "state": "CT", "street": "1587 NORWICH NEW LONDON TPKE", "postcode": "06382"}}},
{"geometry": {"type": "Point", "coordinates": [-72.125434931, 41.441109476]}, "type": "Feature", "properties": {"collection_times": [{"days": "Mon-Sat", "time": "9:30am"}, {"days": "Sun", "time": "Closed"}], "id": "0638200003", "name": "USPS COLLECTION BOX - BLUE BOX", "address": {"city": "UNCASVILLE", "state": "CT", "street": "40 MILEFSKI DR", "postcode": "06382"}}},
{"geometry": {"type": "Point", "coordinates": [-72.1107683218, 41.4657120923]}, "type": "Feature", "properties": {"collection_times": [{"days": "Mon-Fri", "time": "1:30pm"}, {"days": "Sat", "time": "1:00pm"}, {"days": "Sun", "time": "Closed"}], "id": "0638200004", "name": "USPS COLLECTION BOX - BLUE BOX", "address": {"city": "UNCASVILLE", "state": "CT", "street": "907 NORWICH NEW LONDON TPKE", "postcode": "06382"}}},
{"geometry": {"type": "Point", "coordinates": [-72.109783308, 41.435346436]}, "type": "Feature", "properties": {"collection_times": [{"days": "Mon-Sat", "time": "11:00am"}, {"days": "Sun", "time": "Closed"}], "id": "0638200006", "name": "USPS COLLECTION BOX - BLUE BOX", "address": {"city": "UNCASVILLE", "state": "CT", "street": "311 NORWICH NEW LONDON TPKE", "postcode": "06382"}}},
{"geometry": {"type": "Point", "coordinates": [-72.1107683218, 41.4657120923]}, "type": "Feature", "properties": {"collection_times": [{"days": "Mon-Fri", "time": "12:00pm"}, {"days": "Sat", "time": "11:00am"}, {"days": "Sun", "time": "Closed"}], "id": "0638200007", "name": "USPS COLLECTION BOX - BLUE BOX", "address": {"city": "UNCASVILLE", "state": "CT", "street": "601 NORWICH NEW LONDON TPKE", "postcode": "06382"}}},
{"geometry": {"type": "Point", "coordinates": [-72.1115117292, 41.4688321628]}, "type": "Feature", "properties": {"collection_times": [{"days": "Mon-Sat", "time": "10:00am"}, {"days": "Sun", "time": "Closed"}], "id": "0638200009", "name": "USPS COLLECTION BOX - BLUE BOX", "address": {"city": "UNCASVILLE", "state": "CT", "street": "24 ALLEN DR", "postcode": "06382"}}},
{"geometry": {"type": "Point", "coordinates": [-72.1174256594, 41.498964847]}, "type": "Feature", "properties": {"collection_times": [{"days": "Mon-Sat", "time": "10:30am"}, {"days": "Sun", "time": "Closed"}], "id": "0638200011", "name": "USPS COLLECTION BOX - BLUE BOX", "address": {"city": "UNCASVILLE", "state": "CT", "street": "91 LEFFINGWELL RD", "postcode": "06382"}}},
{"geometry": {"type": "Point", "coordinates": [-72.0883194487, 41.4754820319]}, "type": "Feature", "properties": {"collection_times": [{"days": "Mon-Fri", "time": "2:00pm"}, {"days": "Sat", "time": "1:30pm"}, {"days": "Sun", "time": "Closed"}], "id": "0638200012", "name": "USPS COLLECTION BOX - BLUE BOX", "address": {"city": "UNCASVILLE", "state": "CT", "street": "3 PARK AVENUE EXT", "postcode": "06382"}}},
{"geometry": {"type": "Point", "coordinates": [-72.102877771, 41.4685097211]}, "type": "Feature", "properties": {"collection_times": [{"days": "Mon-Fri", "time": "4:45pm"}, {"days": "Sat", "time": "3:00pm"}, {"days": "Sun", "time": "Closed"}], "id": "0638200013", "name": "USPS COLLECTION BOX - PO LOBBY", "address": {"city": "UNCASVILLE", "state": "CT", "street": "1587 NORWICH NEW LONDON TPKE", "postcode": "06382"}}},
{"geometry": {"type": "Point", "coordinates": [-72.0443316709, 41.5992872368]}, "type": "Feature", "properties": {"collection_times": [{"days": "Mon-Fri", "time": "4:30pm"}, {"days": "Sat", "time": "11:30am"}, {"days": "Sun", "time": "Closed"}], "id": "0638300001", "name": "USPS COLLECTION BOX - BLUE BOX", "address": {"city": "VERSAILLES", "state": "CT", "street": "35 MAIN ST", "postcode": "06383"}}},
{"geometry": {"type": "Point", "coordinates": [-72.0443316709, 41.5992872368]}, "type": "Feature", "properties": {"collection_times": [{"days": "Mon-Fri", "time": "12:00pm"}, {"days": "Sat", "time": "11:30am"}, {"days": "Sun", "time": "Closed"}], "id": "0638300002", "name": "USPS COLLECTION BOX - PO LOBBY", "address": {"city": "VERSAILLES", "state": "CT", "street": "35 MAIN ST", "postcode": "06383"}}},
{"geometry": {"type": "Point", "coordinates": [-71.8669445954, 41.5726840815]}, "type": "Feature", "properties": {"collection_times": [{"days": "Mon-Fri", "time": "5:00pm"}, {"days": "Sat", "time": "12:00pm"}, {"days": "Sun", "time": "Closed"}], "id": "0638400002", "name": "USPS COLLECTION BOX - PO LOBBY", "address": {"city": "VOLUNTOWN", "state": "CT", "street": "42 CHURCH ST", "postcode": "06384"}}},
{"geometry": {"type": "Point", "coordinates": [-71.8669445954, 41.5726840815]}, "type": "Feature", "properties": {"collection_times": [{"days": "Mon-Fri", "time": "4:45pm"}, {"days": "Sat", "time": "11:45am"}, {"days": "Sun", "time": "Closed"}], "id": "0638400004", "name": "USPS COLLECTION BOX - BLUE BOX", "address": {"city": "VOLUNTOWN", "state": "CT", "street": "42 CHURCH ST", "postcode": "06384"}}},
{"geometry": {"type": "Point", "coordinates": [-72.1382639762, 41.345782411]}, "type": "Feature", "properties": {"collection_times": [{"days": "Mon-Fri", "time": "5:00pm"}, {"days": "Sat", "time": "3:00pm"}, {"days": "Sun", "time": "Closed"}], "id": "0638500002", "name": "USPS COLLECTION BOX - BLUE BOX", "address": {"city": "WATERFORD", "state": "CT", "street": "222 BOSTON POST RD", "postcode": "06385"}}},
{"geometry": {"type": "Point", "coordinates": [-72.1382639762, 41.345782411]}, "type": "Feature", "properties": {"collection_times": [{"days": "Mon-Fri", "time": "5:00pm"}, {"days": "Sat", "time": "3:00pm"}, {"days": "Sun", "time": "Closed"}], "id": "0638500003", "name": "USPS COLLECTION BOX - BLUE BOX", "address": {"city": "WATERFORD", "state": "CT", "street": "222 BOSTON POST RD", "postcode": "06385"}}},
{"geometry": {"type": "Point", "coordinates": [-72.1462583265, 41.3483925529]}, "type": "Feature", "properties": {"collection_times": [{"days": "Mon-Fri", "time": "5:00pm"}, {"days": "Sat", "time": "3:00pm"}, {"days": "Sun", "time": "Closed"}], "id": "0638500004", "name": "USPS COLLECTION BOX - EXPRESS", "address": {"city": "WATERFORD", "state": "CT", "street": "222 BOSTON POST RD", "postcode": "06385"}}},
{"geometry": {"type": "Point", "coordinates": [-72.1462583262, 41.3483925987]}, "type": "Feature", "properties": {"collection_times": [{"days": "Mon-Fri", "time": "9:30am"}, {"days": "Sat", "time": "12:30pm"}, {"days": "Sun", "time": "Closed"}], "id": "0638500008", "name": "USPS COLLECTION BOX - BLUE BOX", "address": {"city": "WATERFORD", "state": "CT", "street": "46 BOSTON POST RD", "postcode": "06385"}}},
{"geometry": {"type": "Point", "coordinates": [-72.1248090009, 41.342121153]}, "type": "Feature", "properties": {"collection_times": [{"days": "Mon-Fri", "time": "1:30pm"}, {"days": "Sat", "time": "9:30am"}, {"days": "Sun", "time": "Closed"}], "id": "0638500009", "name": "USPS COLLECTION BOX - BLUE BOX", "address": {"city": "WATERFORD", "state": "CT", "street": "117 BOSTON POST RD", "postcode": "06385"}}},
{"geometry": {"type": "Point", "coordinates": [-72.1278417488, 41.3457328567]}, "type": "Feature", "properties": {"collection_times": [{"days": "Mon-Fri", "time": "9:45am"}, {"days": "Sat", "time": "9:30am"}, {"days": "Sun", "time": "Closed"}], "id": "0638500010", "name": "USPS COLLECTION BOX - BLUE BOX", "address": {"city": "WATERFORD", "state": "CT", "street": "7 MONROE ST", "postcode": "06385"}}},
{"geometry": {"type": "Point", "coordinates": [-72.1368089366, 41.3411830665]}, "type": "Feature", "properties": {"collection_times": [{"days": "Mon-Sat", "time": "9:30am"}, {"days": "Sun", "time": "Closed"}], "id": "0638500012", "name": "USPS COLLECTION BOX - BLUE BOX", "address": {"city": "WATERFORD", "state": "CT", "street": "54 ROPE FERRY RD", "postcode": "06385"}}},
{"geometry": {"type": "Point", "coordinates": [-72.170960962, 41.3570595588]}, "type": "Feature", "properties": {"collection_times": [{"days": "Mon-Sat", "time": "9:45am"}, {"days": "Sun", "time": "Closed"}], "id": "0638500017", "name": "USPS COLLECTION BOX - BLUE BOX", "address": {"city": "WATERFORD", "state": "CT", "street": "428 BOSTON POST RD", "postcode": "06385"}}},
{"geometry": {"type": "Point", "coordinates": [-72.1391748546, 41.3735050543]}, "type": "Feature", "properties": {"collection_times": [{"days": "Mon-Fri", "time": "1:15pm"}, {"days": "Sat", "time": "10:15am"}, {"days": "Sun", "time": "Closed"}], "id": "0638500018", "name": "USPS COLLECTION BOX - BLUE BOX", "address": {"city": "WATERFORD", "state": "CT", "street": "850 HARTFORD TPKE", "postcode": "06385"}}},
{"geometry": {"type": "Point", "coordinates": [-72.1567853838, 41.3587852746]}, "type": "Feature", "properties": {"collection_times": [{"days": "Mon-Fri", "time": "1:15pm"}, {"days": "Sat", "time": "10:15am"}, {"days": "Sun", "time": "Closed"}], "id": "0638500021", "name": "USPS COLLECTION BOX - BLUE BOX", "address": {"city": "WATERFORD", "state": "CT", "street": "567 VAUXHALL", "postcode": "06385"}}},
{"geometry": {"type": "Point", "coordinates": [-72.1330411553, 41.3440882384]}, "type": "Feature", "properties": {"collection_times": [{"days": "Mon-Fri", "time": "1:30pm"}, {"days": "Sat", "time": "9:30am"}, {"days": "Sun", "time": "Closed"}], "id": "0638500025", "name": "USPS COLLECTION BOX - BLUE BOX", "address": {"city": "WATERFORD", "state": "CT", "street": "180 BOSTON POST RD", "postcode": "06385"}}},
{"geometry": {"type": "Point", "coordinates": [-72.1568421087, 41.3473571557]}, "type": "Feature", "properties": {"collection_times": [{"days": "Mon-Sat", "time": "9:45am"}, {"days": "Sun", "time": "Closed"}], "id": "0638500027", "name": "USPS COLLECTION BOX - BLUE BOX", "address": {"city": "WATERFORD", "state": "CT", "street": "1 STONEHEIGHTS DR", "postcode": "06385"}}},
{"geometry": {"type": "Point", "coordinates": [-72.1382639762, 41.345782411]}, "type": "Feature", "properties": {"collection_times": [{"days": "Mon-Fri", "time": "5:00pm"}, {"days": "Sat", "time": "3:00pm"}, {"days": "Sun", "time": "Closed"}], "id": "0638500032", "name": "USPS COLLECTION BOX - BLUE BOX", "address": {"city": "WATERFORD", "state": "CT", "street": "222 BOSTON POST RD", "postcode": "06385"}}},
{"geometry": {"type": "Point", "coordinates": [-72.1382639762, 41.345782411]}, "type": "Feature", "properties": {"collection_times": [{"days": "Mon-Fri", "time": "5:30pm"}, {"days": "Sat", "time": "3:00pm"}, {"days": "Sun", "time": "Closed"}], "id": "0638500033", "name": "USPS COLLECTION BOX - PO LOBBY", "address": {"city": "WATERFORD", "state": "CT", "street": "222 BOSTON POST RD", "postcode": "06385"}}},
{"geometry": {"type": "Point", "coordinates": [-72.1567853838, 41.3587852746]}, "type": "Feature", "properties": {"collection_times": [{"days": "Mon-Fri", "time": "1:15pm"}, {"days": "Sat", "time": "10:15am"}, {"days": "Sun", "time": "Closed"}], "id": "0638500036", "name": "USPS COLLECTION BOX - BLUE BOX", "address": {"city": "WATERFORD", "state": "CT", "street": "567 VAUXHALL", "postcode": "06385"}}},
{"geometry": {"type": "Point", "coordinates": [-72.7383038826, 41.5735001734]}, "type": "Feature", "properties": {"collection_times": [{"days": "Mon-Fri", "time": "4:30pm"}, {"days": "Sat", "time": "11:30am"}, {"days": "Sun", "time": "Closed"}], "id": "0638700000", "name": "USPS COLLECTION BOX - BLUE BOX", "address": {"city": "WAUREGAN", "state": "CT", "street": "60 WAUREGAN RD", "postcode": "06387"}}},
{"geometry": {"type": "Point", "coordinates": [-72.7383038826, 41.5735001734]}, "type": "Feature", "properties": {"collection_times": [{"days": "Mon-Sat", "time": "12:00pm"}, {"days": "Sun", "time": "Closed"}], "id": "0638700001", "name": "USPS COLLECTION BOX - PO LOBBY", "address": {"city": "WAUREGAN", "state": "CT", "street": "60 WAUREGAN RD", "postcode": "06387"}}},
{"geometry": {"type": "Point", "coordinates": [-71.9769080481, 41.3465525803]}, "type": "Feature", "properties": {"collection_times": [{"days": "Mon-Fri", "time": "3:15pm"}, {"days": "Sat", "time": "1:30pm"}, {"days": "Sun", "time": "Closed"}], "id": "0638800000", "name": "USPS COLLECTION BOX - BLUE BOX", "address": {"city": "MYSTIC", "state": "CT", "street": "49 W MYSTIC AVE", "postcode": "06388"}}},
{"geometry": {"type": "Point", "coordinates": [-72.1250734623, 41.5630089123]}, "type": "Feature", "properties": {"collection_times": [{"days": "Mon-Fri", "time": "4:30pm"}, {"days": "Sat", "time": "11:30am"}, {"days": "Sun", "time": "Closed"}], "id": "0638900000", "name": "USPS COLLECTION BOX - BLUE BOX", "address": {"city": "YANTIC", "state": "CT", "street": "131 YANTIC RD", "postcode": "06389"}}}
]}
