{"type": "FeatureCollection", "features": [
{"geometry": {"type": "Point", "coordinates": [-73.0746165466, 41.3432828264]}, "type": "Feature", "properties": {"collection_times": [{"days": "Mon-Fri", "time": "3:45pm"}, {"days": "Sat", "time": "2:30pm"}, {"days": "Sun", "time": "Closed"}], "id": "0640100001", "name": "USPS COLLECTION BOX - EXPRESS", "address": {"city": "ANSONIA", "state": "CT", "street": "237 MAIN ST", "postcode": "06401"}}},
{"geometry": {"type": "Point", "coordinates": [-73.0787790502, 41.3432461469]}, "type": "Feature", "properties": {"collection_times": [{"days": "Mon-Fri", "time": "5:00pm"}, {"days": "Sat", "time": "2:30pm"}, {"days": "Sun", "time": "Closed"}], "id": "0640100002", "name": "USPS COLLECTION BOX - BLUE BOX", "address": {"city": "ANSONIA", "state": "CT", "street": "237 MAIN ST", "postcode": "06401"}}},
{"geometry": {"type": "Point", "coordinates": [-73.0782842265, 41.3417612576]}, "type": "Feature", "properties": {"collection_times": [{"days": "Mon-Sat", "time": "10:00am"}, {"days": "Sun", "time": "Closed"}], "id": "0640100004", "name": "USPS COLLECTION BOX - BLUE BOX", "address": {"city": "ANSONIA", "state": "CT", "street": "314 MAIN ST", "postcode": "06401"}}},
{"geometry": {"type": "Point", "coordinates": [-73.0732558148, 41.3406329906]}, "type": "Feature", "properties": {"collection_times": [{"days": "Mon-Sat", "time": "9:30am"}, {"days": "Sun", "time": "Closed"}], "id": "0640100006", "name": "USPS COLLECTION BOX - BLUE BOX", "address": {"city": "ANSONIA", "state": "CT", "street": "12 BEAVER ST", "postcode": "06401"}}},
{"geometry": {"type": "Point", "coordinates": [-73.090806194, 41.3456156137]}, "type": "Feature", "properties": {"collection_times": [{"days": "Mon-Sat", "time": "9:30am"}, {"days": "Sun", "time": "Closed"}], "id": "0640100020", "name": "USPS COLLECTION BOX - BLUE BOX", "address": {"city": "ANSONIA", "state": "CT", "street": "198 WAKELEE AVE", "postcode": "06401"}}},
{"geometry": {"type": "Point", "coordinates": [-73.0777792085, 41.3403089456]}, "type": "Feature", "properties": {"collection_times": [{"days": "Mon-Sat", "time": "9:30am"}, {"days": "Sun", "time": "Closed"}], "id": "0640100021", "name": "USPS COLLECTION BOX - BLUE BOX", "address": {"city": "ANSONIA", "state": "CT", "street": "403 MAIN ST", "postcode": "06401"}}},
{"geometry": {"type": "Point", "coordinates": [-73.0904252812, 41.3410943446]}, "type": "Feature", "properties": {"collection_times": [{"days": "Mon-Sat", "time": "9:30am"}, {"days": "Sun", "time": "Closed"}], "id": "0640100022", "name": "USPS COLLECTION BOX - BLUE BOX", "address": {"city": "ANSONIA", "state": "CT", "street": "149 WAKELEE AVE", "postcode": "06401"}}},
{"geometry": {"type": "Point", "coordinates": [-73.0823732382, 41.3321393979]}, "type": "Feature", "properties": {"collection_times": [{"days": "Mon-Sat", "time": "9:30am"}, {"days": "Sun", "time": "Closed"}], "id": "0640100025", "name": "USPS COLLECTION BOX - BLUE BOX", "address": {"city": "ANSONIA", "state": "CT", "street": "100 DIVISION ST", "postcode": "06401"}}},
{"geometry": {"type": "Point", "coordinates": [-73.0787790502, 41.3432461469]}, "type": "Feature", "properties": {"collection_times": [{"days": "Mon-Fri", "time": "5:00pm"}, {"days": "Sat", "time": "2:30pm"}, {"days": "Sun", "time": "Closed"}], "id": "0640100032", "name": "USPS COLLECTION BOX - PO LOBBY", "address": {"city": "ANSONIA", "state": "CT", "street": "237 MAIN ST", "postcode": "06401"}}},
{"geometry": {"type": "Point", "coordinates": [-73.0645262753, 41.4446898135]}, "type": "Feature", "properties": {"collection_times": [{"days": "Mon-Fri", "time": "5:15pm"}, {"days": "Sat", "time": "3:00pm"}, {"days": "Sun", "time": "Closed"}], "id": "0640300001", "name": "USPS COLLECTION BOX - BLUE BOX", "address": {"city": "BEACON FALLS", "state": "CT", "street": "101 N MAIN ST", "postcode": "06403"}}},
{"geometry": {"type": "Point", "coordinates": [-73.059595863, 41.4363702708]}, "type": "Feature", "properties": {"collection_times": [{"days": "Mon-Sat", "time": "2:00pm"}, {"days": "Sun", "time": "Closed"}], "id": "0640300002", "name": "USPS COLLECTION BOX - BLUE BOX", "address": {"city": "BEACON FALLS", "state": "CT", "street": "126 BEACON VALLEY RD", "postcode": "06403"}}},
{"geometry": {"type": "Point", "coordinates": [-73.0604567938, 41.4454148162]}, "type": "Feature", "properties": {"collection_times": [{"days": "Mon-Sat", "time": "11:00am"}, {"days": "Sun", "time": "Closed"}], "id": "0640300003", "name": "USPS COLLECTION BOX - BLUE BOX", "address": {"city": "BEACON FALLS", "state": "CT", "street": "10 MAPLE AVE", "postcode": "06403"}}},
{"geometry": {"type": "Point", "coordinates": [-73.0563229151, 41.4385568845]}, "type": "Feature", "properties": {"collection_times": [{"days": "Mon-Sat", "time": "1:00pm"}, {"days": "Sun", "time": "Closed"}], "id": "0640300005", "name": "USPS COLLECTION BOX - BLUE BOX", "address": {"city": "BEACON FALLS", "state": "CT", "street": "99 FELDSPAR AVE", "postcode": "06403"}}},
{"geometry": {"type": "Point", "coordinates": [-73.081804774, 41.4275300389]}, "type": "Feature", "properties": {"collection_times": [{"days": "Mon-Sat", "time": "2:30pm"}, {"days": "Sun", "time": "Closed"}], "id": "0640300006", "name": "USPS COLLECTION BOX - BLUE BOX", "address": {"city": "BEACON FALLS", "state": "CT", "street": "157 PINES BRIDGE RD", "postcode": "06403"}}},
{"geometry": {"type": "Point", "coordinates": [-73.0595961646, 41.4380061767]}, "type": "Feature", "properties": {"collection_times": [{"days": "Mon-Sat", "time": "2:30pm"}, {"days": "Sun", "time": "Closed"}], "id": "0640300007", "name": "USPS COLLECTION BOX - BLUE BOX", "address": {"city": "BEACON FALLS", "state": "CT", "street": "127 S MAIN ST", "postcode": "06403"}}},
{"geometry": {"type": "Point", "coordinates": [-73.0645262753, 41.4446898135]}, "type": "Feature", "properties": {"collection_times": [{"days": "Mon-Fri", "time": "5:15pm"}, {"days": "Sat", "time": "3:00pm"}, {"days": "Sun", "time": "Closed"}], "id": "0640300010", "name": "USPS COLLECTION BOX - PO LOBBY", "address": {"city": "BEACON FALLS", "state": "CT", "street": "101 N MAIN ST", "postcode": "06403"}}},
{"geometry": {"type": "Point", "coordinates": [-73.2662010985, 41.3601009215]}, "type": "Feature", "properties": {"collection_times": [{"days": "Mon-Fri", "time": "5:00pm"}, {"days": "Sat", "time": "12:00pm"}, {"days": "Sun", "time": "Closed"}], "id": "0640400000", "name": "USPS COLLECTION BOX - BLUE BOX", "address": {"city": "BOTSFORD", "state": "CT", "street": "1 BOTSFORD HILL RD", "postcode": "06404"}}},
{"geometry": {"type": "Point", "coordinates": [-73.2662010985, 41.3601009215]}, "type": "Feature", "properties": {"collection_times": [{"days": "Mon-Fri", "time": "5:00pm"}, {"days": "Sat", "time": "12:15pm"}, {"days": "Sun", "time": "Closed"}], "id": "0640400001", "name": "USPS COLLECTION BOX - PO LOBBY", "address": {"city": "BOTSFORD", "state": "CT", "street": "1 BOTSFORD HILL RD", "postcode": "06404"}}},
{"geometry": {"type": "Point", "coordinates": [-72.8122982731, 41.2826004974]}, "type": "Feature", "properties": {"collection_times": [{"days": "Mon-Fri", "time": "5:30pm"}, {"days": "Sat", "time": "3:30pm"}, {"days": "Sun", "time": "Closed"}], "id": "0640500001", "name": "USPS COLLECTION BOX - BLUE BOX", "address": {"city": "BRANFORD", "state": "CT", "street": "35 PARK PL", "postcode": "06405"}}},
{"geometry": {"type": "Point", "coordinates": [-72.8125091826, 41.2827165026]}, "type": "Feature", "properties": {"collection_times": [{"days": "Mon-Fri", "time": "5:30pm"}, {"days": "Sat", "time": "3:30pm"}, {"days": "Sun", "time": "Closed"}], "id": "0640500003", "name": "USPS COLLECTION BOX - BLUE BOX", "address": {"city": "BRANFORD", "state": "CT", "street": "35 PARK PL", "postcode": "06405"}}},
{"geometry": {"type": "Point", "coordinates": [-72.8098188765, 41.2788333599]}, "type": "Feature", "properties": {"collection_times": [{"days": "Mon-Fri", "time": "4:00pm"}, {"days": "Sat", "time": "12:00pm"}, {"days": "Sun", "time": "Closed"}], "id": "0640500005", "name": "USPS COLLECTION BOX - BLUE BOX", "address": {"city": "BRANFORD", "state": "CT", "street": "5 COURT ST", "postcode": "06405"}}},
{"geometry": {"type": "Point", "coordinates": [-72.8122982731, 41.2826004974]}, "type": "Feature", "properties": {"collection_times": [{"days": "Mon-Fri", "time": "4:00pm"}, {"days": "Sat", "time": "1:00pm"}, {"days": "Sun", "time": "Closed"}], "id": "0640500006", "name": "USPS COLLECTION BOX - BLUE BOX", "address": {"city": "BRANFORD", "state": "CT", "street": "202 THIMBLE ISLAND RD", "postcode": "06405"}}},
{"geometry": {"type": "Point", "coordinates": [-72.8407573445, 41.2595289886]}, "type": "Feature", "properties": {"collection_times": [{"days": "Mon-Fri", "time": "1:30pm"}, {"days": "Sat", "time": "11:30am"}, {"days": "Sun", "time": "Closed"}], "id": "0640500007", "name": "USPS COLLECTION BOX - BLUE BOX", "address": {"city": "BRANFORD", "state": "CT", "street": "328 SHORE DR", "postcode": "06405"}}},
{"geometry": {"type": "Point", "coordinates": [-72.8098188765, 41.2788333599]}, "type": "Feature", "properties": {"collection_times": [{"days": "Mon-Sat", "time": "12:00pm"}, {"days": "Sun", "time": "Closed"}], "id": "0640500008", "name": "USPS COLLECTION BOX - BLUE BOX", "address": {"city": "BRANFORD", "state": "CT", "street": "1075 W MAIN ST", "postcode": "06405"}}},
{"geometry": {"type": "Point", "coordinates": [-72.8098188765, 41.2788333599]}, "type": "Feature", "properties": {"collection_times": [{"days": "Mon-Fri", "time": "3:00pm"}, {"days": "Sat", "time": "3:30pm"}, {"days": "Sun", "time": "Closed"}], "id": "0640500009", "name": "USPS COLLECTION BOX - EXPRESS", "address": {"city": "BRANFORD", "state": "CT", "street": "35 PARK PL", "postcode": "06405"}}},
{"geometry": {"type": "Point", "coordinates": [-72.8448232631, 41.2744738754]}, "type": "Feature", "properties": {"collection_times": [{"days": "Mon-Fri", "time": "2:00pm"}, {"days": "Sat", "time": "11:00am"}, {"days": "Sun", "time": "Closed"}], "id": "0640500012", "name": "USPS COLLECTION BOX - BLUE BOX", "address": {"city": "BRANFORD", "state": "CT", "street": "205 FLORENCE RD", "postcode": "06405"}}},
{"geometry": {"type": "Point", "coordinates": [-72.8193928209, 41.2715907736]}, "type": "Feature", "properties": {"collection_times": [{"days": "Mon-Fri", "time": "2:15pm"}, {"days": "Sat", "time": "12:15pm"}, {"days": "Sun", "time": "Closed"}], "id": "0640500013", "name": "USPS COLLECTION BOX - BLUE BOX", "address": {"city": "BRANFORD", "state": "CT", "street": "312 HARBOR ST", "postcode": "06405"}}},
{"geometry": {"type": "Point", "coordinates": [-72.8154228146, 41.2793738466]}, "type": "Feature", "properties": {"collection_times": [{"days": "Mon-Fri", "time": "12:15pm"}, {"days": "Sat", "time": "10:00am"}, {"days": "Sun", "time": "Closed"}], "id": "0640500014", "name": "USPS COLLECTION BOX - BLUE BOX", "address": {"city": "BRANFORD", "state": "CT", "street": "731 MAIN ST", "postcode": "06405"}}},
{"geometry": {"type": "Point", "coordinates": [-72.8110747416, 41.2820319794]}, "type": "Feature", "properties": {"collection_times": [{"days": "Mon-Fri", "time": "12:15pm"}, {"days": "Sat", "time": "10:00am"}, {"days": "Sun", "time": "Closed"}], "id": "0640500015", "name": "USPS COLLECTION BOX - BLUE BOX", "address": {"city": "BRANFORD", "state": "CT", "street": "1024 MAIN ST", "postcode": "06405"}}},
{"geometry": {"type": "Point", "coordinates": [-72.8098188764, 41.2788334055]}, "type": "Feature", "properties": {"collection_times": [{"days": "Mon-Fri", "time": "12:30pm"}, {"days": "Sat", "time": "10:15am"}, {"days": "Sun", "time": "Closed"}], "id": "0640500016", "name": "USPS COLLECTION BOX - BLUE BOX", "address": {"city": "BRANFORD", "state": "CT", "street": "960 MAIN ST", "postcode": "06405"}}},
{"geometry": {"type": "Point", "coordinates": [-72.8053451832, 41.2904329439]}, "type": "Feature", "properties": {"collection_times": [{"days": "Mon-Fri", "time": "12:30pm"}, {"days": "Sat", "time": "10:30am"}, {"days": "Sun", "time": "Closed"}], "id": "0640500019", "name": "USPS COLLECTION BOX - BLUE BOX", "address": {"city": "BRANFORD", "state": "CT", "street": "244 MAIN ST", "postcode": "06405"}}},
{"geometry": {"type": "Point", "coordinates": [-72.8272164179, 41.2773516331]}, "type": "Feature", "properties": {"collection_times": [{"days": "Mon-Fri", "time": "3:30pm"}, {"days": "Sat-Sun", "time": "Closed"}], "id": "0640500021", "name": "USPS COLLECTION BOX - BLUE BOX", "address": {"city": "BRANFORD", "state": "CT", "street": "1019 MAIN ST", "postcode": "06405"}}},
{"geometry": {"type": "Point", "coordinates": [-72.8481955057, 41.2792823727]}, "type": "Feature", "properties": {"collection_times": [{"days": "Mon-Fri", "time": "2:00pm"}, {"days": "Sat", "time": "11:00am"}, {"days": "Sun", "time": "Closed"}], "id": "0640500023", "name": "USPS COLLECTION BOX - BLUE BOX", "address": {"city": "BRANFORD", "state": "CT", "street": "1 SUMMIT SMT", "postcode": "06405"}}},
{"geometry": {"type": "Point", "coordinates": [-72.7603406923, 41.2974407929]}, "type": "Feature", "properties": {"collection_times": [{"days": "Mon-Sat", "time": "2:30pm"}, {"days": "Sun", "time": "Closed"}], "id": "0640500024", "name": "USPS COLLECTION BOX - BLUE BOX", "address": {"city": "BRANFORD", "state": "CT", "street": "3 E INDUSTRIAL RD", "postcode": "06405"}}},
{"geometry": {"type": "Point", "coordinates": [-72.8074875218, 41.2793438866]}, "type": "Feature", "properties": {"collection_times": [{"days": "Mon-Fri", "time": "2:30pm"}, {"days": "Sat", "time": "10:00am"}, {"days": "Sun", "time": "Closed"}], "id": "0640500030", "name": "USPS COLLECTION BOX - BLUE BOX", "address": {"city": "BRANFORD", "state": "CT", "street": "123 MONTOWESE ST", "postcode": "06405"}}},
{"geometry": {"type": "Point", "coordinates": [-72.7647460315, 41.29763953]}, "type": "Feature", "properties": {"collection_times": [{"days": "Mon-Fri", "time": "4:45pm"}, {"days": "Sat", "time": "2:30pm"}, {"days": "Sun", "time": "Closed"}], "id": "0640500031", "name": "USPS COLLECTION BOX - BLUE BOX", "address": {"city": "BRANFORD", "state": "CT", "street": "22 LEETES ISLAND RD", "postcode": "06405"}}},
{"geometry": {"type": "Point", "coordinates": [-72.7691306836, 41.2984976019]}, "type": "Feature", "properties": {"collection_times": [{"days": "Mon-Fri", "time": "5:00pm"}, {"days": "Sat", "time": "2:30pm"}, {"days": "Sun", "time": "Closed"}], "id": "0640500035", "name": "USPS COLLECTION BOX - BLUE BOX", "address": {"city": "BRANFORD", "state": "CT", "street": "500 E MAIN ST", "postcode": "06405"}}},
{"geometry": {"type": "Point", "coordinates": [-72.8122982731, 41.2826004974]}, "type": "Feature", "properties": {"collection_times": [{"days": "Mon-Fri", "time": "3:00pm"}, {"days": "Sat", "time": "2:30pm"}, {"days": "Sun", "time": "Closed"}], "id": "0640500037", "name": "USPS COLLECTION BOX - BLUE BOX", "address": {"city": "BRANFORD", "state": "CT", "street": "63 N BRANFORD RD", "postcode": "06405"}}},
{"geometry": {"type": "Point", "coordinates": [-72.7698564142, 41.2996020589]}, "type": "Feature", "properties": {"collection_times": [{"days": "Mon-Sat", "time": "2:30pm"}, {"days": "Sun", "time": "Closed"}], "id": "0640500038", "name": "USPS COLLECTION BOX - BLUE BOX", "address": {"city": "BRANFORD", "state": "CT", "street": "15 E INDUSTRIAL RD", "postcode": "06405"}}},
{"geometry": {"type": "Point", "coordinates": [-72.8194034675, 41.289942016]}, "type": "Feature", "properties": {"collection_times": [{"days": "Mon-Fri", "time": "12:45pm"}, {"days": "Sat", "time": "10:30am"}, {"days": "Sun", "time": "Closed"}], "id": "0640500040", "name": "USPS COLLECTION BOX - BLUE BOX", "address": {"city": "BRANFORD", "state": "CT", "street": "85 N MAIN ST", "postcode": "06405"}}},
{"geometry": {"type": "Point", "coordinates": [-72.8125091826, 41.2827165026]}, "type": "Feature", "properties": {"collection_times": [{"days": "Mon-Fri", "time": "5:30pm"}, {"days": "Sat", "time": "3:30pm"}, {"days": "Sun", "time": "Closed"}], "id": "0640500041", "name": "USPS COLLECTION BOX - PO LOBBY", "address": {"city": "BRANFORD", "state": "CT", "street": "35 PARK PL", "postcode": "06405"}}},
{"geometry": {"type": "Point", "coordinates": [-72.8122982731, 41.2826004974]}, "type": "Feature", "properties": {"collection_times": [{"days": "Mon-Fri", "time": "4:00pm"}, {"days": "Sat", "time": "12:00pm"}, {"days": "Sun", "time": "Closed"}], "id": "0640500042", "name": "USPS COLLECTION BOX - PO LOBBY", "address": {"city": "BRANFORD", "state": "CT", "street": "202 THIMBLE ISLAND RD", "postcode": "06405"}}},
{"geometry": {"type": "Point", "coordinates": [-72.8098188765, 41.2788333599]}, "type": "Feature", "properties": {"collection_times": [{"days": "Mon-Sat", "time": "12:00pm"}, {"days": "Sun", "time": "Closed"}], "id": "0640500043", "name": "USPS COLLECTION BOX - PO LOBBY", "address": {"city": "BRANFORD", "state": "CT", "street": "5 COURT ST", "postcode": "06405"}}},
{"geometry": {"type": "Point", "coordinates": [-72.7847747097, 41.2991158627]}, "type": "Feature", "properties": {"collection_times": [{"days": "Mon-Sat", "time": "10:30am"}, {"days": "Sun", "time": "Closed"}], "id": "0640500044", "name": "USPS COLLECTION BOX - BLUE BOX", "address": {"city": "BRANFORD", "state": "CT", "street": "20 COMMERCIAL PKWY", "postcode": "06405"}}},
{"geometry": {"type": "Point", "coordinates": [-72.7652207794, 41.2967839743]}, "type": "Feature", "properties": {"collection_times": [{"days": "Mon-Fri", "time": "5:00pm"}, {"days": "Sat", "time": "2:30pm"}, {"days": "Sun", "time": "Closed"}], "id": "0640500048", "name": "USPS COLLECTION BOX - BLUE BOX", "address": {"city": "BRANFORD", "state": "CT", "street": "7 BUSINESS PARK DR", "postcode": "06405"}}},
{"geometry": {"type": "Point", "coordinates": [-72.8098188765, 41.2788333599]}, "type": "Feature", "properties": {"collection_times": [{"days": "Mon-Fri", "time": "10:00am"}, {"days": "Sat-Sun", "time": "Closed"}], "id": "0640500049", "name": "USPS COLLECTION BOX - BLUE BOX", "address": {"city": "BRANFORD", "state": "CT", "street": "7 BUSINESS PARK DR", "postcode": "06405"}}},
{"geometry": {"type": "Point", "coordinates": [-72.4171713943, 41.3531794534]}, "type": "Feature", "properties": {"collection_times": [{"days": "Mon-Fri", "time": "4:30pm"}, {"days": "Sat", "time": "11:30am"}, {"days": "Sun", "time": "Closed"}], "id": "0640900001", "name": "USPS COLLECTION BOX - BLUE BOX", "address": {"city": "CENTERBROOK", "state": "CT", "street": "4 WESTBROOK RD", "postcode": "06409"}}},
{"geometry": {"type": "Point", "coordinates": [-72.4263471295, 41.3481841845]}, "type": "Feature", "properties": {"collection_times": [{"days": "Mon-Sat", "time": "11:00am"}, {"days": "Sun", "time": "Closed"}], "id": "0640900002", "name": "USPS COLLECTION BOX - BLUE BOX", "address": {"city": "CENTERBROOK", "state": "CT", "street": "16 MAIN ST", "postcode": "06409"}}},
{"geometry": {"type": "Point", "coordinates": [-72.4174446578, 41.3515268597]}, "type": "Feature", "properties": {"collection_times": [{"days": "Mon-Sat", "time": "11:00am"}, {"days": "Sun", "time": "Closed"}], "id": "0640900003", "name": "USPS COLLECTION BOX - BLUE BOX", "address": {"city": "CENTERBROOK", "state": "CT", "street": "90 MAIN ST", "postcode": "06409"}}},
{"geometry": {"type": "Point", "coordinates": [-72.4171713943, 41.3531794534]}, "type": "Feature", "properties": {"collection_times": [{"days": "Mon-Fri", "time": "5:00pm"}, {"days": "Sat", "time": "12:00pm"}, {"days": "Sun", "time": "Closed"}], "id": "0640900004", "name": "USPS COLLECTION BOX - PO LOBBY", "address": {"city": "CENTERBROOK", "state": "CT", "street": "4 WESTBROOK RD", "postcode": "06409"}}},
{"geometry": {"type": "Point", "coordinates": [-72.9055176226, 41.5075327243]}, "type": "Feature", "properties": {"collection_times": [{"days": "Mon-Fri", "time": "5:30pm"}, {"days": "Sat", "time": "2:00pm"}, {"days": "Sun", "time": "Closed"}], "id": "0641000001", "name": "USPS COLLECTION BOX - EXPRESS", "address": {"city": "CHESHIRE", "state": "CT", "street": "210 MAPLE AVE", "postcode": "06410"}}},
{"geometry": {"type": "Point", "coordinates": [-72.8994979118, 41.5093779973]}, "type": "Feature", "properties": {"collection_times": [{"days": "Mon-Fri", "time": "12:45pm"}, {"days": "Sat", "time": "12:00pm"}, {"days": "Sun", "time": "Closed"}], "id": "0641000003", "name": "USPS COLLECTION BOX - BLUE BOX", "address": {"city": "CHESHIRE", "state": "CT", "street": "426 HIGHLAND AVE", "postcode": "06410"}}},
{"geometry": {"type": "Point", "coordinates": [-72.9055567274, 41.5074502158]}, "type": "Feature", "properties": {"collection_times": [{"days": "Mon-Fri", "time": "2:00pm"}, {"days": "Sat", "time": "12:30pm"}, {"days": "Sun", "time": "Closed"}], "id": "0641000006", "name": "USPS COLLECTION BOX - BLUE BOX", "address": {"city": "CHESHIRE", "state": "CT", "street": "900 HIGHLAND AVE", "postcode": "06410"}}},
{"geometry": {"type": "Point", "coordinates": [-72.8991068643, 41.5116917522]}, "type": "Feature", "properties": {"collection_times": [{"days": "Mon-Fri", "time": "12:15pm"}, {"days": "Sat", "time": "1:00pm"}, {"days": "Sun", "time": "Closed"}], "id": "0641000011", "name": "USPS COLLECTION BOX - BLUE BOX", "address": {"city": "CHESHIRE", "state": "CT", "street": "969 S MAIN ST", "postcode": "06410"}}},
{"geometry": {"type": "Point", "coordinates": [-72.8991068643, 41.5116917522]}, "type": "Feature", "properties": {"collection_times": [{"days": "Mon-Fri", "time": "3:30pm"}, {"days": "Sat", "time": "1:00pm"}, {"days": "Sun", "time": "Closed"}], "id": "0641000012", "name": "USPS COLLECTION BOX - BLUE BOX", "address": {"city": "CHESHIRE", "state": "CT", "street": "677 S MAIN ST", "postcode": "06410"}}},
{"geometry": {"type": "Point", "coordinates": [-72.9009439818, 41.4986480003]}, "type": "Feature", "properties": {"collection_times": [{"days": "Mon-Fri", "time": "3:00pm"}, {"days": "Sat", "time": "1:30pm"}, {"days": "Sun", "time": "Closed"}], "id": "0641000014", "name": "USPS COLLECTION BOX - BLUE BOX", "address": {"city": "CHESHIRE", "state": "CT", "street": "2 TOWN CENTER PLZ", "postcode": "06410"}}},
{"geometry": {"type": "Point", "coordinates": [-72.90206, 41.49774]}, "type": "Feature", "properties": {"collection_times": [{"days": "Mon-Fri", "time": "3:00pm"}, {"days": "Sat", "time": "1:30pm"}, {"days": "Sun", "time": "Closed"}], "id": "0641000015", "name": "USPS COLLECTION BOX - BLUE BOX", "address": {"city": "CHESHIRE", "state": "CT", "street": "84 S MAIN ST", "postcode": "06410"}}},
{"geometry": {"type": "Point", "coordinates": [-72.9055567274, 41.5074502158]}, "type": "Feature", "properties": {"collection_times": [{"days": "Mon-Fri", "time": "1:00pm"}, {"days": "Sat-Sun", "time": "Closed"}], "id": "0641000017", "name": "USPS COLLECTION BOX - BLUE BOX", "address": {"city": "CHESHIRE", "state": "CT", "street": "615 W JOHNSON AVE", "postcode": "06410"}}},
{"geometry": {"type": "Point", "coordinates": [-72.9038371636, 41.5045887372]}, "type": "Feature", "properties": {"collection_times": [{"days": "Mon-Fri", "time": "5:30pm"}, {"days": "Sat", "time": "2:00pm"}, {"days": "Sun", "time": "Closed"}], "id": "0641000018", "name": "USPS COLLECTION BOX - BLUE BOX", "address": {"city": "CHESHIRE", "state": "CT", "street": "210 MAPLE AVE", "postcode": "06410"}}},
{"geometry": {"type": "Point", "coordinates": [-72.9038371636, 41.5045887372]}, "type": "Feature", "properties": {"collection_times": [{"days": "Mon-Fri", "time": "5:30pm"}, {"days": "Sat", "time": "2:00pm"}, {"days": "Sun", "time": "Closed"}], "id": "0641000020", "name": "USPS COLLECTION BOX - BLUE BOX", "address": {"city": "CHESHIRE", "state": "CT", "street": "210 MAPLE AVE", "postcode": "06410"}}},
{"geometry": {"type": "Point", "coordinates": [-72.8924275244, 41.5426125872]}, "type": "Feature", "properties": {"collection_times": [{"days": "Mon-Fri", "time": "12:45pm"}, {"days": "Sat-Sun", "time": "Closed"}], "id": "0641000021", "name": "USPS COLLECTION BOX - BLUE BOX", "address": {"city": "CHESHIRE", "state": "CT", "street": "1484 HIGHLAND AVE", "postcode": "06410"}}},
{"geometry": {"type": "Point", "coordinates": [-72.9001367008, 41.5070923852]}, "type": "Feature", "properties": {"collection_times": [{"days": "Mon-Fri", "time": "2:00pm"}, {"days": "Sat", "time": "12:30pm"}, {"days": "Sun", "time": "Closed"}], "id": "0641000024", "name": "USPS COLLECTION BOX - BLUE BOX", "address": {"city": "CHESHIRE", "state": "CT", "street": "315 HIGHLAND AVE", "postcode": "06410"}}},
{"geometry": {"type": "Point", "coordinates": [-72.900704068, 41.503972657]}, "type": "Feature", "properties": {"collection_times": [{"days": "Mon-Fri", "time": "4:15pm"}, {"days": "Sat", "time": "1:45pm"}, {"days": "Sun", "time": "Closed"}], "id": "0641000025", "name": "USPS COLLECTION BOX - BLUE BOX", "address": {"city": "CHESHIRE", "state": "CT", "street": "205 HIGHLAND AVE", "postcode": "06410"}}},
{"geometry": {"type": "Point", "coordinates": [-72.9064756596, 41.4748582739]}, "type": "Feature", "properties": {"collection_times": [{"days": "Mon-Fri", "time": "12:15pm"}, {"days": "Sat", "time": "1:15pm"}, {"days": "Sun", "time": "Closed"}], "id": "0641000029", "name": "USPS COLLECTION BOX - BLUE BOX", "address": {"city": "CHESHIRE", "state": "CT", "street": "1081 S MAIN ST", "postcode": "06410"}}},
{"geometry": {"type": "Point", "coordinates": [-72.8911097081, 41.5516693211]}, "type": "Feature", "properties": {"collection_times": [{"days": "Mon-Fri", "time": "12:45pm"}, {"days": "Sat", "time": "12:00pm"}, {"days": "Sun", "time": "Closed"}], "id": "0641000033", "name": "USPS COLLECTION BOX - BLUE BOX", "address": {"city": "CHESHIRE", "state": "CT", "street": "1781 HIGHLAND AVE", "postcode": "06410"}}},
{"geometry": {"type": "Point", "coordinates": [-72.8948372118, 41.5313874896]}, "type": "Feature", "properties": {"collection_times": [{"days": "Mon-Fri", "time": "1:15pm"}, {"days": "Sat", "time": "12:15pm"}, {"days": "Sun", "time": "Closed"}], "id": "0641000035", "name": "USPS COLLECTION BOX - BLUE BOX", "address": {"city": "CHESHIRE", "state": "CT", "street": "150 SANDBANK RD", "postcode": "06410"}}},
{"geometry": {"type": "Point", "coordinates": [-72.9038371636, 41.5045887372]}, "type": "Feature", "properties": {"collection_times": [{"days": "Mon-Fri", "time": "5:30pm"}, {"days": "Sat", "time": "3:00pm"}, {"days": "Sun", "time": "Closed"}], "id": "0641000036", "name": "USPS COLLECTION BOX - PO LOBBY", "address": {"city": "CHESHIRE", "state": "CT", "street": "210 MAPLE AVE", "postcode": "06410"}}},
{"geometry": {"type": "Point", "coordinates": [-72.8945118981, 41.5415502901]}, "type": "Feature", "properties": {"collection_times": [{"days": "Mon-Fri", "time": "1:15pm"}, {"days": "Sat-Sun", "time": "Closed"}], "id": "0641000037", "name": "USPS COLLECTION BOX - BLUE BOX", "address": {"city": "CHESHIRE", "state": "CT", "street": "125 COMMERCE CT", "postcode": "06410"}}},
{"geometry": {"type": "Point", "coordinates": [-72.9260353886, 41.5578254395]}, "type": "Feature", "properties": {"collection_times": [{"days": "Mon-Fri", "time": "3:00pm"}, {"days": "Sat", "time": "12:00pm"}, {"days": "Sun", "time": "Closed"}], "id": "0641000039", "name": "USPS COLLECTION BOX - BLUE BOX", "address": {"city": "CHESHIRE", "state": "CT", "street": "700 W JOHNSON AVE", "postcode": "06410"}}},
{"geometry": {"type": "Point", "coordinates": [-72.9035471448, 41.5114273124]}, "type": "Feature", "properties": {"collection_times": [{"days": "Mon-Fri", "time": "3:00pm"}, {"days": "Sat", "time": "12:15pm"}, {"days": "Sun", "time": "Closed"}], "id": "0641000042", "name": "USPS COLLECTION BOX - BLUE BOX", "address": {"city": "CHESHIRE", "state": "CT", "street": "5 MCKEE PL", "postcode": "06410"}}},
{"geometry": {"type": "Point", "coordinates": [-72.9063793424, 41.4750372393]}, "type": "Feature", "properties": {"collection_times": [{"days": "Mon-Fri", "time": "5:00pm"}, {"days": "Sat", "time": "12:00pm"}, {"days": "Sun", "time": "Closed"}], "id": "0641000043", "name": "USPS COLLECTION BOX - BLUE BOX", "address": {"city": "CHESHIRE", "state": "CT", "street": "1074 S MAIN ST", "postcode": "06410"}}},
{"geometry": {"type": "Point", "coordinates": [-72.900704068, 41.503972657]}, "type": "Feature", "properties": {"collection_times": [{"days": "Mon-Fri", "time": "4:15pm"}, {"days": "Sat", "time": "1:45pm"}, {"days": "Sun", "time": "Closed"}], "id": "0641000044", "name": "USPS COLLECTION BOX - BLUE BOX", "address": {"city": "CHESHIRE", "state": "CT", "street": "205 HIGHLAND AVE", "postcode": "06410"}}},
{"geometry": {"type": "Point", "coordinates": [-72.4470919754, 41.4019611322]}, "type": "Feature", "properties": {"collection_times": [{"days": "Mon-Fri", "time": "5:00pm"}, {"days": "Sat", "time": "12:00pm"}, {"days": "Sun", "time": "Closed"}], "id": "0641200001", "name": "USPS COLLECTION BOX - BLUE BOX", "address": {"city": "CHESTER", "state": "CT", "street": "100 MAIN ST", "postcode": "06412"}}},
{"geometry": {"type": "Point", "coordinates": [-72.4470919754, 41.4019611322]}, "type": "Feature", "properties": {"collection_times": [{"days": "Mon-Fri", "time": "5:15pm"}, {"days": "Sat", "time": "1:00pm"}, {"days": "Sun", "time": "Closed"}], "id": "0641200004", "name": "USPS COLLECTION BOX - PO LOBBY", "address": {"city": "CHESTER", "state": "CT", "street": "100 MAIN ST", "postcode": "06412"}}},
{"geometry": {"type": "Point", "coordinates": [-72.5272323535, 41.2785695556]}, "type": "Feature", "properties": {"collection_times": [{"days": "Mon-Fri", "time": "5:00pm"}, {"days": "Sat", "time": "3:30pm"}, {"days": "Sun", "time": "Closed"}], "id": "0641300001", "name": "USPS COLLECTION BOX - BLUE BOX", "address": {"city": "CLINTON", "state": "CT", "street": "2 W MAIN ST", "postcode": "06413"}}},
{"geometry": {"type": "Point", "coordinates": [-72.5273224021, 41.2782287439]}, "type": "Feature", "properties": {"collection_times": [{"days": "Mon-Fri", "time": "4:45pm"}, {"days": "Sat", "time": "3:30pm"}, {"days": "Sun", "time": "Closed"}], "id": "0641300003", "name": "USPS COLLECTION BOX - BLUE BOX", "address": {"city": "CLINTON", "state": "CT", "street": "13 COMMERCE ST", "postcode": "06413"}}},
{"geometry": {"type": "Point", "coordinates": [-72.5327196263, 41.2791405771]}, "type": "Feature", "properties": {"collection_times": [{"days": "Mon-Sat", "time": "1:00pm"}, {"days": "Sun", "time": "Closed"}], "id": "0641300006", "name": "USPS COLLECTION BOX - BLUE BOX", "address": {"city": "CLINTON", "state": "CT", "street": "56 W MAIN ST", "postcode": "06413"}}},
{"geometry": {"type": "Point", "coordinates": [-72.5371861302, 41.2781301707]}, "type": "Feature", "properties": {"collection_times": [{"days": "Mon-Sat", "time": "11:15am"}, {"days": "Sun", "time": "Closed"}], "id": "0641300008", "name": "USPS COLLECTION BOX - BLUE BOX", "address": {"city": "CLINTON", "state": "CT", "street": "90 W MAIN ST", "postcode": "06413"}}},
{"geometry": {"type": "Point", "coordinates": [-72.5259906065, 41.3061260776]}, "type": "Feature", "properties": {"collection_times": [{"days": "Mon-Sat", "time": "12:00pm"}, {"days": "Sun", "time": "Closed"}], "id": "0641300009", "name": "USPS COLLECTION BOX - BLUE BOX", "address": {"city": "CLINTON", "state": "CT", "street": "153 GLENWOOD RD", "postcode": "06413"}}},
{"geometry": {"type": "Point", "coordinates": [-72.5010360872, 41.2710205873]}, "type": "Feature", "properties": {"collection_times": [{"days": "Mon-Sat", "time": "10:00am"}, {"days": "Sun", "time": "Closed"}], "id": "0641300012", "name": "USPS COLLECTION BOX - BLUE BOX", "address": {"city": "CLINTON", "state": "CT", "street": "266 E MAIN ST", "postcode": "06413"}}},
{"geometry": {"type": "Point", "coordinates": [-72.5060769328, 41.2723752419]}, "type": "Feature", "properties": {"collection_times": [{"days": "Mon-Sat", "time": "12:00pm"}, {"days": "Sun", "time": "Closed"}], "id": "0641300013", "name": "USPS COLLECTION BOX - BLUE BOX", "address": {"city": "CLINTON", "state": "CT", "street": "215 E MAIN ST", "postcode": "06413"}}},
{"geometry": {"type": "Point", "coordinates": [-72.5275364378, 41.2786300886]}, "type": "Feature", "properties": {"collection_times": [{"days": "Mon-Sat", "time": "12:30pm"}, {"days": "Sun", "time": "Closed"}], "id": "0641300014", "name": "USPS COLLECTION BOX - BLUE BOX", "address": {"city": "CLINTON", "state": "CT", "street": "109 E MAIN ST", "postcode": "06413"}}},
{"geometry": {"type": "Point", "coordinates": [-72.5232612212, 41.2777980384]}, "type": "Feature", "properties": {"collection_times": [{"days": "Mon-Sat", "time": "9:30am"}, {"days": "Sun", "time": "Closed"}], "id": "0641300015", "name": "USPS COLLECTION BOX - BLUE BOX", "address": {"city": "CLINTON", "state": "CT", "street": "54 E MAIN ST", "postcode": "06413"}}},
{"geometry": {"type": "Point", "coordinates": [-72.5272675138, 41.2890137077]}, "type": "Feature", "properties": {"collection_times": [{"days": "Mon-Fri", "time": "3:45pm"}, {"days": "Sat", "time": "3:30pm"}, {"days": "Sun", "time": "Closed"}], "id": "0641300018", "name": "USPS COLLECTION BOX - EXPRESS", "address": {"city": "CLINTON", "state": "CT", "street": "2 W MAIN ST", "postcode": "06413"}}},
{"geometry": {"type": "Point", "coordinates": [-72.5312720624, 41.2938066625]}, "type": "Feature", "properties": {"collection_times": [{"days": "Mon-Sat", "time": "9:30am"}, {"days": "Sun", "time": "Closed"}], "id": "0641300019", "name": "USPS COLLECTION BOX - BLUE BOX", "address": {"city": "CLINTON", "state": "CT", "street": "20 KILLINGWORTH TPKE", "postcode": "06413"}}},
{"geometry": {"type": "Point", "coordinates": [-72.5272323535, 41.2785695556]}, "type": "Feature", "properties": {"collection_times": [{"days": "Mon-Fri", "time": "5:00pm"}, {"days": "Sat", "time": "12:30pm"}, {"days": "Sun", "time": "Closed"}], "id": "0641300020", "name": "USPS COLLECTION BOX - PO LOBBY", "address": {"city": "CLINTON", "state": "CT", "street": "2 W MAIN ST", "postcode": "06413"}}},
{"geometry": {"type": "Point", "coordinates": [-72.5528462555, 41.5621408127]}, "type": "Feature", "properties": {"collection_times": [{"days": "Mon-Fri", "time": "5:00pm"}, {"days": "Sat", "time": "11:45am"}, {"days": "Sun", "time": "Closed"}], "id": "0641400001", "name": "USPS COLLECTION BOX - BLUE BOX", "address": {"city": "COBALT", "state": "CT", "street": "371 W HIGH ST", "postcode": "06414"}}},
{"geometry": {"type": "Point", "coordinates": [-72.5528462555, 41.5621408127]}, "type": "Feature", "properties": {"collection_times": [{"days": "Mon-Fri", "time": "5:00pm"}, {"days": "Sat", "time": "12:00pm"}, {"days": "Sun", "time": "Closed"}], "id": "0641400002", "name": "USPS COLLECTION BOX - PO LOBBY", "address": {"city": "COBALT", "state": "CT", "street": "371 W HIGH ST", "postcode": "06414"}}},
{"geometry": {"type": "Point", "coordinates": [-72.7383038826, 41.5735001734]}, "type": "Feature", "properties": {"collection_times": [{"days": "Mon-Sat", "time": "2:30pm"}, {"days": "Sun", "time": "Closed"}], "id": "0641500001", "name": "USPS COLLECTION BOX - EXPRESS", "address": {"city": "COLCHESTER", "state": "CT", "street": "103 S MAIN ST", "postcode": "06415"}}},
{"geometry": {"type": "Point", "coordinates": [-72.3319509973, 41.573173021]}, "type": "Feature", "properties": {"collection_times": [{"days": "Mon-Fri", "time": "5:00pm"}, {"days": "Sat", "time": "2:30pm"}, {"days": "Sun", "time": "Closed"}], "id": "0641500003", "name": "USPS COLLECTION BOX - BLUE BOX", "address": {"city": "COLCHESTER", "state": "CT", "street": "103 S MAIN ST", "postcode": "06415"}}},
{"geometry": {"type": "Point", "coordinates": [-72.3230146182, 41.5660100751]}, "type": "Feature", "properties": {"collection_times": [{"days": "Mon-Fri", "time": "3:30pm"}, {"days": "Sat", "time": "1:00pm"}, {"days": "Sun", "time": "Closed"}], "id": "0641500005", "name": "USPS COLLECTION BOX - BLUE BOX", "address": {"city": "COLCHESTER", "state": "CT", "street": "1 NEW LONDON RD", "postcode": "06415"}}},
{"geometry": {"type": "Point", "coordinates": [-72.338964804, 41.579400761]}, "type": "Feature", "properties": {"collection_times": [{"days": "Mon-Fri", "time": "3:30pm"}, {"days": "Sat", "time": "1:00pm"}, {"days": "Sun", "time": "Closed"}], "id": "0641500008", "name": "USPS COLLECTION BOX - BLUE BOX", "address": {"city": "COLCHESTER", "state": "CT", "street": "20 HARTFORD RD", "postcode": "06415"}}},
{"geometry": {"type": "Point", "coordinates": [-72.356765134, 41.582327978]}, "type": "Feature", "properties": {"collection_times": [{"days": "Mon-Fri", "time": "3:45pm"}, {"days": "Sat", "time": "1:15pm"}, {"days": "Sun", "time": "Closed"}], "id": "0641500009", "name": "USPS COLLECTION BOX - BLUE BOX", "address": {"city": "COLCHESTER", "state": "CT", "street": "428 HARTFORD RD", "postcode": "06415"}}},
{"geometry": {"type": "Point", "coordinates": [-72.3327853459, 41.5761579624]}, "type": "Feature", "properties": {"collection_times": [{"days": "Mon-Fri", "time": "2:00pm"}, {"days": "Sat", "time": "1:45pm"}, {"days": "Sun", "time": "Closed"}], "id": "0641500013", "name": "USPS COLLECTION BOX - BLUE BOX", "address": {"city": "COLCHESTER", "state": "CT", "street": "15 BROADWAY ST", "postcode": "06415"}}},
{"geometry": {"type": "Point", "coordinates": [-72.2926825035, 41.5979901272]}, "type": "Feature", "properties": {"collection_times": [{"days": "Mon-Fri", "time": "3:00pm"}, {"days": "Sat", "time": "1:30pm"}, {"days": "Sun", "time": "Closed"}], "id": "0641500014", "name": "USPS COLLECTION BOX - BLUE BOX", "address": {"city": "COLCHESTER", "state": "CT", "street": "636 LEBANON AVE", "postcode": "06415"}}},
{"geometry": {"type": "Point", "coordinates": [-72.3032086765, 41.5743537422]}, "type": "Feature", "properties": {"collection_times": [{"days": "Mon-Fri", "time": "4:00pm"}, {"days": "Sat", "time": "1:45pm"}, {"days": "Sun", "time": "Closed"}], "id": "0641500015", "name": "USPS COLLECTION BOX - BLUE BOX", "address": {"city": "COLCHESTER", "state": "CT", "street": "127 NORWICH AVE", "postcode": "06415"}}},
{"geometry": {"type": "Point", "coordinates": [-72.4129257546, 41.5468984476]}, "type": "Feature", "properties": {"collection_times": [{"days": "Mon-Fri", "time": "3:45pm"}, {"days": "Sat", "time": "1:45pm"}, {"days": "Sun", "time": "Closed"}], "id": "0641500016", "name": "USPS COLLECTION BOX - BLUE BOX", "address": {"city": "COLCHESTER", "state": "CT", "street": "493 WESTCHESTER RD", "postcode": "06415"}}},
{"geometry": {"type": "Point", "coordinates": [-72.3083728886, 41.5716539256]}, "type": "Feature", "properties": {"collection_times": [{"days": "Mon-Fri", "time": "3:00pm"}, {"days": "Sat", "time": "1:30pm"}, {"days": "Sun", "time": "Closed"}], "id": "0641500018", "name": "USPS COLLECTION BOX - BLUE BOX", "address": {"city": "COLCHESTER", "state": "CT", "street": "1 BIRCH CIR", "postcode": "06415"}}},
{"geometry": {"type": "Point", "coordinates": [-72.3483950051, 41.5805716983]}, "type": "Feature", "properties": {"collection_times": [{"days": "Mon-Fri", "time": "3:45pm"}, {"days": "Sat", "time": "1:00pm"}, {"days": "Sun", "time": "Closed"}], "id": "0641500019", "name": "USPS COLLECTION BOX - BLUE BOX", "address": {"city": "COLCHESTER", "state": "CT", "street": "270 HARTFORD RD", "postcode": "06415"}}},
{"geometry": {"type": "Point", "coordinates": [-72.3319509973, 41.573173021]}, "type": "Feature", "properties": {"collection_times": [{"days": "Mon-Fri", "time": "5:00pm"}, {"days": "Sat", "time": "2:30pm"}, {"days": "Sun", "time": "Closed"}], "id": "0641500020", "name": "USPS COLLECTION BOX - PO LOBBY", "address": {"city": "COLCHESTER", "state": "CT", "street": "103 S MAIN ST", "postcode": "06415"}}},
{"geometry": {"type": "Point", "coordinates": [-72.6533586153, 41.6165132167]}, "type": "Feature", "properties": {"collection_times": [{"days": "Mon-Fri", "time": "5:00pm"}, {"days": "Sat", "time": "12:00pm"}, {"days": "Sun", "time": "Closed"}], "id": "0641600001", "name": "USPS COLLECTION BOX - BLUE BOX", "address": {"city": "CROMWELL", "state": "CT", "street": "528 MAIN ST", "postcode": "06416"}}},
{"geometry": {"type": "Point", "coordinates": [-72.6533586153, 41.6165132167]}, "type": "Feature", "properties": {"collection_times": [{"days": "Mon-Fri", "time": "5:00pm"}, {"days": "Sat", "time": "12:00pm"}, {"days": "Sun", "time": "Closed"}], "id": "0641600002", "name": "USPS COLLECTION BOX - BLUE BOX", "address": {"city": "CROMWELL", "state": "CT", "street": "528 MAIN ST", "postcode": "06416"}}},
{"geometry": {"type": "Point", "coordinates": [-72.669310817, 41.6053685603]}, "type": "Feature", "properties": {"collection_times": [{"days": "Mon-Fri", "time": "3:00pm"}, {"days": "Sat", "time": "12:00pm"}, {"days": "Sun", "time": "Closed"}], "id": "0641600004", "name": "USPS COLLECTION BOX - BLUE BOX", "address": {"city": "CROMWELL", "state": "CT", "street": "160 WEST", "postcode": "06416"}}},
{"geometry": {"type": "Point", "coordinates": [-72.6855161718, 41.6030452289]}, "type": "Feature", "properties": {"collection_times": [{"days": "Mon-Fri", "time": "3:00pm"}, {"days": "Sat", "time": "12:00pm"}, {"days": "Sun", "time": "Closed"}], "id": "0641600005", "name": "USPS COLLECTION BOX - BLUE BOX", "address": {"city": "CROMWELL", "state": "CT", "street": "2 WILLOWBROOK RD", "postcode": "06416"}}},
{"geometry": {"type": "Point", "coordinates": [-72.6532184141, 41.6159808616]}, "type": "Feature", "properties": {"collection_times": [{"days": "Mon-Fri", "time": "1:00pm"}, {"days": "Sat", "time": "12:00pm"}, {"days": "Sun", "time": "Closed"}], "id": "0641600006", "name": "USPS COLLECTION BOX - BLUE BOX", "address": {"city": "CROMWELL", "state": "CT", "street": "136 BERLIN RD", "postcode": "06416"}}},
{"geometry": {"type": "Point", "coordinates": [-72.677928673, 41.6029115546]}, "type": "Feature", "properties": {"collection_times": [{"days": "Mon-Fri", "time": "3:00pm"}, {"days": "Sat", "time": "12:00pm"}, {"days": "Sun", "time": "Closed"}], "id": "0641600007", "name": "USPS COLLECTION BOX - BLUE BOX", "address": {"city": "CROMWELL", "state": "CT", "street": "195 WEST ST", "postcode": "06416"}}},
{"geometry": {"type": "Point", "coordinates": [-72.6761347199, 41.6022444359]}, "type": "Feature", "properties": {"collection_times": [{"days": "Mon-Fri", "time": "3:00pm"}, {"days": "Sat", "time": "12:00pm"}, {"days": "Sun", "time": "Closed"}], "id": "0641600008", "name": "USPS COLLECTION BOX - BLUE BOX", "address": {"city": "CROMWELL", "state": "CT", "street": "34 SHUNPIKE RD", "postcode": "06416"}}},
{"geometry": {"type": "Point", "coordinates": [-72.6762510385, 41.6047654932]}, "type": "Feature", "properties": {"collection_times": [{"days": "Mon-Fri", "time": "1:00pm"}, {"days": "Sat", "time": "12:00pm"}, {"days": "Sun", "time": "Closed"}], "id": "0641600009", "name": "USPS COLLECTION BOX - BLUE BOX", "address": {"city": "CROMWELL", "state": "CT", "street": "51 SHUNPIKE RD", "postcode": "06416"}}},
{"geometry": {"type": "Point", "coordinates": [-72.7074624266, 41.6105333592]}, "type": "Feature", "properties": {"collection_times": [{"days": "Mon-Sat", "time": "12:00pm"}, {"days": "Sun", "time": "Closed"}], "id": "0641600018", "name": "USPS COLLECTION BOX - BLUE BOX", "address": {"city": "CROMWELL", "state": "CT", "street": "100 SEBETHE DR", "postcode": "06416"}}},
{"geometry": {"type": "Point", "coordinates": [-72.6533586153, 41.6165132167]}, "type": "Feature", "properties": {"collection_times": [{"days": "Mon-Fri", "time": "5:00pm"}, {"days": "Sat", "time": "3:00pm"}, {"days": "Sun", "time": "Closed"}], "id": "0641600021", "name": "USPS COLLECTION BOX - PO LOBBY", "address": {"city": "CROMWELL", "state": "CT", "street": "528 MAIN ST", "postcode": "06416"}}},
{"geometry": {"type": "Point", "coordinates": [-72.6532184141, 41.6159808616]}, "type": "Feature", "properties": {"collection_times": [{"days": "Mon-Fri", "time": "1:30pm"}, {"days": "Sat", "time": "12:00pm"}, {"days": "Sun", "time": "Closed"}], "id": "0641600024", "name": "USPS COLLECTION BOX - BLUE BOX", "address": {"city": "CROMWELL", "state": "CT", "street": "161 BERLIN RD", "postcode": "06416"}}},
{"geometry": {"type": "Point", "coordinates": [-72.6765923798, 41.6313160801]}, "type": "Feature", "properties": {"collection_times": [{"days": "Mon-Sat", "time": "12:00pm"}, {"days": "Sun", "time": "Closed"}], "id": "0641600026", "name": "USPS COLLECTION BOX - BLUE BOX", "address": {"city": "CROMWELL", "state": "CT", "street": "5 COMMERCE DR", "postcode": "06416"}}},
{"geometry": {"type": "Point", "coordinates": [-72.6514907231, 41.5985606315]}, "type": "Feature", "properties": {"collection_times": [{"days": "Mon-Fri", "time": "3:30pm"}, {"days": "Sat", "time": "12:00pm"}, {"days": "Sun", "time": "Closed"}], "id": "0641600028", "name": "USPS COLLECTION BOX - BLUE BOX", "address": {"city": "CROMWELL", "state": "CT", "street": "41 WEST", "postcode": "06416"}}},
{"geometry": {"type": "Point", "coordinates": [-72.4346283197, 41.3818212558]}, "type": "Feature", "properties": {"collection_times": [{"days": "Mon-Fri", "time": "5:00pm"}, {"days": "Sat", "time": "3:30pm"}, {"days": "Sun", "time": "Closed"}], "id": "0641700001", "name": "USPS COLLECTION BOX - BLUE BOX", "address": {"city": "DEEP RIVER", "state": "CT", "street": "225 MAIN ST", "postcode": "06417"}}},
{"geometry": {"type": "Point", "coordinates": [-72.4348191272, 41.3825038462]}, "type": "Feature", "properties": {"collection_times": [{"days": "Mon-Sat", "time": "1:30pm"}, {"days": "Sun", "time": "Closed"}], "id": "0641700003", "name": "USPS COLLECTION BOX - BLUE BOX", "address": {"city": "DEEP RIVER", "state": "CT", "street": "65 UNION UN", "postcode": "06417"}}},
{"geometry": {"type": "Point", "coordinates": [-72.4355273686, 41.3851560172]}, "type": "Feature", "properties": {"collection_times": [{"days": "Mon-Sat", "time": "1:30pm"}, {"days": "Sun", "time": "Closed"}], "id": "0641700005", "name": "USPS COLLECTION BOX - BLUE BOX", "address": {"city": "DEEP RIVER", "state": "CT", "street": "174 MAIN ST", "postcode": "06417"}}},
{"geometry": {"type": "Point", "coordinates": [-72.4458073506, 41.3771677638]}, "type": "Feature", "properties": {"collection_times": [{"days": "Mon-Sat", "time": "1:30pm"}, {"days": "Sun", "time": "Closed"}], "id": "0641700006", "name": "USPS COLLECTION BOX - BLUE BOX", "address": {"city": "DEEP RIVER", "state": "CT", "street": "176 ROUTE 81", "postcode": "06417"}}},
{"geometry": {"type": "Point", "coordinates": [-72.4352970692, 41.3843462585]}, "type": "Feature", "properties": {"collection_times": [{"days": "Mon-Sat", "time": "1:30pm"}, {"days": "Sun", "time": "Closed"}], "id": "0641700007", "name": "USPS COLLECTION BOX - BLUE BOX", "address": {"city": "DEEP RIVER", "state": "CT", "street": "193 MAIN ST", "postcode": "06417"}}},
{"geometry": {"type": "Point", "coordinates": [-72.4611729441, 41.3690419216]}, "type": "Feature", "properties": {"collection_times": [{"days": "Mon-Fri", "time": "3:00pm"}, {"days": "Sat", "time": "12:00pm"}, {"days": "Sun", "time": "Closed"}], "id": "0641700011", "name": "USPS COLLECTION BOX - BLUE BOX", "address": {"city": "DEEP RIVER", "state": "CT", "street": "256 ROUTE 81", "postcode": "06417"}}},
{"geometry": {"type": "Point", "coordinates": [-72.4346283197, 41.3818212558]}, "type": "Feature", "properties": {"collection_times": [{"days": "Mon-Fri", "time": "5:00pm"}, {"days": "Sat", "time": "3:30pm"}, {"days": "Sun", "time": "Closed"}], "id": "0641700012", "name": "USPS COLLECTION BOX - PO LOBBY", "address": {"city": "DEEP RIVER", "state": "CT", "street": "225 MAIN ST", "postcode": "06417"}}},
{"geometry": {"type": "Point", "coordinates": [-73.0903460229, 41.3216263889]}, "type": "Feature", "properties": {"collection_times": [{"days": "Mon-Fri", "time": "5:00pm"}, {"days": "Sat", "time": "1:00pm"}, {"days": "Sun", "time": "Closed"}], "id": "0641800002", "name": "USPS COLLECTION BOX - BLUE BOX", "address": {"city": "DERBY", "state": "CT", "street": "74 OLIVIA ST", "postcode": "06418"}}},
{"geometry": {"type": "Point", "coordinates": [-73.0804866491, 41.323400127]}, "type": "Feature", "properties": {"collection_times": [{"days": "Mon-Sat", "time": "12:00pm"}, {"days": "Sun", "time": "Closed"}], "id": "0641800011", "name": "USPS COLLECTION BOX - BLUE BOX", "address": {"city": "DERBY", "state": "CT", "street": "656 NEW HAVEN AVE", "postcode": "06418"}}},
{"geometry": {"type": "Point", "coordinates": [-73.06274976, 41.3097051022]}, "type": "Feature", "properties": {"collection_times": [{"days": "Mon-Sat", "time": "12:00pm"}, {"days": "Sun", "time": "Closed"}], "id": "0641800014", "name": "USPS COLLECTION BOX - BLUE BOX", "address": {"city": "DERBY", "state": "CT", "street": "445 NEW HAVEN AVE", "postcode": "06418"}}},
{"geometry": {"type": "Point", "coordinates": [-73.0768980285, 41.3122837504]}, "type": "Feature", "properties": {"collection_times": [{"days": "Mon-Sat", "time": "12:00pm"}, {"days": "Sun", "time": "Closed"}], "id": "0641800016", "name": "USPS COLLECTION BOX - BLUE BOX", "address": {"city": "DERBY", "state": "CT", "street": "111 NEW HAVEN AVE", "postcode": "06418"}}},
{"geometry": {"type": "Point", "coordinates": [-73.0893712647, 41.3215211055]}, "type": "Feature", "properties": {"collection_times": [{"days": "Mon-Sat", "time": "10:00am"}, {"days": "Sun", "time": "Closed"}], "id": "0641800017", "name": "USPS COLLECTION BOX - BLUE BOX", "address": {"city": "DERBY", "state": "CT", "street": "101 ELIZABETH ST", "postcode": "06418"}}},
{"geometry": {"type": "Point", "coordinates": [-73.0900763083, 41.336239481]}, "type": "Feature", "properties": {"collection_times": [{"days": "Mon-Sat", "time": "12:00pm"}, {"days": "Sun", "time": "Closed"}], "id": "0641800022", "name": "USPS COLLECTION BOX - BLUE BOX", "address": {"city": "DERBY", "state": "CT", "street": "300 SEYMOUR AVE", "postcode": "06418"}}},
{"geometry": {"type": "Point", "coordinates": [-73.1042659011, 41.3322150546]}, "type": "Feature", "properties": {"collection_times": [{"days": "Mon-Sat", "time": "11:00am"}, {"days": "Sun", "time": "Closed"}], "id": "0641800026", "name": "USPS COLLECTION BOX - BLUE BOX", "address": {"city": "DERBY", "state": "CT", "street": "360 HAWTHORNE AVE", "postcode": "06418"}}},
{"geometry": {"type": "Point", "coordinates": [-73.089191455, 41.3202340462]}, "type": "Feature", "properties": {"collection_times": [{"days": "Mon-Sat", "time": "10:00am"}, {"days": "Sun", "time": "Closed"}], "id": "0641800027", "name": "USPS COLLECTION BOX - BLUE BOX", "address": {"city": "DERBY", "state": "CT", "street": "33 ELIZABETH ST", "postcode": "06418"}}},
{"geometry": {"type": "Point", "coordinates": [-73.0885514742, 41.3357296257]}, "type": "Feature", "properties": {"collection_times": [{"days": "Mon-Sat", "time": "12:00pm"}, {"days": "Sun", "time": "Closed"}], "id": "0641800030", "name": "USPS COLLECTION BOX - BLUE BOX", "address": {"city": "DERBY", "state": "CT", "street": "130 DIVISION ST", "postcode": "06418"}}},
{"geometry": {"type": "Point", "coordinates": [-73.090406118, 41.321854735]}, "type": "Feature", "properties": {"collection_times": [{"days": "Mon-Fri", "time": "5:00pm"}, {"days": "Sat", "time": "2:30pm"}, {"days": "Sun", "time": "Closed"}], "id": "0641800032", "name": "USPS COLLECTION BOX - PO LOBBY", "address": {"city": "DERBY", "state": "CT", "street": "74 OLIVIA ST", "postcode": "06418"}}},
{"geometry": {"type": "Point", "coordinates": [-73.0804866491, 41.323400127]}, "type": "Feature", "properties": {"collection_times": [{"days": "Mon-Fri", "time": "12:00pm"}, {"days": "Sat", "time": "12:30pm"}, {"days": "Sun", "time": "Closed"}], "id": "0641800034", "name": "USPS COLLECTION BOX - BLUE BOX", "address": {"city": "DERBY", "state": "CT", "street": "49 PERSHING DR", "postcode": "06418"}}},
{"geometry": {"type": "Point", "coordinates": [-72.6803076035, 41.4713061867]}, "type": "Feature", "properties": {"collection_times": [{"days": "Mon-Fri", "time": "5:00pm"}, {"days": "Sat", "time": "12:00pm"}, {"days": "Sun", "time": "Closed"}], "id": "0642200001", "name": "USPS COLLECTION BOX - BLUE BOX", "address": {"city": "DURHAM", "state": "CT", "street": "103 MAIN ST", "postcode": "06422"}}},
{"geometry": {"type": "Point", "coordinates": [-72.6803076035, 41.4713061867]}, "type": "Feature", "properties": {"collection_times": [{"days": "Mon-Fri", "time": "5:00pm"}, {"days": "Sat", "time": "12:00pm"}, {"days": "Sun", "time": "Closed"}], "id": "0642200004", "name": "USPS COLLECTION BOX - PO LOBBY", "address": {"city": "DURHAM", "state": "CT", "street": "103 MAIN ST", "postcode": "06422"}}},
{"geometry": {"type": "Point", "coordinates": [-72.4619925265, 41.4551954686]}, "type": "Feature", "properties": {"collection_times": [{"days": "Mon-Fri", "time": "4:00pm"}, {"days": "Sat", "time": "12:00pm"}, {"days": "Sun", "time": "Closed"}], "id": "0642300002", "name": "USPS COLLECTION BOX - BLUE BOX", "address": {"city": "EAST HADDAM", "state": "CT", "street": "34 MAIN ST", "postcode": "06423"}}},
{"geometry": {"type": "Point", "coordinates": [-72.46192, 41.455097]}, "type": "Feature", "properties": {"collection_times": [{"days": "Mon-Fri", "time": "4:00pm"}, {"days": "Sat", "time": "12:00pm"}, {"days": "Sun", "time": "Closed"}], "id": "0642300003", "name": "USPS COLLECTION BOX - PO LOBBY", "address": {"city": "EAST HADDAM", "state": "CT", "street": "34 MAIN ST", "postcode": "06423"}}},
{"geometry": {"type": "Point", "coordinates": [-72.5082130992, 41.5896068151]}, "type": "Feature", "properties": {"collection_times": [{"days": "Mon-Fri", "time": "5:00pm"}, {"days": "Sat", "time": "3:00pm"}, {"days": "Sun", "time": "Closed"}], "id": "0642400001", "name": "USPS COLLECTION BOX - BLUE BOX", "address": {"city": "MARLBOROUGH", "state": "CT", "street": "57 MAIN ST", "postcode": "06424"}}},
{"geometry": {"type": "Point", "coordinates": [-72.460480705, 41.6305241827]}, "type": "Feature", "properties": {"collection_times": [{"days": "Mon-Fri", "time": "5:00pm"}, {"days": "Sat", "time": "12:00pm"}, {"days": "Sun", "time": "Closed"}], "id": "0642400002", "name": "USPS COLLECTION BOX - BLUE BOX", "address": {"city": "MARLBOROUGH", "state": "CT", "street": "16 E HAMPTON RD", "postcode": "06424"}}},
{"geometry": {"type": "Point", "coordinates": [-72.5021836131, 41.5839073143]}, "type": "Feature", "properties": {"collection_times": [{"days": "Mon-Sat", "time": "11:30am"}, {"days": "Sun", "time": "Closed"}], "id": "0642400005", "name": "USPS COLLECTION BOX - BLUE BOX", "address": {"city": "MARLBOROUGH", "state": "CT", "street": "25 E HIGH ST", "postcode": "06424"}}},
{"geometry": {"type": "Point", "coordinates": [-72.5082130992, 41.5896068151]}, "type": "Feature", "properties": {"collection_times": [{"days": "Mon-Fri", "time": "5:00pm"}, {"days": "Sat", "time": "3:00pm"}, {"days": "Sun", "time": "Closed"}], "id": "0642400007", "name": "USPS COLLECTION BOX - PO LOBBY", "address": {"city": "MARLBOROUGH", "state": "CT", "street": "57 MAIN ST", "postcode": "06424"}}},
{"geometry": {"type": "Point", "coordinates": [-72.460480705, 41.6305241827]}, "type": "Feature", "properties": {"collection_times": [{"days": "Mon-Fri", "time": "5:00pm"}, {"days": "Sat", "time": "3:00pm"}, {"days": "Sun", "time": "Closed"}], "id": "0642400010", "name": "USPS COLLECTION BOX - PO LOBBY", "address": {"city": "MARLBOROUGH", "state": "CT", "street": "16 E HAMPTON RD", "postcode": "06424"}}},
{"geometry": {"type": "Point", "coordinates": [-72.3899223605, 41.3527452721]}, "type": "Feature", "properties": {"collection_times": [{"days": "Mon-Fri", "time": "4:30pm"}, {"days": "Sat", "time": "12:00pm"}, {"days": "Sun", "time": "Closed"}], "id": "0642600001", "name": "USPS COLLECTION BOX - BLUE BOX", "address": {"city": "ESSEX", "state": "CT", "street": "12 MAIN ST", "postcode": "06426"}}},
{"geometry": {"type": "Point", "coordinates": [-72.3899223605, 41.3527452721]}, "type": "Feature", "properties": {"collection_times": [{"days": "Mon-Fri", "time": "4:30pm"}, {"days": "Sat", "time": "12:00pm"}, {"days": "Sun", "time": "Closed"}], "id": "0642600002", "name": "USPS COLLECTION BOX - BLUE BOX", "address": {"city": "ESSEX", "state": "CT", "street": "12 MAIN ST", "postcode": "06426"}}},
{"geometry": {"type": "Point", "coordinates": [-72.3864676944, 41.3520733867]}, "type": "Feature", "properties": {"collection_times": [{"days": "Mon-Sat", "time": "11:30am"}, {"days": "Sun", "time": "Closed"}], "id": "0642600005", "name": "USPS COLLECTION BOX - BLUE BOX", "address": {"city": "ESSEX", "state": "CT", "street": "4 FERRY ST", "postcode": "06426"}}},
{"geometry": {"type": "Point", "coordinates": [-72.3906399542, 41.3531210344]}, "type": "Feature", "properties": {"collection_times": [{"days": "Mon-Sat", "time": "11:30am"}, {"days": "Sun", "time": "Closed"}], "id": "0642600007", "name": "USPS COLLECTION BOX - BLUE BOX", "address": {"city": "ESSEX", "state": "CT", "street": "63 N MAIN ST", "postcode": "06426"}}},
{"geometry": {"type": "Point", "coordinates": [-72.395963306, 41.3537839454]}, "type": "Feature", "properties": {"collection_times": [{"days": "Mon-Sat", "time": "11:45am"}, {"days": "Sun", "time": "Closed"}], "id": "0642600012", "name": "USPS COLLECTION BOX - BLUE BOX", "address": {"city": "ESSEX", "state": "CT", "street": "29 WEST", "postcode": "06426"}}},
{"geometry": {"type": "Point", "coordinates": [-72.4060396702, 41.351674499]}, "type": "Feature", "properties": {"collection_times": [{"days": "Mon-Sat", "time": "10:30am"}, {"days": "Sun", "time": "Closed"}], "id": "0642600013", "name": "USPS COLLECTION BOX - BLUE BOX", "address": {"city": "ESSEX", "state": "CT", "street": "1 RAILROAD AVE", "postcode": "06426"}}},
{"geometry": {"type": "Point", "coordinates": [-72.4149154915, 41.3399610699]}, "type": "Feature", "properties": {"collection_times": [{"days": "Mon-Sat", "time": "11:00am"}, {"days": "Sun", "time": "Closed"}], "id": "0642600014", "name": "USPS COLLECTION BOX - BLUE BOX", "address": {"city": "ESSEX", "state": "CT", "street": "125 WESTBROOK RD", "postcode": "06426"}}},
{"geometry": {"type": "Point", "coordinates": [-72.3899223605, 41.3527452721]}, "type": "Feature", "properties": {"collection_times": [{"days": "Mon-Fri", "time": "4:30pm"}, {"days": "Sat", "time": "12:00pm"}, {"days": "Sun", "time": "Closed"}], "id": "0642600016", "name": "USPS COLLECTION BOX - PO LOBBY", "address": {"city": "ESSEX", "state": "CT", "street": "12 MAIN ST", "postcode": "06426"}}},
{"geometry": {"type": "Point", "coordinates": [-72.6832768305, 41.2806262141]}, "type": "Feature", "properties": {"collection_times": [{"days": "Mon-Fri", "time": "5:00pm"}, {"days": "Sat", "time": "1:30pm"}, {"days": "Sun", "time": "Closed"}], "id": "0643700001", "name": "USPS COLLECTION BOX - BLUE BOX", "address": {"city": "GUILFORD", "state": "CT", "street": "42 WATER ST", "postcode": "06437"}}},
{"geometry": {"type": "Point", "coordinates": [-72.6960666325, 41.3090224581]}, "type": "Feature", "properties": {"collection_times": [{"days": "Mon-Fri", "time": "5:00pm"}, {"days": "Sat", "time": "1:30pm"}, {"days": "Sun", "time": "Closed"}], "id": "0643700005", "name": "USPS COLLECTION BOX - EXPRESS", "address": {"city": "GUILFORD", "state": "CT", "street": "42 WATER ST", "postcode": "06437"}}},
{"geometry": {"type": "Point", "coordinates": [-72.6960666328, 41.3090138143]}, "type": "Feature", "properties": {"collection_times": [{"days": "Mon-Sat", "time": "11:00am"}, {"days": "Sun", "time": "Closed"}], "id": "0643700007", "name": "USPS COLLECTION BOX - BLUE BOX", "address": {"city": "GUILFORD", "state": "CT", "street": "725 BOSTON POST RD", "postcode": "06437"}}},
{"geometry": {"type": "Point", "coordinates": [-72.682230652, 41.288300848]}, "type": "Feature", "properties": {"collection_times": [{"days": "Mon-Sat", "time": "1:00pm"}, {"days": "Sun", "time": "Closed"}], "id": "0643700008", "name": "USPS COLLECTION BOX - BLUE BOX", "address": {"city": "GUILFORD", "state": "CT", "street": "995 BOSTON POST RD", "postcode": "06437"}}},
{"geometry": {"type": "Point", "coordinates": [-72.6773188843, 41.2779716113]}, "type": "Feature", "properties": {"collection_times": [{"days": "Mon-Fri", "time": "3:00pm"}, {"days": "Sat", "time": "1:30pm"}, {"days": "Sun", "time": "Closed"}], "id": "0643700010", "name": "USPS COLLECTION BOX - BLUE BOX", "address": {"city": "GUILFORD", "state": "CT", "street": "87 WHITFIELD ST", "postcode": "06437"}}},
{"geometry": {"type": "Point", "coordinates": [-72.6808174588, 41.2824917404]}, "type": "Feature", "properties": {"collection_times": [{"days": "Mon-Sat", "time": "1:30pm"}, {"days": "Sun", "time": "Closed"}], "id": "0643700012", "name": "USPS COLLECTION BOX - BLUE BOX", "address": {"city": "GUILFORD", "state": "CT", "street": "31 PARK ST", "postcode": "06437"}}},
{"geometry": {"type": "Point", "coordinates": [-72.6471657834, 41.2856106326]}, "type": "Feature", "properties": {"collection_times": [{"days": "Mon-Fri", "time": "3:00pm"}, {"days": "Sat", "time": "1:30pm"}, {"days": "Sun", "time": "Closed"}], "id": "0643700014", "name": "USPS COLLECTION BOX - BLUE BOX", "address": {"city": "GUILFORD", "state": "CT", "street": "770 BOSTON POST RD", "postcode": "06437"}}},
{"geometry": {"type": "Point", "coordinates": [-72.6471657834, 41.2856106326]}, "type": "Feature", "properties": {"collection_times": [{"days": "Mon-Sat", "time": "1:00pm"}, {"days": "Sun", "time": "Closed"}], "id": "0643700015", "name": "USPS COLLECTION BOX - BLUE BOX", "address": {"city": "GUILFORD", "state": "CT", "street": "1067 BOSTON POST RD", "postcode": "06437"}}},
{"geometry": {"type": "Point", "coordinates": [-72.6861206639, 41.2928260699]}, "type": "Feature", "properties": {"collection_times": [{"days": "Mon-Sat", "time": "1:30pm"}, {"days": "Sun", "time": "Closed"}], "id": "0643700016", "name": "USPS COLLECTION BOX - BLUE BOX", "address": {"city": "GUILFORD", "state": "CT", "street": "264 CHURCH ST", "postcode": "06437"}}},
{"geometry": {"type": "Point", "coordinates": [-72.6873320138, 41.2993997729]}, "type": "Feature", "properties": {"collection_times": [{"days": "Mon-Sat", "time": "1:30pm"}, {"days": "Sun", "time": "Closed"}], "id": "0643700017", "name": "USPS COLLECTION BOX - BLUE BOX", "address": {"city": "GUILFORD", "state": "CT", "street": "5 DURHAM RD", "postcode": "06437"}}},
{"geometry": {"type": "Point", "coordinates": [-72.6960666328, 41.3090138143]}, "type": "Feature", "properties": {"collection_times": [{"days": "Mon-Sat", "time": "11:00am"}, {"days": "Sun", "time": "Closed"}], "id": "0643700018", "name": "USPS COLLECTION BOX - BLUE BOX", "address": {"city": "GUILFORD", "state": "CT", "street": "725 BOSTON POST RD", "postcode": "06437"}}},
{"geometry": {"type": "Point", "coordinates": [-72.6832768305, 41.2806262141]}, "type": "Feature", "properties": {"collection_times": [{"days": "Mon-Fri", "time": "5:00pm"}, {"days": "Sat", "time": "1:30pm"}, {"days": "Sun", "time": "Closed"}], "id": "0643700019", "name": "USPS COLLECTION BOX - PO LOBBY", "address": {"city": "GUILFORD", "state": "CT", "street": "42 WATER ST", "postcode": "06437"}}},
{"geometry": {"type": "Point", "coordinates": [-72.5038503465, 41.4740991529]}, "type": "Feature", "properties": {"collection_times": [{"days": "Mon-Fri", "time": "4:45pm"}, {"days": "Sat", "time": "11:45am"}, {"days": "Sun", "time": "Closed"}], "id": "0643800001", "name": "USPS COLLECTION BOX - BLUE BOX", "address": {"city": "HADDAM", "state": "CT", "street": "1050 SAYBROOK RD", "postcode": "06438"}}},
{"geometry": {"type": "Point", "coordinates": [-72.5038503465, 41.4740991529]}, "type": "Feature", "properties": {"collection_times": [{"days": "Mon-Fri", "time": "5:00pm"}, {"days": "Sat", "time": "12:00pm"}, {"days": "Sun", "time": "Closed"}], "id": "0643800003", "name": "USPS COLLECTION BOX - PO LOBBY", "address": {"city": "HADDAM", "state": "CT", "street": "1050 SAYBROOK RD", "postcode": "06438"}}},
{"geometry": {"type": "Point", "coordinates": [-72.401212975, 41.4231752514]}, "type": "Feature", "properties": {"collection_times": [{"days": "Mon-Fri", "time": "4:45pm"}, {"days": "Sat", "time": "12:00pm"}, {"days": "Sun", "time": "Closed"}], "id": "0643900001", "name": "USPS COLLECTION BOX - BLUE BOX", "address": {"city": "HADLYME", "state": "CT", "street": "1 FERRY RD", "postcode": "06439"}}},
{"geometry": {"type": "Point", "coordinates": [-72.401212975, 41.4231752514]}, "type": "Feature", "properties": {"collection_times": [{"days": "Mon-Fri", "time": "4:45pm"}, {"days": "Sat", "time": "12:00pm"}, {"days": "Sun", "time": "Closed"}], "id": "0643900002", "name": "USPS COLLECTION BOX - PO LOBBY", "address": {"city": "HADLYME", "state": "CT", "street": "1 FERRY RD", "postcode": "06439"}}},
{"geometry": {"type": "Point", "coordinates": [-73.3550342606, 41.4328152777]}, "type": "Feature", "properties": {"collection_times": [{"days": "Mon-Fri", "time": "5:00pm"}, {"days": "Sat", "time": "12:00pm"}, {"days": "Sun", "time": "Closed"}], "id": "0644000004", "name": "USPS COLLECTION BOX - PO LOBBY", "address": {"city": "HAWLEYVILLE", "state": "CT", "street": "23 BARNABAS RD", "postcode": "06440"}}},
{"geometry": {"type": "Point", "coordinates": [-73.3550342606, 41.4328152777]}, "type": "Feature", "properties": {"collection_times": [{"days": "Mon-Fri", "time": "5:00pm"}, {"days": "Sat", "time": "12:00pm"}, {"days": "Sun", "time": "Closed"}], "id": "0644000005", "name": "USPS COLLECTION BOX - BLUE BOX", "address": {"city": "HAWLEYVILLE", "state": "CT", "street": "23 BARNABAS RD", "postcode": "06440"}}},
{"geometry": {"type": "Point", "coordinates": [-72.558323241, 41.4946566137]}, "type": "Feature", "properties": {"collection_times": [{"days": "Mon-Fri", "time": "4:45pm"}, {"days": "Sat", "time": "11:45am"}, {"days": "Sun", "time": "Closed"}], "id": "0644100002", "name": "USPS COLLECTION BOX - BLUE BOX", "address": {"city": "HIGGANUM", "state": "CT", "street": "26 KILLINGWORTH RD", "postcode": "06441"}}},
{"geometry": {"type": "Point", "coordinates": [-72.558323241, 41.4946566137]}, "type": "Feature", "properties": {"collection_times": [{"days": "Mon-Fri", "time": "5:00pm"}, {"days": "Sat", "time": "12:00pm"}, {"days": "Sun", "time": "Closed"}], "id": "0644100003", "name": "USPS COLLECTION BOX - PO LOBBY", "address": {"city": "HIGGANUM", "state": "CT", "street": "26 KILLINGWORTH RD", "postcode": "06441"}}},
{"geometry": {"type": "Point", "coordinates": [-72.4394831833, 41.3480489603]}, "type": "Feature", "properties": {"collection_times": [{"days": "Mon-Fri", "time": "5:00pm"}, {"days": "Sat", "time": "12:00pm"}, {"days": "Sun", "time": "Closed"}], "id": "0644200002", "name": "USPS COLLECTION BOX - BLUE BOX", "address": {"city": "IVORYTON", "state": "CT", "street": "98 MAIN ST", "postcode": "06442"}}},
{"geometry": {"type": "Point", "coordinates": [-72.4531966302, 41.3435432025]}, "type": "Feature", "properties": {"collection_times": [{"days": "Mon-Fri", "time": "5:00pm"}, {"days": "Sat", "time": "12:00pm"}, {"days": "Sun", "time": "Closed"}], "id": "0644200003", "name": "USPS COLLECTION BOX - PO LOBBY", "address": {"city": "IVORYTON", "state": "CT", "street": "98 MAIN ST", "postcode": "06442"}}},
{"geometry": {"type": "Point", "coordinates": [-72.6112868852, 41.3040300467]}, "type": "Feature", "properties": {"collection_times": [{"days": "Mon-Fri", "time": "5:00pm"}, {"days": "Sat", "time": "12:00pm"}, {"days": "Sun", "time": "Closed"}], "id": "0644300001", "name": "USPS COLLECTION BOX - EXPRESS", "address": {"city": "MADISON", "state": "CT", "street": "781 BOSTON POST RD", "postcode": "06443"}}},
{"geometry": {"type": "Point", "coordinates": [-72.5948352694, 41.2797413608]}, "type": "Feature", "properties": {"collection_times": [{"days": "Mon-Fri", "time": "5:00pm"}, {"days": "Sat", "time": "12:00pm"}, {"days": "Sun", "time": "Closed"}], "id": "0644300004", "name": "USPS COLLECTION BOX - BLUE BOX", "address": {"city": "MADISON", "state": "CT", "street": "781 BOSTON POST RD", "postcode": "06443"}}},
{"geometry": {"type": "Point", "coordinates": [-72.5957561356, 41.2786696608]}, "type": "Feature", "properties": {"collection_times": [{"days": "Mon-Sat", "time": "1:30pm"}, {"days": "Sun", "time": "Closed"}], "id": "0644300006", "name": "USPS COLLECTION BOX - BLUE BOX", "address": {"city": "MADISON", "state": "CT", "street": "136 SAMSON ROCK DR", "postcode": "06443"}}},
{"geometry": {"type": "Point", "coordinates": [-72.5958060328, 41.2796037099]}, "type": "Feature", "properties": {"collection_times": [{"days": "Mon-Sat", "time": "1:30pm"}, {"days": "Sun", "time": "Closed"}], "id": "0644300007", "name": "USPS COLLECTION BOX - BLUE BOX", "address": {"city": "MADISON", "state": "CT", "street": "268 BOSTON POST RD", "postcode": "06443"}}},
{"geometry": {"type": "Point", "coordinates": [-72.6024440615, 41.2895788476]}, "type": "Feature", "properties": {"collection_times": [{"days": "Mon-Sat", "time": "1:30pm"}, {"days": "Sun", "time": "Closed"}], "id": "0644300009", "name": "USPS COLLECTION BOX - BLUE BOX", "address": {"city": "MADISON", "state": "CT", "street": "141 DURHAM RD", "postcode": "06443"}}},
{"geometry": {"type": "Point", "coordinates": [-72.6285259407, 41.2833186287]}, "type": "Feature", "properties": {"collection_times": [{"days": "Mon-Sat", "time": "1:30pm"}, {"days": "Sun", "time": "Closed"}], "id": "0644300010", "name": "USPS COLLECTION BOX - BLUE BOX", "address": {"city": "MADISON", "state": "CT", "street": "50 MUNGERTOWN RD", "postcode": "06443"}}},
{"geometry": {"type": "Point", "coordinates": [-72.6358828054, 41.3604961838]}, "type": "Feature", "properties": {"collection_times": [{"days": "Mon-Sat", "time": "1:30pm"}, {"days": "Sun", "time": "Closed"}], "id": "0644300011", "name": "USPS COLLECTION BOX - BLUE BOX", "address": {"city": "MADISON", "state": "CT", "street": "508 OLD TOLL RD", "postcode": "06443"}}},
{"geometry": {"type": "Point", "coordinates": [-72.5948352694, 41.2797413608]}, "type": "Feature", "properties": {"collection_times": [{"days": "Mon-Fri", "time": "5:00pm"}, {"days": "Sat", "time": "12:00pm"}, {"days": "Sun", "time": "Closed"}], "id": "0644300013", "name": "USPS COLLECTION BOX - PO LOBBY", "address": {"city": "MADISON", "state": "CT", "street": "781 BOSTON POST RD", "postcode": "06443"}}},
{"geometry": {"type": "Point", "coordinates": [-72.9257497522, 41.5638358092]}, "type": "Feature", "properties": {"collection_times": [{"days": "Mon-Fri", "time": "5:00pm"}, {"days": "Sat", "time": "12:00pm"}, {"days": "Sun", "time": "Closed"}], "id": "0644400001", "name": "USPS COLLECTION BOX - BLUE BOX", "address": {"city": "MARION", "state": "CT", "street": "2321 MERIDEN WATERBURY TPKE", "postcode": "06444"}}},
{"geometry": {"type": "Point", "coordinates": [-72.9257497522, 41.5638358092]}, "type": "Feature", "properties": {"collection_times": [{"days": "Mon-Fri", "time": "5:00pm"}, {"days": "Sat", "time": "12:00pm"}, {"days": "Sun", "time": "Closed"}], "id": "0644400003", "name": "USPS COLLECTION BOX - PO LOBBY", "address": {"city": "MARION", "state": "CT", "street": "2321 MERIDEN WATERBURY TPKE", "postcode": "06444"}}},
{"geometry": {"type": "Point", "coordinates": [-72.7935096787, 41.538899279]}, "type": "Feature", "properties": {"collection_times": [{"days": "Mon-Fri", "time": "5:00pm"}, {"days": "Sat", "time": "10:00am"}, {"days": "Sun", "time": "Closed"}], "id": "0645000001", "name": "USPS COLLECTION BOX - BLUE BOX", "address": {"city": "MERIDEN", "state": "CT", "street": "190 CENTER ST", "postcode": "06450"}}},
{"geometry": {"type": "Point", "coordinates": [-72.8028176218, 41.5363147266]}, "type": "Feature", "properties": {"collection_times": [{"days": "Mon-Sat", "time": "10:30am"}, {"days": "Sun", "time": "Closed"}], "id": "0645000011", "name": "USPS COLLECTION BOX - BLUE BOX", "address": {"city": "MERIDEN", "state": "CT", "street": "87 COLONY ST", "postcode": "06450"}}},
{"geometry": {"type": "Point", "coordinates": [-72.7972951474, 41.5385006219]}, "type": "Feature", "properties": {"collection_times": [{"days": "Mon-Fri", "time": "1:00pm"}, {"days": "Sat", "time": "10:00am"}, {"days": "Sun", "time": "Closed"}], "id": "0645000012", "name": "USPS COLLECTION BOX - BLUE BOX", "address": {"city": "MERIDEN", "state": "CT", "street": "71 CATLIN ST", "postcode": "06450"}}},
{"geometry": {"type": "Point", "coordinates": [-72.7976098145, 41.536566484]}, "type": "Feature", "properties": {"collection_times": [{"days": "Mon-Fri", "time": "1:00pm"}, {"days": "Sat-Sun", "time": "Closed"}], "id": "0645000013", "name": "USPS COLLECTION BOX - BLUE BOX", "address": {"city": "MERIDEN", "state": "CT", "street": "22 LIBERTY ST", "postcode": "06450"}}},
{"geometry": {"type": "Point", "coordinates": [-72.8012973221, 41.5377275778]}, "type": "Feature", "properties": {"collection_times": [{"days": "Mon-Sat", "time": "10:45am"}, {"days": "Sun", "time": "Closed"}], "id": "0645000016", "name": "USPS COLLECTION BOX - BLUE BOX", "address": {"city": "MERIDEN", "state": "CT", "street": "30 W MAIN", "postcode": "06450"}}},
{"geometry": {"type": "Point", "coordinates": [-72.8009104031, 41.5375825984]}, "type": "Feature", "properties": {"collection_times": [{"days": "Mon-Fri", "time": "11:00am"}, {"days": "Sat-Sun", "time": "Closed"}], "id": "0645000017", "name": "USPS COLLECTION BOX - BLUE BOX", "address": {"city": "MERIDEN", "state": "CT", "street": "50 W MAIN", "postcode": "06450"}}},
{"geometry": {"type": "Point", "coordinates": [-72.7994125898, 41.5370211155]}, "type": "Feature", "properties": {"collection_times": [{"days": "Mon-Fri", "time": "11:15am"}, {"days": "Sat-Sun", "time": "Closed"}], "id": "0645000018", "name": "USPS COLLECTION BOX - BLUE BOX", "address": {"city": "MERIDEN", "state": "CT", "street": "92 W MAIN", "postcode": "06450"}}},
{"geometry": {"type": "Point", "coordinates": [-72.8036990852, 41.550377001]}, "type": "Feature", "properties": {"collection_times": [{"days": "Mon-Fri", "time": "12:00pm"}, {"days": "Sat", "time": "10:00am"}, {"days": "Sun", "time": "Closed"}], "id": "0645000023", "name": "USPS COLLECTION BOX - BLUE BOX", "address": {"city": "MERIDEN", "state": "CT", "street": "470 LEWIS AVE", "postcode": "06450"}}},
{"geometry": {"type": "Point", "coordinates": [-72.8077016374, 41.5415455582]}, "type": "Feature", "properties": {"collection_times": [{"days": "Mon-Fri", "time": "12:00pm"}, {"days": "Sat", "time": "10:00am"}, {"days": "Sun", "time": "Closed"}], "id": "0645000025", "name": "USPS COLLECTION BOX - BLUE BOX", "address": {"city": "MERIDEN", "state": "CT", "street": "110 LEWIS AVE", "postcode": "06450"}}},
{"geometry": {"type": "Point", "coordinates": [-72.8155482042, 41.5353941716]}, "type": "Feature", "properties": {"collection_times": [{"days": "Mon-Fri", "time": "12:30pm"}, {"days": "Sat", "time": "10:00am"}, {"days": "Sun", "time": "Closed"}], "id": "0645000030", "name": "USPS COLLECTION BOX - BLUE BOX", "address": {"city": "MERIDEN", "state": "CT", "street": "75 WINTHROP TER", "postcode": "06450"}}},
{"geometry": {"type": "Point", "coordinates": [-72.7995025491, 41.5369840687]}, "type": "Feature", "properties": {"collection_times": [{"days": "Mon-Fri", "time": "12:15pm"}, {"days": "Sat", "time": "10:00am"}, {"days": "Sun", "time": "Closed"}], "id": "0645000036", "name": "USPS COLLECTION BOX - BLUE BOX", "address": {"city": "MERIDEN", "state": "CT", "street": "92 MAIN ST", "postcode": "06450"}}},
{"geometry": {"type": "Point", "coordinates": [-72.8050943959, 41.5368302838]}, "type": "Feature", "properties": {"collection_times": [{"days": "Mon-Fri", "time": "12:45pm"}, {"days": "Sat", "time": "10:00am"}, {"days": "Sun", "time": "Closed"}], "id": "0645000041", "name": "USPS COLLECTION BOX - BLUE BOX", "address": {"city": "MERIDEN", "state": "CT", "street": "80 HANOVER ST", "postcode": "06450"}}},
{"geometry": {"type": "Point", "coordinates": [-72.800305778, 41.5352297403]}, "type": "Feature", "properties": {"collection_times": [{"days": "Mon-Fri", "time": "1:00pm"}, {"days": "Sat", "time": "10:00am"}, {"days": "Sun", "time": "Closed"}], "id": "0645000044", "name": "USPS COLLECTION BOX - BLUE BOX", "address": {"city": "MERIDEN", "state": "CT", "street": "55 WILLOW ST", "postcode": "06450"}}},
{"geometry": {"type": "Point", "coordinates": [-72.7839878184, 41.5314824409]}, "type": "Feature", "properties": {"collection_times": [{"days": "Mon-Fri", "time": "1:00pm"}, {"days": "Sat", "time": "10:00am"}, {"days": "Sun", "time": "Closed"}], "id": "0645000046", "name": "USPS COLLECTION BOX - BLUE BOX", "address": {"city": "MERIDEN", "state": "CT", "street": "95 E MAIN ST", "postcode": "06450"}}},
{"geometry": {"type": "Point", "coordinates": [-72.7839878184, 41.5314824409]}, "type": "Feature", "properties": {"collection_times": [{"days": "Mon-Fri", "time": "1:30pm"}, {"days": "Sat", "time": "10:00am"}, {"days": "Sun", "time": "Closed"}], "id": "0645000050", "name": "USPS COLLECTION BOX - BLUE BOX", "address": {"city": "MERIDEN", "state": "CT", "street": "192 HALL AVE", "postcode": "06450"}}},
{"geometry": {"type": "Point", "coordinates": [-72.8087952045, 41.5082012306]}, "type": "Feature", "properties": {"collection_times": [{"days": "Mon-Fri", "time": "1:45pm"}, {"days": "Sat-Sun", "time": "Closed"}], "id": "0645000051", "name": "USPS COLLECTION BOX - BLUE BOX", "address": {"city": "MERIDEN", "state": "CT", "street": "546 S BROAD ST", "postcode": "06450"}}},
{"geometry": {"type": "Point", "coordinates": [-72.7839878184, 41.5314824409]}, "type": "Feature", "properties": {"collection_times": [{"days": "Mon-Fri", "time": "1:30pm"}, {"days": "Sat", "time": "10:00am"}, {"days": "Sun", "time": "Closed"}], "id": "0645000053", "name": "USPS COLLECTION BOX - BLUE BOX", "address": {"city": "MERIDEN", "state": "CT", "street": "189 CURTIS ST", "postcode": "06450"}}},
{"geometry": {"type": "Point", "coordinates": [-72.7935747415, 41.5168122522]}, "type": "Feature", "properties": {"collection_times": [{"days": "Mon-Fri", "time": "1:45pm"}, {"days": "Sat", "time": "10:00am"}, {"days": "Sun", "time": "Closed"}], "id": "0645000054", "name": "USPS COLLECTION BOX - BLUE BOX", "address": {"city": "MERIDEN", "state": "CT", "street": "164 SCOTT ST", "postcode": "06450"}}},
{"geometry": {"type": "Point", "coordinates": [-72.7917403324, 41.5099569782]}, "type": "Feature", "properties": {"collection_times": [{"days": "Mon-Fri", "time": "1:45pm"}, {"days": "Sat", "time": "10:00am"}, {"days": "Sun", "time": "Closed"}], "id": "0645000055", "name": "USPS COLLECTION BOX - BLUE BOX", "address": {"city": "MERIDEN", "state": "CT", "street": "28 REGIS DR", "postcode": "06450"}}},
{"geometry": {"type": "Point", "coordinates": [-72.8014961635, 41.5219110373]}, "type": "Feature", "properties": {"collection_times": [{"days": "Mon-Sat", "time": "9:30am"}, {"days": "Sun", "time": "Closed"}], "id": "0645000056", "name": "USPS COLLECTION BOX - BLUE BOX", "address": {"city": "MERIDEN", "state": "CT", "street": "360 BROAD ST", "postcode": "06450"}}},
{"geometry": {"type": "Point", "coordinates": [-72.785556751, 41.5346069834]}, "type": "Feature", "properties": {"collection_times": [{"days": "Mon-Fri", "time": "2:00pm"}, {"days": "Sat", "time": "10:00am"}, {"days": "Sun", "time": "Closed"}], "id": "0645000059", "name": "USPS COLLECTION BOX - BLUE BOX", "address": {"city": "MERIDEN", "state": "CT", "street": "334 LIBERTY ST", "postcode": "06450"}}},
{"geometry": {"type": "Point", "coordinates": [-72.7603834175, 41.5439031059]}, "type": "Feature", "properties": {"collection_times": [{"days": "Mon-Fri", "time": "2:15pm"}, {"days": "Sat-Sun", "time": "Closed"}], "id": "0645000061", "name": "USPS COLLECTION BOX - BLUE BOX", "address": {"city": "MERIDEN", "state": "CT", "street": "9 MATTABASSETT DR", "postcode": "06450"}}},
{"geometry": {"type": "Point", "coordinates": [-72.7631111822, 41.5208686185]}, "type": "Feature", "properties": {"collection_times": [{"days": "Mon-Fri", "time": "2:45pm"}, {"days": "Sat-Sun", "time": "Closed"}], "id": "0645000067", "name": "USPS COLLECTION BOX - BLUE BOX", "address": {"city": "MERIDEN", "state": "CT", "street": "1 PRESTIGE DR", "postcode": "06450"}}},
{"geometry": {"type": "Point", "coordinates": [-72.7630082648, 41.5181750209]}, "type": "Feature", "properties": {"collection_times": [{"days": "Mon-Fri", "time": "2:45pm"}, {"days": "Sat-Sun", "time": "Closed"}], "id": "0645000068", "name": "USPS COLLECTION BOX - BLUE BOX", "address": {"city": "MERIDEN", "state": "CT", "street": "300 RESEARCH PKWY", "postcode": "06450"}}},
{"geometry": {"type": "Point", "coordinates": [-72.7839878184, 41.5314824409]}, "type": "Feature", "properties": {"collection_times": [{"days": "Mon-Fri", "time": "12:00pm"}, {"days": "Sat-Sun", "time": "Closed"}], "id": "0645000069", "name": "USPS COLLECTION BOX - BLUE BOX", "address": {"city": "MERIDEN", "state": "CT", "street": "84 DEERFIELD LN", "postcode": "06450"}}},
{"geometry": {"type": "Point", "coordinates": [-72.7839878184, 41.5314824409]}, "type": "Feature", "properties": {"collection_times": [{"days": "Mon-Fri", "time": "2:15pm"}, {"days": "Sat", "time": "10:00am"}, {"days": "Sun", "time": "Closed"}], "id": "0645000073", "name": "USPS COLLECTION BOX - BLUE BOX", "address": {"city": "MERIDEN", "state": "CT", "street": "679 E MAIN ST", "postcode": "06450"}}},
{"geometry": {"type": "Point", "coordinates": [-72.7839878184, 41.5314824409]}, "type": "Feature", "properties": {"collection_times": [{"days": "Mon-Fri", "time": "4:30pm"}, {"days": "Sat", "time": "2:15pm"}, {"days": "Sun", "time": "Closed"}], "id": "0645000087", "name": "USPS COLLECTION BOX - EXPRESS", "address": {"city": "MERIDEN", "state": "CT", "street": "190 CENTER ST", "postcode": "06450"}}},
{"geometry": {"type": "Point", "coordinates": [-72.7843878821, 41.5315247128]}, "type": "Feature", "properties": {"collection_times": [{"days": "Mon-Fri", "time": "12:15pm"}, {"days": "Sat", "time": "10:00am"}, {"days": "Sun", "time": "Closed"}], "id": "0645000090", "name": "USPS COLLECTION BOX - BLUE BOX", "address": {"city": "MERIDEN", "state": "CT", "street": "566 W MAIN ST", "postcode": "06450"}}},
{"geometry": {"type": "Point", "coordinates": [-72.7839878184, 41.5314824409]}, "type": "Feature", "properties": {"collection_times": [{"days": "Mon-Fri", "time": "3:30pm"}, {"days": "Sat-Sun", "time": "Closed"}], "id": "0645000092", "name": "USPS COLLECTION BOX - BLUE BOX", "address": {"city": "MERIDEN", "state": "CT", "street": "290 PRATT ST", "postcode": "06450"}}},
{"geometry": {"type": "Point", "coordinates": [-72.7757985746, 41.5055167649]}, "type": "Feature", "properties": {"collection_times": [{"days": "Mon-Sat", "time": "11:00am"}, {"days": "Sun", "time": "Closed"}], "id": "0645000093", "name": "USPS COLLECTION BOX - BLUE BOX", "address": {"city": "MERIDEN", "state": "CT", "street": "883 PADDOCK AVE", "postcode": "06450"}}},
{"geometry": {"type": "Point", "coordinates": [-72.7839878184, 41.5314824409]}, "type": "Feature", "properties": {"collection_times": [{"days": "Mon-Fri", "time": "5:45pm"}, {"days": "Sat", "time": "4:30pm"}, {"days": "Sun", "time": "Closed"}], "id": "0645000094", "name": "USPS COLLECTION BOX - PO LOBBY", "address": {"city": "MERIDEN", "state": "CT", "street": "190 CENTER ST", "postcode": "06450"}}},
{"geometry": {"type": "Point", "coordinates": [-72.767872592, 41.5261848361]}, "type": "Feature", "properties": {"collection_times": [{"days": "Mon-Fri", "time": "9:00am"}, {"days": "Sat-Sun", "time": "Closed"}], "id": "0645000096", "name": "USPS COLLECTION BOX - BLUE BOX", "address": {"city": "MERIDEN", "state": "CT", "street": "1064 E MAIN ST", "postcode": "06450"}}},
{"geometry": {"type": "Point", "coordinates": [-72.8043724195, 41.5485887011]}, "type": "Feature", "properties": {"collection_times": [{"days": "Mon-Sat", "time": "10:00am"}, {"days": "Sun", "time": "Closed"}], "id": "0645000100", "name": "USPS COLLECTION BOX - BLUE BOX", "address": {"city": "MERIDEN", "state": "CT", "street": "435 LEWIS AVE", "postcode": "06450"}}},
{"geometry": {"type": "Point", "coordinates": [-72.7924745896, 41.5333003343]}, "type": "Feature", "properties": {"collection_times": [{"days": "Mon-Sat", "time": "10:00am"}, {"days": "Sun", "time": "Closed"}], "id": "0645000103", "name": "USPS COLLECTION BOX - BLUE BOX", "address": {"city": "MERIDEN", "state": "CT", "street": "485 BROAD ST", "postcode": "06450"}}},
{"geometry": {"type": "Point", "coordinates": [-72.7501934819, 41.5263450192]}, "type": "Feature", "properties": {"collection_times": [{"days": "Mon-Fri", "time": "2:30pm"}, {"days": "Sat-Sun", "time": "Closed"}], "id": "0645000104", "name": "USPS COLLECTION BOX - BLUE BOX", "address": {"city": "MERIDEN", "state": "CT", "street": "1501 E MAIN ST", "postcode": "06450"}}},
{"geometry": {"type": "Point", "coordinates": [-72.8079299039, 41.509525925]}, "type": "Feature", "properties": {"collection_times": [{"days": "Mon-Fri", "time": "1:45pm"}, {"days": "Sat-Sun", "time": "Closed"}], "id": "0645000106", "name": "USPS COLLECTION BOX - BLUE BOX", "address": {"city": "MERIDEN", "state": "CT", "street": "477 S BROAD ST", "postcode": "06450"}}},
{"geometry": {"type": "Point", "coordinates": [-72.7814304847, 41.5520833567]}, "type": "Feature", "properties": {"collection_times": [{"days": "Mon-Sat", "time": "9:00am"}, {"days": "Sun", "time": "Closed"}], "id": "0645000107", "name": "USPS COLLECTION BOX - BLUE BOX", "address": {"city": "MERIDEN", "state": "CT", "street": "27 BLACKSTONE ST", "postcode": "06450"}}},
{"geometry": {"type": "Point", "coordinates": [-72.7120215504, 41.5144037477]}, "type": "Feature", "properties": {"collection_times": [{"days": "Mon-Fri", "time": "5:00pm"}, {"days": "Sat", "time": "12:00pm"}, {"days": "Sun", "time": "Closed"}], "id": "0645500001", "name": "USPS COLLECTION BOX - BLUE BOX", "address": {"city": "MIDDLEFIELD", "state": "CT", "street": "456 MAIN ST", "postcode": "06455"}}},
{"geometry": {"type": "Point", "coordinates": [-72.7120215504, 41.5144037477]}, "type": "Feature", "properties": {"collection_times": [{"days": "Mon-Fri", "time": "5:00pm"}, {"days": "Sat", "time": "12:00pm"}, {"days": "Sun", "time": "Closed"}], "id": "0645500005", "name": "USPS COLLECTION BOX - PO LOBBY", "address": {"city": "MIDDLEFIELD", "state": "CT", "street": "456 MAIN ST", "postcode": "06455"}}},
{"geometry": {"type": "Point", "coordinates": [-72.5563472285, 41.5561914697]}, "type": "Feature", "properties": {"collection_times": [{"days": "Mon-Fri", "time": "1:00pm"}, {"days": "Sat", "time": "12:00pm"}, {"days": "Sun", "time": "Closed"}], "id": "0645600002", "name": "USPS COLLECTION BOX - PO LOBBY", "address": {"city": "MIDDLE HADDAM", "state": "CT", "street": "77 MIDDLE HADDAM RD", "postcode": "06456"}}},
{"geometry": {"type": "Point", "coordinates": [-72.6507785818, 41.558128277]}, "type": "Feature", "properties": {"collection_times": [{"days": "Mon-Sat", "time": "12:15pm"}, {"days": "Sun", "time": "Closed"}], "id": "0645700003", "name": "USPS COLLECTION BOX - BLUE BOX", "address": {"city": "MIDDLETOWN", "state": "CT", "street": "70 BROAD ST", "postcode": "06457"}}},
{"geometry": {"type": "Point", "coordinates": [-72.6549686225, 41.569140442]}, "type": "Feature", "properties": {"collection_times": [{"days": "Mon-Sat", "time": "12:00pm"}, {"days": "Sun", "time": "Closed"}], "id": "0645700012", "name": "USPS COLLECTION BOX - BLUE BOX", "address": {"city": "MIDDLETOWN", "state": "CT", "street": "90 S MAIN ST", "postcode": "06457"}}},
{"geometry": {"type": "Point", "coordinates": [-72.6518726905, 41.5638739929]}, "type": "Feature", "properties": {"collection_times": [{"days": "Mon-Sat", "time": "3:00pm"}, {"days": "Sun", "time": "Closed"}], "id": "0645700014", "name": "USPS COLLECTION BOX - BLUE BOX", "address": {"city": "MIDDLETOWN", "state": "CT", "street": "575 MAIN ST", "postcode": "06457"}}},
{"geometry": {"type": "Point", "coordinates": [-72.6700619959, 41.5652556048]}, "type": "Feature", "properties": {"collection_times": [{"days": "Mon-Sat", "time": "12:45pm"}, {"days": "Sun", "time": "Closed"}], "id": "0645700016", "name": "USPS COLLECTION BOX - BLUE BOX", "address": {"city": "MIDDLETOWN", "state": "CT", "street": "221 NEWFIELD ST", "postcode": "06457"}}},
{"geometry": {"type": "Point", "coordinates": [-72.6508542912, 41.5600162795]}, "type": "Feature", "properties": {"collection_times": [{"days": "Mon-Sat", "time": "1:30pm"}, {"days": "Sun", "time": "Closed"}], "id": "0645700027", "name": "USPS COLLECTION BOX - BLUE BOX", "address": {"city": "MIDDLETOWN", "state": "CT", "street": "181 COURT ST", "postcode": "06457"}}},
{"geometry": {"type": "Point", "coordinates": [-72.6499008263, 41.5505289486]}, "type": "Feature", "properties": {"collection_times": [{"days": "Mon-Fri", "time": "1:15pm"}, {"days": "Sat-Sun", "time": "Closed"}], "id": "0645700028", "name": "USPS COLLECTION BOX - BLUE BOX", "address": {"city": "MIDDLETOWN", "state": "CT", "street": "210 MAIN ST", "postcode": "06457"}}},
{"geometry": {"type": "Point", "coordinates": [-72.7146690265, 41.5910123001]}, "type": "Feature", "properties": {"collection_times": [{"days": "Mon-Fri", "time": "2:00pm"}, {"days": "Sat-Sun", "time": "Closed"}], "id": "0645700030", "name": "USPS COLLECTION BOX - BLUE BOX", "address": {"city": "MIDDLETOWN", "state": "CT", "street": "100 ROSCOMMON DR", "postcode": "06457"}}},
{"geometry": {"type": "Point", "coordinates": [-72.6524962198, 41.5421056322]}, "type": "Feature", "properties": {"collection_times": [{"days": "Mon-Sat", "time": "12:00pm"}, {"days": "Sun", "time": "Closed"}], "id": "0645700038", "name": "USPS COLLECTION BOX - BLUE BOX", "address": {"city": "MIDDLETOWN", "state": "CT", "street": "522 S MAIN ST", "postcode": "06457"}}},
{"geometry": {"type": "Point", "coordinates": [-72.6801108387, 41.5545262364]}, "type": "Feature", "properties": {"collection_times": [{"days": "Mon-Sat", "time": "12:30pm"}, {"days": "Sun", "time": "Closed"}], "id": "0645700040", "name": "USPS COLLECTION BOX - BLUE BOX", "address": {"city": "MIDDLETOWN", "state": "CT", "street": "820 WASHINGTON ST", "postcode": "06457"}}},
{"geometry": {"type": "Point", "coordinates": [-72.7130909453, 41.5900220337]}, "type": "Feature", "properties": {"collection_times": [{"days": "Mon-Fri", "time": "2:00pm"}, {"days": "Sat-Sun", "time": "Closed"}], "id": "0645700045", "name": "USPS COLLECTION BOX - BLUE BOX", "address": {"city": "MIDDLETOWN", "state": "CT", "street": "14 INDUSTRIAL PARK PL", "postcode": "06457"}}},
{"geometry": {"type": "Point", "coordinates": [-72.716291696, 41.584663295]}, "type": "Feature", "properties": {"collection_times": [{"days": "Mon-Fri", "time": "2:00pm"}, {"days": "Sat-Sun", "time": "Closed"}], "id": "0645700046", "name": "USPS COLLECTION BOX - BLUE BOX", "address": {"city": "MIDDLETOWN", "state": "CT", "street": "25 INDUSTRIAL PARK RD", "postcode": "06457"}}},
{"geometry": {"type": "Point", "coordinates": [-72.6473054143, 41.5551389397]}, "type": "Feature", "properties": {"collection_times": [{"days": "Mon-Fri", "time": "12:15pm"}, {"days": "Sat-Sun", "time": "Closed"}], "id": "0645700051", "name": "USPS COLLECTION BOX - BLUE BOX", "address": {"city": "MIDDLETOWN", "state": "CT", "street": "28 CRESCENT CRES", "postcode": "06457"}}},
{"geometry": {"type": "Point", "coordinates": [-72.7018401265, 41.5797391643]}, "type": "Feature", "properties": {"collection_times": [{"days": "Mon-Fri", "time": "12:00pm"}, {"days": "Sat-Sun", "time": "Closed"}], "id": "0645700057", "name": "USPS COLLECTION BOX - BLUE BOX", "address": {"city": "MIDDLETOWN", "state": "CT", "street": "598 EAST ST", "postcode": "06457"}}},
{"geometry": {"type": "Point", "coordinates": [-72.6401585926, 41.5518091865]}, "type": "Feature", "properties": {"collection_times": [{"days": "Mon-Fri", "time": "5:00pm"}, {"days": "Sat", "time": "3:00pm"}, {"days": "Sun", "time": "Closed"}], "id": "0645700072", "name": "USPS COLLECTION BOX - BLUE BOX", "address": {"city": "MIDDLETOWN", "state": "CT", "street": "11 SILVER ST", "postcode": "06457"}}},
{"geometry": {"type": "Point", "coordinates": [-72.6401585926, 41.5518091865]}, "type": "Feature", "properties": {"collection_times": [{"days": "Mon-Fri", "time": "5:00pm"}, {"days": "Sat", "time": "3:00pm"}, {"days": "Sun", "time": "Closed"}], "id": "0645700085", "name": "USPS COLLECTION BOX - PO LOBBY", "address": {"city": "MIDDLETOWN", "state": "CT", "street": "11 SILVER ST", "postcode": "06457"}}},
{"geometry": {"type": "Point", "coordinates": [-72.6808269225, 41.5945220096]}, "type": "Feature", "properties": {"collection_times": [{"days": "Mon-Fri", "time": "3:00pm"}, {"days": "Sat-Sun", "time": "Closed"}], "id": "0645700091", "name": "USPS COLLECTION BOX - BLUE BOX", "address": {"city": "MIDDLETOWN", "state": "CT", "street": "19 TUTTLE PL", "postcode": "06457"}}},
{"geometry": {"type": "Point", "coordinates": [-72.626136511, 41.5424149818]}, "type": "Feature", "properties": {"collection_times": [{"days": "Mon-Sat", "time": "12:00pm"}, {"days": "Sun", "time": "Closed"}], "id": "0645700092", "name": "USPS COLLECTION BOX - BLUE BOX", "address": {"city": "MIDDLETOWN", "state": "CT", "street": "400 SAYBROOK RD", "postcode": "06457"}}},
{"geometry": {"type": "Point", "coordinates": [-73.0497457352, 41.2153224607]}, "type": "Feature", "properties": {"collection_times": [{"days": "Mon-Fri", "time": "5:00pm"}, {"days": "Sat", "time": "12:30pm"}, {"days": "Sun", "time": "Closed"}], "id": "0646000001", "name": "USPS COLLECTION BOX - BLUE BOX", "address": {"city": "MILFORD", "state": "CT", "street": "6 W RIVER ST", "postcode": "06460"}}},
{"geometry": {"type": "Point", "coordinates": [-72.9944376248, 41.2249076639]}, "type": "Feature", "properties": {"collection_times": [{"days": "Mon-Sat", "time": "10:00am"}, {"days": "Sun", "time": "Closed"}], "id": "0646000007", "name": "USPS COLLECTION BOX - BLUE BOX", "address": {"city": "MILFORD", "state": "CT", "street": "27 VILLAGE RD", "postcode": "06460"}}},
{"geometry": {"type": "Point", "coordinates": [-73.0156871167, 41.2333362465]}, "type": "Feature", "properties": {"collection_times": [{"days": "Mon-Fri", "time": "5:00pm"}, {"days": "Sat", "time": "2:00pm"}, {"days": "Sun", "time": "Closed"}], "id": "0646000010", "name": "USPS COLLECTION BOX - BLUE BOX", "address": {"city": "MILFORD", "state": "CT", "street": "300 PEPES FARM RD", "postcode": "06460"}}},
{"geometry": {"type": "Point", "coordinates": [-73.0541752123, 41.2266975978]}, "type": "Feature", "properties": {"collection_times": [{"days": "Mon-Sat", "time": "10:00am"}, {"days": "Sun", "time": "Closed"}], "id": "0646000011", "name": "USPS COLLECTION BOX - BLUE BOX", "address": {"city": "MILFORD", "state": "CT", "street": "51 CHERRY ST", "postcode": "06460"}}},
{"geometry": {"type": "Point", "coordinates": [-73.0486815325, 41.2292248283]}, "type": "Feature", "properties": {"collection_times": [{"days": "Mon-Sat", "time": "10:00am"}, {"days": "Sun", "time": "Closed"}], "id": "0646000012", "name": "USPS COLLECTION BOX - BLUE BOX", "address": {"city": "MILFORD", "state": "CT", "street": "167 CHERRY ST", "postcode": "06460"}}},
{"geometry": {"type": "Point", "coordinates": [-73.0479570543, 41.2297660764]}, "type": "Feature", "properties": {"collection_times": [{"days": "Mon-Sat", "time": "10:00am"}, {"days": "Sun", "time": "Closed"}], "id": "0646000013", "name": "USPS COLLECTION BOX - BLUE BOX", "address": {"city": "MILFORD", "state": "CT", "street": "215 CHERRY ST", "postcode": "06460"}}},
{"geometry": {"type": "Point", "coordinates": [-73.0387594648, 41.2363515628]}, "type": "Feature", "properties": {"collection_times": [{"days": "Mon-Sat", "time": "10:00am"}, {"days": "Sun", "time": "Closed"}], "id": "0646000014", "name": "USPS COLLECTION BOX - BLUE BOX", "address": {"city": "MILFORD", "state": "CT", "street": "1201 BOSTON POST RD", "postcode": "06460"}}},
{"geometry": {"type": "Point", "coordinates": [-72.9960974239, 41.228753484]}, "type": "Feature", "properties": {"collection_times": [{"days": "Mon-Sat", "time": "10:00am"}, {"days": "Sun", "time": "Closed"}], "id": "0646000017", "name": "USPS COLLECTION BOX - BLUE BOX", "address": {"city": "MILFORD", "state": "CT", "street": "1370 NEW HAVEN AVE", "postcode": "06460"}}},
{"geometry": {"type": "Point", "coordinates": [-73.0199552327, 41.209309167]}, "type": "Feature", "properties": {"collection_times": [{"days": "Mon-Sat", "time": "10:00am"}, {"days": "Sun", "time": "Closed"}], "id": "0646000019", "name": "USPS COLLECTION BOX - BLUE BOX", "address": {"city": "MILFORD", "state": "CT", "street": "204 MELBA ST", "postcode": "06460"}}},
{"geometry": {"type": "Point", "coordinates": [-73.0289759489, 41.2252768661]}, "type": "Feature", "properties": {"collection_times": [{"days": "Mon-Sat", "time": "10:00am"}, {"days": "Sun", "time": "Closed"}], "id": "0646000021", "name": "USPS COLLECTION BOX - BLUE BOX", "address": {"city": "MILFORD", "state": "CT", "street": "587 NEW HAVEN AVE", "postcode": "06460"}}},
{"geometry": {"type": "Point", "coordinates": [-73.0583818303, 41.2324082535]}, "type": "Feature", "properties": {"collection_times": [{"days": "Mon-Sat", "time": "10:00am"}, {"days": "Sun", "time": "Closed"}], "id": "0646000023", "name": "USPS COLLECTION BOX - BLUE BOX", "address": {"city": "MILFORD", "state": "CT", "street": "714 BOSTON POST RD", "postcode": "06460"}}},
{"geometry": {"type": "Point", "coordinates": [-73.0712234913, 41.2255369981]}, "type": "Feature", "properties": {"collection_times": [{"days": "Mon-Sat", "time": "10:00am"}, {"days": "Sun", "time": "Closed"}], "id": "0646000026", "name": "USPS COLLECTION BOX - BLUE BOX", "address": {"city": "MILFORD", "state": "CT", "street": "370 BOSTON POST RD", "postcode": "06460"}}},
{"geometry": {"type": "Point", "coordinates": [-73.0804825111, 41.1976771315]}, "type": "Feature", "properties": {"collection_times": [{"days": "Mon-Sat", "time": "10:00am"}, {"days": "Sun", "time": "Closed"}], "id": "0646000030", "name": "USPS COLLECTION BOX - BLUE BOX", "address": {"city": "MILFORD", "state": "CT", "street": "100 VISCOUNT DR", "postcode": "06460"}}},
{"geometry": {"type": "Point", "coordinates": [-73.0872220923, 41.207396151]}, "type": "Feature", "properties": {"collection_times": [{"days": "Mon-Sat", "time": "10:00am"}, {"days": "Sun", "time": "Closed"}], "id": "0646000032", "name": "USPS COLLECTION BOX - BLUE BOX", "address": {"city": "MILFORD", "state": "CT", "street": "565 BRIDGEPORT AVE", "postcode": "06460"}}},
{"geometry": {"type": "Point", "coordinates": [-73.0497457352, 41.2153224607]}, "type": "Feature", "properties": {"collection_times": [{"days": "Mon-Sat", "time": "10:00am"}, {"days": "Sun", "time": "Closed"}], "id": "0646000033", "name": "USPS COLLECTION BOX - BLUE BOX", "address": {"city": "MILFORD", "state": "CT", "street": "949 BRIDGEPORT AVE", "postcode": "06460"}}},
{"geometry": {"type": "Point", "coordinates": [-73.0661623283, 41.217118393]}, "type": "Feature", "properties": {"collection_times": [{"days": "Mon-Sat", "time": "10:00am"}, {"days": "Sun", "time": "Closed"}], "id": "0646000034", "name": "USPS COLLECTION BOX - BLUE BOX", "address": {"city": "MILFORD", "state": "CT", "street": "2047 BRIDGEPORT AVE", "postcode": "06460"}}},
{"geometry": {"type": "Point", "coordinates": [-73.057693724, 41.2219938034]}, "type": "Feature", "properties": {"collection_times": [{"days": "Mon-Fri", "time": "4:30pm"}, {"days": "Sat", "time": "10:00am"}, {"days": "Sun", "time": "Closed"}], "id": "0646000037", "name": "USPS COLLECTION BOX - BLUE BOX", "address": {"city": "MILFORD", "state": "CT", "street": "33 BROAD ST", "postcode": "06460"}}},
{"geometry": {"type": "Point", "coordinates": [-73.0589785626, 41.2209117918]}, "type": "Feature", "properties": {"collection_times": [{"days": "Mon-Fri", "time": "4:30pm"}, {"days": "Sat", "time": "10:00am"}, {"days": "Sun", "time": "Closed"}], "id": "0646000038", "name": "USPS COLLECTION BOX - BLUE BOX", "address": {"city": "MILFORD", "state": "CT", "street": "100 BROAD ST", "postcode": "06460"}}},
{"geometry": {"type": "Point", "coordinates": [-73.0644013669, 41.2189774906]}, "type": "Feature", "properties": {"collection_times": [{"days": "Mon-Sat", "time": "10:00am"}, {"days": "Sun", "time": "Closed"}], "id": "0646000039", "name": "USPS COLLECTION BOX - BLUE BOX", "address": {"city": "MILFORD", "state": "CT", "street": "1 GOLDEN HILL ST", "postcode": "06460"}}},
{"geometry": {"type": "Point", "coordinates": [-73.0497457352, 41.2153224607]}, "type": "Feature", "properties": {"collection_times": [{"days": "Mon-Sat", "time": "10:00am"}, {"days": "Sun", "time": "Closed"}], "id": "0646000040", "name": "USPS COLLECTION BOX - BLUE BOX", "address": {"city": "MILFORD", "state": "CT", "street": "95 JEPSON DR", "postcode": "06460"}}},
{"geometry": {"type": "Point", "coordinates": [-73.0653254646, 41.2211619282]}, "type": "Feature", "properties": {"collection_times": [{"days": "Mon-Sat", "time": "10:00am"}, {"days": "Sun", "time": "Closed"}], "id": "0646000041", "name": "USPS COLLECTION BOX - BLUE BOX", "address": {"city": "MILFORD", "state": "CT", "street": "7 JEPSON DR", "postcode": "06460"}}},
{"geometry": {"type": "Point", "coordinates": [-73.1015498273, 41.2014614172]}, "type": "Feature", "properties": {"collection_times": [{"days": "Mon-Fri", "time": "5:00pm"}, {"days": "Sat", "time": "10:00am"}, {"days": "Sun", "time": "Closed"}], "id": "0646000042", "name": "USPS COLLECTION BOX - BLUE BOX", "address": {"city": "MILFORD", "state": "CT", "street": "548 NAUGATUCK AVE", "postcode": "06460"}}},
{"geometry": {"type": "Point", "coordinates": [-73.0192844949, 41.2372908784]}, "type": "Feature", "properties": {"collection_times": [{"days": "Mon-Sat", "time": "10:00am"}, {"days": "Sun", "time": "Closed"}], "id": "0646000044", "name": "USPS COLLECTION BOX - BLUE BOX", "address": {"city": "MILFORD", "state": "CT", "street": "15 RESEARCH DR", "postcode": "06460"}}},
{"geometry": {"type": "Point", "coordinates": [-73.0589768038, 41.226611349]}, "type": "Feature", "properties": {"collection_times": [{"days": "Mon-Fri", "time": "4:30pm"}, {"days": "Sat", "time": "10:00am"}, {"days": "Sun", "time": "Closed"}], "id": "0646000045", "name": "USPS COLLECTION BOX - BLUE BOX", "address": {"city": "MILFORD", "state": "CT", "street": "70 W RIVER ST", "postcode": "06460"}}},
{"geometry": {"type": "Point", "coordinates": [-73.065546187, 41.217417687]}, "type": "Feature", "properties": {"collection_times": [{"days": "Mon-Sat", "time": "10:00am"}, {"days": "Sun", "time": "Closed"}], "id": "0646000047", "name": "USPS COLLECTION BOX - BLUE BOX", "address": {"city": "MILFORD", "state": "CT", "street": "2044 BRIDGEPORT AVE", "postcode": "06460"}}},
{"geometry": {"type": "Point", "coordinates": [-73.0712234913, 41.2255369981]}, "type": "Feature", "properties": {"collection_times": [{"days": "Mon-Sat", "time": "10:00am"}, {"days": "Sun", "time": "Closed"}], "id": "0646000050", "name": "USPS COLLECTION BOX - BLUE BOX", "address": {"city": "MILFORD", "state": "CT", "street": "370 BOSTON POST RD", "postcode": "06460"}}},
{"geometry": {"type": "Point", "coordinates": [-73.0342917627, 41.2415650303]}, "type": "Feature", "properties": {"collection_times": [{"days": "Mon-Sat", "time": "10:00am"}, {"days": "Sun", "time": "Closed"}], "id": "0646000053", "name": "USPS COLLECTION BOX - BLUE BOX", "address": {"city": "MILFORD", "state": "CT", "street": "70 TURNPIKE SQ", "postcode": "06460"}}},
{"geometry": {"type": "Point", "coordinates": [-73.0156871167, 41.2333362465]}, "type": "Feature", "properties": {"collection_times": [{"days": "Mon-Fri", "time": "5:00pm"}, {"days": "Sat", "time": "4:00pm"}, {"days": "Sun", "time": "Closed"}], "id": "0646000056", "name": "USPS COLLECTION BOX - PO LOBBY", "address": {"city": "MILFORD", "state": "CT", "street": "300 PEPES FARM RD", "postcode": "06460"}}},
{"geometry": {"type": "Point", "coordinates": [-73.0497457352, 41.2153224607]}, "type": "Feature", "properties": {"collection_times": [{"days": "Mon-Fri", "time": "5:00pm"}, {"days": "Sat-Sun", "time": "Closed"}], "id": "0646000057", "name": "USPS COLLECTION BOX - PO LOBBY", "address": {"city": "MILFORD", "state": "CT", "street": "6 W RIVER ST", "postcode": "06460"}}},
{"geometry": {"type": "Point", "coordinates": [-73.0570657193, 41.2255141465]}, "type": "Feature", "properties": {"collection_times": [{"days": "Mon-Sat", "time": "10:00am"}, {"days": "Sun", "time": "Closed"}], "id": "0646000061", "name": "USPS COLLECTION BOX - BLUE BOX", "address": {"city": "MILFORD", "state": "CT", "street": "265 BIC DR", "postcode": "06460"}}},
{"geometry": {"type": "Point", "coordinates": [-73.0156871167, 41.2333362465]}, "type": "Feature", "properties": {"collection_times": [{"days": "Mon-Fri", "time": "5:00pm"}, {"days": "Sat", "time": "4:00pm"}, {"days": "Sun", "time": "Closed"}], "id": "0646000062", "name": "USPS COLLECTION BOX - APC", "address": {"city": "MILFORD", "state": "CT", "street": "300 PEPES FARM RD", "postcode": "06460"}}},
{"geometry": {"type": "Point", "coordinates": [-72.8990333108, 41.5650221647]}, "type": "Feature", "properties": {"collection_times": [{"days": "Mon-Fri", "time": "4:30pm"}, {"days": "Sat", "time": "11:30am"}, {"days": "Sun", "time": "Closed"}], "id": "0646700001", "name": "USPS COLLECTION BOX - BLUE BOX", "address": {"city": "MILLDALE", "state": "CT", "street": "223 CLARK ST", "postcode": "06467"}}},
{"geometry": {"type": "Point", "coordinates": [-72.8990333108, 41.5650221647]}, "type": "Feature", "properties": {"collection_times": [{"days": "Mon-Fri", "time": "4:30pm"}, {"days": "Sat", "time": "12:00pm"}, {"days": "Sun", "time": "Closed"}], "id": "0646700002", "name": "USPS COLLECTION BOX - PO LOBBY", "address": {"city": "MILLDALE", "state": "CT", "street": "223 CLARK ST", "postcode": "06467"}}},
{"geometry": {"type": "Point", "coordinates": [-73.2233413675, 41.3025594563]}, "type": "Feature", "properties": {"collection_times": [{"days": "Mon-Fri", "time": "5:30pm"}, {"days": "Sat", "time": "2:30pm"}, {"days": "Sun", "time": "Closed"}], "id": "0646800003", "name": "USPS COLLECTION BOX - BLUE BOX", "address": {"city": "MONROE", "state": "CT", "street": "270 MONROE TPKE", "postcode": "06468"}}},
{"geometry": {"type": "Point", "coordinates": [-73.264586816, 41.3324071331]}, "type": "Feature", "properties": {"collection_times": [{"days": "Mon-Sat", "time": "10:00am"}, {"days": "Sun", "time": "Closed"}], "id": "0646800006", "name": "USPS COLLECTION BOX - BLUE BOX", "address": {"city": "MONROE", "state": "CT", "street": "600 MAIN ST", "postcode": "06468"}}},
{"geometry": {"type": "Point", "coordinates": [-73.2288294819, 41.3325941129]}, "type": "Feature", "properties": {"collection_times": [{"days": "Mon-Fri", "time": "10:00am"}, {"days": "Sat-Sun", "time": "Closed"}], "id": "0646800007", "name": "USPS COLLECTION BOX - BLUE BOX", "address": {"city": "MONROE", "state": "CT", "street": "301A FAIRMOUNT DR", "postcode": "06468"}}},
{"geometry": {"type": "Point", "coordinates": [-73.2288294816, 41.3325941589]}, "type": "Feature", "properties": {"collection_times": [{"days": "Mon-Fri", "time": "10:00am"}, {"days": "Sat-Sun", "time": "Closed"}], "id": "0646800008", "name": "USPS COLLECTION BOX - BLUE BOX", "address": {"city": "MONROE", "state": "CT", "street": "676 MAIN ST", "postcode": "06468"}}},
{"geometry": {"type": "Point", "coordinates": [-73.2074341183, 41.3325652104]}, "type": "Feature", "properties": {"collection_times": [{"days": "Mon-Fri", "time": "1:30pm"}, {"days": "Sat", "time": "12:00pm"}, {"days": "Sun", "time": "Closed"}], "id": "0646800009", "name": "USPS COLLECTION BOX - BLUE BOX", "address": {"city": "MONROE", "state": "CT", "street": "7 FAN HILL RD", "postcode": "06468"}}},
{"geometry": {"type": "Point", "coordinates": [-73.220951102, 41.3118952574]}, "type": "Feature", "properties": {"collection_times": [{"days": "Mon-Fri", "time": "10:00am"}, {"days": "Sat-Sun", "time": "Closed"}], "id": "0646800010", "name": "USPS COLLECTION BOX - BLUE BOX", "address": {"city": "MONROE", "state": "CT", "street": "401 MONROE TPKE", "postcode": "06468"}}},
{"geometry": {"type": "Point", "coordinates": [-73.2187656822, 41.3139584489]}, "type": "Feature", "properties": {"collection_times": [{"days": "Mon-Sat", "time": "10:00am"}, {"days": "Sun", "time": "Closed"}], "id": "0646800012", "name": "USPS COLLECTION BOX - BLUE BOX", "address": {"city": "MONROE", "state": "CT", "street": "447 MONROE TPKE", "postcode": "06468"}}},
{"geometry": {"type": "Point", "coordinates": [-73.2609700113, 41.3431626043]}, "type": "Feature", "properties": {"collection_times": [{"days": "Mon-Sat", "time": "10:00am"}, {"days": "Sun", "time": "Closed"}], "id": "0646800014", "name": "USPS COLLECTION BOX - BLUE BOX", "address": {"city": "MONROE", "state": "CT", "street": "755 MAIN ST", "postcode": "06468"}}},
{"geometry": {"type": "Point", "coordinates": [-73.2288294819, 41.3325941129]}, "type": "Feature", "properties": {"collection_times": [{"days": "Mon-Sat", "time": "10:00am"}, {"days": "Sun", "time": "Closed"}], "id": "0646800015", "name": "USPS COLLECTION BOX - EXPRESS", "address": {"city": "MONROE", "state": "CT", "street": "755 MAIN ST", "postcode": "06468"}}},
{"geometry": {"type": "Point", "coordinates": [-73.2233413675, 41.3025594563]}, "type": "Feature", "properties": {"collection_times": [{"days": "Mon-Fri", "time": "5:30pm"}, {"days": "Sat", "time": "2:30pm"}, {"days": "Sun", "time": "Closed"}], "id": "0646800019", "name": "USPS COLLECTION BOX - BLUE BOX", "address": {"city": "MONROE", "state": "CT", "street": "270 MONROE TPKE", "postcode": "06468"}}},
{"geometry": {"type": "Point", "coordinates": [-73.2288294819, 41.3325941129]}, "type": "Feature", "properties": {"collection_times": [{"days": "Mon-Fri", "time": "3:15pm"}, {"days": "Sat", "time": "2:30pm"}, {"days": "Sun", "time": "Closed"}], "id": "0646800020", "name": "USPS COLLECTION BOX - EXPRESS", "address": {"city": "MONROE", "state": "CT", "street": "270 MONROE TPKE", "postcode": "06468"}}},
{"geometry": {"type": "Point", "coordinates": [-73.2671380573, 41.3250593358]}, "type": "Feature", "properties": {"collection_times": [{"days": "Mon-Sat", "time": "10:00am"}, {"days": "Sun", "time": "Closed"}], "id": "0646800021", "name": "USPS COLLECTION BOX - BLUE BOX", "address": {"city": "MONROE", "state": "CT", "street": "477 MAIN ST", "postcode": "06468"}}},
{"geometry": {"type": "Point", "coordinates": [-73.2141483995, 41.3190295618]}, "type": "Feature", "properties": {"collection_times": [{"days": "Mon-Sat", "time": "10:00am"}, {"days": "Sun", "time": "Closed"}], "id": "0646800022", "name": "USPS COLLECTION BOX - BLUE BOX", "address": {"city": "MONROE", "state": "CT", "street": "535 MONROE TPKE", "postcode": "06468"}}},
{"geometry": {"type": "Point", "coordinates": [-72.4457884488, 41.5056167843]}, "type": "Feature", "properties": {"collection_times": [{"days": "Mon-Fri", "time": "4:30pm"}, {"days": "Sat", "time": "11:30am"}, {"days": "Sun", "time": "Closed"}], "id": "0646900001", "name": "USPS COLLECTION BOX - BLUE BOX", "address": {"city": "MOODUS", "state": "CT", "street": "34 FALLS RD", "postcode": "06469"}}},
{"geometry": {"type": "Point", "coordinates": [-72.4457884488, 41.5056167843]}, "type": "Feature", "properties": {"collection_times": [{"days": "Mon-Fri", "time": "5:00pm"}, {"days": "Sat", "time": "12:30pm"}, {"days": "Sun", "time": "Closed"}], "id": "0646900003", "name": "USPS COLLECTION BOX - PO LOBBY", "address": {"city": "MOODUS", "state": "CT", "street": "34 FALLS RD", "postcode": "06469"}}},
{"geometry": {"type": "Point", "coordinates": [-73.3144174002, 41.3936718552]}, "type": "Feature", "properties": {"collection_times": [{"days": "Mon-Fri", "time": "1:15pm"}, {"days": "Sat", "time": "1:00pm"}, {"days": "Sun", "time": "Closed"}], "id": "0647000001", "name": "USPS COLLECTION BOX - EXPRESS", "address": {"city": "SANDY HOOK", "state": "CT", "street": "5 COMMERCE RD", "postcode": "06470"}}},
{"geometry": {"type": "Point", "coordinates": [-73.292371755, 41.4150458413]}, "type": "Feature", "properties": {"collection_times": [{"days": "Mon-Fri", "time": "5:00pm"}, {"days": "Sat", "time": "1:00pm"}, {"days": "Sun", "time": "Closed"}], "id": "0647000003", "name": "USPS COLLECTION BOX - BLUE BOX", "address": {"city": "SANDY HOOK", "state": "CT", "street": "5 COMMERCE RD", "postcode": "06470"}}},
{"geometry": {"type": "Point", "coordinates": [-73.294244379, 41.3973606048]}, "type": "Feature", "properties": {"collection_times": [{"days": "Mon-Sat", "time": "11:00am"}, {"days": "Sun", "time": "Closed"}], "id": "0647000006", "name": "USPS COLLECTION BOX - BLUE BOX", "address": {"city": "SANDY HOOK", "state": "CT", "street": "71 S MAIN ST", "postcode": "06470"}}},
{"geometry": {"type": "Point", "coordinates": [-73.2818471368, 41.4200507844]}, "type": "Feature", "properties": {"collection_times": [{"days": "Mon-Sat", "time": "11:00am"}, {"days": "Sun", "time": "Closed"}], "id": "0647000007", "name": "USPS COLLECTION BOX - BLUE BOX", "address": {"city": "SANDY HOOK", "state": "CT", "street": "87 S MAIN ST", "postcode": "06470"}}},
{"geometry": {"type": "Point", "coordinates": [-73.2909498383, 41.3920053496]}, "type": "Feature", "properties": {"collection_times": [{"days": "Mon-Sat", "time": "11:00am"}, {"days": "Sun", "time": "Closed"}], "id": "0647000008", "name": "USPS COLLECTION BOX - BLUE BOX", "address": {"city": "SANDY HOOK", "state": "CT", "street": "103 S MAIN ST", "postcode": "06470"}}},
{"geometry": {"type": "Point", "coordinates": [-73.2715717875, 41.3733962221]}, "type": "Feature", "properties": {"collection_times": [{"days": "Mon-Sat", "time": "12:00pm"}, {"days": "Sun", "time": "Closed"}], "id": "0647000009", "name": "USPS COLLECTION BOX - BLUE BOX", "address": {"city": "SANDY HOOK", "state": "CT", "street": "228 S MAIN ST", "postcode": "06470"}}},
{"geometry": {"type": "Point", "coordinates": [-73.2818471368, 41.4200507844]}, "type": "Feature", "properties": {"collection_times": [{"days": "Mon-Sat", "time": "12:00pm"}, {"days": "Sun", "time": "Closed"}], "id": "0647000012", "name": "USPS COLLECTION BOX - BLUE BOX", "address": {"city": "SANDY HOOK", "state": "CT", "street": "45 MAIN ST", "postcode": "06470"}}},
{"geometry": {"type": "Point", "coordinates": [-73.3089579419, 41.4135682467]}, "type": "Feature", "properties": {"collection_times": [{"days": "Mon-Sat", "time": "12:15pm"}, {"days": "Sun", "time": "Closed"}], "id": "0647000014", "name": "USPS COLLECTION BOX - BLUE BOX", "address": {"city": "SANDY HOOK", "state": "CT", "street": "33 MAIN ST", "postcode": "06470"}}},
{"geometry": {"type": "Point", "coordinates": [-73.3570405727, 41.3798658247]}, "type": "Feature", "properties": {"collection_times": [{"days": "Mon-Sat", "time": "11:00am"}, {"days": "Sun", "time": "Closed"}], "id": "0647000015", "name": "USPS COLLECTION BOX - BLUE BOX", "address": {"city": "SANDY HOOK", "state": "CT", "street": "57 DODGINGTOWN RD", "postcode": "06470"}}},
{"geometry": {"type": "Point", "coordinates": [-73.2818471368, 41.4200507844]}, "type": "Feature", "properties": {"collection_times": [{"days": "Mon-Sat", "time": "12:00pm"}, {"days": "Sun", "time": "Closed"}], "id": "0647000016", "name": "USPS COLLECTION BOX - BLUE BOX", "address": {"city": "SANDY HOOK", "state": "CT", "street": "61 CHURCH HILL RD", "postcode": "06470"}}},
{"geometry": {"type": "Point", "coordinates": [-73.2821604532, 41.4207477035]}, "type": "Feature", "properties": {"collection_times": [{"days": "Mon-Sat", "time": "12:00pm"}, {"days": "Sun", "time": "Closed"}], "id": "0647000020", "name": "USPS COLLECTION BOX - BLUE BOX", "address": {"city": "SANDY HOOK", "state": "CT", "street": "1 GLEN RD", "postcode": "06470"}}},
{"geometry": {"type": "Point", "coordinates": [-73.2752401432, 41.4330623064]}, "type": "Feature", "properties": {"collection_times": [{"days": "Mon-Sat", "time": "12:00pm"}, {"days": "Sun", "time": "Closed"}], "id": "0647000021", "name": "USPS COLLECTION BOX - BLUE BOX", "address": {"city": "SANDY HOOK", "state": "CT", "street": "75 GLEN RD", "postcode": "06470"}}},
{"geometry": {"type": "Point", "coordinates": [-73.292371755, 41.4150458413]}, "type": "Feature", "properties": {"collection_times": [{"days": "Mon-Fri", "time": "5:00pm"}, {"days": "Sat", "time": "1:00pm"}, {"days": "Sun", "time": "Closed"}], "id": "0647000022", "name": "USPS COLLECTION BOX - PO LOBBY", "address": {"city": "SANDY HOOK", "state": "CT", "street": "5 COMMERCE RD", "postcode": "06470"}}},
{"geometry": {"type": "Point", "coordinates": [-73.2880527718, 41.3911429725]}, "type": "Feature", "properties": {"collection_times": [{"days": "Mon-Sat", "time": "11:00am"}, {"days": "Sun", "time": "Closed"}], "id": "0647000023", "name": "USPS COLLECTION BOX - BLUE BOX", "address": {"city": "SANDY HOOK", "state": "CT", "street": "3 SIMM LN", "postcode": "06470"}}},
{"geometry": {"type": "Point", "coordinates": [-72.7702302292, 41.3247884382]}, "type": "Feature", "properties": {"collection_times": [{"days": "Mon-Fri", "time": "5:00pm"}, {"days": "Sat", "time": "1:00pm"}, {"days": "Sun", "time": "Closed"}], "id": "0647100014", "name": "USPS COLLECTION BOX - BLUE BOX", "address": {"city": "NORTH BRANFORD", "state": "CT", "street": "280 BRANFORD RD", "postcode": "06471"}}},
{"geometry": {"type": "Point", "coordinates": [-72.7487497376, 41.3420401935]}, "type": "Feature", "properties": {"collection_times": [{"days": "Mon-Sat", "time": "10:00am"}, {"days": "Sun", "time": "Closed"}], "id": "0647100015", "name": "USPS COLLECTION BOX - BLUE BOX", "address": {"city": "NORTH BRANFORD", "state": "CT", "street": "2420 ROUTE 80", "postcode": "06471"}}},
{"geometry": {"type": "Point", "coordinates": [-72.7702302292, 41.3247884382]}, "type": "Feature", "properties": {"collection_times": [{"days": "Mon-Fri", "time": "5:00pm"}, {"days": "Sat", "time": "1:00pm"}, {"days": "Sun", "time": "Closed"}], "id": "0647100016", "name": "USPS COLLECTION BOX - PO LOBBY", "address": {"city": "NORTH BRANFORD", "state": "CT", "street": "280 BRANFORD RD", "postcode": "06471"}}},
{"geometry": {"type": "Point", "coordinates": [-72.789437934, 41.3949237093]}, "type": "Feature", "properties": {"collection_times": [{"days": "Mon-Fri", "time": "4:45pm"}, {"days": "Sat", "time": "12:00pm"}, {"days": "Sun", "time": "Closed"}], "id": "0647200001", "name": "USPS COLLECTION BOX - BLUE BOX", "address": {"city": "NORTHFORD", "state": "CT", "street": "1447 MIDDLETOWN AVE", "postcode": "06472"}}},
{"geometry": {"type": "Point", "coordinates": [-72.789437934, 41.3949237093]}, "type": "Feature", "properties": {"collection_times": [{"days": "Mon-Fri", "time": "5:00pm"}, {"days": "Sat", "time": "12:00pm"}, {"days": "Sun", "time": "Closed"}], "id": "0647200003", "name": "USPS COLLECTION BOX - PO LOBBY", "address": {"city": "NORTHFORD", "state": "CT", "street": "1447 MIDDLETOWN AVE", "postcode": "06472"}}},
{"geometry": {"type": "Point", "coordinates": [-72.8582956094, 41.3929883885]}, "type": "Feature", "properties": {"collection_times": [{"days": "Mon-Fri", "time": "5:00pm"}, {"days": "Sat", "time": "1:30pm"}, {"days": "Sun", "time": "Closed"}], "id": "0647300004", "name": "USPS COLLECTION BOX - BLUE BOX", "address": {"city": "NORTH HAVEN", "state": "CT", "street": "74 WASHINGTON AVE", "postcode": "06473"}}},
{"geometry": {"type": "Point", "coordinates": [-72.8691220498, 41.3354457155]}, "type": "Feature", "properties": {"collection_times": [{"days": "Mon-Sat", "time": "3:30pm"}, {"days": "Sun", "time": "Closed"}], "id": "0647300007", "name": "USPS COLLECTION BOX - BLUE BOX", "address": {"city": "NORTH HAVEN", "state": "CT", "street": "10 MIDDLETOWN AVE", "postcode": "06473"}}},
{"geometry": {"type": "Point", "coordinates": [-72.8736959281, 41.3872930344]}, "type": "Feature", "properties": {"collection_times": [{"days": "Mon-Fri", "time": "2:30pm"}, {"days": "Sat-Sun", "time": "Closed"}], "id": "0647300008", "name": "USPS COLLECTION BOX - BLUE BOX", "address": {"city": "NORTH HAVEN", "state": "CT", "street": "77 STATE ST", "postcode": "06473"}}},
{"geometry": {"type": "Point", "coordinates": [-72.8474892792, 41.4187887235]}, "type": "Feature", "properties": {"collection_times": [{"days": "Mon-Fri", "time": "1:30pm"}, {"days": "Sat-Sun", "time": "Closed"}], "id": "0647300011", "name": "USPS COLLECTION BOX - BLUE BOX", "address": {"city": "NORTH HAVEN", "state": "CT", "street": "67 DEFCO PARK RD", "postcode": "06473"}}},
{"geometry": {"type": "Point", "coordinates": [-72.8605989557, 41.3812234145]}, "type": "Feature", "properties": {"collection_times": [{"days": "Mon-Sat", "time": "2:00pm"}, {"days": "Sun", "time": "Closed"}], "id": "0647300012", "name": "USPS COLLECTION BOX - BLUE BOX", "address": {"city": "NORTH HAVEN", "state": "CT", "street": "74 WASHINGTON AVE", "postcode": "06473"}}},
{"geometry": {"type": "Point", "coordinates": [-72.855451776, 41.3958097456]}, "type": "Feature", "properties": {"collection_times": [{"days": "Mon-Fri", "time": "2:00pm"}, {"days": "Sat-Sun", "time": "Closed"}], "id": "0647300013", "name": "USPS COLLECTION BOX - BLUE BOX", "address": {"city": "NORTH HAVEN", "state": "CT", "street": "127 WASHINGTON AVE", "postcode": "06473"}}},
{"geometry": {"type": "Point", "coordinates": [-72.8559024834, 41.3953862463]}, "type": "Feature", "properties": {"collection_times": [{"days": "Mon-Fri", "time": "12:00pm"}, {"days": "Sat-Sun", "time": "Closed"}], "id": "0647300014", "name": "USPS COLLECTION BOX - BLUE BOX", "address": {"city": "NORTH HAVEN", "state": "CT", "street": "110 WASHINGTON AVE", "postcode": "06473"}}},
{"geometry": {"type": "Point", "coordinates": [-72.860967218, 41.3884935895]}, "type": "Feature", "properties": {"collection_times": [{"days": "Mon-Sat", "time": "3:00pm"}, {"days": "Sun", "time": "Closed"}], "id": "0647300019", "name": "USPS COLLECTION BOX - BLUE BOX", "address": {"city": "NORTH HAVEN", "state": "CT", "street": "10 CHURCH ST", "postcode": "06473"}}},
{"geometry": {"type": "Point", "coordinates": [-72.8646824048, 41.3739403832]}, "type": "Feature", "properties": {"collection_times": [{"days": "Mon-Fri", "time": "3:00pm"}, {"days": "Sat-Sun", "time": "Closed"}], "id": "0647300020", "name": "USPS COLLECTION BOX - BLUE BOX", "address": {"city": "NORTH HAVEN", "state": "CT", "street": "222 ELM ST", "postcode": "06473"}}},
{"geometry": {"type": "Point", "coordinates": [-72.8824918521, 41.3771331895]}, "type": "Feature", "properties": {"collection_times": [{"days": "Mon-Sat", "time": "3:00pm"}, {"days": "Sun", "time": "Closed"}], "id": "0647300021", "name": "USPS COLLECTION BOX - BLUE BOX", "address": {"city": "NORTH HAVEN", "state": "CT", "street": "250 STATE ST", "postcode": "06473"}}},
{"geometry": {"type": "Point", "coordinates": [-72.8871657229, 41.3655804122]}, "type": "Feature", "properties": {"collection_times": [{"days": "Mon-Sat", "time": "2:00pm"}, {"days": "Sun", "time": "Closed"}], "id": "0647300022", "name": "USPS COLLECTION BOX - BLUE BOX", "address": {"city": "NORTH HAVEN", "state": "CT", "street": "394 STATE ST", "postcode": "06473"}}},
{"geometry": {"type": "Point", "coordinates": [-72.8812529447, 41.3681835192]}, "type": "Feature", "properties": {"collection_times": [{"days": "Mon-Fri", "time": "2:00pm"}, {"days": "Sat-Sun", "time": "Closed"}], "id": "0647300023", "name": "USPS COLLECTION BOX - BLUE BOX", "address": {"city": "NORTH HAVEN", "state": "CT", "street": "4 MASSIMO DR", "postcode": "06473"}}},
{"geometry": {"type": "Point", "coordinates": [-72.8522132409, 41.3710708389]}, "type": "Feature", "properties": {"collection_times": [{"days": "Mon-Sat", "time": "3:00pm"}, {"days": "Sun", "time": "Closed"}], "id": "0647300024", "name": "USPS COLLECTION BOX - BLUE BOX", "address": {"city": "NORTH HAVEN", "state": "CT", "street": "278 MAPLE AVE", "postcode": "06473"}}},
{"geometry": {"type": "Point", "coordinates": [-72.866666227, 41.3489953275]}, "type": "Feature", "properties": {"collection_times": [{"days": "Mon-Fri", "time": "1:00pm"}, {"days": "Sat-Sun", "time": "Closed"}], "id": "0647300025", "name": "USPS COLLECTION BOX - BLUE BOX", "address": {"city": "NORTH HAVEN", "state": "CT", "street": "21 BROCK ST", "postcode": "06473"}}},
{"geometry": {"type": "Point", "coordinates": [-72.8582956094, 41.3929883885]}, "type": "Feature", "properties": {"collection_times": [{"days": "Mon-Fri", "time": "5:00pm"}, {"days": "Sat", "time": "12:00pm"}, {"days": "Sun", "time": "Closed"}], "id": "0647300032", "name": "USPS COLLECTION BOX - PO LOBBY", "address": {"city": "NORTH HAVEN", "state": "CT", "street": "74 WASHINGTON AVE", "postcode": "06473"}}},
{"geometry": {"type": "Point", "coordinates": [-72.8632089428, 41.4145811677]}, "type": "Feature", "properties": {"collection_times": [{"days": "Mon-Sat", "time": "12:30pm"}, {"days": "Sun", "time": "Closed"}], "id": "0647300033", "name": "USPS COLLECTION BOX - BLUE BOX", "address": {"city": "NORTH HAVEN", "state": "CT", "street": "1870 HARTFORD TPKE", "postcode": "06473"}}},
{"geometry": {"type": "Point", "coordinates": [-72.9053087646, 41.373714438]}, "type": "Feature", "properties": {"collection_times": [{"days": "Mon-Sat", "time": "1:15pm"}, {"days": "Sun", "time": "Closed"}], "id": "0647300034", "name": "USPS COLLECTION BOX - BLUE BOX", "address": {"city": "NORTH HAVEN", "state": "CT", "street": "2075 WHITNEY AVE", "postcode": "06473"}}},
{"geometry": {"type": "Point", "coordinates": [-72.3848860288, 41.2884141432]}, "type": "Feature", "properties": {"collection_times": [{"days": "Mon-Fri", "time": "5:00pm"}, {"days": "Sat", "time": "2:30pm"}, {"days": "Sun", "time": "Closed"}], "id": "0647500001", "name": "USPS COLLECTION BOX - EXPRESS", "address": {"city": "OLD SAYBROOK", "state": "CT", "street": "36 MAIN ST", "postcode": "06475"}}},
{"geometry": {"type": "Point", "coordinates": [-72.3848860288, 41.2884141432]}, "type": "Feature", "properties": {"collection_times": [{"days": "Mon-Fri", "time": "5:00pm"}, {"days": "Sat", "time": "2:30pm"}, {"days": "Sun", "time": "Closed"}], "id": "0647500002", "name": "USPS COLLECTION BOX - BLUE BOX", "address": {"city": "OLD SAYBROOK", "state": "CT", "street": "36 MAIN ST", "postcode": "06475"}}},
{"geometry": {"type": "Point", "coordinates": [-72.3764802099, 41.2940358856]}, "type": "Feature", "properties": {"collection_times": [{"days": "Mon-Fri", "time": "2:00pm"}, {"days": "Sat", "time": "1:00pm"}, {"days": "Sun", "time": "Closed"}], "id": "0647500007", "name": "USPS COLLECTION BOX - BLUE BOX", "address": {"city": "OLD SAYBROOK", "state": "CT", "street": "132 MAIN ST", "postcode": "06475"}}},
{"geometry": {"type": "Point", "coordinates": [-72.3760451983, 41.2910108277]}, "type": "Feature", "properties": {"collection_times": [{"days": "Mon-Fri", "time": "2:00pm"}, {"days": "Sat", "time": "1:00pm"}, {"days": "Sun", "time": "Closed"}], "id": "0647500008", "name": "USPS COLLECTION BOX - BLUE BOX", "address": {"city": "OLD SAYBROOK", "state": "CT", "street": "270 MAIN ST", "postcode": "06475"}}},
{"geometry": {"type": "Point", "coordinates": [-72.3850234594, 41.2950585939]}, "type": "Feature", "properties": {"collection_times": [{"days": "Mon-Fri", "time": "2:00pm"}, {"days": "Sat", "time": "1:00pm"}, {"days": "Sun", "time": "Closed"}], "id": "0647500022", "name": "USPS COLLECTION BOX - BLUE BOX", "address": {"city": "OLD SAYBROOK", "state": "CT", "street": "105 ELM ST", "postcode": "06475"}}},
{"geometry": {"type": "Point", "coordinates": [-72.3751657044, 41.3003283957]}, "type": "Feature", "properties": {"collection_times": [{"days": "Mon-Fri", "time": "2:00pm"}, {"days": "Sat", "time": "1:00pm"}, {"days": "Sun", "time": "Closed"}], "id": "0647500023", "name": "USPS COLLECTION BOX - BLUE BOX", "address": {"city": "OLD SAYBROOK", "state": "CT", "street": "455 BOSTON POST RD", "postcode": "06475"}}},
{"geometry": {"type": "Point", "coordinates": [-72.3848860288, 41.2884141432]}, "type": "Feature", "properties": {"collection_times": [{"days": "Mon-Fri", "time": "5:00pm"}, {"days": "Sat", "time": "2:30pm"}, {"days": "Sun", "time": "Closed"}], "id": "0647500024", "name": "USPS COLLECTION BOX - PO LOBBY", "address": {"city": "OLD SAYBROOK", "state": "CT", "street": "36 MAIN ST", "postcode": "06475"}}},
{"geometry": {"type": "Point", "coordinates": [-72.3848860288, 41.2884141432]}, "type": "Feature", "properties": {"collection_times": [{"days": "Mon-Fri", "time": "5:00pm"}, {"days": "Sat", "time": "2:30pm"}, {"days": "Sun", "time": "Closed"}], "id": "0647500026", "name": "USPS COLLECTION BOX - BLUE BOX", "address": {"city": "OLD SAYBROOK", "state": "CT", "street": "36 MAIN ST", "postcode": "06475"}}},
{"geometry": {"type": "Point", "coordinates": [-73.034058983, 41.2538411595]}, "type": "Feature", "properties": {"collection_times": [{"days": "Mon-Fri", "time": "5:00pm"}, {"days": "Sat", "time": "1:45pm"}, {"days": "Sun", "time": "Closed"}], "id": "0647700001", "name": "USPS COLLECTION BOX - EXPRESS", "address": {"city": "ORANGE", "state": "CT", "street": "36 OLD TAVERN RD", "postcode": "06477"}}},
{"geometry": {"type": "Point", "coordinates": [-73.0029998818, 41.2676042018]}, "type": "Feature", "properties": {"collection_times": [{"days": "Mon-Fri", "time": "5:00pm"}, {"days": "Sat", "time": "1:45pm"}, {"days": "Sun", "time": "Closed"}], "id": "0647700003", "name": "USPS COLLECTION BOX - BLUE BOX", "address": {"city": "ORANGE", "state": "CT", "street": "36 OLD TAVERN RD", "postcode": "06477"}}},
{"geometry": {"type": "Point", "coordinates": [-72.9954360422, 41.2716463726]}, "type": "Feature", "properties": {"collection_times": [{"days": "Mon-Sat", "time": "10:00am"}, {"days": "Sun", "time": "Closed"}], "id": "0647700011", "name": "USPS COLLECTION BOX - BLUE BOX", "address": {"city": "ORANGE", "state": "CT", "street": "185 BOSTON POST RD", "postcode": "06477"}}},
{"geometry": {"type": "Point", "coordinates": [-73.0220549848, 41.2727583541]}, "type": "Feature", "properties": {"collection_times": [{"days": "Mon-Sat", "time": "10:00am"}, {"days": "Sun", "time": "Closed"}], "id": "0647700017", "name": "USPS COLLECTION BOX - BLUE BOX", "address": {"city": "ORANGE", "state": "CT", "street": "525 ORANGE CENTER RD", "postcode": "06477"}}},
{"geometry": {"type": "Point", "coordinates": [-73.034058983, 41.2538411595]}, "type": "Feature", "properties": {"collection_times": [{"days": "Mon-Fri", "time": "5:00pm"}, {"days": "Sat", "time": "1:45pm"}, {"days": "Sun", "time": "Closed"}], "id": "0647700020", "name": "USPS COLLECTION BOX - BLUE BOX", "address": {"city": "ORANGE", "state": "CT", "street": "36 OLD TAVERN RD", "postcode": "06477"}}},
{"geometry": {"type": "Point", "coordinates": [-72.8916739795, 41.5853197718]}, "type": "Feature", "properties": {"collection_times": [{"days": "Mon-Fri", "time": "5:00pm"}, {"days": "Sat", "time": "3:00pm"}, {"days": "Sun", "time": "Closed"}], "id": "0647900003", "name": "USPS COLLECTION BOX - BLUE BOX", "address": {"city": "PLANTSVILLE", "state": "CT", "street": "847 S MAIN ST", "postcode": "06479"}}},
{"geometry": {"type": "Point", "coordinates": [-72.8859369559, 41.5642319624]}, "type": "Feature", "properties": {"collection_times": [{"days": "Mon-Fri", "time": "12:00pm"}, {"days": "Sat", "time": "11:00am"}, {"days": "Sun", "time": "Closed"}], "id": "0647900006", "name": "USPS COLLECTION BOX - BLUE BOX", "address": {"city": "PLANTSVILLE", "state": "CT", "street": "1203 MERIDEN WATERBURY TPKE", "postcode": "06479"}}},
{"geometry": {"type": "Point", "coordinates": [-72.8938092205, 41.5674819335]}, "type": "Feature", "properties": {"collection_times": [{"days": "Mon-Fri", "time": "10:30am"}, {"days": "Sat", "time": "11:00am"}, {"days": "Sun", "time": "Closed"}], "id": "0647900009", "name": "USPS COLLECTION BOX - BLUE BOX", "address": {"city": "PLANTSVILLE", "state": "CT", "street": "132 NORTON ST", "postcode": "06479"}}},
{"geometry": {"type": "Point", "coordinates": [-72.8787897781, 41.586840508]}, "type": "Feature", "properties": {"collection_times": [{"days": "Mon-Fri", "time": "12:00pm"}, {"days": "Sat", "time": "11:45am"}, {"days": "Sun", "time": "Closed"}], "id": "0647900012", "name": "USPS COLLECTION BOX - BLUE BOX", "address": {"city": "PLANTSVILLE", "state": "CT", "street": "6 CARTER LN", "postcode": "06479"}}},
{"geometry": {"type": "Point", "coordinates": [-72.8917377142, 41.5852626699]}, "type": "Feature", "properties": {"collection_times": [{"days": "Mon-Fri", "time": "12:00pm"}, {"days": "Sat", "time": "11:45am"}, {"days": "Sun", "time": "Closed"}], "id": "0647900013", "name": "USPS COLLECTION BOX - BLUE BOX", "address": {"city": "PLANTSVILLE", "state": "CT", "street": "762 MAIN ST", "postcode": "06479"}}},
{"geometry": {"type": "Point", "coordinates": [-72.8916739795, 41.5853197718]}, "type": "Feature", "properties": {"collection_times": [{"days": "Mon-Fri", "time": "5:00pm"}, {"days": "Sat", "time": "1:30pm"}, {"days": "Sun", "time": "Closed"}], "id": "0647900014", "name": "USPS COLLECTION BOX - PO LOBBY", "address": {"city": "PLANTSVILLE", "state": "CT", "street": "847 S MAIN ST", "postcode": "06479"}}},
{"geometry": {"type": "Point", "coordinates": [-72.8746062476, 41.5631795118]}, "type": "Feature", "properties": {"collection_times": [{"days": "Mon-Fri", "time": "12:00pm"}, {"days": "Sat", "time": "11:00am"}, {"days": "Sun", "time": "Closed"}], "id": "0647900015", "name": "USPS COLLECTION BOX - BLUE BOX", "address": {"city": "PLANTSVILLE", "state": "CT", "street": "887 MERIDEN WATERBURY TPKE", "postcode": "06479"}}},
{"geometry": {"type": "Point", "coordinates": [-72.9099045602, 41.5636834523]}, "type": "Feature", "properties": {"collection_times": [{"days": "Mon-Fri", "time": "10:45am"}, {"days": "Sat", "time": "11:00am"}, {"days": "Sun", "time": "Closed"}], "id": "0647900017", "name": "USPS COLLECTION BOX - BLUE BOX", "address": {"city": "PLANTSVILLE", "state": "CT", "street": "1205 MERIDEN WATERBURY TPKE", "postcode": "06479"}}},
{"geometry": {"type": "Point", "coordinates": [-72.9066433496, 41.5640210346]}, "type": "Feature", "properties": {"collection_times": [{"days": "Mon-Fri", "time": "10:45am"}, {"days": "Sat", "time": "11:00am"}, {"days": "Sun", "time": "Closed"}], "id": "0647900018", "name": "USPS COLLECTION BOX - BLUE BOX", "address": {"city": "PLANTSVILLE", "state": "CT", "street": "1783 MERIDEN WATERBURY RD", "postcode": "06479"}}},
{"geometry": {"type": "Point", "coordinates": [-72.6162358463, 41.5853822339]}, "type": "Feature", "properties": {"collection_times": [{"days": "Mon-Sat", "time": "10:00am"}, {"days": "Sun", "time": "Closed"}], "id": "0648000005", "name": "USPS COLLECTION BOX - BLUE BOX", "address": {"city": "PORTLAND", "state": "CT", "street": "316 MARLBOROUGH ST", "postcode": "06480"}}},
{"geometry": {"type": "Point", "coordinates": [-72.6348535882, 41.5754917487]}, "type": "Feature", "properties": {"collection_times": [{"days": "Mon-Sat", "time": "10:00am"}, {"days": "Sun", "time": "Closed"}], "id": "0648000006", "name": "USPS COLLECTION BOX - BLUE BOX", "address": {"city": "PORTLAND", "state": "CT", "street": "33 E MAIN ST", "postcode": "06480"}}},
{"geometry": {"type": "Point", "coordinates": [-72.6384320391, 41.5758975036]}, "type": "Feature", "properties": {"collection_times": [{"days": "Mon-Sat", "time": "10:00am"}, {"days": "Sun", "time": "Closed"}], "id": "0648000007", "name": "USPS COLLECTION BOX - BLUE BOX", "address": {"city": "PORTLAND", "state": "CT", "street": "269 MAIN ST", "postcode": "06480"}}},
{"geometry": {"type": "Point", "coordinates": [-72.6162488814, 41.5853821879]}, "type": "Feature", "properties": {"collection_times": [{"days": "Mon-Fri", "time": "1:00pm"}, {"days": "Sat", "time": "2:15pm"}, {"days": "Sun", "time": "Closed"}], "id": "0648000009", "name": "USPS COLLECTION BOX - EXPRESS", "address": {"city": "PORTLAND", "state": "CT", "street": "320 MAIN ST", "postcode": "06480"}}},
{"geometry": {"type": "Point", "coordinates": [-72.6370352114, 41.5777818297]}, "type": "Feature", "properties": {"collection_times": [{"days": "Mon-Fri", "time": "5:00pm"}, {"days": "Sat", "time": "2:15pm"}, {"days": "Sun", "time": "Closed"}], "id": "0648000010", "name": "USPS COLLECTION BOX - PO LOBBY", "address": {"city": "PORTLAND", "state": "CT", "street": "320 MAIN ST", "postcode": "06480"}}},
{"geometry": {"type": "Point", "coordinates": [-72.6162488814, 41.5853821879]}, "type": "Feature", "properties": {"collection_times": [{"days": "Mon-Fri", "time": "5:00pm"}, {"days": "Sat", "time": "2:15pm"}, {"days": "Sun", "time": "Closed"}], "id": "0648000012", "name": "USPS COLLECTION BOX - BLUE BOX", "address": {"city": "PORTLAND", "state": "CT", "street": "320 MAIN ST", "postcode": "06480"}}},
{"geometry": {"type": "Point", "coordinates": [-72.6917328138, 41.5306408216]}, "type": "Feature", "properties": {"collection_times": [{"days": "Mon-Fri", "time": "5:00pm"}, {"days": "Sat", "time": "12:00pm"}, {"days": "Sun", "time": "Closed"}], "id": "0648100001", "name": "USPS COLLECTION BOX - BLUE BOX", "address": {"city": "ROCKFALL", "state": "CT", "street": "110 MAIN ST", "postcode": "06481"}}},
{"geometry": {"type": "Point", "coordinates": [-72.6917328138, 41.5306408216]}, "type": "Feature", "properties": {"collection_times": [{"days": "Mon-Fri", "time": "5:00pm"}, {"days": "Sat", "time": "12:00pm"}, {"days": "Sun", "time": "Closed"}], "id": "0648100002", "name": "USPS COLLECTION BOX - PO LOBBY", "address": {"city": "ROCKFALL", "state": "CT", "street": "110 MAIN ST", "postcode": "06481"}}},
{"geometry": {"type": "Point", "coordinates": [-73.0819291909, 41.3870326868]}, "type": "Feature", "properties": {"collection_times": [{"days": "Mon-Sat", "time": "3:00pm"}, {"days": "Sun", "time": "Closed"}], "id": "0648300001", "name": "USPS COLLECTION BOX - EXPRESS", "address": {"city": "SEYMOUR", "state": "CT", "street": "91 MAIN ST", "postcode": "06483"}}},
{"geometry": {"type": "Point", "coordinates": [-73.0733966235, 41.3925923644]}, "type": "Feature", "properties": {"collection_times": [{"days": "Mon-Fri", "time": "5:00pm"}, {"days": "Sat", "time": "3:00pm"}, {"days": "Sun", "time": "Closed"}], "id": "0648300006", "name": "USPS COLLECTION BOX - BLUE BOX", "address": {"city": "SEYMOUR", "state": "CT", "street": "91 MAIN ST", "postcode": "06483"}}},
{"geometry": {"type": "Point", "coordinates": [-73.0615208618, 41.3954323817]}, "type": "Feature", "properties": {"collection_times": [{"days": "Mon-Sat", "time": "12:00pm"}, {"days": "Sun", "time": "Closed"}], "id": "0648300009", "name": "USPS COLLECTION BOX - BLUE BOX", "address": {"city": "SEYMOUR", "state": "CT", "street": "185 DAY ST", "postcode": "06483"}}},
{"geometry": {"type": "Point", "coordinates": [-73.074114643, 41.3945416136]}, "type": "Feature", "properties": {"collection_times": [{"days": "Mon-Fri", "time": "5:00pm"}, {"days": "Sat", "time": "2:00pm"}, {"days": "Sun", "time": "Closed"}], "id": "0648300012", "name": "USPS COLLECTION BOX - BLUE BOX", "address": {"city": "SEYMOUR", "state": "CT", "street": "1 FIRST ST", "postcode": "06483"}}},
{"geometry": {"type": "Point", "coordinates": [-73.0829098698, 41.3975424336]}, "type": "Feature", "properties": {"collection_times": [{"days": "Mon-Sat", "time": "10:00am"}, {"days": "Sun", "time": "Closed"}], "id": "0648300013", "name": "USPS COLLECTION BOX - BLUE BOX", "address": {"city": "SEYMOUR", "state": "CT", "street": "251 BANK - RT 67 ST", "postcode": "06483"}}},
{"geometry": {"type": "Point", "coordinates": [-73.0843972926, 41.3874802609]}, "type": "Feature", "properties": {"collection_times": [{"days": "Mon-Sat", "time": "12:00pm"}, {"days": "Sun", "time": "Closed"}], "id": "0648300015", "name": "USPS COLLECTION BOX - BLUE BOX", "address": {"city": "SEYMOUR", "state": "CT", "street": "35 BUNGAY", "postcode": "06483"}}},
{"geometry": {"type": "Point", "coordinates": [-73.0849857946, 41.3905021503]}, "type": "Feature", "properties": {"collection_times": [{"days": "Mon-Sat", "time": "12:30pm"}, {"days": "Sun", "time": "Closed"}], "id": "0648300016", "name": "USPS COLLECTION BOX - BLUE BOX", "address": {"city": "SEYMOUR", "state": "CT", "street": "59 W CHURCH ST", "postcode": "06483"}}},
{"geometry": {"type": "Point", "coordinates": [-73.093369666, 41.360917188]}, "type": "Feature", "properties": {"collection_times": [{"days": "Mon-Sat", "time": "10:00am"}, {"days": "Sun", "time": "Closed"}], "id": "0648300017", "name": "USPS COLLECTION BOX - BLUE BOX", "address": {"city": "SEYMOUR", "state": "CT", "street": "814 DERBY AVE", "postcode": "06483"}}},
{"geometry": {"type": "Point", "coordinates": [-73.0552961317, 41.4031807629]}, "type": "Feature", "properties": {"collection_times": [{"days": "Mon-Sat", "time": "12:30pm"}, {"days": "Sun", "time": "Closed"}], "id": "0648300018", "name": "USPS COLLECTION BOX - BLUE BOX", "address": {"city": "SEYMOUR", "state": "CT", "street": "58 SKOKORAT ST", "postcode": "06483"}}},
{"geometry": {"type": "Point", "coordinates": [-73.0875317, 41.3806426312]}, "type": "Feature", "properties": {"collection_times": [{"days": "Mon-Sat", "time": "12:30pm"}, {"days": "Sun", "time": "Closed"}], "id": "0648300020", "name": "USPS COLLECTION BOX - BLUE BOX", "address": {"city": "SEYMOUR", "state": "CT", "street": "484 OXFORD", "postcode": "06483"}}},
{"geometry": {"type": "Point", "coordinates": [-73.0542516734, 41.391406524]}, "type": "Feature", "properties": {"collection_times": [{"days": "Mon-Fri", "time": "10:30am"}, {"days": "Sat-Sun", "time": "Closed"}], "id": "0648300024", "name": "USPS COLLECTION BOX - BLUE BOX", "address": {"city": "SEYMOUR", "state": "CT", "street": "14 PROGRESS AVE", "postcode": "06483"}}},
{"geometry": {"type": "Point", "coordinates": [-73.0635189836, 41.3973132676]}, "type": "Feature", "properties": {"collection_times": [{"days": "Mon-Sat", "time": "12:00pm"}, {"days": "Sun", "time": "Closed"}], "id": "0648300025", "name": "USPS COLLECTION BOX - BLUE BOX", "address": {"city": "SEYMOUR", "state": "CT", "street": "39 NEW HAVEN RD", "postcode": "06483"}}},
{"geometry": {"type": "Point", "coordinates": [-73.0615196054, 41.36522031]}, "type": "Feature", "properties": {"collection_times": [{"days": "Mon-Sat", "time": "12:00pm"}, {"days": "Sun", "time": "Closed"}], "id": "0648300026", "name": "USPS COLLECTION BOX - BLUE BOX", "address": {"city": "SEYMOUR", "state": "CT", "street": "29 MAPLE ST", "postcode": "06483"}}},
{"geometry": {"type": "Point", "coordinates": [-73.0875317, 41.3806426312]}, "type": "Feature", "properties": {"collection_times": [{"days": "Mon-Fri", "time": "10:30am"}, {"days": "Sat-Sun", "time": "Closed"}], "id": "0648300028", "name": "USPS COLLECTION BOX - BLUE BOX", "address": {"city": "SEYMOUR", "state": "CT", "street": "288 CHRISTIAN ST", "postcode": "06483"}}},
{"geometry": {"type": "Point", "coordinates": [-73.0875317, 41.3806426312]}, "type": "Feature", "properties": {"collection_times": [{"days": "Mon-Fri", "time": "5:00pm"}, {"days": "Sat", "time": "12:00pm"}, {"days": "Sun", "time": "Closed"}], "id": "0648300029", "name": "USPS COLLECTION BOX - BLUE BOX", "address": {"city": "SEYMOUR", "state": "CT", "street": "297 OXFORD RD", "postcode": "06483"}}},
{"geometry": {"type": "Point", "coordinates": [-73.0875317, 41.3806426312]}, "type": "Feature", "properties": {"collection_times": [{"days": "Mon-Fri", "time": "1:00pm"}, {"days": "Sat-Sun", "time": "Closed"}], "id": "0648300031", "name": "USPS COLLECTION BOX - BLUE BOX", "address": {"city": "SEYMOUR", "state": "CT", "street": "71 OXFORD RD", "postcode": "06483"}}},
{"geometry": {"type": "Point", "coordinates": [-73.0733220605, 41.3943606209]}, "type": "Feature", "properties": {"collection_times": [{"days": "Mon-Fri", "time": "5:00pm"}, {"days": "Sat", "time": "2:00pm"}, {"days": "Sun", "time": "Closed"}], "id": "0648300032", "name": "USPS COLLECTION BOX - PO LOBBY", "address": {"city": "SEYMOUR", "state": "CT", "street": "91 MAIN ST", "postcode": "06483"}}},
{"geometry": {"type": "Point", "coordinates": [-73.0875317, 41.3806426312]}, "type": "Feature", "properties": {"collection_times": [{"days": "Mon-Sat", "time": "11:30am"}, {"days": "Sun", "time": "Closed"}], "id": "0648300033", "name": "USPS COLLECTION BOX - BLUE BOX", "address": {"city": "SEYMOUR", "state": "CT", "street": "33 HAWLEY RD", "postcode": "06483"}}},
{"geometry": {"type": "Point", "coordinates": [-73.1243885846, 41.3015229786]}, "type": "Feature", "properties": {"collection_times": [{"days": "Mon-Fri", "time": "5:00pm"}, {"days": "Sat", "time": "2:00pm"}, {"days": "Sun", "time": "Closed"}], "id": "0648400001", "name": "USPS COLLECTION BOX - EXPRESS", "address": {"city": "SHELTON", "state": "CT", "street": "83 BRIDGE ST", "postcode": "06484"}}},
{"geometry": {"type": "Point", "coordinates": [-73.0937828926, 41.3174301213]}, "type": "Feature", "properties": {"collection_times": [{"days": "Mon-Fri", "time": "5:00pm"}, {"days": "Sat", "time": "2:00pm"}, {"days": "Sun", "time": "Closed"}], "id": "0648400003", "name": "USPS COLLECTION BOX - BLUE BOX", "address": {"city": "SHELTON", "state": "CT", "street": "83 BRIDGE ST", "postcode": "06484"}}},
{"geometry": {"type": "Point", "coordinates": [-73.14589541, 41.293804377]}, "type": "Feature", "properties": {"collection_times": [{"days": "Mon-Fri", "time": "5:00pm"}, {"days": "Sat", "time": "1:00pm"}, {"days": "Sun", "time": "Closed"}], "id": "0648400005", "name": "USPS COLLECTION BOX - BLUE BOX", "address": {"city": "SHELTON", "state": "CT", "street": "41 CHURCH ST", "postcode": "06484"}}},
{"geometry": {"type": "Point", "coordinates": [-73.14589541, 41.293804377]}, "type": "Feature", "properties": {"collection_times": [{"days": "Mon-Fri", "time": "5:00pm"}, {"days": "Sat", "time": "1:00pm"}, {"days": "Sun", "time": "Closed"}], "id": "0648400006", "name": "USPS COLLECTION BOX - BLUE BOX", "address": {"city": "SHELTON", "state": "CT", "street": "41 CHURCH ST", "postcode": "06484"}}},
{"geometry": {"type": "Point", "coordinates": [-73.0945648206, 41.3183118854]}, "type": "Feature", "properties": {"collection_times": [{"days": "Mon-Sat", "time": "10:30am"}, {"days": "Sun", "time": "Closed"}], "id": "0648400009", "name": "USPS COLLECTION BOX - BLUE BOX", "address": {"city": "SHELTON", "state": "CT", "street": "505 HOWE AVE", "postcode": "06484"}}},
{"geometry": {"type": "Point", "coordinates": [-73.1457309787, 41.2947341827]}, "type": "Feature", "properties": {"collection_times": [{"days": "Mon-Sat", "time": "12:00pm"}, {"days": "Sun", "time": "Closed"}], "id": "0648400012", "name": "USPS COLLECTION BOX - BLUE BOX", "address": {"city": "SHELTON", "state": "CT", "street": "34 HUNTINGTON ST", "postcode": "06484"}}},
{"geometry": {"type": "Point", "coordinates": [-73.0924280307, 41.3139229601]}, "type": "Feature", "properties": {"collection_times": [{"days": "Mon-Sat", "time": "12:30pm"}, {"days": "Sun", "time": "Closed"}], "id": "0648400014", "name": "USPS COLLECTION BOX - BLUE BOX", "address": {"city": "SHELTON", "state": "CT", "street": "54 HILL ST", "postcode": "06484"}}},
{"geometry": {"type": "Point", "coordinates": [-73.0825361278, 41.3085913641]}, "type": "Feature", "properties": {"collection_times": [{"days": "Mon-Sat", "time": "11:30am"}, {"days": "Sun", "time": "Closed"}], "id": "0648400015", "name": "USPS COLLECTION BOX - BLUE BOX", "address": {"city": "SHELTON", "state": "CT", "street": "61 HOWE AVE", "postcode": "06484"}}},
{"geometry": {"type": "Point", "coordinates": [-73.078581624, 41.2883813185]}, "type": "Feature", "properties": {"collection_times": [{"days": "Mon-Sat", "time": "10:30am"}, {"days": "Sun", "time": "Closed"}], "id": "0648400016", "name": "USPS COLLECTION BOX - BLUE BOX", "address": {"city": "SHELTON", "state": "CT", "street": "488 RIVER RD", "postcode": "06484"}}},
{"geometry": {"type": "Point", "coordinates": [-73.1243885846, 41.3015230247]}, "type": "Feature", "properties": {"collection_times": [{"days": "Mon-Sat", "time": "10:30am"}, {"days": "Sun", "time": "Closed"}], "id": "0648400018", "name": "USPS COLLECTION BOX - BLUE BOX", "address": {"city": "SHELTON", "state": "CT", "street": "165 CENTER ST", "postcode": "06484"}}},
{"geometry": {"type": "Point", "coordinates": [-73.1135467229, 41.2879102217]}, "type": "Feature", "properties": {"collection_times": [{"days": "Mon-Sat", "time": "1:30pm"}, {"days": "Sun", "time": "Closed"}], "id": "0648400019", "name": "USPS COLLECTION BOX - BLUE BOX", "address": {"city": "SHELTON", "state": "CT", "street": "501 BRIDGEPORT AVE", "postcode": "06484"}}},
{"geometry": {"type": "Point", "coordinates": [-73.1348936947, 41.26325789]}, "type": "Feature", "properties": {"collection_times": [{"days": "Mon-Fri", "time": "2:30pm"}, {"days": "Sat", "time": "1:15pm"}, {"days": "Sun", "time": "Closed"}], "id": "0648400020", "name": "USPS COLLECTION BOX - BLUE BOX", "address": {"city": "SHELTON", "state": "CT", "street": "898 BRIDGEPORT AVE", "postcode": "06484"}}},
{"geometry": {"type": "Point", "coordinates": [-73.1086322026, 41.2958568108]}, "type": "Feature", "properties": {"collection_times": [{"days": "Mon-Fri", "time": "4:30pm"}, {"days": "Sat", "time": "10:30am"}, {"days": "Sun", "time": "Closed"}], "id": "0648400021", "name": "USPS COLLECTION BOX - BLUE BOX", "address": {"city": "SHELTON", "state": "CT", "street": "375 BRIDGEPORT AVE", "postcode": "06484"}}},
{"geometry": {"type": "Point", "coordinates": [-73.1344630848, 41.3346306367]}, "type": "Feature", "properties": {"collection_times": [{"days": "Mon-Sat", "time": "11:00am"}, {"days": "Sun", "time": "Closed"}], "id": "0648400023", "name": "USPS COLLECTION BOX - BLUE BOX", "address": {"city": "SHELTON", "state": "CT", "street": "202 LEAVENWORTH RD", "postcode": "06484"}}},
{"geometry": {"type": "Point", "coordinates": [-73.0960966963, 41.3141030769]}, "type": "Feature", "properties": {"collection_times": [{"days": "Mon-Sat", "time": "2:00pm"}, {"days": "Sun", "time": "Closed"}], "id": "0648400024", "name": "USPS COLLECTION BOX - BLUE BOX", "address": {"city": "SHELTON", "state": "CT", "street": "49 OAK AVE", "postcode": "06484"}}},
{"geometry": {"type": "Point", "coordinates": [-73.0983936882, 41.3191885716]}, "type": "Feature", "properties": {"collection_times": [{"days": "Mon-Sat", "time": "11:30am"}, {"days": "Sun", "time": "Closed"}], "id": "0648400027", "name": "USPS COLLECTION BOX - BLUE BOX", "address": {"city": "SHELTON", "state": "CT", "street": "70 WOOSTER ST", "postcode": "06484"}}},
{"geometry": {"type": "Point", "coordinates": [-73.1238400748, 41.2754753869]}, "type": "Feature", "properties": {"collection_times": [{"days": "Mon-Sat", "time": "10:30am"}, {"days": "Sun", "time": "Closed"}], "id": "0648400028", "name": "USPS COLLECTION BOX - BLUE BOX", "address": {"city": "SHELTON", "state": "CT", "street": "719 BRIDGEPORT AVE", "postcode": "06484"}}},
{"geometry": {"type": "Point", "coordinates": [-73.130587921, 41.2670198201]}, "type": "Feature", "properties": {"collection_times": [{"days": "Mon-Fri", "time": "2:30pm"}, {"days": "Sat-Sun", "time": "Closed"}], "id": "0648400029", "name": "USPS COLLECTION BOX - BLUE BOX", "address": {"city": "SHELTON", "state": "CT", "street": "4 ARMSTRONG RD", "postcode": "06484"}}},
{"geometry": {"type": "Point", "coordinates": [-73.1397808474, 41.2600728579]}, "type": "Feature", "properties": {"collection_times": [{"days": "Mon-Sat", "time": "12:30pm"}, {"days": "Sun", "time": "Closed"}], "id": "0648400031", "name": "USPS COLLECTION BOX - BLUE BOX", "address": {"city": "SHELTON", "state": "CT", "street": "1000 BRIDGEPORT AVE", "postcode": "06484"}}},
{"geometry": {"type": "Point", "coordinates": [-73.0937828926, 41.3174301213]}, "type": "Feature", "properties": {"collection_times": [{"days": "Mon-Fri", "time": "5:00pm"}, {"days": "Sat", "time": "12:00pm"}, {"days": "Sun", "time": "Closed"}], "id": "0648400032", "name": "USPS COLLECTION BOX - PO LOBBY", "address": {"city": "SHELTON", "state": "CT", "street": "83 BRIDGE ST", "postcode": "06484"}}},
{"geometry": {"type": "Point", "coordinates": [-73.14589541, 41.293804377]}, "type": "Feature", "properties": {"collection_times": [{"days": "Mon-Fri", "time": "5:00pm"}, {"days": "Sat", "time": "1:00pm"}, {"days": "Sun", "time": "Closed"}], "id": "0648400033", "name": "USPS COLLECTION BOX - PO LOBBY", "address": {"city": "SHELTON", "state": "CT", "street": "41 CHURCH ST", "postcode": "06484"}}},
{"geometry": {"type": "Point", "coordinates": [-73.1037241059, 41.2934364768]}, "type": "Feature", "properties": {"collection_times": [{"days": "Mon-Fri", "time": "5:00pm"}, {"days": "Sat", "time": "2:00pm"}, {"days": "Sun", "time": "Closed"}], "id": "0648400041", "name": "USPS COLLECTION BOX - BLUE BOX", "address": {"city": "SHELTON", "state": "CT", "street": "40 FOREST PKWY", "postcode": "06484"}}},
{"geometry": {"type": "Point", "coordinates": [-73.1079692861, 41.2846230961]}, "type": "Feature", "properties": {"collection_times": [{"days": "Mon-Fri", "time": "5:00pm"}, {"days": "Sat", "time": "2:00pm"}, {"days": "Sun", "time": "Closed"}], "id": "0648400042", "name": "USPS COLLECTION BOX - BLUE BOX", "address": {"city": "SHELTON", "state": "CT", "street": "40 FOREST PKWY", "postcode": "06484"}}},
{"geometry": {"type": "Point", "coordinates": [-73.097421016, 41.310994305]}, "type": "Feature", "properties": {"collection_times": [{"days": "Mon-Fri", "time": "4:30pm"}, {"days": "Sat", "time": "2:00pm"}, {"days": "Sun", "time": "Closed"}], "id": "0648400044", "name": "USPS COLLECTION BOX - BLUE BOX", "address": {"city": "SHELTON", "state": "CT", "street": "99 BRIDGEPORT AVE", "postcode": "06484"}}},
{"geometry": {"type": "Point", "coordinates": [-73.2299907752, 41.465576442]}, "type": "Feature", "properties": {"collection_times": [{"days": "Mon-Fri", "time": "5:00pm"}, {"days": "Sat", "time": "3:00pm"}, {"days": "Sun", "time": "Closed"}], "id": "0648800001", "name": "USPS COLLECTION BOX - BLUE BOX", "address": {"city": "SOUTHBURY", "state": "CT", "street": "710 MAIN ST S", "postcode": "06488"}}},
{"geometry": {"type": "Point", "coordinates": [-73.2299907752, 41.465576442]}, "type": "Feature", "properties": {"collection_times": [{"days": "Mon-Fri", "time": "5:00pm"}, {"days": "Sat", "time": "3:00pm"}, {"days": "Sun", "time": "Closed"}], "id": "0648800002", "name": "USPS COLLECTION BOX - BLUE BOX", "address": {"city": "SOUTHBURY", "state": "CT", "street": "710 MAIN ST S", "postcode": "06488"}}},
{"geometry": {"type": "Point", "coordinates": [-73.2254411197, 41.4902903122]}, "type": "Feature", "properties": {"collection_times": [{"days": "Mon-Sat", "time": "12:00pm"}, {"days": "Sun", "time": "Closed"}], "id": "0648800005", "name": "USPS COLLECTION BOX - BLUE BOX", "address": {"city": "SOUTHBURY", "state": "CT", "street": "519 HERITAGE RD", "postcode": "06488"}}},
{"geometry": {"type": "Point", "coordinates": [-73.2257066517, 41.4869734938]}, "type": "Feature", "properties": {"collection_times": [{"days": "Mon-Sat", "time": "12:00pm"}, {"days": "Sun", "time": "Closed"}], "id": "0648800007", "name": "USPS COLLECTION BOX - BLUE BOX", "address": {"city": "SOUTHBURY", "state": "CT", "street": "11 HERITAGE WAY", "postcode": "06488"}}},
{"geometry": {"type": "Point", "coordinates": [-73.2132513156, 41.4794147125]}, "type": "Feature", "properties": {"collection_times": [{"days": "Mon-Sat", "time": "12:00pm"}, {"days": "Sun", "time": "Closed"}], "id": "0648800009", "name": "USPS COLLECTION BOX - BLUE BOX", "address": {"city": "SOUTHBURY", "state": "CT", "street": "100 MAIN ST N", "postcode": "06488"}}},
{"geometry": {"type": "Point", "coordinates": [-73.2311020255, 41.4748619893]}, "type": "Feature", "properties": {"collection_times": [{"days": "Mon-Sat", "time": "12:00pm"}, {"days": "Sun", "time": "Closed"}], "id": "0648800011", "name": "USPS COLLECTION BOX - BLUE BOX", "address": {"city": "SOUTHBURY", "state": "CT", "street": "1 DEPOT HILL RD", "postcode": "06488"}}},
{"geometry": {"type": "Point", "coordinates": [-73.166364149, 41.493610878]}, "type": "Feature", "properties": {"collection_times": [{"days": "Mon-Sat", "time": "12:00pm"}, {"days": "Sun", "time": "Closed"}], "id": "0648800012", "name": "USPS COLLECTION BOX - BLUE BOX", "address": {"city": "SOUTHBURY", "state": "CT", "street": "1449 OLD WATERBURY RD", "postcode": "06488"}}},
{"geometry": {"type": "Point", "coordinates": [-73.2232041443, 41.4714800817]}, "type": "Feature", "properties": {"collection_times": [{"days": "Mon-Sat", "time": "12:00pm"}, {"days": "Sun", "time": "Closed"}], "id": "0648800013", "name": "USPS COLLECTION BOX - BLUE BOX", "address": {"city": "SOUTHBURY", "state": "CT", "street": "385 MAIN ST", "postcode": "06488"}}},
{"geometry": {"type": "Point", "coordinates": [-73.1607663825, 41.4635133448]}, "type": "Feature", "properties": {"collection_times": [{"days": "Mon-Sat", "time": "12:00pm"}, {"days": "Sun", "time": "Closed"}], "id": "0648800017", "name": "USPS COLLECTION BOX - BLUE BOX", "address": {"city": "SOUTHBURY", "state": "CT", "street": "1510 SOUTHFORD RD", "postcode": "06488"}}},
{"geometry": {"type": "Point", "coordinates": [-73.1627733321, 41.4951220917]}, "type": "Feature", "properties": {"collection_times": [{"days": "Mon-Sat", "time": "12:00pm"}, {"days": "Sun", "time": "Closed"}], "id": "0648800018", "name": "USPS COLLECTION BOX - BLUE BOX", "address": {"city": "SOUTHBURY", "state": "CT", "street": "1224 STRONGTOWN RD", "postcode": "06488"}}},
{"geometry": {"type": "Point", "coordinates": [-73.2263283389, 41.5017732949]}, "type": "Feature", "properties": {"collection_times": [{"days": "Mon-Sat", "time": "12:00pm"}, {"days": "Sun", "time": "Closed"}], "id": "0648800019", "name": "USPS COLLECTION BOX - BLUE BOX", "address": {"city": "SOUTHBURY", "state": "CT", "street": "380 POVERTY RD", "postcode": "06488"}}},
{"geometry": {"type": "Point", "coordinates": [-73.2299907752, 41.465576442]}, "type": "Feature", "properties": {"collection_times": [{"days": "Mon-Fri", "time": "5:00pm"}, {"days": "Sat", "time": "3:00pm"}, {"days": "Sun", "time": "Closed"}], "id": "0648800022", "name": "USPS COLLECTION BOX - PO LOBBY", "address": {"city": "SOUTHBURY", "state": "CT", "street": "710 MAIN ST S", "postcode": "06488"}}},
{"geometry": {"type": "Point", "coordinates": [-72.8780249947, 41.5998271464]}, "type": "Feature", "properties": {"collection_times": [{"days": "Mon-Fri", "time": "4:45pm"}, {"days": "Sat", "time": "3:00pm"}, {"days": "Sun", "time": "Closed"}], "id": "0648900001", "name": "USPS COLLECTION BOX - EXPRESS", "address": {"city": "SOUTHINGTON", "state": "CT", "street": "125 MAIN ST", "postcode": "06489"}}},
{"geometry": {"type": "Point", "coordinates": [-72.8780249947, 41.5998271464]}, "type": "Feature", "properties": {"collection_times": [{"days": "Mon-Fri", "time": "5:00pm"}, {"days": "Sat", "time": "3:00pm"}, {"days": "Sun", "time": "Closed"}], "id": "0648900002", "name": "USPS COLLECTION BOX - BLUE BOX", "address": {"city": "SOUTHINGTON", "state": "CT", "street": "125 MAIN ST", "postcode": "06489"}}},
{"geometry": {"type": "Point", "coordinates": [-72.8731378796, 41.6439615345]}, "type": "Feature", "properties": {"collection_times": [{"days": "Mon-Sat", "time": "11:00am"}, {"days": "Sun", "time": "Closed"}], "id": "0648900008", "name": "USPS COLLECTION BOX - BLUE BOX", "address": {"city": "SOUTHINGTON", "state": "CT", "street": "30 RIVER RIV", "postcode": "06489"}}},
{"geometry": {"type": "Point", "coordinates": [-72.8732863715, 41.6074027215]}, "type": "Feature", "properties": {"collection_times": [{"days": "Mon-Fri", "time": "12:00pm"}, {"days": "Sat", "time": "11:30am"}, {"days": "Sun", "time": "Closed"}], "id": "0648900012", "name": "USPS COLLECTION BOX - BLUE BOX", "address": {"city": "SOUTHINGTON", "state": "CT", "street": "360 N MAIN ST", "postcode": "06489"}}},
{"geometry": {"type": "Point", "coordinates": [-72.8768479548, 41.6011820685]}, "type": "Feature", "properties": {"collection_times": [{"days": "Mon-Sat", "time": "10:00am"}, {"days": "Sun", "time": "Closed"}], "id": "0648900014", "name": "USPS COLLECTION BOX - BLUE BOX", "address": {"city": "SOUTHINGTON", "state": "CT", "street": "43 ACADEMY ST", "postcode": "06489"}}},
{"geometry": {"type": "Point", "coordinates": [-72.8782686886, 41.6020964958]}, "type": "Feature", "properties": {"collection_times": [{"days": "Mon-Fri", "time": "3:00pm"}, {"days": "Sat", "time": "11:30am"}, {"days": "Sun", "time": "Closed"}], "id": "0648900015", "name": "USPS COLLECTION BOX - BLUE BOX", "address": {"city": "SOUTHINGTON", "state": "CT", "street": "1 N MAIN ST", "postcode": "06489"}}},
{"geometry": {"type": "Point", "coordinates": [-72.879436269, 41.6017593525]}, "type": "Feature", "properties": {"collection_times": [{"days": "Mon-Fri", "time": "12:00pm"}, {"days": "Sat", "time": "9:45am"}, {"days": "Sun", "time": "Closed"}], "id": "0648900016", "name": "USPS COLLECTION BOX - BLUE BOX", "address": {"city": "SOUTHINGTON", "state": "CT", "street": "50 CENTER ST", "postcode": "06489"}}},
{"geometry": {"type": "Point", "coordinates": [-72.8851799856, 41.5898119768]}, "type": "Feature", "properties": {"collection_times": [{"days": "Mon-Fri", "time": "3:00pm"}, {"days": "Sat", "time": "11:30am"}, {"days": "Sun", "time": "Closed"}], "id": "0648900017", "name": "USPS COLLECTION BOX - BLUE BOX", "address": {"city": "SOUTHINGTON", "state": "CT", "street": "76 MAIN ST", "postcode": "06489"}}},
{"geometry": {"type": "Point", "coordinates": [-72.8778002368, 41.5983062953]}, "type": "Feature", "properties": {"collection_times": [{"days": "Mon-Fri", "time": "3:00pm"}, {"days": "Sat", "time": "11:30am"}, {"days": "Sun", "time": "Closed"}], "id": "0648900018", "name": "USPS COLLECTION BOX - BLUE BOX", "address": {"city": "SOUTHINGTON", "state": "CT", "street": "190 MAIN ST", "postcode": "06489"}}},
{"geometry": {"type": "Point", "coordinates": [-72.8762209866, 41.5957227129]}, "type": "Feature", "properties": {"collection_times": [{"days": "Mon-Fri", "time": "3:00pm"}, {"days": "Sat", "time": "11:45am"}, {"days": "Sun", "time": "Closed"}], "id": "0648900019", "name": "USPS COLLECTION BOX - BLUE BOX", "address": {"city": "SOUTHINGTON", "state": "CT", "street": "81 MERIDEN AVE", "postcode": "06489"}}},
{"geometry": {"type": "Point", "coordinates": [-72.8732863715, 41.6074027215]}, "type": "Feature", "properties": {"collection_times": [{"days": "Mon-Fri", "time": "11:45am"}, {"days": "Sat", "time": "12:00pm"}, {"days": "Sun", "time": "Closed"}], "id": "0648900025", "name": "USPS COLLECTION BOX - BLUE BOX", "address": {"city": "SOUTHINGTON", "state": "CT", "street": "9 SPRING LAKE RD", "postcode": "06489"}}},
{"geometry": {"type": "Point", "coordinates": [-72.8593141371, 41.615699341]}, "type": "Feature", "properties": {"collection_times": [{"days": "Mon-Sat", "time": "11:45am"}, {"days": "Sun", "time": "Closed"}], "id": "0648900026", "name": "USPS COLLECTION BOX - BLUE BOX", "address": {"city": "SOUTHINGTON", "state": "CT", "street": "720 PLEASANT ST", "postcode": "06489"}}},
{"geometry": {"type": "Point", "coordinates": [-72.8785051886, 41.6007812444]}, "type": "Feature", "properties": {"collection_times": [{"days": "Mon-Fri", "time": "3:00pm"}, {"days": "Sat", "time": "11:30am"}, {"days": "Sun", "time": "Closed"}], "id": "0648900029", "name": "USPS COLLECTION BOX - BLUE BOX", "address": {"city": "SOUTHINGTON", "state": "CT", "street": "76 MAIN ST", "postcode": "06489"}}},
{"geometry": {"type": "Point", "coordinates": [-72.8780581219, 41.5999245832]}, "type": "Feature", "properties": {"collection_times": [{"days": "Mon-Fri", "time": "5:00pm"}, {"days": "Sat", "time": "3:00pm"}, {"days": "Sun", "time": "Closed"}], "id": "0648900033", "name": "USPS COLLECTION BOX - BLUE BOX", "address": {"city": "SOUTHINGTON", "state": "CT", "street": "125 MAIN ST", "postcode": "06489"}}},
{"geometry": {"type": "Point", "coordinates": [-72.898932804, 41.608244363]}, "type": "Feature", "properties": {"collection_times": [{"days": "Mon-Fri", "time": "2:00pm"}, {"days": "Sat", "time": "11:00am"}, {"days": "Sun", "time": "Closed"}], "id": "0648900034", "name": "USPS COLLECTION BOX - BLUE BOX", "address": {"city": "SOUTHINGTON", "state": "CT", "street": "732 WEST ST", "postcode": "06489"}}},
{"geometry": {"type": "Point", "coordinates": [-72.8729335436, 41.6139603913]}, "type": "Feature", "properties": {"collection_times": [{"days": "Mon-Fri", "time": "11:00am"}, {"days": "Sat", "time": "11:30am"}, {"days": "Sun", "time": "Closed"}], "id": "0648900035", "name": "USPS COLLECTION BOX - BLUE BOX", "address": {"city": "SOUTHINGTON", "state": "CT", "street": "505 N MAIN ST", "postcode": "06489"}}},
{"geometry": {"type": "Point", "coordinates": [-72.8781293493, 41.600224278]}, "type": "Feature", "properties": {"collection_times": [{"days": "Mon-Fri", "time": "10:30am"}, {"days": "Sat", "time": "10:00am"}, {"days": "Sun", "time": "Closed"}], "id": "0648900036", "name": "USPS COLLECTION BOX - BLUE BOX", "address": {"city": "SOUTHINGTON", "state": "CT", "street": "264 MERIDEN WATERBURY TPKE", "postcode": "06489"}}},
{"geometry": {"type": "Point", "coordinates": [-72.8778167982, 41.5962231046]}, "type": "Feature", "properties": {"collection_times": [{"days": "Mon-Fri", "time": "2:45pm"}, {"days": "Sat", "time": "11:45am"}, {"days": "Sun", "time": "Closed"}], "id": "0648900039", "name": "USPS COLLECTION BOX - BLUE BOX", "address": {"city": "SOUTHINGTON", "state": "CT", "street": "255 MAIN ST", "postcode": "06489"}}},
{"geometry": {"type": "Point", "coordinates": [-72.8181859197, 41.4542529818]}, "type": "Feature", "properties": {"collection_times": [{"days": "Mon-Fri", "time": "5:00pm"}, {"days": "Sat", "time": "3:00pm"}, {"days": "Sun", "time": "Closed"}], "id": "0649200001", "name": "USPS COLLECTION BOX - BLUE BOX", "address": {"city": "WALLINGFORD", "state": "CT", "street": "4 S MAIN ST", "postcode": "06492"}}},
{"geometry": {"type": "Point", "coordinates": [-72.8335725061, 41.4536858233]}, "type": "Feature", "properties": {"collection_times": [{"days": "Mon-Fri", "time": "1:45pm"}, {"days": "Sat", "time": "11:45am"}, {"days": "Sun", "time": "Closed"}], "id": "0649200007", "name": "USPS COLLECTION BOX - BLUE BOX", "address": {"city": "WALLINGFORD", "state": "CT", "street": "71 SOUTH TPK", "postcode": "06492"}}},
{"geometry": {"type": "Point", "coordinates": [-72.8036972157, 41.4588156434]}, "type": "Feature", "properties": {"collection_times": [{"days": "Mon-Fri", "time": "1:45pm"}, {"days": "Sat", "time": "11:45am"}, {"days": "Sun", "time": "Closed"}], "id": "0649200008", "name": "USPS COLLECTION BOX - BLUE BOX", "address": {"city": "WALLINGFORD", "state": "CT", "street": "100 SOUTH TPK", "postcode": "06492"}}},
{"geometry": {"type": "Point", "coordinates": [-72.8373452167, 41.4594381195]}, "type": "Feature", "properties": {"collection_times": [{"days": "Mon-Fri", "time": "1:45pm"}, {"days": "Sat", "time": "11:45am"}, {"days": "Sun", "time": "Closed"}], "id": "0649200009", "name": "USPS COLLECTION BOX - BLUE BOX", "address": {"city": "WALLINGFORD", "state": "CT", "street": "22 MASONIC AVE", "postcode": "06492"}}},
{"geometry": {"type": "Point", "coordinates": [-72.8198110714, 41.4549659864]}, "type": "Feature", "properties": {"collection_times": [{"days": "Mon-Fri", "time": "11:00am"}, {"days": "Sat", "time": "11:30am"}, {"days": "Sun", "time": "Closed"}], "id": "0649200010", "name": "USPS COLLECTION BOX - BLUE BOX", "address": {"city": "WALLINGFORD", "state": "CT", "street": "218 CENTER ST", "postcode": "06492"}}},
{"geometry": {"type": "Point", "coordinates": [-72.8179092765, 41.4619102129]}, "type": "Feature", "properties": {"collection_times": [{"days": "Mon-Sat", "time": "12:30pm"}, {"days": "Sun", "time": "Closed"}], "id": "0649200011", "name": "USPS COLLECTION BOX - BLUE BOX", "address": {"city": "WALLINGFORD", "state": "CT", "street": "116 CENTER CTR", "postcode": "06492"}}},
{"geometry": {"type": "Point", "coordinates": [-72.8040898163, 41.4856777231]}, "type": "Feature", "properties": {"collection_times": [{"days": "Mon-Fri", "time": "4:00pm"}, {"days": "Sat", "time": "2:15pm"}, {"days": "Sun", "time": "Closed"}], "id": "0649200012", "name": "USPS COLLECTION BOX - BLUE BOX", "address": {"city": "WALLINGFORD", "state": "CT", "street": "85 BARNES RD", "postcode": "06492"}}},
{"geometry": {"type": "Point", "coordinates": [-72.8186982688, 41.4536228469]}, "type": "Feature", "properties": {"collection_times": [{"days": "Mon-Fri", "time": "2:15pm"}, {"days": "Sat", "time": "12:30pm"}, {"days": "Sun", "time": "Closed"}], "id": "0649200013", "name": "USPS COLLECTION BOX - BLUE BOX", "address": {"city": "WALLINGFORD", "state": "CT", "street": "60 CHURCH ST", "postcode": "06492"}}},
{"geometry": {"type": "Point", "coordinates": [-72.8168837649, 41.469251387]}, "type": "Feature", "properties": {"collection_times": [{"days": "Mon-Fri", "time": "2:30pm"}, {"days": "Sat", "time": "12:45pm"}, {"days": "Sun", "time": "Closed"}], "id": "0649200014", "name": "USPS COLLECTION BOX - BLUE BOX", "address": {"city": "WALLINGFORD", "state": "CT", "street": "600 N COLONY RD", "postcode": "06492"}}},
{"geometry": {"type": "Point", "coordinates": [-72.8182090142, 41.4544042274]}, "type": "Feature", "properties": {"collection_times": [{"days": "Mon-Fri", "time": "2:30pm"}, {"days": "Sat", "time": "12:45pm"}, {"days": "Sun", "time": "Closed"}], "id": "0649200015", "name": "USPS COLLECTION BOX - BLUE BOX", "address": {"city": "WALLINGFORD", "state": "CT", "street": "86 N MAIN ST", "postcode": "06492"}}},
{"geometry": {"type": "Point", "coordinates": [-72.8326987993, 41.437970367]}, "type": "Feature", "properties": {"collection_times": [{"days": "Mon-Fri", "time": "3:15pm"}, {"days": "Sat", "time": "1:15pm"}, {"days": "Sun", "time": "Closed"}], "id": "0649200016", "name": "USPS COLLECTION BOX - BLUE BOX", "address": {"city": "WALLINGFORD", "state": "CT", "street": "91 S MAIN ST", "postcode": "06492"}}},
{"geometry": {"type": "Point", "coordinates": [-72.8297366141, 41.4299333799]}, "type": "Feature", "properties": {"collection_times": [{"days": "Mon-Sat", "time": "2:30pm"}, {"days": "Sun", "time": "Closed"}], "id": "0649200018", "name": "USPS COLLECTION BOX - BLUE BOX", "address": {"city": "WALLINGFORD", "state": "CT", "street": "1 SOUTHSIDE", "postcode": "06492"}}},
{"geometry": {"type": "Point", "coordinates": [-72.8201014133, 41.459247103]}, "type": "Feature", "properties": {"collection_times": [{"days": "Mon-Sat", "time": "2:30pm"}, {"days": "Sun", "time": "Closed"}], "id": "0649200020", "name": "USPS COLLECTION BOX - BLUE BOX", "address": {"city": "WALLINGFORD", "state": "CT", "street": "92 WILLIAM ST", "postcode": "06492"}}},
{"geometry": {"type": "Point", "coordinates": [-72.8187078876, 41.459538111]}, "type": "Feature", "properties": {"collection_times": [{"days": "Mon-Sat", "time": "2:30pm"}, {"days": "Sun", "time": "Closed"}], "id": "0649200022", "name": "USPS COLLECTION BOX - BLUE BOX", "address": {"city": "WALLINGFORD", "state": "CT", "street": "155 S ORCHARD ST", "postcode": "06492"}}},
{"geometry": {"type": "Point", "coordinates": [-72.8171862306, 41.4530731192]}, "type": "Feature", "properties": {"collection_times": [{"days": "Mon-Fri", "time": "11:00am"}, {"days": "Sat", "time": "1:00pm"}, {"days": "Sun", "time": "Closed"}], "id": "0649200023", "name": "USPS COLLECTION BOX - BLUE BOX", "address": {"city": "WALLINGFORD", "state": "CT", "street": "26 FAIR ST", "postcode": "06492"}}},
{"geometry": {"type": "Point", "coordinates": [-72.8173379372, 41.4503067426]}, "type": "Feature", "properties": {"collection_times": [{"days": "Mon-Sat", "time": "9:30am"}, {"days": "Sun", "time": "Closed"}], "id": "0649200024", "name": "USPS COLLECTION BOX - BLUE BOX", "address": {"city": "WALLINGFORD", "state": "CT", "street": "105 S ELM ST", "postcode": "06492"}}},
{"geometry": {"type": "Point", "coordinates": [-72.8179092765, 41.4619102129]}, "type": "Feature", "properties": {"collection_times": [{"days": "Mon-Fri", "time": "11:00am"}, {"days": "Sat", "time": "11:45am"}, {"days": "Sun", "time": "Closed"}], "id": "0649200027", "name": "USPS COLLECTION BOX - BLUE BOX", "address": {"city": "WALLINGFORD", "state": "CT", "street": "279 S CHERRY ST", "postcode": "06492"}}},
{"geometry": {"type": "Point", "coordinates": [-72.8020732578, 41.4475357705]}, "type": "Feature", "properties": {"collection_times": [{"days": "Mon-Fri", "time": "3:15pm"}, {"days": "Sat", "time": "1:15pm"}, {"days": "Sun", "time": "Closed"}], "id": "0649200029", "name": "USPS COLLECTION BOX - BLUE BOX", "address": {"city": "WALLINGFORD", "state": "CT", "street": "820 E CENTER ST", "postcode": "06492"}}},
{"geometry": {"type": "Point", "coordinates": [-72.810913371, 41.4507641043]}, "type": "Feature", "properties": {"collection_times": [{"days": "Mon-Sat", "time": "10:30am"}, {"days": "Sun", "time": "Closed"}], "id": "0649200030", "name": "USPS COLLECTION BOX - BLUE BOX", "address": {"city": "WALLINGFORD", "state": "CT", "street": "656 CENTER ST", "postcode": "06492"}}},
{"geometry": {"type": "Point", "coordinates": [-72.8161444155, 41.4571875715]}, "type": "Feature", "properties": {"collection_times": [{"days": "Mon-Fri", "time": "3:45pm"}, {"days": "Sat", "time": "1:45pm"}, {"days": "Sun", "time": "Closed"}], "id": "0649200031", "name": "USPS COLLECTION BOX - BLUE BOX", "address": {"city": "WALLINGFORD", "state": "CT", "street": "221 N MAIN ST", "postcode": "06492"}}},
{"geometry": {"type": "Point", "coordinates": [-72.8046400663, 41.4565086394]}, "type": "Feature", "properties": {"collection_times": [{"days": "Mon-Fri", "time": "3:45pm"}, {"days": "Sat", "time": "1:45pm"}, {"days": "Sun", "time": "Closed"}], "id": "0649200033", "name": "USPS COLLECTION BOX - BLUE BOX", "address": {"city": "WALLINGFORD", "state": "CT", "street": "333 CHRISTIAN ST", "postcode": "06492"}}},
{"geometry": {"type": "Point", "coordinates": [-72.8040806, 41.4788428183]}, "type": "Feature", "properties": {"collection_times": [{"days": "Mon-Fri", "time": "4:00pm"}, {"days": "Sat", "time": "2:15pm"}, {"days": "Sun", "time": "Closed"}], "id": "0649200036", "name": "USPS COLLECTION BOX - BLUE BOX", "address": {"city": "WALLINGFORD", "state": "CT", "street": "34 BARNES INDUSTRIAL RD S", "postcode": "06492"}}},
{"geometry": {"type": "Point", "coordinates": [-72.7658095116, 41.4789398209]}, "type": "Feature", "properties": {"collection_times": [{"days": "Mon-Fri", "time": "5:00pm"}, {"days": "Sat-Sun", "time": "Closed"}], "id": "0649200037", "name": "USPS COLLECTION BOX - BLUE BOX", "address": {"city": "WALLINGFORD", "state": "CT", "street": "5 RESEARCH PKWY", "postcode": "06492"}}},
{"geometry": {"type": "Point", "coordinates": [-72.8011843084, 41.4835028465]}, "type": "Feature", "properties": {"collection_times": [{"days": "Mon-Sat", "time": "10:30am"}, {"days": "Sun", "time": "Closed"}], "id": "0649200039", "name": "USPS COLLECTION BOX - BLUE BOX", "address": {"city": "WALLINGFORD", "state": "CT", "street": "29 BARNES PARK RD N", "postcode": "06492"}}},
{"geometry": {"type": "Point", "coordinates": [-72.809616281, 41.4853708245]}, "type": "Feature", "properties": {"collection_times": [{"days": "Mon-Fri", "time": "4:00pm"}, {"days": "Sat", "time": "2:15pm"}, {"days": "Sun", "time": "Closed"}], "id": "0649200040", "name": "USPS COLLECTION BOX - BLUE BOX", "address": {"city": "WALLINGFORD", "state": "CT", "street": "932 N COLONY RD", "postcode": "06492"}}},
{"geometry": {"type": "Point", "coordinates": [-72.8197606708, 41.4914291647]}, "type": "Feature", "properties": {"collection_times": [{"days": "Mon-Fri", "time": "11:00am"}, {"days": "Sat", "time": "12:30pm"}, {"days": "Sun", "time": "Closed"}], "id": "0649200043", "name": "USPS COLLECTION BOX - BLUE BOX", "address": {"city": "WALLINGFORD", "state": "CT", "street": "321 CHURCH ST", "postcode": "06492"}}},
{"geometry": {"type": "Point", "coordinates": [-72.8377310484, 41.4773617297]}, "type": "Feature", "properties": {"collection_times": [{"days": "Mon-Fri", "time": "11:00am"}, {"days": "Sat", "time": "12:00pm"}, {"days": "Sun", "time": "Closed"}], "id": "0649200044", "name": "USPS COLLECTION BOX - BLUE BOX", "address": {"city": "WALLINGFORD", "state": "CT", "street": "10 HOPE HILL RD", "postcode": "06492"}}},
{"geometry": {"type": "Point", "coordinates": [-72.8332085986, 41.4681760773]}, "type": "Feature", "properties": {"collection_times": [{"days": "Mon-Fri", "time": "2:00pm"}, {"days": "Sat", "time": "12:00pm"}, {"days": "Sun", "time": "Closed"}], "id": "0649200046", "name": "USPS COLLECTION BOX - BLUE BOX", "address": {"city": "WALLINGFORD", "state": "CT", "street": "7 N TURNPIKE RD", "postcode": "06492"}}},
{"geometry": {"type": "Point", "coordinates": [-72.7736560784, 41.4825596754]}, "type": "Feature", "properties": {"collection_times": [{"days": "Mon-Sat", "time": "12:00pm"}, {"days": "Sun", "time": "Closed"}], "id": "0649200052", "name": "USPS COLLECTION BOX - BLUE BOX", "address": {"city": "WALLINGFORD", "state": "CT", "street": "1062 BARNES RD", "postcode": "06492"}}},
{"geometry": {"type": "Point", "coordinates": [-72.8076640784, 41.4798507469]}, "type": "Feature", "properties": {"collection_times": [{"days": "Mon-Fri", "time": "4:00pm"}, {"days": "Sat", "time": "2:15pm"}, {"days": "Sun", "time": "Closed"}], "id": "0649200054", "name": "USPS COLLECTION BOX - BLUE BOX", "address": {"city": "WALLINGFORD", "state": "CT", "street": "850 N MAIN STREET EXT", "postcode": "06492"}}},
{"geometry": {"type": "Point", "coordinates": [-72.8268950056, 41.4481675882]}, "type": "Feature", "properties": {"collection_times": [{"days": "Mon-Sat", "time": "2:30pm"}, {"days": "Sun", "time": "Closed"}], "id": "0649200055", "name": "USPS COLLECTION BOX - BLUE BOX", "address": {"city": "WALLINGFORD", "state": "CT", "street": "286 S ORCHARD ST", "postcode": "06492"}}},
{"geometry": {"type": "Point", "coordinates": [-72.8179266567, 41.4618623715]}, "type": "Feature", "properties": {"collection_times": [{"days": "Mon-Fri", "time": "5:00pm"}, {"days": "Sat", "time": "3:00pm"}, {"days": "Sun", "time": "Closed"}], "id": "0649200057", "name": "USPS COLLECTION BOX - EXPRESS", "address": {"city": "WALLINGFORD", "state": "CT", "street": "4 S MAIN ST", "postcode": "06492"}}},
{"geometry": {"type": "Point", "coordinates": [-72.823772135, 41.4473039493]}, "type": "Feature", "properties": {"collection_times": [{"days": "Mon-Fri", "time": "5:00pm"}, {"days": "Sat", "time": "12:15pm"}, {"days": "Sun", "time": "Closed"}], "id": "0649200058", "name": "USPS COLLECTION BOX - BLUE BOX", "address": {"city": "WALLINGFORD", "state": "CT", "street": "314 MAIN ST", "postcode": "06492"}}},
{"geometry": {"type": "Point", "coordinates": [-72.7907545673, 41.484386164]}, "type": "Feature", "properties": {"collection_times": [{"days": "Mon-Fri", "time": "4:15pm"}, {"days": "Sat", "time": "2:30pm"}, {"days": "Sun", "time": "Closed"}], "id": "0649200065", "name": "USPS COLLECTION BOX - BLUE BOX", "address": {"city": "WALLINGFORD", "state": "CT", "street": "2 FAIRFIELD BLVD", "postcode": "06492"}}},
{"geometry": {"type": "Point", "coordinates": [-72.7641782112, 41.4947465186]}, "type": "Feature", "properties": {"collection_times": [{"days": "Mon-Sat", "time": "7:00pm"}, {"days": "Sun", "time": "Closed"}], "id": "0649200069", "name": "USPS COLLECTION BOX - BLUE BOX", "address": {"city": "WALLINGFORD", "state": "CT", "street": "24 RESEARCH PKWY", "postcode": "06492"}}},
{"geometry": {"type": "Point", "coordinates": [-72.8179092765, 41.4619102129]}, "type": "Feature", "properties": {"collection_times": [{"days": "Mon-Fri", "time": "5:00pm"}, {"days": "Sat", "time": "2:30pm"}, {"days": "Sun", "time": "Closed"}], "id": "0649200071", "name": "USPS COLLECTION BOX - BLUE BOX", "address": {"city": "WALLINGFORD", "state": "CT", "street": "900 NORTHROP RD", "postcode": "06492"}}},
{"geometry": {"type": "Point", "coordinates": [-72.8179092765, 41.4619102129]}, "type": "Feature", "properties": {"collection_times": [{"days": "Mon-Fri", "time": "2:15pm"}, {"days": "Sat", "time": "12:30pm"}, {"days": "Sun", "time": "Closed"}], "id": "0649200072", "name": "USPS COLLECTION BOX - BLUE BOX", "address": {"city": "WALLINGFORD", "state": "CT", "street": "29 N PLAINS HWY", "postcode": "06492"}}},
{"geometry": {"type": "Point", "coordinates": [-72.818250902, 41.454274012]}, "type": "Feature", "properties": {"collection_times": [{"days": "Mon-Fri", "time": "5:00pm"}, {"days": "Sat", "time": "3:00pm"}, {"days": "Sun", "time": "Closed"}], "id": "0649200077", "name": "USPS COLLECTION BOX - PO LOBBY", "address": {"city": "WALLINGFORD", "state": "CT", "street": "4 S MAIN ST", "postcode": "06492"}}},
{"geometry": {"type": "Point", "coordinates": [-72.8343269486, 41.4573027443]}, "type": "Feature", "properties": {"collection_times": [{"days": "Mon-Sat", "time": "10:00am"}, {"days": "Sun", "time": "Closed"}], "id": "0649200078", "name": "USPS COLLECTION BOX - BLUE BOX", "address": {"city": "WALLINGFORD", "state": "CT", "street": "341 QUINNIPIAC ST", "postcode": "06492"}}},
{"geometry": {"type": "Point", "coordinates": [-72.7641782112, 41.4947465186]}, "type": "Feature", "properties": {"collection_times": [{"days": "Mon-Sat", "time": "7:00pm"}, {"days": "Sun", "time": "Closed"}], "id": "0649200080", "name": "USPS COLLECTION BOX - BLUE BOX", "address": {"city": "WALLINGFORD", "state": "CT", "street": "24 RESEARCH PKWY", "postcode": "06492"}}},
{"geometry": {"type": "Point", "coordinates": [-72.8193916379, 41.4778917193]}, "type": "Feature", "properties": {"collection_times": [{"days": "Mon-Fri", "time": "2:15pm"}, {"days": "Sat", "time": "12:30pm"}, {"days": "Sun", "time": "Closed"}], "id": "0649200081", "name": "USPS COLLECTION BOX - BLUE BOX", "address": {"city": "WALLINGFORD", "state": "CT", "street": "121 N PLAINS INDUSTRIAL RD", "postcode": "06492"}}},
{"geometry": {"type": "Point", "coordinates": [-72.4415166898, 41.2833316413]}, "type": "Feature", "properties": {"collection_times": [{"days": "Mon-Fri", "time": "4:40pm"}, {"days": "Sat", "time": "12:40pm"}, {"days": "Sun", "time": "Closed"}], "id": "0649800008", "name": "USPS COLLECTION BOX - PO LOBBY", "address": {"city": "WESTBROOK", "state": "CT", "street": "1411 BOSTON POST RD", "postcode": "06498"}}},
{"geometry": {"type": "Point", "coordinates": [-72.4415166898, 41.2833316413]}, "type": "Feature", "properties": {"collection_times": [{"days": "Mon-Fri", "time": "4:40pm"}, {"days": "Sat", "time": "12:40pm"}, {"days": "Sun", "time": "Closed"}], "id": "0649800009", "name": "USPS COLLECTION BOX - BLUE BOX", "address": {"city": "WESTBROOK", "state": "CT", "street": "1411 BOSTON POST RD", "postcode": "06498"}}}
]}
