{"type": "FeatureCollection", "features": [
{"geometry": {"type": "Point", "coordinates": [-72.9231962871, 41.3049573141]}, "type": "Feature", "properties": {"collection_times": [{"days": "Mon-Fri", "time": "5:00pm"}, {"days": "Sat", "time": "12:00pm"}, {"days": "Sun", "time": "Closed"}], "id": "0651000002", "name": "USPS COLLECTION BOX - PO LOBBY", "address": {"city": "NEW HAVEN", "state": "CT", "street": "754 CHAPEL ST", "postcode": "06510"}}},
{"geometry": {"type": "Point", "coordinates": [-72.9228484349, 41.296908559]}, "type": "Feature", "properties": {"collection_times": [{"days": "Mon-Fri", "time": "5:00pm"}, {"days": "Sat", "time": "2:30pm"}, {"days": "Sun", "time": "Closed"}], "id": "0651100001", "name": "USPS COLLECTION BOX - BLUE BOX", "address": {"city": "NEW HAVEN", "state": "CT", "street": "50 BREWERY ST", "postcode": "06511"}}},
{"geometry": {"type": "Point", "coordinates": [-72.9228484349, 41.296908559]}, "type": "Feature", "properties": {"collection_times": [{"days": "Mon-Fri", "time": "5:00pm"}, {"days": "Sat", "time": "2:30pm"}, {"days": "Sun", "time": "Closed"}], "id": "0651100002", "name": "USPS COLLECTION BOX - BLUE BOX", "address": {"city": "NEW HAVEN", "state": "CT", "street": "50 BREWERY ST", "postcode": "06511"}}},
{"geometry": {"type": "Point", "coordinates": [-72.9289676173, 41.3159831569]}, "type": "Feature", "properties": {"collection_times": [{"days": "Mon-Fri", "time": "5:00pm"}, {"days": "Sat", "time": "2:30pm"}, {"days": "Sun", "time": "Closed"}], "id": "0651100004", "name": "USPS COLLECTION BOX - EXPRESS", "address": {"city": "NEW HAVEN", "state": "CT", "street": "50 BREWERY ST", "postcode": "06511"}}},
{"geometry": {"type": "Point", "coordinates": [-72.9289460442, 41.2885821015]}, "type": "Feature", "properties": {"collection_times": [{"days": "Mon-Fri", "time": "3:30pm"}, {"days": "Sat", "time": "2:00pm"}, {"days": "Sun", "time": "Closed"}], "id": "0651100011", "name": "USPS COLLECTION BOX - BLUE BOX", "address": {"city": "NEW HAVEN", "state": "CT", "street": "555 LONG WHARF DR", "postcode": "06511"}}},
{"geometry": {"type": "Point", "coordinates": [-72.9289460442, 41.2885821015]}, "type": "Feature", "properties": {"collection_times": [{"days": "Mon-Fri", "time": "3:30pm"}, {"days": "Sat", "time": "2:00pm"}, {"days": "Sun", "time": "Closed"}], "id": "0651100012", "name": "USPS COLLECTION BOX - BLUE BOX", "address": {"city": "NEW HAVEN", "state": "CT", "street": "555 LONG WHARF DR", "postcode": "06511"}}},
{"geometry": {"type": "Point", "coordinates": [-72.9184514387, 41.3055570743]}, "type": "Feature", "properties": {"collection_times": [{"days": "Mon-Fri", "time": "12:00pm"}, {"days": "Sat-Sun", "time": "Closed"}], "id": "0651100013", "name": "USPS COLLECTION BOX - BLUE BOX", "address": {"city": "NEW HAVEN", "state": "CT", "street": "42 ACADEMY ST", "postcode": "06511"}}},
{"geometry": {"type": "Point", "coordinates": [-72.9290371375, 41.315683398]}, "type": "Feature", "properties": {"collection_times": [{"days": "Mon-Fri", "time": "11:00am"}, {"days": "Sat-Sun", "time": "Closed"}], "id": "0651100015", "name": "USPS COLLECTION BOX - BLUE BOX", "address": {"city": "NEW HAVEN", "state": "CT", "street": "1 CHURCH ST", "postcode": "06511"}}},
{"geometry": {"type": "Point", "coordinates": [-72.9290371375, 41.315683398]}, "type": "Feature", "properties": {"collection_times": [{"days": "Mon-Sat", "time": "11:00am"}, {"days": "Sun", "time": "Closed"}], "id": "0651100016", "name": "USPS COLLECTION BOX - BLUE BOX", "address": {"city": "NEW HAVEN", "state": "CT", "street": "55 CHURCH ST", "postcode": "06511"}}},
{"geometry": {"type": "Point", "coordinates": [-72.9246175236, 41.3076243465]}, "type": "Feature", "properties": {"collection_times": [{"days": "Mon-Fri", "time": "12:00pm"}, {"days": "Sat-Sun", "time": "Closed"}], "id": "0651100017", "name": "USPS COLLECTION BOX - BLUE BOX", "address": {"city": "NEW HAVEN", "state": "CT", "street": "358 ORANGE ST", "postcode": "06511"}}},
{"geometry": {"type": "Point", "coordinates": [-72.9235866635, 41.3112506558]}, "type": "Feature", "properties": {"collection_times": [{"days": "Mon-Fri", "time": "1:00pm"}, {"days": "Sat", "time": "12:00pm"}, {"days": "Sun", "time": "Closed"}], "id": "0651100019", "name": "USPS COLLECTION BOX - BLUE BOX", "address": {"city": "NEW HAVEN", "state": "CT", "street": "370 TEMPLE ST", "postcode": "06511"}}},
{"geometry": {"type": "Point", "coordinates": [-72.9290371375, 41.315683398]}, "type": "Feature", "properties": {"collection_times": [{"days": "Mon-Fri", "time": "12:30pm"}, {"days": "Sat-Sun", "time": "Closed"}], "id": "0651100020", "name": "USPS COLLECTION BOX - BLUE BOX", "address": {"city": "NEW HAVEN", "state": "CT", "street": "68 WALL WALL", "postcode": "06511"}}},
{"geometry": {"type": "Point", "coordinates": [-72.9290371375, 41.315683398]}, "type": "Feature", "properties": {"collection_times": [{"days": "Mon-Fri", "time": "12:30pm"}, {"days": "Sat", "time": "12:00pm"}, {"days": "Sun", "time": "Closed"}], "id": "0651100021", "name": "USPS COLLECTION BOX - BLUE BOX", "address": {"city": "NEW HAVEN", "state": "CT", "street": "143 ELM ST", "postcode": "06511"}}},
{"geometry": {"type": "Point", "coordinates": [-72.9109600997, 41.3230478761]}, "type": "Feature", "properties": {"collection_times": [{"days": "Mon-Sat", "time": "11:00am"}, {"days": "Sun", "time": "Closed"}], "id": "0651100025", "name": "USPS COLLECTION BOX - BLUE BOX", "address": {"city": "NEW HAVEN", "state": "CT", "street": "831 ORANGE ST", "postcode": "06511"}}},
{"geometry": {"type": "Point", "coordinates": [-72.9289676173, 41.3159831569]}, "type": "Feature", "properties": {"collection_times": [{"days": "Mon-Fri", "time": "12:30pm"}, {"days": "Sat-Sun", "time": "Closed"}], "id": "0651100026", "name": "USPS COLLECTION BOX - BLUE BOX", "address": {"city": "NEW HAVEN", "state": "CT", "street": "50 ELM ST", "postcode": "06511"}}},
{"geometry": {"type": "Point", "coordinates": [-72.923094358, 41.3048590179]}, "type": "Feature", "properties": {"collection_times": [{"days": "Mon-Sat", "time": "12:00pm"}, {"days": "Sun", "time": "Closed"}], "id": "0651100036", "name": "USPS COLLECTION BOX - BLUE BOX", "address": {"city": "NEW HAVEN", "state": "CT", "street": "744 CHAPEL ST", "postcode": "06511"}}},
{"geometry": {"type": "Point", "coordinates": [-72.9310125806, 41.3081921703]}, "type": "Feature", "properties": {"collection_times": [{"days": "Mon-Fri", "time": "2:15pm"}, {"days": "Sat", "time": "12:30pm"}, {"days": "Sun", "time": "Closed"}], "id": "0651100038", "name": "USPS COLLECTION BOX - BLUE BOX", "address": {"city": "NEW HAVEN", "state": "CT", "street": "1100 CHAPEL", "postcode": "06511"}}},
{"geometry": {"type": "Point", "coordinates": [-72.9289727045, 41.3070441699]}, "type": "Feature", "properties": {"collection_times": [{"days": "Mon-Sat", "time": "11:30am"}, {"days": "Sun", "time": "Closed"}], "id": "0651100040", "name": "USPS COLLECTION BOX - BLUE BOX", "address": {"city": "NEW HAVEN", "state": "CT", "street": "280 COLLEGE ST", "postcode": "06511"}}},
{"geometry": {"type": "Point", "coordinates": [-72.9290371375, 41.315683398]}, "type": "Feature", "properties": {"collection_times": [{"days": "Mon-Fri", "time": "3:00pm"}, {"days": "Sat", "time": "11:30am"}, {"days": "Sun", "time": "Closed"}], "id": "0651100041", "name": "USPS COLLECTION BOX - BLUE BOX", "address": {"city": "NEW HAVEN", "state": "CT", "street": "33 CEDAR ST", "postcode": "06511"}}},
{"geometry": {"type": "Point", "coordinates": [-72.923088674, 41.314767206]}, "type": "Feature", "properties": {"collection_times": [{"days": "Mon-Fri", "time": "1:00pm"}, {"days": "Sat-Sun", "time": "Closed"}], "id": "0651100052", "name": "USPS COLLECTION BOX - BLUE BOX", "address": {"city": "NEW HAVEN", "state": "CT", "street": "43 HILLHOUSE AVE", "postcode": "06511"}}},
{"geometry": {"type": "Point", "coordinates": [-72.942658442, 41.31670417]}, "type": "Feature", "properties": {"collection_times": [{"days": "Mon-Sat", "time": "11:00am"}, {"days": "Sun", "time": "Closed"}], "id": "0651100054", "name": "USPS COLLECTION BOX - BLUE BOX", "address": {"city": "NEW HAVEN", "state": "CT", "street": "296 WHALLEY AVE", "postcode": "06511"}}},
{"geometry": {"type": "Point", "coordinates": [-72.9246175236, 41.3076243465]}, "type": "Feature", "properties": {"collection_times": [{"days": "Mon-Fri", "time": "2:00pm"}, {"days": "Sat-Sun", "time": "Closed"}], "id": "0651100057", "name": "USPS COLLECTION BOX - BLUE BOX", "address": {"city": "NEW HAVEN", "state": "CT", "street": "135 COLLEGE ST", "postcode": "06511"}}},
{"geometry": {"type": "Point", "coordinates": [-72.9290371375, 41.315683398]}, "type": "Feature", "properties": {"collection_times": [{"days": "Mon-Fri", "time": "2:00pm"}, {"days": "Sat-Sun", "time": "Closed"}], "id": "0651100061", "name": "USPS COLLECTION BOX - BLUE BOX", "address": {"city": "NEW HAVEN", "state": "CT", "street": "370 GEORGE ST", "postcode": "06511"}}},
{"geometry": {"type": "Point", "coordinates": [-72.9352068695, 41.3326125288]}, "type": "Feature", "properties": {"collection_times": [{"days": "Mon-Fri", "time": "2:00pm"}, {"days": "Sat", "time": "12:00pm"}, {"days": "Sun", "time": "Closed"}], "id": "0651100067", "name": "USPS COLLECTION BOX - BLUE BOX", "address": {"city": "NEW HAVEN", "state": "CT", "street": "714 DIXWELL AVE", "postcode": "06511"}}},
{"geometry": {"type": "Point", "coordinates": [-72.9182290424, 41.320902418]}, "type": "Feature", "properties": {"collection_times": [{"days": "Mon-Fri", "time": "12:45pm"}, {"days": "Sat", "time": "11:45am"}, {"days": "Sun", "time": "Closed"}], "id": "0651100070", "name": "USPS COLLECTION BOX - BLUE BOX", "address": {"city": "NEW HAVEN", "state": "CT", "street": "374 WHITNEY AVE", "postcode": "06511"}}},
{"geometry": {"type": "Point", "coordinates": [-72.9246175236, 41.3076243465]}, "type": "Feature", "properties": {"collection_times": [{"days": "Mon-Fri", "time": "10:00am"}, {"days": "Sat-Sun", "time": "Closed"}], "id": "0651100071", "name": "USPS COLLECTION BOX - BLUE BOX", "address": {"city": "NEW HAVEN", "state": "CT", "street": "401 WHITNEY AVE", "postcode": "06511"}}},
{"geometry": {"type": "Point", "coordinates": [-72.9171620134, 41.3231382105]}, "type": "Feature", "properties": {"collection_times": [{"days": "Mon-Fri", "time": "12:00pm"}, {"days": "Sat-Sun", "time": "Closed"}], "id": "0651100072", "name": "USPS COLLECTION BOX - BLUE BOX", "address": {"city": "NEW HAVEN", "state": "CT", "street": "463 WHITNEY AVE", "postcode": "06511"}}},
{"geometry": {"type": "Point", "coordinates": [-72.9290371375, 41.315683398]}, "type": "Feature", "properties": {"collection_times": [{"days": "Mon-Sat", "time": "1:00pm"}, {"days": "Sun", "time": "Closed"}], "id": "0651100076", "name": "USPS COLLECTION BOX - BLUE BOX", "address": {"city": "NEW HAVEN", "state": "CT", "street": "900 CHAPEL ST", "postcode": "06511"}}},
{"geometry": {"type": "Point", "coordinates": [-72.906384443, 41.319998338]}, "type": "Feature", "properties": {"collection_times": [{"days": "Mon-Fri", "time": "11:00am"}, {"days": "Sat-Sun", "time": "Closed"}], "id": "0651100078", "name": "USPS COLLECTION BOX - BLUE BOX", "address": {"city": "NEW HAVEN", "state": "CT", "street": "85 WILLOW ST", "postcode": "06511"}}},
{"geometry": {"type": "Point", "coordinates": [-72.91157963, 41.318078695]}, "type": "Feature", "properties": {"collection_times": [{"days": "Mon-Fri", "time": "12:15pm"}, {"days": "Sat", "time": "2:00pm"}, {"days": "Sun", "time": "Closed"}], "id": "0651100079", "name": "USPS COLLECTION BOX - BLUE BOX", "address": {"city": "NEW HAVEN", "state": "CT", "street": "40 FOSTER ST", "postcode": "06511"}}},
{"geometry": {"type": "Point", "coordinates": [-72.9195717008, 41.3180834268]}, "type": "Feature", "properties": {"collection_times": [{"days": "Mon-Fri", "time": "1:00pm"}, {"days": "Sat-Sun", "time": "Closed"}], "id": "0651100084", "name": "USPS COLLECTION BOX - BLUE BOX", "address": {"city": "NEW HAVEN", "state": "CT", "street": "260 WHITNEY AVE", "postcode": "06511"}}},
{"geometry": {"type": "Point", "coordinates": [-72.9240255413, 41.317300308]}, "type": "Feature", "properties": {"collection_times": [{"days": "Mon-Fri", "time": "1:00pm"}, {"days": "Sat-Sun", "time": "Closed"}], "id": "0651100087", "name": "USPS COLLECTION BOX - BLUE BOX", "address": {"city": "NEW HAVEN", "state": "CT", "street": "205 PROSPECT ST", "postcode": "06511"}}},
{"geometry": {"type": "Point", "coordinates": [-72.9227994002, 41.3113220305]}, "type": "Feature", "properties": {"collection_times": [{"days": "Mon-Fri", "time": "1:00pm"}, {"days": "Sat", "time": "12:00pm"}, {"days": "Sun", "time": "Closed"}], "id": "0651100088", "name": "USPS COLLECTION BOX - BLUE BOX", "address": {"city": "NEW HAVEN", "state": "CT", "street": "60 TEMPLE CT", "postcode": "06511"}}},
{"geometry": {"type": "Point", "coordinates": [-72.952004589, 41.318387156]}, "type": "Feature", "properties": {"collection_times": [{"days": "Mon-Fri", "time": "12:30pm"}, {"days": "Sat", "time": "12:00pm"}, {"days": "Sun", "time": "Closed"}], "id": "0651100091", "name": "USPS COLLECTION BOX - BLUE BOX", "address": {"city": "NEW HAVEN", "state": "CT", "street": "923 ELM ST", "postcode": "06511"}}},
{"geometry": {"type": "Point", "coordinates": [-72.9216332859, 41.3133403532]}, "type": "Feature", "properties": {"collection_times": [{"days": "Mon-Sat", "time": "11:00am"}, {"days": "Sun", "time": "Closed"}], "id": "0651100098", "name": "USPS COLLECTION BOX - BLUE BOX", "address": {"city": "NEW HAVEN", "state": "CT", "street": "101 WHITNEY AVE", "postcode": "06511"}}},
{"geometry": {"type": "Point", "coordinates": [-72.9225948255, 41.3133570358]}, "type": "Feature", "properties": {"collection_times": [{"days": "Mon-Sat", "time": "12:00pm"}, {"days": "Sun", "time": "Closed"}], "id": "0651100101", "name": "USPS COLLECTION BOX - BLUE BOX", "address": {"city": "NEW HAVEN", "state": "CT", "street": "80 TRUMBULL ST", "postcode": "06511"}}},
{"geometry": {"type": "Point", "coordinates": [-72.931111097, 41.3111314222]}, "type": "Feature", "properties": {"collection_times": [{"days": "Mon-Fri", "time": "12:30pm"}, {"days": "Sat-Sun", "time": "Closed"}], "id": "0651100107", "name": "USPS COLLECTION BOX - BLUE BOX", "address": {"city": "NEW HAVEN", "state": "CT", "street": "270 ELM ST", "postcode": "06511"}}},
{"geometry": {"type": "Point", "coordinates": [-72.9246175236, 41.3076243465]}, "type": "Feature", "properties": {"collection_times": [{"days": "Mon-Fri", "time": "11:00am"}, {"days": "Sat-Sun", "time": "Closed"}], "id": "0651100109", "name": "USPS COLLECTION BOX - BLUE BOX", "address": {"city": "NEW HAVEN", "state": "CT", "street": "580 GRAND AVE", "postcode": "06511"}}},
{"geometry": {"type": "Point", "coordinates": [-72.9255893031, 41.3117604437]}, "type": "Feature", "properties": {"collection_times": [{"days": "Mon-Fri", "time": "1:15pm"}, {"days": "Sat", "time": "11:45am"}, {"days": "Sun", "time": "Closed"}], "id": "0651100119", "name": "USPS COLLECTION BOX - BLUE BOX", "address": {"city": "NEW HAVEN", "state": "CT", "street": "600 PROSPECT ST", "postcode": "06511"}}},
{"geometry": {"type": "Point", "coordinates": [-72.9290371375, 41.315683398]}, "type": "Feature", "properties": {"collection_times": [{"days": "Mon-Fri", "time": "11:00am"}, {"days": "Sat", "time": "12:00pm"}, {"days": "Sun", "time": "Closed"}], "id": "0651100123", "name": "USPS COLLECTION BOX - BLUE BOX", "address": {"city": "NEW HAVEN", "state": "CT", "street": "1227 CHAPEL ST", "postcode": "06511"}}},
{"geometry": {"type": "Point", "coordinates": [-72.9346011945, 41.31055271]}, "type": "Feature", "properties": {"collection_times": [{"days": "Mon-Fri", "time": "11:00am"}, {"days": "Sat", "time": "12:30pm"}, {"days": "Sun", "time": "Closed"}], "id": "0651100124", "name": "USPS COLLECTION BOX - BLUE BOX", "address": {"city": "NEW HAVEN", "state": "CT", "street": "89 HOWE ST", "postcode": "06511"}}},
{"geometry": {"type": "Point", "coordinates": [-72.950584153, 41.3106035773]}, "type": "Feature", "properties": {"collection_times": [{"days": "Mon-Fri", "time": "12:15pm"}, {"days": "Sat", "time": "1:00pm"}, {"days": "Sun", "time": "Closed"}], "id": "0651100125", "name": "USPS COLLECTION BOX - BLUE BOX", "address": {"city": "NEW HAVEN", "state": "CT", "street": "135 DERBY AVE", "postcode": "06511"}}},
{"geometry": {"type": "Point", "coordinates": [-72.918738264, 41.312867183]}, "type": "Feature", "properties": {"collection_times": [{"days": "Mon-Fri", "time": "12:30pm"}, {"days": "Sat", "time": "1:00pm"}, {"days": "Sun", "time": "Closed"}], "id": "0651100129", "name": "USPS COLLECTION BOX - BLUE BOX", "address": {"city": "NEW HAVEN", "state": "CT", "street": "450 ORANGE ST", "postcode": "06511"}}},
{"geometry": {"type": "Point", "coordinates": [-72.9195304589, 41.3118115608]}, "type": "Feature", "properties": {"collection_times": [{"days": "Mon-Fri", "time": "10:00am"}, {"days": "Sat-Sun", "time": "Closed"}], "id": "0651100130", "name": "USPS COLLECTION BOX - BLUE BOX", "address": {"city": "NEW HAVEN", "state": "CT", "street": "418 ORANGE ST", "postcode": "06511"}}},
{"geometry": {"type": "Point", "coordinates": [-72.9252864214, 41.3042407998]}, "type": "Feature", "properties": {"collection_times": [{"days": "Mon-Sat", "time": "11:00am"}, {"days": "Sun", "time": "Closed"}], "id": "0651100134", "name": "USPS COLLECTION BOX - BLUE BOX", "address": {"city": "NEW HAVEN", "state": "CT", "street": "75 CROWN", "postcode": "06511"}}},
{"geometry": {"type": "Point", "coordinates": [-72.9339790834, 41.3190950549]}, "type": "Feature", "properties": {"collection_times": [{"days": "Mon-Fri", "time": "2:00pm"}, {"days": "Sat", "time": "12:00pm"}, {"days": "Sun", "time": "Closed"}], "id": "0651100138", "name": "USPS COLLECTION BOX - BLUE BOX", "address": {"city": "NEW HAVEN", "state": "CT", "street": "226 DIXWELL AVE", "postcode": "06511"}}},
{"geometry": {"type": "Point", "coordinates": [-72.9262114336, 41.3106923719]}, "type": "Feature", "properties": {"collection_times": [{"days": "Mon-Fri", "time": "2:00pm"}, {"days": "Sat-Sun", "time": "Closed"}], "id": "0651100142", "name": "USPS COLLECTION BOX - BLUE BOX", "address": {"city": "NEW HAVEN", "state": "CT", "street": "480 COLLEGE ST", "postcode": "06511"}}},
{"geometry": {"type": "Point", "coordinates": [-72.928905732, 41.31225002]}, "type": "Feature", "properties": {"collection_times": [{"days": "Mon-Fri", "time": "11:00am"}, {"days": "Sat-Sun", "time": "Closed"}], "id": "0651100144", "name": "USPS COLLECTION BOX - BLUE BOX", "address": {"city": "NEW HAVEN", "state": "CT", "street": "320 YORK ST", "postcode": "06511"}}},
{"geometry": {"type": "Point", "coordinates": [-72.9341729633, 41.3121508876]}, "type": "Feature", "properties": {"collection_times": [{"days": "Mon-Fri", "time": "11:00am"}, {"days": "Sat-Sun", "time": "Closed"}], "id": "0651100146", "name": "USPS COLLECTION BOX - BLUE BOX", "address": {"city": "NEW HAVEN", "state": "CT", "street": "400 ELM ST", "postcode": "06511"}}},
{"geometry": {"type": "Point", "coordinates": [-72.9231480321, 41.2903691193]}, "type": "Feature", "properties": {"collection_times": [{"days": "Mon-Sat", "time": "11:00am"}, {"days": "Sun", "time": "Closed"}], "id": "0651100147", "name": "USPS COLLECTION BOX - BLUE BOX", "address": {"city": "NEW HAVEN", "state": "CT", "street": "250 SARGENT DR", "postcode": "06511"}}},
{"geometry": {"type": "Point", "coordinates": [-72.9290371375, 41.315683398]}, "type": "Feature", "properties": {"collection_times": [{"days": "Mon-Sat", "time": "12:15pm"}, {"days": "Sun", "time": "Closed"}], "id": "0651100148", "name": "USPS COLLECTION BOX - BLUE BOX", "address": {"city": "NEW HAVEN", "state": "CT", "street": "59 BROADWAY", "postcode": "06511"}}},
{"geometry": {"type": "Point", "coordinates": [-72.9246175236, 41.3076243465]}, "type": "Feature", "properties": {"collection_times": [{"days": "Mon-Fri", "time": "12:00pm"}, {"days": "Sat-Sun", "time": "Closed"}], "id": "0651100149", "name": "USPS COLLECTION BOX - BLUE BOX", "address": {"city": "NEW HAVEN", "state": "CT", "street": "91 SHELTON AVE", "postcode": "06511"}}},
{"geometry": {"type": "Point", "coordinates": [-72.9458766541, 41.317879716]}, "type": "Feature", "properties": {"collection_times": [{"days": "Mon-Fri", "time": "11:00am"}, {"days": "Sat-Sun", "time": "Closed"}], "id": "0651100155", "name": "USPS COLLECTION BOX - BLUE BOX", "address": {"city": "NEW HAVEN", "state": "CT", "street": "386 WHALLEY AVE", "postcode": "06511"}}},
{"geometry": {"type": "Point", "coordinates": [-72.9255893031, 41.3117604437]}, "type": "Feature", "properties": {"collection_times": [{"days": "Mon-Fri", "time": "1:00pm"}, {"days": "Sat", "time": "11:45am"}, {"days": "Sun", "time": "Closed"}], "id": "0651100156", "name": "USPS COLLECTION BOX - BLUE BOX", "address": {"city": "NEW HAVEN", "state": "CT", "street": "409 PROSPECT ST", "postcode": "06511"}}},
{"geometry": {"type": "Point", "coordinates": [-72.9179912676, 41.3268065662]}, "type": "Feature", "properties": {"collection_times": [{"days": "Mon-Sat", "time": "9:30am"}, {"days": "Sun", "time": "Closed"}], "id": "0651100164", "name": "USPS COLLECTION BOX - BLUE BOX", "address": {"city": "NEW HAVEN", "state": "CT", "street": "403 SAINT RONAN ST", "postcode": "06511"}}},
{"geometry": {"type": "Point", "coordinates": [-72.920919641, 41.315236207]}, "type": "Feature", "properties": {"collection_times": [{"days": "Mon-Fri", "time": "10:00am"}, {"days": "Sat-Sun", "time": "Closed"}], "id": "0651100167", "name": "USPS COLLECTION BOX - BLUE BOX", "address": {"city": "NEW HAVEN", "state": "CT", "street": "155 WHITNEY AVE", "postcode": "06511"}}},
{"geometry": {"type": "Point", "coordinates": [-72.920431712, 41.3162746825]}, "type": "Feature", "properties": {"collection_times": [{"days": "Mon-Fri", "time": "10:00am"}, {"days": "Sat-Sun", "time": "Closed"}], "id": "0651100169", "name": "USPS COLLECTION BOX - BLUE BOX", "address": {"city": "NEW HAVEN", "state": "CT", "street": "205 WHITNEY AVE", "postcode": "06511"}}},
{"geometry": {"type": "Point", "coordinates": [-72.9112448527, 41.3035389463]}, "type": "Feature", "properties": {"collection_times": [{"days": "Mon-Fri", "time": "1:00pm"}, {"days": "Sat", "time": "11:00am"}, {"days": "Sun", "time": "Closed"}], "id": "0651100175", "name": "USPS COLLECTION BOX - BLUE BOX", "address": {"city": "NEW HAVEN", "state": "CT", "street": "414 CHAPEL ST", "postcode": "06511"}}},
{"geometry": {"type": "Point", "coordinates": [-72.9160997163, 41.3162746825]}, "type": "Feature", "properties": {"collection_times": [{"days": "Mon-Fri", "time": "12:15pm"}, {"days": "Sat", "time": "1:00pm"}, {"days": "Sun", "time": "Closed"}], "id": "0651100184", "name": "USPS COLLECTION BOX - BLUE BOX", "address": {"city": "NEW HAVEN", "state": "CT", "street": "583 ORANGE ST", "postcode": "06511"}}},
{"geometry": {"type": "Point", "coordinates": [-72.9132546999, 41.3200282113]}, "type": "Feature", "properties": {"collection_times": [{"days": "Mon-Fri", "time": "12:15pm"}, {"days": "Sat-Sun", "time": "Closed"}], "id": "0651100187", "name": "USPS COLLECTION BOX - BLUE BOX", "address": {"city": "NEW HAVEN", "state": "CT", "street": "721 ORANGE ST", "postcode": "06511"}}},
{"geometry": {"type": "Point", "coordinates": [-72.9123390897, 41.3212336465]}, "type": "Feature", "properties": {"collection_times": [{"days": "Mon-Sat", "time": "10:30am"}, {"days": "Sun", "time": "Closed"}], "id": "0651100188", "name": "USPS COLLECTION BOX - BLUE BOX", "address": {"city": "NEW HAVEN", "state": "CT", "street": "765 ORANGE ST", "postcode": "06511"}}},
{"geometry": {"type": "Point", "coordinates": [-72.9166119375, 41.3190250621]}, "type": "Feature", "properties": {"collection_times": [{"days": "Mon-Fri", "time": "12:30pm"}, {"days": "Sat-Sun", "time": "Closed"}], "id": "0651100191", "name": "USPS COLLECTION BOX - BLUE BOX", "address": {"city": "NEW HAVEN", "state": "CT", "street": "2 LIVINGSTON ST", "postcode": "06511"}}},
{"geometry": {"type": "Point", "coordinates": [-72.9290371375, 41.315683398]}, "type": "Feature", "properties": {"collection_times": [{"days": "Mon-Sat", "time": "12:30pm"}, {"days": "Sun", "time": "Closed"}], "id": "0651100193", "name": "USPS COLLECTION BOX - BLUE BOX", "address": {"city": "NEW HAVEN", "state": "CT", "street": "180 ORANGE ST", "postcode": "06511"}}},
{"geometry": {"type": "Point", "coordinates": [-72.9173926904, 41.314561758]}, "type": "Feature", "properties": {"collection_times": [{"days": "Mon-Fri", "time": "12:15pm"}, {"days": "Sat-Sun", "time": "Closed"}], "id": "0651100196", "name": "USPS COLLECTION BOX - BLUE BOX", "address": {"city": "NEW HAVEN", "state": "CT", "street": "519 ORANGE ST", "postcode": "06511"}}},
{"geometry": {"type": "Point", "coordinates": [-72.9290371375, 41.315683398]}, "type": "Feature", "properties": {"collection_times": [{"days": "Mon-Fri", "time": "5:00pm"}, {"days": "Sat", "time": "1:15pm"}, {"days": "Sun", "time": "Closed"}], "id": "0651100198", "name": "USPS COLLECTION BOX - BLUE BOX", "address": {"city": "NEW HAVEN", "state": "CT", "street": "206 ELM ST", "postcode": "06511"}}},
{"geometry": {"type": "Point", "coordinates": [-72.9290371375, 41.315683398]}, "type": "Feature", "properties": {"collection_times": [{"days": "Mon-Fri", "time": "5:00pm"}, {"days": "Sat", "time": "1:30pm"}, {"days": "Sun", "time": "Closed"}], "id": "0651100199", "name": "USPS COLLECTION BOX - BLUE BOX", "address": {"city": "NEW HAVEN", "state": "CT", "street": "206 ELM ST", "postcode": "06511"}}},
{"geometry": {"type": "Point", "coordinates": [-72.9246175236, 41.3076243465]}, "type": "Feature", "properties": {"collection_times": [{"days": "Mon-Fri", "time": "10:30am"}, {"days": "Sat", "time": "11:30am"}, {"days": "Sun", "time": "Closed"}], "id": "0651100213", "name": "USPS COLLECTION BOX - BLUE BOX", "address": {"city": "NEW HAVEN", "state": "CT", "street": "114 BRISTOL ST", "postcode": "06511"}}},
{"geometry": {"type": "Point", "coordinates": [-72.9289676173, 41.3159831569]}, "type": "Feature", "properties": {"collection_times": [{"days": "Mon-Fri", "time": "5:00pm"}, {"days": "Sat", "time": "2:00pm"}, {"days": "Sun", "time": "Closed"}], "id": "0651100233", "name": "USPS COLLECTION BOX - EXPRESS", "address": {"city": "NEW HAVEN", "state": "CT", "street": "180 ORANGE", "postcode": "06511"}}},
{"geometry": {"type": "Point", "coordinates": [-72.9290371375, 41.315683398]}, "type": "Feature", "properties": {"collection_times": [{"days": "Mon-Fri", "time": "5:00pm"}, {"days": "Sat", "time": "1:15pm"}, {"days": "Sun", "time": "Closed"}], "id": "0651100234", "name": "USPS COLLECTION BOX - EXPRESS", "address": {"city": "NEW HAVEN", "state": "CT", "street": "206 ELM ST", "postcode": "06511"}}},
{"geometry": {"type": "Point", "coordinates": [-72.9290371375, 41.315683398]}, "type": "Feature", "properties": {"collection_times": [{"days": "Mon-Fri", "time": "2:00pm"}, {"days": "Sat-Sun", "time": "Closed"}], "id": "0651100237", "name": "USPS COLLECTION BOX - BLUE BOX", "address": {"city": "NEW HAVEN", "state": "CT", "street": "205 CHURCH ST", "postcode": "06511"}}},
{"geometry": {"type": "Point", "coordinates": [-72.923194317, 41.309503926]}, "type": "Feature", "properties": {"collection_times": [{"days": "Mon-Fri", "time": "3:30pm"}, {"days": "Sat-Sun", "time": "Closed"}], "id": "0651100241", "name": "USPS COLLECTION BOX - BLUE BOX", "address": {"city": "NEW HAVEN", "state": "CT", "street": "235 CHURCH ST", "postcode": "06511"}}},
{"geometry": {"type": "Point", "coordinates": [-72.9290371375, 41.315683398]}, "type": "Feature", "properties": {"collection_times": [{"days": "Mon-Fri", "time": "12:15pm"}, {"days": "Sat", "time": "11:15am"}, {"days": "Sun", "time": "Closed"}], "id": "0651100246", "name": "USPS COLLECTION BOX - BLUE BOX", "address": {"city": "NEW HAVEN", "state": "CT", "street": "67 WHITNEY", "postcode": "06511"}}},
{"geometry": {"type": "Point", "coordinates": [-72.944852622, 41.310743452]}, "type": "Feature", "properties": {"collection_times": [{"days": "Mon-Sat", "time": "12:00pm"}, {"days": "Sun", "time": "Closed"}], "id": "0651100252", "name": "USPS COLLECTION BOX - BLUE BOX", "address": {"city": "NEW HAVEN", "state": "CT", "street": "136 SHERMAN AVE", "postcode": "06511"}}},
{"geometry": {"type": "Point", "coordinates": [-72.9279236579, 41.3097848851]}, "type": "Feature", "properties": {"collection_times": [{"days": "Mon-Fri", "time": "5:00pm"}, {"days": "Sat", "time": "12:00pm"}, {"days": "Sun", "time": "Closed"}], "id": "0651100253", "name": "USPS COLLECTION BOX - PO LOBBY", "address": {"city": "NEW HAVEN", "state": "CT", "street": "206 ELM ST", "postcode": "06511"}}},
{"geometry": {"type": "Point", "coordinates": [-72.9246175236, 41.3076243465]}, "type": "Feature", "properties": {"collection_times": [{"days": "Mon-Fri", "time": "5:00pm"}, {"days": "Sat", "time": "1:00pm"}, {"days": "Sun", "time": "Closed"}], "id": "0651100254", "name": "USPS COLLECTION BOX - APC", "address": {"city": "NEW HAVEN", "state": "CT", "street": "50 BREWERY ST", "postcode": "06511"}}},
{"geometry": {"type": "Point", "coordinates": [-72.9226420412, 41.3104764462]}, "type": "Feature", "properties": {"collection_times": [{"days": "Mon-Fri", "time": "12:15pm"}, {"days": "Sat", "time": "11:15am"}, {"days": "Sun", "time": "Closed"}], "id": "0651100262", "name": "USPS COLLECTION BOX - BLUE BOX", "address": {"city": "NEW HAVEN", "state": "CT", "street": "2 WHITNEY", "postcode": "06511"}}},
{"geometry": {"type": "Point", "coordinates": [-72.923375771, 41.309374797]}, "type": "Feature", "properties": {"collection_times": [{"days": "Mon-Fri", "time": "4:00pm"}, {"days": "Sat-Sun", "time": "Closed"}], "id": "0651100263", "name": "USPS COLLECTION BOX - BLUE BOX", "address": {"city": "NEW HAVEN", "state": "CT", "street": "234 CHURCH ST", "postcode": "06511"}}},
{"geometry": {"type": "Point", "coordinates": [-72.9253930419, 41.3065543087]}, "type": "Feature", "properties": {"collection_times": [{"days": "Mon-Fri", "time": "1:00pm"}, {"days": "Sat-Sun", "time": "Closed"}], "id": "0651100269", "name": "USPS COLLECTION BOX - BLUE BOX", "address": {"city": "NEW HAVEN", "state": "CT", "street": "129 CHURCH ST", "postcode": "06511"}}},
{"geometry": {"type": "Point", "coordinates": [-72.9246175236, 41.3076243465]}, "type": "Feature", "properties": {"collection_times": [{"days": "Mon-Fri", "time": "3:30pm"}, {"days": "Sat-Sun", "time": "Closed"}], "id": "0651100273", "name": "USPS COLLECTION BOX - BLUE BOX", "address": {"city": "NEW HAVEN", "state": "CT", "street": "700 STATE ST", "postcode": "06511"}}},
{"geometry": {"type": "Point", "coordinates": [-72.9246175236, 41.3076243465]}, "type": "Feature", "properties": {"collection_times": [{"days": "Mon-Fri", "time": "4:30pm"}, {"days": "Sat-Sun", "time": "Closed"}], "id": "0651100277", "name": "USPS COLLECTION BOX - BLUE BOX", "address": {"city": "NEW HAVEN", "state": "CT", "street": "509 COLLEGE ST", "postcode": "06511"}}},
{"geometry": {"type": "Point", "coordinates": [-72.9246175236, 41.3076243465]}, "type": "Feature", "properties": {"collection_times": [{"days": "Mon-Fri", "time": "11:45am"}, {"days": "Sat-Sun", "time": "Closed"}], "id": "0651100279", "name": "USPS COLLECTION BOX - BLUE BOX", "address": {"city": "NEW HAVEN", "state": "CT", "street": "1395 CHAPEL ST", "postcode": "06511"}}},
{"geometry": {"type": "Point", "coordinates": [-72.9359379381, 41.3143393617]}, "type": "Feature", "properties": {"collection_times": [{"days": "Mon-Fri", "time": "11:15am"}, {"days": "Sat-Sun", "time": "Closed"}], "id": "0651100280", "name": "USPS COLLECTION BOX - BLUE BOX", "address": {"city": "NEW HAVEN", "state": "CT", "street": "101 WHALLEY AVE", "postcode": "06511"}}},
{"geometry": {"type": "Point", "coordinates": [-72.9246175236, 41.3076243465]}, "type": "Feature", "properties": {"collection_times": [{"days": "Mon-Fri", "time": "10:30am"}, {"days": "Sat-Sun", "time": "Closed"}], "id": "0651100281", "name": "USPS COLLECTION BOX - BLUE BOX", "address": {"city": "NEW HAVEN", "state": "CT", "street": "310 WILLOW ST", "postcode": "06511"}}},
{"geometry": {"type": "Point", "coordinates": [-72.9290371375, 41.315683398]}, "type": "Feature", "properties": {"collection_times": [{"days": "Mon-Fri", "time": "10:30am"}, {"days": "Sat-Sun", "time": "Closed"}], "id": "0651100282", "name": "USPS COLLECTION BOX - BLUE BOX", "address": {"city": "NEW HAVEN", "state": "CT", "street": "5 SCIENCE PARK", "postcode": "06511"}}},
{"geometry": {"type": "Point", "coordinates": [-72.9508668802, 41.3202517906]}, "type": "Feature", "properties": {"collection_times": [{"days": "Mon-Fri", "time": "11:30am"}, {"days": "Sat", "time": "1:00pm"}, {"days": "Sun", "time": "Closed"}], "id": "0651100285", "name": "USPS COLLECTION BOX - BLUE BOX", "address": {"city": "NEW HAVEN", "state": "CT", "street": "538 WHALLEY AVE", "postcode": "06511"}}},
{"geometry": {"type": "Point", "coordinates": [-72.9215929929, 41.3089807202]}, "type": "Feature", "properties": {"collection_times": [{"days": "Mon-Fri", "time": "12:30pm"}, {"days": "Sat-Sun", "time": "Closed"}], "id": "0651100286", "name": "USPS COLLECTION BOX - BLUE BOX", "address": {"city": "NEW HAVEN", "state": "CT", "street": "270 ORANGE ST", "postcode": "06511"}}},
{"geometry": {"type": "Point", "coordinates": [-72.9246175236, 41.3076243465]}, "type": "Feature", "properties": {"collection_times": [{"days": "Mon-Fri", "time": "5:00pm"}, {"days": "Sat", "time": "1:00pm"}, {"days": "Sun", "time": "Closed"}], "id": "0651100287", "name": "USPS COLLECTION BOX - PO LOBBY", "address": {"city": "NEW HAVEN", "state": "CT", "street": "50 BREWERY ST", "postcode": "06511"}}},
{"geometry": {"type": "Point", "coordinates": [-72.9278449841, 41.3054765957]}, "type": "Feature", "properties": {"collection_times": [{"days": "Mon-Fri", "time": "11:00am"}, {"days": "Sat-Sun", "time": "Closed"}], "id": "0651100288", "name": "USPS COLLECTION BOX - BLUE BOX", "address": {"city": "NEW HAVEN", "state": "CT", "street": "124 TEMPLE ST", "postcode": "06511"}}},
{"geometry": {"type": "Point", "coordinates": [-72.9203879944, 41.322333578]}, "type": "Feature", "properties": {"collection_times": [{"days": "Mon-Fri", "time": "9:30am"}, {"days": "Sat-Sun", "time": "Closed"}], "id": "0651100291", "name": "USPS COLLECTION BOX - BLUE BOX", "address": {"city": "NEW HAVEN", "state": "CT", "street": "60 SAINT RONAN TER", "postcode": "06511"}}},
{"geometry": {"type": "Point", "coordinates": [-72.897964717, 41.32017102]}, "type": "Feature", "properties": {"collection_times": [{"days": "Mon-Sat", "time": "11:00am"}, {"days": "Sun", "time": "Closed"}], "id": "0651100293", "name": "USPS COLLECTION BOX - BLUE BOX", "address": {"city": "NEW HAVEN", "state": "CT", "street": "1362 STATE ST", "postcode": "06511"}}},
{"geometry": {"type": "Point", "coordinates": [-72.9289676173, 41.3159831569]}, "type": "Feature", "properties": {"collection_times": [{"days": "Mon-Fri", "time": "11:00am"}, {"days": "Sat-Sun", "time": "Closed"}], "id": "0651100294", "name": "USPS COLLECTION BOX - BLUE BOX", "address": {"city": "NEW HAVEN", "state": "CT", "street": "896 STATE ST", "postcode": "06511"}}},
{"geometry": {"type": "Point", "coordinates": [-72.887595137, 41.2856265817]}, "type": "Feature", "properties": {"collection_times": [{"days": "Mon-Fri", "time": "5:00pm"}, {"days": "Sat", "time": "12:00pm"}, {"days": "Sun", "time": "Closed"}], "id": "0651200005", "name": "USPS COLLECTION BOX - BLUE BOX", "address": {"city": "NEW HAVEN", "state": "CT", "street": "175 MAIN ST", "postcode": "06512"}}},
{"geometry": {"type": "Point", "coordinates": [-72.8756066047, 41.2761829065]}, "type": "Feature", "properties": {"collection_times": [{"days": "Mon-Fri", "time": "5:00pm"}, {"days": "Sat", "time": "12:00pm"}, {"days": "Sun", "time": "Closed"}], "id": "0651200006", "name": "USPS COLLECTION BOX - EXPRESS", "address": {"city": "NEW HAVEN", "state": "CT", "street": "175 MAIN ST", "postcode": "06512"}}},
{"geometry": {"type": "Point", "coordinates": [-72.894820874, 41.281117201]}, "type": "Feature", "properties": {"collection_times": [{"days": "Mon-Fri", "time": "12:15pm"}, {"days": "Sat-Sun", "time": "Closed"}], "id": "0651200008", "name": "USPS COLLECTION BOX - BLUE BOX", "address": {"city": "NEW HAVEN", "state": "CT", "street": "880 TOWNSEND AVE", "postcode": "06512"}}},
{"geometry": {"type": "Point", "coordinates": [-72.8967758863, 41.2727028719]}, "type": "Feature", "properties": {"collection_times": [{"days": "Mon-Fri", "time": "12:15pm"}, {"days": "Sat", "time": "12:00pm"}, {"days": "Sun", "time": "Closed"}], "id": "0651200015", "name": "USPS COLLECTION BOX - BLUE BOX", "address": {"city": "NEW HAVEN", "state": "CT", "street": "581 TOWNSEND AVE", "postcode": "06512"}}},
{"geometry": {"type": "Point", "coordinates": [-72.8743282522, 41.279015024]}, "type": "Feature", "properties": {"collection_times": [{"days": "Mon-Fri", "time": "12:30pm"}, {"days": "Sat", "time": "12:00pm"}, {"days": "Sun", "time": "Closed"}], "id": "0651200019", "name": "USPS COLLECTION BOX - BLUE BOX", "address": {"city": "NEW HAVEN", "state": "CT", "street": "320 MAIN ST", "postcode": "06512"}}},
{"geometry": {"type": "Point", "coordinates": [-72.8716109955, 41.2778249673]}, "type": "Feature", "properties": {"collection_times": [{"days": "Mon-Fri", "time": "3:45pm"}, {"days": "Sat", "time": "12:00pm"}, {"days": "Sun", "time": "Closed"}], "id": "0651200021", "name": "USPS COLLECTION BOX - BLUE BOX", "address": {"city": "NEW HAVEN", "state": "CT", "street": "250 MAIN ST", "postcode": "06512"}}},
{"geometry": {"type": "Point", "coordinates": [-72.8766362052, 41.2717244479]}, "type": "Feature", "properties": {"collection_times": [{"days": "Mon-Fri", "time": "12:30pm"}, {"days": "Sat-Sun", "time": "Closed"}], "id": "0651200023", "name": "USPS COLLECTION BOX - BLUE BOX", "address": {"city": "NEW HAVEN", "state": "CT", "street": "405 THOMPSON AVE", "postcode": "06512"}}},
{"geometry": {"type": "Point", "coordinates": [-72.8728826764, 41.2646799273]}, "type": "Feature", "properties": {"collection_times": [{"days": "Mon-Fri", "time": "12:45pm"}, {"days": "Sat", "time": "12:00pm"}, {"days": "Sun", "time": "Closed"}], "id": "0651200024", "name": "USPS COLLECTION BOX - BLUE BOX", "address": {"city": "NEW HAVEN", "state": "CT", "street": "620 COE AVE", "postcode": "06512"}}},
{"geometry": {"type": "Point", "coordinates": [-72.8781764178, 41.2543266704]}, "type": "Feature", "properties": {"collection_times": [{"days": "Mon-Fri", "time": "12:45pm"}, {"days": "Sat-Sun", "time": "Closed"}], "id": "0651200025", "name": "USPS COLLECTION BOX - BLUE BOX", "address": {"city": "NEW HAVEN", "state": "CT", "street": "192 COMMERCE ST", "postcode": "06512"}}},
{"geometry": {"type": "Point", "coordinates": [-72.877429735, 41.247447786]}, "type": "Feature", "properties": {"collection_times": [{"days": "Mon-Fri", "time": "12:45pm"}, {"days": "Sat-Sun", "time": "Closed"}], "id": "0651200027", "name": "USPS COLLECTION BOX - BLUE BOX", "address": {"city": "NEW HAVEN", "state": "CT", "street": "100 S SHORE SHR", "postcode": "06512"}}},
{"geometry": {"type": "Point", "coordinates": [-72.8700483067, 41.2653601287]}, "type": "Feature", "properties": {"collection_times": [{"days": "Mon-Fri", "time": "1:00pm"}, {"days": "Sat", "time": "12:15pm"}, {"days": "Sun", "time": "Closed"}], "id": "0651200028", "name": "USPS COLLECTION BOX - BLUE BOX", "address": {"city": "NEW HAVEN", "state": "CT", "street": "453 SHORT BEACH RD", "postcode": "06512"}}},
{"geometry": {"type": "Point", "coordinates": [-72.8733783362, 41.2814436388]}, "type": "Feature", "properties": {"collection_times": [{"days": "Mon-Fri", "time": "3:30pm"}, {"days": "Sat-Sun", "time": "Closed"}], "id": "0651200030", "name": "USPS COLLECTION BOX - BLUE BOX", "address": {"city": "NEW HAVEN", "state": "CT", "street": "73 ELM ST", "postcode": "06512"}}},
{"geometry": {"type": "Point", "coordinates": [-72.9246175236, 41.3076243465]}, "type": "Feature", "properties": {"collection_times": [{"days": "Mon-Fri", "time": "3:00pm"}, {"days": "Sat-Sun", "time": "Closed"}], "id": "0651200032", "name": "USPS COLLECTION BOX - BLUE BOX", "address": {"city": "NEW HAVEN", "state": "CT", "street": "176 FORBES PL", "postcode": "06512"}}},
{"geometry": {"type": "Point", "coordinates": [-72.8756066047, 41.2761829065]}, "type": "Feature", "properties": {"collection_times": [{"days": "Mon-Fri", "time": "3:45pm"}, {"days": "Sat", "time": "12:00pm"}, {"days": "Sun", "time": "Closed"}], "id": "0651200043", "name": "USPS COLLECTION BOX - EXPRESS", "address": {"city": "NEW HAVEN", "state": "CT", "street": "250 MAIN ST", "postcode": "06512"}}},
{"geometry": {"type": "Point", "coordinates": [-72.8911475628, 41.257480439]}, "type": "Feature", "properties": {"collection_times": [{"days": "Mon-Fri", "time": "12:00pm"}, {"days": "Sat", "time": "11:45am"}, {"days": "Sun", "time": "Closed"}], "id": "0651200044", "name": "USPS COLLECTION BOX - BLUE BOX", "address": {"city": "NEW HAVEN", "state": "CT", "street": "25 TOWNSEND", "postcode": "06512"}}},
{"geometry": {"type": "Point", "coordinates": [-72.9000027293, 41.3157472849]}, "type": "Feature", "properties": {"collection_times": [{"days": "Mon-Fri", "time": "3:00pm"}, {"days": "Sat-Sun", "time": "Closed"}], "id": "0651300009", "name": "USPS COLLECTION BOX - BLUE BOX", "address": {"city": "NEW HAVEN", "state": "CT", "street": "315 PECK ST", "postcode": "06513"}}},
{"geometry": {"type": "Point", "coordinates": [-72.8896028857, 41.3093712736]}, "type": "Feature", "properties": {"collection_times": [{"days": "Mon-Fri", "time": "12:00pm"}, {"days": "Sat", "time": "11:30am"}, {"days": "Sun", "time": "Closed"}], "id": "0651300011", "name": "USPS COLLECTION BOX - BLUE BOX", "address": {"city": "NEW HAVEN", "state": "CT", "street": "50 GRAND AVE", "postcode": "06513"}}},
{"geometry": {"type": "Point", "coordinates": [-72.8848790632, 41.3076674731]}, "type": "Feature", "properties": {"collection_times": [{"days": "Mon-Fri", "time": "2:30pm"}, {"days": "Sat", "time": "12:30pm"}, {"days": "Sun", "time": "Closed"}], "id": "0651300014", "name": "USPS COLLECTION BOX - BLUE BOX", "address": {"city": "NEW HAVEN", "state": "CT", "street": "73 E GRAND AVE", "postcode": "06513"}}},
{"geometry": {"type": "Point", "coordinates": [-72.8524742683, 41.3220309609]}, "type": "Feature", "properties": {"collection_times": [{"days": "Mon-Fri", "time": "1:30pm"}, {"days": "Sat", "time": "1:00pm"}, {"days": "Sun", "time": "Closed"}], "id": "0651300018", "name": "USPS COLLECTION BOX - BLUE BOX", "address": {"city": "NEW HAVEN", "state": "CT", "street": "665 FOXON BLVD", "postcode": "06513"}}},
{"geometry": {"type": "Point", "coordinates": [-72.8733428474, 41.3218192112]}, "type": "Feature", "properties": {"collection_times": [{"days": "Mon-Fri", "time": "2:00pm"}, {"days": "Sat-Sun", "time": "Closed"}], "id": "0651300021", "name": "USPS COLLECTION BOX - BLUE BOX", "address": {"city": "NEW HAVEN", "state": "CT", "street": "1283 QUINNIPIAC AVE", "postcode": "06513"}}},
{"geometry": {"type": "Point", "coordinates": [-72.8675132256, 41.3315372191]}, "type": "Feature", "properties": {"collection_times": [{"days": "Mon-Fri", "time": "2:00pm"}, {"days": "Sat", "time": "12:45pm"}, {"days": "Sun", "time": "Closed"}], "id": "0651300023", "name": "USPS COLLECTION BOX - BLUE BOX", "address": {"city": "NEW HAVEN", "state": "CT", "street": "1670 QUINNIPIAC AVE", "postcode": "06513"}}},
{"geometry": {"type": "Point", "coordinates": [-72.8724861138, 41.3302374523]}, "type": "Feature", "properties": {"collection_times": [{"days": "Mon-Fri", "time": "2:00pm"}, {"days": "Sat-Sun", "time": "Closed"}], "id": "0651300024", "name": "USPS COLLECTION BOX - BLUE BOX", "address": {"city": "NEW HAVEN", "state": "CT", "street": "5 CROSS ST", "postcode": "06513"}}},
{"geometry": {"type": "Point", "coordinates": [-72.8731725753, 41.3150049027]}, "type": "Feature", "properties": {"collection_times": [{"days": "Mon-Fri", "time": "2:00pm"}, {"days": "Sat", "time": "12:30pm"}, {"days": "Sun", "time": "Closed"}], "id": "0651300027", "name": "USPS COLLECTION BOX - BLUE BOX", "address": {"city": "NEW HAVEN", "state": "CT", "street": "311 EASTERN ST", "postcode": "06513"}}},
{"geometry": {"type": "Point", "coordinates": [-72.8731062556, 41.3153354131]}, "type": "Feature", "properties": {"collection_times": [{"days": "Mon-Fri", "time": "2:00pm"}, {"days": "Sat", "time": "12:30pm"}, {"days": "Sun", "time": "Closed"}], "id": "0651300028", "name": "USPS COLLECTION BOX - BLUE BOX", "address": {"city": "NEW HAVEN", "state": "CT", "street": "315 EASTERN ST", "postcode": "06513"}}},
{"geometry": {"type": "Point", "coordinates": [-72.8776965524, 41.3154226971]}, "type": "Feature", "properties": {"collection_times": [{"days": "Mon-Sat", "time": "10:00am"}, {"days": "Sun", "time": "Closed"}], "id": "0651300029", "name": "USPS COLLECTION BOX - BLUE BOX", "address": {"city": "NEW HAVEN", "state": "CT", "street": "339 EASTERN ST", "postcode": "06513"}}},
{"geometry": {"type": "Point", "coordinates": [-72.8605515121, 41.32162284]}, "type": "Feature", "properties": {"collection_times": [{"days": "Mon-Fri", "time": "1:30pm"}, {"days": "Sat-Sun", "time": "Closed"}], "id": "0651300031", "name": "USPS COLLECTION BOX - BLUE BOX", "address": {"city": "NEW HAVEN", "state": "CT", "street": "851 FOXON", "postcode": "06513"}}},
{"geometry": {"type": "Point", "coordinates": [-72.8776965524, 41.3154226971]}, "type": "Feature", "properties": {"collection_times": [{"days": "Mon-Sat", "time": "10:00am"}, {"days": "Sun", "time": "Closed"}], "id": "0651300033", "name": "USPS COLLECTION BOX - BLUE BOX", "address": {"city": "NEW HAVEN", "state": "CT", "street": "321 EASTERN ST", "postcode": "06513"}}},
{"geometry": {"type": "Point", "coordinates": [-72.873066035, 41.3154229521]}, "type": "Feature", "properties": {"collection_times": [{"days": "Mon-Fri", "time": "2:00pm"}, {"days": "Sat", "time": "12:30pm"}, {"days": "Sun", "time": "Closed"}], "id": "0651300034", "name": "USPS COLLECTION BOX - BLUE BOX", "address": {"city": "NEW HAVEN", "state": "CT", "street": "343 EASTERN ST", "postcode": "06513"}}},
{"geometry": {"type": "Point", "coordinates": [-72.8656603786, 41.3207988506]}, "type": "Feature", "properties": {"collection_times": [{"days": "Mon-Fri", "time": "4:00pm"}, {"days": "Sat", "time": "11:00am"}, {"days": "Sun", "time": "Closed"}], "id": "0651300037", "name": "USPS COLLECTION BOX - BLUE BOX", "address": {"city": "NEW HAVEN", "state": "CT", "street": "941 FOXON RD", "postcode": "06513"}}},
{"geometry": {"type": "Point", "coordinates": [-72.9246175236, 41.3076243465]}, "type": "Feature", "properties": {"collection_times": [{"days": "Mon-Fri", "time": "5:00pm"}, {"days": "Sat", "time": "12:00pm"}, {"days": "Sun", "time": "Closed"}], "id": "0651300041", "name": "USPS COLLECTION BOX - BLUE BOX", "address": {"city": "NEW HAVEN", "state": "CT", "street": "230 GRAND AVE", "postcode": "06513"}}},
{"geometry": {"type": "Point", "coordinates": [-72.8936530699, 41.2951434865]}, "type": "Feature", "properties": {"collection_times": [{"days": "Mon-Fri", "time": "2:45pm"}, {"days": "Sat", "time": "11:30am"}, {"days": "Sun", "time": "Closed"}], "id": "0651300042", "name": "USPS COLLECTION BOX - BLUE BOX", "address": {"city": "NEW HAVEN", "state": "CT", "street": "70 FAIRMONT AVE", "postcode": "06513"}}},
{"geometry": {"type": "Point", "coordinates": [-72.925690116, 41.359436237]}, "type": "Feature", "properties": {"collection_times": [{"days": "Mon-Fri", "time": "5:00pm"}, {"days": "Sat", "time": "4:00pm"}, {"days": "Sun", "time": "Closed"}], "id": "0651400001", "name": "USPS COLLECTION BOX - BLUE BOX", "address": {"city": "NEW HAVEN", "state": "CT", "street": "1744 DIXWELL AVE", "postcode": "06514"}}},
{"geometry": {"type": "Point", "coordinates": [-72.9332821952, 41.3473782226]}, "type": "Feature", "properties": {"collection_times": [{"days": "Mon-Fri", "time": "12:00pm"}, {"days": "Sat", "time": "12:45pm"}, {"days": "Sun", "time": "Closed"}], "id": "0651400004", "name": "USPS COLLECTION BOX - BLUE BOX", "address": {"city": "NEW HAVEN", "state": "CT", "street": "1245 DIXWELL AVE", "postcode": "06514"}}},
{"geometry": {"type": "Point", "coordinates": [-72.917691979, 41.3664605337]}, "type": "Feature", "properties": {"collection_times": [{"days": "Mon-Fri", "time": "11:00am"}, {"days": "Sat-Sun", "time": "Closed"}], "id": "0651400007", "name": "USPS COLLECTION BOX - BLUE BOX", "address": {"city": "NEW HAVEN", "state": "CT", "street": "60 CONNOLLY PKWY", "postcode": "06514"}}},
{"geometry": {"type": "Point", "coordinates": [-72.9206409089, 41.375669335]}, "type": "Feature", "properties": {"collection_times": [{"days": "Mon-Fri", "time": "12:30pm"}, {"days": "Sat", "time": "12:15pm"}, {"days": "Sun", "time": "Closed"}], "id": "0651400013", "name": "USPS COLLECTION BOX - BLUE BOX", "address": {"city": "NEW HAVEN", "state": "CT", "street": "865 MIX AVE", "postcode": "06514"}}},
{"geometry": {"type": "Point", "coordinates": [-72.9197052773, 41.3983965739]}, "type": "Feature", "properties": {"collection_times": [{"days": "Mon-Fri", "time": "12:30pm"}, {"days": "Sat-Sun", "time": "Closed"}], "id": "0651400014", "name": "USPS COLLECTION BOX - BLUE BOX", "address": {"city": "NEW HAVEN", "state": "CT", "street": "1020 SHERMAN AVE", "postcode": "06514"}}},
{"geometry": {"type": "Point", "coordinates": [-72.9186915793, 41.3812605333]}, "type": "Feature", "properties": {"collection_times": [{"days": "Mon-Fri", "time": "12:30pm"}, {"days": "Sat-Sun", "time": "Closed"}], "id": "0651400015", "name": "USPS COLLECTION BOX - BLUE BOX", "address": {"city": "NEW HAVEN", "state": "CT", "street": "200 SHEPARD AVE", "postcode": "06514"}}},
{"geometry": {"type": "Point", "coordinates": [-72.9191931539, 41.3692322065]}, "type": "Feature", "properties": {"collection_times": [{"days": "Mon-Sat", "time": "12:00pm"}, {"days": "Sun", "time": "Closed"}], "id": "0651400016", "name": "USPS COLLECTION BOX - BLUE BOX", "address": {"city": "NEW HAVEN", "state": "CT", "street": "2100 DIXWELL AVE", "postcode": "06514"}}},
{"geometry": {"type": "Point", "coordinates": [-72.9307648585, 41.3522425499]}, "type": "Feature", "properties": {"collection_times": [{"days": "Mon-Sat", "time": "12:00pm"}, {"days": "Sun", "time": "Closed"}], "id": "0651400020", "name": "USPS COLLECTION BOX - BLUE BOX", "address": {"city": "NEW HAVEN", "state": "CT", "street": "1440 DIXWELL AVE", "postcode": "06514"}}},
{"geometry": {"type": "Point", "coordinates": [-72.9366260375, 41.3558802385]}, "type": "Feature", "properties": {"collection_times": [{"days": "Mon-Fri", "time": "12:00pm"}, {"days": "Sat-Sun", "time": "Closed"}], "id": "0651400021", "name": "USPS COLLECTION BOX - BLUE BOX", "address": {"city": "NEW HAVEN", "state": "CT", "street": "347 CIRCULAR AVE", "postcode": "06514"}}},
{"geometry": {"type": "Point", "coordinates": [-72.9340083316, 41.3460601929]}, "type": "Feature", "properties": {"collection_times": [{"days": "Mon-Fri", "time": "2:00pm"}, {"days": "Sat", "time": "1:00pm"}, {"days": "Sun", "time": "Closed"}], "id": "0651400023", "name": "USPS COLLECTION BOX - BLUE BOX", "address": {"city": "NEW HAVEN", "state": "CT", "street": "1212 DIXWELL AVE", "postcode": "06514"}}},
{"geometry": {"type": "Point", "coordinates": [-72.948538817, 41.3475544835]}, "type": "Feature", "properties": {"collection_times": [{"days": "Mon-Fri", "time": "2:00pm"}, {"days": "Sat-Sun", "time": "Closed"}], "id": "0651400027", "name": "USPS COLLECTION BOX - BLUE BOX", "address": {"city": "NEW HAVEN", "state": "CT", "street": "407 WOODIN ST", "postcode": "06514"}}},
{"geometry": {"type": "Point", "coordinates": [-72.9349560822, 41.3417993881]}, "type": "Feature", "properties": {"collection_times": [{"days": "Mon-Sat", "time": "10:00am"}, {"days": "Sun", "time": "Closed"}], "id": "0651400029", "name": "USPS COLLECTION BOX - BLUE BOX", "address": {"city": "NEW HAVEN", "state": "CT", "street": "1048 DIXWELL AVE", "postcode": "06514"}}},
{"geometry": {"type": "Point", "coordinates": [-72.9165137533, 41.3732627357]}, "type": "Feature", "properties": {"collection_times": [{"days": "Mon-Sat", "time": "11:30am"}, {"days": "Sun", "time": "Closed"}], "id": "0651400035", "name": "USPS COLLECTION BOX - BLUE BOX", "address": {"city": "NEW HAVEN", "state": "CT", "street": "2301 DIXWELL AVE", "postcode": "06514"}}},
{"geometry": {"type": "Point", "coordinates": [-72.9226817229, 41.3578343567]}, "type": "Feature", "properties": {"collection_times": [{"days": "Mon-Fri", "time": "11:30am"}, {"days": "Sat-Sun", "time": "Closed"}], "id": "0651400038", "name": "USPS COLLECTION BOX - BLUE BOX", "address": {"city": "NEW HAVEN", "state": "CT", "street": "365 MATHER ST", "postcode": "06514"}}},
{"geometry": {"type": "Point", "coordinates": [-72.9161848893, 41.3818579276]}, "type": "Feature", "properties": {"collection_times": [{"days": "Mon-Fri", "time": "12:30pm"}, {"days": "Sat-Sun", "time": "Closed"}], "id": "0651400041", "name": "USPS COLLECTION BOX - BLUE BOX", "address": {"city": "NEW HAVEN", "state": "CT", "street": "109 SANFORD ST", "postcode": "06514"}}},
{"geometry": {"type": "Point", "coordinates": [-72.9256036086, 41.3595153816]}, "type": "Feature", "properties": {"collection_times": [{"days": "Mon-Fri", "time": "5:00pm"}, {"days": "Sat", "time": "4:00pm"}, {"days": "Sun", "time": "Closed"}], "id": "0651400044", "name": "USPS COLLECTION BOX - PO LOBBY", "address": {"city": "NEW HAVEN", "state": "CT", "street": "1744 DIXWELL AVE", "postcode": "06514"}}},
{"geometry": {"type": "Point", "coordinates": [-73.0126498402, 41.3543938872]}, "type": "Feature", "properties": {"collection_times": [{"days": "Mon-Fri", "time": "5:00pm"}, {"days": "Sat", "time": "1:00pm"}, {"days": "Sun", "time": "Closed"}], "id": "0651500001", "name": "USPS COLLECTION BOX - BLUE BOX", "address": {"city": "WOODBRIDGE", "state": "CT", "street": "95 FOUNTAIN", "postcode": "06515"}}},
{"geometry": {"type": "Point", "coordinates": [-72.9671881651, 41.3163421112]}, "type": "Feature", "properties": {"collection_times": [{"days": "Mon-Fri", "time": "12:45pm"}, {"days": "Sat", "time": "2:15pm"}, {"days": "Sun", "time": "Closed"}], "id": "0651500004", "name": "USPS COLLECTION BOX - BLUE BOX", "address": {"city": "WOODBRIDGE", "state": "CT", "street": "2055 CHAPEL ST", "postcode": "06515"}}},
{"geometry": {"type": "Point", "coordinates": [-72.9785812429, 41.3284863679]}, "type": "Feature", "properties": {"collection_times": [{"days": "Mon-Fri", "time": "1:00pm"}, {"days": "Sat", "time": "2:00pm"}, {"days": "Sun", "time": "Closed"}], "id": "0651500008", "name": "USPS COLLECTION BOX - BLUE BOX", "address": {"city": "WOODBRIDGE", "state": "CT", "street": "155 LOWIN AVE", "postcode": "06515"}}},
{"geometry": {"type": "Point", "coordinates": [-72.9799122116, 41.3379849995]}, "type": "Feature", "properties": {"collection_times": [{"days": "Mon-Fri", "time": "2:00pm"}, {"days": "Sat", "time": "1:45pm"}, {"days": "Sun", "time": "Closed"}], "id": "0651500014", "name": "USPS COLLECTION BOX - BLUE BOX", "address": {"city": "WOODBRIDGE", "state": "CT", "street": "130 AMITY RD", "postcode": "06515"}}},
{"geometry": {"type": "Point", "coordinates": [-72.9629200491, 41.3183519585]}, "type": "Feature", "properties": {"collection_times": [{"days": "Mon-Fri", "time": "12:45pm"}, {"days": "Sat", "time": "2:15pm"}, {"days": "Sun", "time": "Closed"}], "id": "0651500020", "name": "USPS COLLECTION BOX - BLUE BOX", "address": {"city": "WOODBRIDGE", "state": "CT", "street": "801 EDGEWOOD AVE", "postcode": "06515"}}},
{"geometry": {"type": "Point", "coordinates": [-72.9603690094, 41.3216076442]}, "type": "Feature", "properties": {"collection_times": [{"days": "Mon-Fri", "time": "12:45pm"}, {"days": "Sat", "time": "2:15pm"}, {"days": "Sun", "time": "Closed"}], "id": "0651500022", "name": "USPS COLLECTION BOX - BLUE BOX", "address": {"city": "WOODBRIDGE", "state": "CT", "street": "233 W ROCK AVE", "postcode": "06515"}}},
{"geometry": {"type": "Point", "coordinates": [-72.9665692949, 41.327102026]}, "type": "Feature", "properties": {"collection_times": [{"days": "Mon-Fri", "time": "5:00pm"}, {"days": "Sat", "time": "3:00pm"}, {"days": "Sun", "time": "Closed"}], "id": "0651500032", "name": "USPS COLLECTION BOX - EXPRESS", "address": {"city": "WOODBRIDGE", "state": "CT", "street": "95 FOUNTAIN", "postcode": "06515"}}},
{"geometry": {"type": "Point", "coordinates": [-72.9744586309, 41.3239520862]}, "type": "Feature", "properties": {"collection_times": [{"days": "Mon-Fri", "time": "1:00pm"}, {"days": "Sat-Sun", "time": "Closed"}], "id": "0651500036", "name": "USPS COLLECTION BOX - BLUE BOX", "address": {"city": "WOODBRIDGE", "state": "CT", "street": "55 RAY RD", "postcode": "06515"}}},
{"geometry": {"type": "Point", "coordinates": [-73.0126498402, 41.3543938872]}, "type": "Feature", "properties": {"collection_times": [{"days": "Mon-Fri", "time": "5:00pm"}, {"days": "Sat", "time": "3:00pm"}, {"days": "Sun", "time": "Closed"}], "id": "0651500039", "name": "USPS COLLECTION BOX - PO LOBBY", "address": {"city": "WOODBRIDGE", "state": "CT", "street": "95 FOUNTAIN ST", "postcode": "06515"}}},
{"geometry": {"type": "Point", "coordinates": [-72.9644967267, 41.2712730965]}, "type": "Feature", "properties": {"collection_times": [{"days": "Mon-Fri", "time": "5:00pm"}, {"days": "Sat", "time": "3:00pm"}, {"days": "Sun", "time": "Closed"}], "id": "0651600001", "name": "USPS COLLECTION BOX - BLUE BOX", "address": {"city": "WEST HAVEN", "state": "CT", "street": "75 FARWELL ST", "postcode": "06516"}}},
{"geometry": {"type": "Point", "coordinates": [-72.951016874, 41.2738415854]}, "type": "Feature", "properties": {"collection_times": [{"days": "Mon-Fri", "time": "5:00pm"}, {"days": "Sat", "time": "12:30pm"}, {"days": "Sun", "time": "Closed"}], "id": "0651600004", "name": "USPS COLLECTION BOX - BLUE BOX", "address": {"city": "WEST HAVEN", "state": "CT", "street": "589 CAMPBELL AVE", "postcode": "06516"}}},
{"geometry": {"type": "Point", "coordinates": [-72.9489528526, 41.2697489064]}, "type": "Feature", "properties": {"collection_times": [{"days": "Mon-Fri", "time": "11:30am"}, {"days": "Sat-Sun", "time": "Closed"}], "id": "0651600008", "name": "USPS COLLECTION BOX - BLUE BOX", "address": {"city": "WEST HAVEN", "state": "CT", "street": "411 CAMPBELL AVE", "postcode": "06516"}}},
{"geometry": {"type": "Point", "coordinates": [-72.9548184735, 41.2564011572]}, "type": "Feature", "properties": {"collection_times": [{"days": "Mon-Fri", "time": "3:00pm"}, {"days": "Sat-Sun", "time": "Closed"}], "id": "0651600019", "name": "USPS COLLECTION BOX - BLUE BOX", "address": {"city": "WEST HAVEN", "state": "CT", "street": "435 CAPTAIN THOMAS BLVD", "postcode": "06516"}}},
{"geometry": {"type": "Point", "coordinates": [-72.9450088674, 41.2740099246]}, "type": "Feature", "properties": {"collection_times": [{"days": "Mon-Sat", "time": "11:00am"}, {"days": "Sun", "time": "Closed"}], "id": "0651600020", "name": "USPS COLLECTION BOX - BLUE BOX", "address": {"city": "WEST HAVEN", "state": "CT", "street": "214 MAIN ST", "postcode": "06516"}}},
{"geometry": {"type": "Point", "coordinates": [-72.951047873, 41.2692792717]}, "type": "Feature", "properties": {"collection_times": [{"days": "Mon-Fri", "time": "1:00pm"}, {"days": "Sat", "time": "12:30pm"}, {"days": "Sun", "time": "Closed"}], "id": "0651600022", "name": "USPS COLLECTION BOX - BLUE BOX", "address": {"city": "WEST HAVEN", "state": "CT", "street": "618 SAVIN AVE", "postcode": "06516"}}},
{"geometry": {"type": "Point", "coordinates": [-72.945388762, 41.2589736966]}, "type": "Feature", "properties": {"collection_times": [{"days": "Mon-Fri", "time": "3:15pm"}, {"days": "Sat", "time": "12:30pm"}, {"days": "Sun", "time": "Closed"}], "id": "0651600026", "name": "USPS COLLECTION BOX - EXPRESS", "address": {"city": "WEST HAVEN", "state": "CT", "street": "589 CAMPBELL AVE", "postcode": "06516"}}},
{"geometry": {"type": "Point", "coordinates": [-72.9613916661, 41.2924404253]}, "type": "Feature", "properties": {"collection_times": [{"days": "Mon-Sat", "time": "11:00am"}, {"days": "Sun", "time": "Closed"}], "id": "0651600027", "name": "USPS COLLECTION BOX - BLUE BOX", "address": {"city": "WEST HAVEN", "state": "CT", "street": "300 BOSTON POST RD", "postcode": "06516"}}},
{"geometry": {"type": "Point", "coordinates": [-72.9868857084, 41.2367111209]}, "type": "Feature", "properties": {"collection_times": [{"days": "Mon-Sat", "time": "12:00pm"}, {"days": "Sun", "time": "Closed"}], "id": "0651600032", "name": "USPS COLLECTION BOX - BLUE BOX", "address": {"city": "WEST HAVEN", "state": "CT", "street": "13 BAYSHORE DR", "postcode": "06516"}}},
{"geometry": {"type": "Point", "coordinates": [-72.9684402377, 41.2449937902]}, "type": "Feature", "properties": {"collection_times": [{"days": "Mon-Fri", "time": "9:00am"}, {"days": "Sat-Sun", "time": "Closed"}], "id": "0651600033", "name": "USPS COLLECTION BOX - BLUE BOX", "address": {"city": "WEST HAVEN", "state": "CT", "street": "742 OCEAN AVE", "postcode": "06516"}}},
{"geometry": {"type": "Point", "coordinates": [-72.954237207, 41.286025936]}, "type": "Feature", "properties": {"collection_times": [{"days": "Mon-Fri", "time": "12:45pm"}, {"days": "Sat-Sun", "time": "Closed"}], "id": "0651600034", "name": "USPS COLLECTION BOX - BLUE BOX", "address": {"city": "WEST HAVEN", "state": "CT", "street": "840 1ST AVE", "postcode": "06516"}}},
{"geometry": {"type": "Point", "coordinates": [-72.9580770151, 41.2864404574]}, "type": "Feature", "properties": {"collection_times": [{"days": "Mon-Sat", "time": "12:00pm"}, {"days": "Sun", "time": "Closed"}], "id": "0651600035", "name": "USPS COLLECTION BOX - BLUE BOX", "address": {"city": "WEST HAVEN", "state": "CT", "street": "1014 CAMPBELL AVE", "postcode": "06516"}}},
{"geometry": {"type": "Point", "coordinates": [-72.9740469612, 41.3042203307]}, "type": "Feature", "properties": {"collection_times": [{"days": "Mon-Fri", "time": "1:00pm"}, {"days": "Sat-Sun", "time": "Closed"}], "id": "0651600036", "name": "USPS COLLECTION BOX - BLUE BOX", "address": {"city": "WEST HAVEN", "state": "CT", "street": "2 ELIZABETH ST", "postcode": "06516"}}},
{"geometry": {"type": "Point", "coordinates": [-72.9858032073, 41.2607690649]}, "type": "Feature", "properties": {"collection_times": [{"days": "Mon-Fri", "time": "3:00pm"}, {"days": "Sat-Sun", "time": "Closed"}], "id": "0651600037", "name": "USPS COLLECTION BOX - BLUE BOX", "address": {"city": "WEST HAVEN", "state": "CT", "street": "375 MORGAN LN", "postcode": "06516"}}},
{"geometry": {"type": "Point", "coordinates": [-72.9649568331, 41.2601079715]}, "type": "Feature", "properties": {"collection_times": [{"days": "Mon-Sat", "time": "1:00pm"}, {"days": "Sun", "time": "Closed"}], "id": "0651600042", "name": "USPS COLLECTION BOX - BLUE BOX", "address": {"city": "WEST HAVEN", "state": "CT", "street": "845 JONES HILL RD", "postcode": "06516"}}},
{"geometry": {"type": "Point", "coordinates": [-72.9859386576, 41.2363234347]}, "type": "Feature", "properties": {"collection_times": [{"days": "Mon-Sat", "time": "9:30am"}, {"days": "Sun", "time": "Closed"}], "id": "0651600045", "name": "USPS COLLECTION BOX - BLUE BOX", "address": {"city": "WEST HAVEN", "state": "CT", "street": "2 OCEAN AVE", "postcode": "06516"}}},
{"geometry": {"type": "Point", "coordinates": [-72.976154994, 41.2501851311]}, "type": "Feature", "properties": {"collection_times": [{"days": "Mon-Fri", "time": "12:00pm"}, {"days": "Sat-Sun", "time": "Closed"}], "id": "0651600046", "name": "USPS COLLECTION BOX - BLUE BOX", "address": {"city": "WEST HAVEN", "state": "CT", "street": "475 JONES HILL RD", "postcode": "06516"}}},
{"geometry": {"type": "Point", "coordinates": [-72.9791928327, 41.2874743636]}, "type": "Feature", "properties": {"collection_times": [{"days": "Mon-Fri", "time": "5:00pm"}, {"days": "Sat", "time": "3:00pm"}, {"days": "Sun", "time": "Closed"}], "id": "0651600050", "name": "USPS COLLECTION BOX - PO LOBBY", "address": {"city": "WEST HAVEN", "state": "CT", "street": "75 FARWELL ST", "postcode": "06516"}}},
{"geometry": {"type": "Point", "coordinates": [-72.945388762, 41.2589736966]}, "type": "Feature", "properties": {"collection_times": [{"days": "Mon-Fri", "time": "5:00pm"}, {"days": "Sat", "time": "12:00pm"}, {"days": "Sun", "time": "Closed"}], "id": "0651600051", "name": "USPS COLLECTION BOX - PO LOBBY", "address": {"city": "WEST HAVEN", "state": "CT", "street": "589 CAMPBELL AVE", "postcode": "06516"}}},
{"geometry": {"type": "Point", "coordinates": [-72.9644967273, 41.2712730503]}, "type": "Feature", "properties": {"collection_times": [{"days": "Mon-Fri", "time": "4:30pm"}, {"days": "Sat", "time": "12:00pm"}, {"days": "Sun", "time": "Closed"}], "id": "0651600053", "name": "USPS COLLECTION BOX - PO LOBBY", "address": {"city": "WEST HAVEN", "state": "CT", "street": "14 OCEAN AVE", "postcode": "06516"}}},
{"geometry": {"type": "Point", "coordinates": [-72.9672295707, 41.2735779558]}, "type": "Feature", "properties": {"collection_times": [{"days": "Mon-Sat", "time": "10:30am"}, {"days": "Sun", "time": "Closed"}], "id": "0651600057", "name": "USPS COLLECTION BOX - BLUE BOX", "address": {"city": "WEST HAVEN", "state": "CT", "street": "232 CAPT THOMAS BLVD", "postcode": "06516"}}},
{"geometry": {"type": "Point", "coordinates": [-72.9136190513, 41.3458309123]}, "type": "Feature", "properties": {"collection_times": [{"days": "Mon-Fri", "time": "5:00pm"}, {"days": "Sat", "time": "1:00pm"}, {"days": "Sun", "time": "Closed"}], "id": "0651700002", "name": "USPS COLLECTION BOX - BLUE BOX", "address": {"city": "NEW HAVEN", "state": "CT", "street": "40 PUTNAM AVE", "postcode": "06517"}}},
{"geometry": {"type": "Point", "coordinates": [-72.9138078931, 41.3485315931]}, "type": "Feature", "properties": {"collection_times": [{"days": "Mon-Fri", "time": "11:00am"}, {"days": "Sat-Sun", "time": "Closed"}], "id": "0651700003", "name": "USPS COLLECTION BOX - BLUE BOX", "address": {"city": "NEW HAVEN", "state": "CT", "street": "1743 STATE ST", "postcode": "06517"}}},
{"geometry": {"type": "Point", "coordinates": [-72.9139686584, 41.348670679]}, "type": "Feature", "properties": {"collection_times": [{"days": "Mon-Sat", "time": "11:00am"}, {"days": "Sun", "time": "Closed"}], "id": "0651700008", "name": "USPS COLLECTION BOX - BLUE BOX", "address": {"city": "NEW HAVEN", "state": "CT", "street": "491 RIDGE RD", "postcode": "06517"}}},
{"geometry": {"type": "Point", "coordinates": [-72.8984121138, 41.3541506627]}, "type": "Feature", "properties": {"collection_times": [{"days": "Mon-Sat", "time": "11:00am"}, {"days": "Sun", "time": "Closed"}], "id": "0651700009", "name": "USPS COLLECTION BOX - BLUE BOX", "address": {"city": "NEW HAVEN", "state": "CT", "street": "42 HESSE RD", "postcode": "06517"}}},
{"geometry": {"type": "Point", "coordinates": [-72.9139686584, 41.348670679]}, "type": "Feature", "properties": {"collection_times": [{"days": "Mon-Sat", "time": "11:30am"}, {"days": "Sun", "time": "Closed"}], "id": "0651700012", "name": "USPS COLLECTION BOX - BLUE BOX", "address": {"city": "NEW HAVEN", "state": "CT", "street": "1836 WHITNEY AVE", "postcode": "06517"}}},
{"geometry": {"type": "Point", "coordinates": [-72.9136190513, 41.3458309123]}, "type": "Feature", "properties": {"collection_times": [{"days": "Mon-Fri", "time": "5:00pm"}, {"days": "Sat", "time": "1:00pm"}, {"days": "Sun", "time": "Closed"}], "id": "0651700025", "name": "USPS COLLECTION BOX - PO LOBBY", "address": {"city": "NEW HAVEN", "state": "CT", "street": "40 PUTNAM AVE", "postcode": "06517"}}},
{"geometry": {"type": "Point", "coordinates": [-72.9138078931, 41.3485315931]}, "type": "Feature", "properties": {"collection_times": [{"days": "Mon-Fri", "time": "11:30am"}, {"days": "Sat-Sun", "time": "Closed"}], "id": "0651700027", "name": "USPS COLLECTION BOX - BLUE BOX", "address": {"city": "NEW HAVEN", "state": "CT", "street": "1994 WHITNEY AVE", "postcode": "06517"}}},
{"geometry": {"type": "Point", "coordinates": [-72.9095283792, 41.3601920341]}, "type": "Feature", "properties": {"collection_times": [{"days": "Mon-Sat", "time": "11:30am"}, {"days": "Sun", "time": "Closed"}], "id": "0651700028", "name": "USPS COLLECTION BOX - BLUE BOX", "address": {"city": "NEW HAVEN", "state": "CT", "street": "1670 WHITNEY AVE", "postcode": "06517"}}},
{"geometry": {"type": "Point", "coordinates": [-72.9093759871, 41.4042519893]}, "type": "Feature", "properties": {"collection_times": [{"days": "Mon-Fri", "time": "1:45pm"}, {"days": "Sat", "time": "12:00pm"}, {"days": "Sun", "time": "Closed"}], "id": "0651800001", "name": "USPS COLLECTION BOX - BLUE BOX", "address": {"city": "HAMDEN", "state": "CT", "street": "2692 DIXWELL AVE", "postcode": "06518"}}},
{"geometry": {"type": "Point", "coordinates": [-72.9023916623, 41.381895435]}, "type": "Feature", "properties": {"collection_times": [{"days": "Mon-Fri", "time": "12:30pm"}, {"days": "Sat", "time": "11:30am"}, {"days": "Sun", "time": "Closed"}], "id": "0651800008", "name": "USPS COLLECTION BOX - BLUE BOX", "address": {"city": "HAMDEN", "state": "CT", "street": "2319 WHITNEY AVE", "postcode": "06518"}}},
{"geometry": {"type": "Point", "coordinates": [-72.9056269805, 41.3822565847]}, "type": "Feature", "properties": {"collection_times": [{"days": "Mon-Fri", "time": "12:30pm"}, {"days": "Sat", "time": "11:00am"}, {"days": "Sun", "time": "Closed"}], "id": "0651800014", "name": "USPS COLLECTION BOX - BLUE BOX", "address": {"city": "HAMDEN", "state": "CT", "street": "51 WORTH AVE", "postcode": "06518"}}},
{"geometry": {"type": "Point", "coordinates": [-72.9022758026, 41.3820306055]}, "type": "Feature", "properties": {"collection_times": [{"days": "Mon-Sat", "time": "11:00am"}, {"days": "Sun", "time": "Closed"}], "id": "0651800027", "name": "USPS COLLECTION BOX - BLUE BOX", "address": {"city": "HAMDEN", "state": "CT", "street": "2319 WHITNEY AVE", "postcode": "06518"}}},
{"geometry": {"type": "Point", "coordinates": [-72.9050863684, 41.3834679347]}, "type": "Feature", "properties": {"collection_times": [{"days": "Mon-Fri", "time": "12:30pm"}, {"days": "Sat", "time": "11:30am"}, {"days": "Sun", "time": "Closed"}], "id": "0651800034", "name": "USPS COLLECTION BOX - BLUE BOX", "address": {"city": "HAMDEN", "state": "CT", "street": "2901 DIXWELL AVE", "postcode": "06518"}}},
{"geometry": {"type": "Point", "coordinates": [-72.936758212, 41.2977037649]}, "type": "Feature", "properties": {"collection_times": [{"days": "Mon-Fri", "time": "12:00pm"}, {"days": "Sat-Sun", "time": "Closed"}], "id": "0651900002", "name": "USPS COLLECTION BOX - BLUE BOX", "address": {"city": "NEW HAVEN", "state": "CT", "street": "615 HOWARD AVE", "postcode": "06519"}}},
{"geometry": {"type": "Point", "coordinates": [-72.9260859555, 41.2986586992]}, "type": "Feature", "properties": {"collection_times": [{"days": "Mon-Fri", "time": "12:00pm"}, {"days": "Sat", "time": "11:00am"}, {"days": "Sun", "time": "Closed"}], "id": "0651900003", "name": "USPS COLLECTION BOX - BLUE BOX", "address": {"city": "NEW HAVEN", "state": "CT", "street": "50 UNION UN", "postcode": "06519"}}},
{"geometry": {"type": "Point", "coordinates": [-72.9251351568, 41.2997369162]}, "type": "Feature", "properties": {"collection_times": [{"days": "Mon-Fri", "time": "12:00pm"}, {"days": "Sat", "time": "11:00am"}, {"days": "Sun", "time": "Closed"}], "id": "0651900004", "name": "USPS COLLECTION BOX - BLUE BOX", "address": {"city": "NEW HAVEN", "state": "CT", "street": "1 UNION UN", "postcode": "06519"}}},
{"geometry": {"type": "Point", "coordinates": [-72.9278464988, 41.3032668658]}, "type": "Feature", "properties": {"collection_times": [{"days": "Mon-Fri", "time": "12:00pm"}, {"days": "Sat", "time": "11:00am"}, {"days": "Sun", "time": "Closed"}], "id": "0651900006", "name": "USPS COLLECTION BOX - BLUE BOX", "address": {"city": "NEW HAVEN", "state": "CT", "street": "2 CHURCH ST S", "postcode": "06519"}}},
{"geometry": {"type": "Point", "coordinates": [-72.9358231911, 41.3022719973]}, "type": "Feature", "properties": {"collection_times": [{"days": "Mon-Fri", "time": "1:00pm"}, {"days": "Sat", "time": "11:30am"}, {"days": "Sun", "time": "Closed"}], "id": "0651900013", "name": "USPS COLLECTION BOX - BLUE BOX", "address": {"city": "NEW HAVEN", "state": "CT", "street": "789 HOWARD AVE", "postcode": "06519"}}},
{"geometry": {"type": "Point", "coordinates": [-72.9355593912, 41.3012948732]}, "type": "Feature", "properties": {"collection_times": [{"days": "Mon-Fri", "time": "1:15pm"}, {"days": "Sat-Sun", "time": "Closed"}], "id": "0651900016", "name": "USPS COLLECTION BOX - BLUE BOX", "address": {"city": "NEW HAVEN", "state": "CT", "street": "420 CONGRESS AVE", "postcode": "06519"}}},
{"geometry": {"type": "Point", "coordinates": [-72.9340144468, 41.3017562272]}, "type": "Feature", "properties": {"collection_times": [{"days": "Mon-Fri", "time": "3:00pm"}, {"days": "Sat", "time": "11:30am"}, {"days": "Sun", "time": "Closed"}], "id": "0651900017", "name": "USPS COLLECTION BOX - BLUE BOX", "address": {"city": "NEW HAVEN", "state": "CT", "street": "350 CONGRESS AVE", "postcode": "06519"}}},
{"geometry": {"type": "Point", "coordinates": [-72.939076392, 41.302257047]}, "type": "Feature", "properties": {"collection_times": [{"days": "Mon-Sat", "time": "11:30am"}, {"days": "Sun", "time": "Closed"}], "id": "0651900018", "name": "USPS COLLECTION BOX - BLUE BOX", "address": {"city": "NEW HAVEN", "state": "CT", "street": "169 DAVENPORT AVE", "postcode": "06519"}}},
{"geometry": {"type": "Point", "coordinates": [-72.9292590408, 41.2988437235]}, "type": "Feature", "properties": {"collection_times": [{"days": "Mon-Sat", "time": "11:00am"}, {"days": "Sun", "time": "Closed"}], "id": "0651900019", "name": "USPS COLLECTION BOX - BLUE BOX", "address": {"city": "NEW HAVEN", "state": "CT", "street": "100 CHURCH ST S", "postcode": "06519"}}},
{"geometry": {"type": "Point", "coordinates": [-72.936758212, 41.2977037649]}, "type": "Feature", "properties": {"collection_times": [{"days": "Mon-Fri", "time": "1:15pm"}, {"days": "Sat", "time": "12:00pm"}, {"days": "Sun", "time": "Closed"}], "id": "0651900020", "name": "USPS COLLECTION BOX - BLUE BOX", "address": {"city": "NEW HAVEN", "state": "CT", "street": "369 WASHINGTON AVE", "postcode": "06519"}}},
{"geometry": {"type": "Point", "coordinates": [-72.936758212, 41.2977037649]}, "type": "Feature", "properties": {"collection_times": [{"days": "Mon-Fri", "time": "12:00pm"}, {"days": "Sat", "time": "11:00am"}, {"days": "Sun", "time": "Closed"}], "id": "0651900022", "name": "USPS COLLECTION BOX - BLUE BOX", "address": {"city": "NEW HAVEN", "state": "CT", "street": "46 PRINCE ST", "postcode": "06519"}}},
{"geometry": {"type": "Point", "coordinates": [-72.9356765042, 41.2980370042]}, "type": "Feature", "properties": {"collection_times": [{"days": "Mon-Fri", "time": "4:00pm"}, {"days": "Sat", "time": "12:00pm"}, {"days": "Sun", "time": "Closed"}], "id": "0651900023", "name": "USPS COLLECTION BOX - PO LOBBY", "address": {"city": "NEW HAVEN", "state": "CT", "street": "369 WASHINGTON AVE", "postcode": "06519"}}},
{"geometry": {"type": "Point", "coordinates": [-72.9290011593, 41.3011641727]}, "type": "Feature", "properties": {"collection_times": [{"days": "Mon-Fri", "time": "12:00pm"}, {"days": "Sat", "time": "11:00am"}, {"days": "Sun", "time": "Closed"}], "id": "0651900024", "name": "USPS COLLECTION BOX - BLUE BOX", "address": {"city": "NEW HAVEN", "state": "CT", "street": "18 TOWER LANE TOWER 1", "postcode": "06519"}}},
{"geometry": {"type": "Point", "coordinates": [-72.9290011593, 41.3011641727]}, "type": "Feature", "properties": {"collection_times": [{"days": "Mon-Fri", "time": "12:00pm"}, {"days": "Sat", "time": "11:00am"}, {"days": "Sun", "time": "Closed"}], "id": "0651900025", "name": "USPS COLLECTION BOX - BLUE BOX", "address": {"city": "NEW HAVEN", "state": "CT", "street": "18 TOWER LANE TOWER EAST", "postcode": "06519"}}},
{"geometry": {"type": "Point", "coordinates": [-73.0137210389, 41.3540205372]}, "type": "Feature", "properties": {"collection_times": [{"days": "Mon-Fri", "time": "1:15pm"}, {"days": "Sat-Sun", "time": "Closed"}], "id": "0652500004", "name": "USPS COLLECTION BOX - BLUE BOX", "address": {"city": "BETHANY", "state": "CT", "street": "11 MEETINGHOUSE LN", "postcode": "06525"}}},
{"geometry": {"type": "Point", "coordinates": [-73.0003890605, 41.4221079655]}, "type": "Feature", "properties": {"collection_times": [{"days": "Mon-Fri", "time": "1:30pm"}, {"days": "Sat-Sun", "time": "Closed"}], "id": "0652500005", "name": "USPS COLLECTION BOX - BLUE BOX", "address": {"city": "BETHANY", "state": "CT", "street": "40 PECK", "postcode": "06525"}}},
{"geometry": {"type": "Point", "coordinates": [-73.010886931, 41.355691197]}, "type": "Feature", "properties": {"collection_times": [{"days": "Mon-Fri", "time": "5:00pm"}, {"days": "Sat", "time": "12:00pm"}, {"days": "Sun", "time": "Closed"}], "id": "0652500009", "name": "USPS COLLECTION BOX - BLUE BOX", "address": {"city": "BETHANY", "state": "CT", "street": "1449 WHALLEY AVE", "postcode": "06525"}}},
{"geometry": {"type": "Point", "coordinates": [-72.9907929283, 41.4406166823]}, "type": "Feature", "properties": {"collection_times": [{"days": "Mon-Fri", "time": "1:30pm"}, {"days": "Sat-Sun", "time": "Closed"}], "id": "0652500014", "name": "USPS COLLECTION BOX - BLUE BOX", "address": {"city": "BETHANY", "state": "CT", "street": "742 AMITY RD", "postcode": "06525"}}},
{"geometry": {"type": "Point", "coordinates": [-73.0012790182, 41.4221632739]}, "type": "Feature", "properties": {"collection_times": [{"days": "Mon-Fri", "time": "2:00pm"}, {"days": "Sat", "time": "1:45pm"}, {"days": "Sun", "time": "Closed"}], "id": "0652500015", "name": "USPS COLLECTION BOX - BLUE BOX", "address": {"city": "BETHANY", "state": "CT", "street": "6 LUNAR DR", "postcode": "06525"}}},
{"geometry": {"type": "Point", "coordinates": [-73.0083161077, 41.350061035]}, "type": "Feature", "properties": {"collection_times": [{"days": "Mon-Fri", "time": "2:00pm"}, {"days": "Sat-Sun", "time": "Closed"}], "id": "0652500016", "name": "USPS COLLECTION BOX - BLUE BOX", "address": {"city": "BETHANY", "state": "CT", "street": "270 AMITY RD", "postcode": "06525"}}}
]}
