{"type": "FeatureCollection", "features": [
{"geometry": {"type": "Point", "coordinates": [-73.1894841803, 41.1789693563]}, "type": "Feature", "properties": {"collection_times": [{"days": "Mon-Fri", "time": "2:00pm"}, {"days": "Sat", "time": "10:00am"}, {"days": "Sun", "time": "Closed"}], "id": "0660400004", "name": "USPS COLLECTION BOX - BLUE BOX", "address": {"city": "BRIDGEPORT", "state": "CT", "street": "1061 MAIN ST", "postcode": "06604"}}},
{"geometry": {"type": "Point", "coordinates": [-73.1935248868, 41.1778495563]}, "type": "Feature", "properties": {"collection_times": [{"days": "Mon-Fri", "time": "3:30pm"}, {"days": "Sat", "time": "11:00am"}, {"days": "Sun", "time": "Closed"}], "id": "0660400014", "name": "USPS COLLECTION BOX - BLUE BOX", "address": {"city": "BRIDGEPORT", "state": "CT", "street": "350 FAIRFIELD AVE", "postcode": "06604"}}},
{"geometry": {"type": "Point", "coordinates": [-73.1884606395, 41.1784197425]}, "type": "Feature", "properties": {"collection_times": [{"days": "Mon-Sat", "time": "10:30am"}, {"days": "Sun", "time": "Closed"}], "id": "0660400022", "name": "USPS COLLECTION BOX - BLUE BOX", "address": {"city": "BRIDGEPORT", "state": "CT", "street": "10 MIDDLE ST", "postcode": "06604"}}},
{"geometry": {"type": "Point", "coordinates": [-73.1910454048, 41.1801669729]}, "type": "Feature", "properties": {"collection_times": [{"days": "Mon-Sat", "time": "10:30am"}, {"days": "Sun", "time": "Closed"}], "id": "0660400025", "name": "USPS COLLECTION BOX - BLUE BOX", "address": {"city": "BRIDGEPORT", "state": "CT", "street": "172 GOLDEN HILL ST", "postcode": "06604"}}},
{"geometry": {"type": "Point", "coordinates": [-73.1881417769, 41.1806701342]}, "type": "Feature", "properties": {"collection_times": [{"days": "Mon-Fri", "time": "6:00pm"}, {"days": "Sat", "time": "5:00pm"}, {"days": "Sun", "time": "Closed"}], "id": "0660400027", "name": "USPS COLLECTION BOX - BLUE BOX", "address": {"city": "BRIDGEPORT", "state": "CT", "street": "1 GOLDEN HILL ST", "postcode": "06604"}}},
{"geometry": {"type": "Point", "coordinates": [-73.1893086344, 41.1766030899]}, "type": "Feature", "properties": {"collection_times": [{"days": "Mon-Fri", "time": "3:00pm"}, {"days": "Sat", "time": "10:00am"}, {"days": "Sun", "time": "Closed"}], "id": "0660400029", "name": "USPS COLLECTION BOX - BLUE BOX", "address": {"city": "BRIDGEPORT", "state": "CT", "street": "181 STATE ST", "postcode": "06604"}}},
{"geometry": {"type": "Point", "coordinates": [-73.1914766932, 41.1760300818]}, "type": "Feature", "properties": {"collection_times": [{"days": "Mon-Fri", "time": "3:00pm"}, {"days": "Sat", "time": "10:00am"}, {"days": "Sun", "time": "Closed"}], "id": "0660400033", "name": "USPS COLLECTION BOX - BLUE BOX", "address": {"city": "BRIDGEPORT", "state": "CT", "street": "300 STATE ST", "postcode": "06604"}}},
{"geometry": {"type": "Point", "coordinates": [-73.2340400484, 41.2148915504]}, "type": "Feature", "properties": {"collection_times": [{"days": "Mon-Sat", "time": "12:15pm"}, {"days": "Sun", "time": "Closed"}], "id": "0660400038", "name": "USPS COLLECTION BOX - BLUE BOX", "address": {"city": "BRIDGEPORT", "state": "CT", "street": "4450 PARK PARK", "postcode": "06604"}}},
{"geometry": {"type": "Point", "coordinates": [-73.1923965695, 41.1752921327]}, "type": "Feature", "properties": {"collection_times": [{"days": "Mon-Sat", "time": "10:00am"}, {"days": "Sun", "time": "Closed"}], "id": "0660400045", "name": "USPS COLLECTION BOX - BLUE BOX", "address": {"city": "BRIDGEPORT", "state": "CT", "street": "915 LAFAYETTE BLVD", "postcode": "06604"}}},
{"geometry": {"type": "Point", "coordinates": [-73.2008563364, 41.1796543105]}, "type": "Feature", "properties": {"collection_times": [{"days": "Mon-Sat", "time": "10:00am"}, {"days": "Sun", "time": "Closed"}], "id": "0660400047", "name": "USPS COLLECTION BOX - BLUE BOX", "address": {"city": "BRIDGEPORT", "state": "CT", "street": "1595 CAPITOL AVE", "postcode": "06604"}}},
{"geometry": {"type": "Point", "coordinates": [-73.2135815598, 41.1843278453]}, "type": "Feature", "properties": {"collection_times": [{"days": "Mon-Sat", "time": "10:00am"}, {"days": "Sun", "time": "Closed"}], "id": "0660400049", "name": "USPS COLLECTION BOX - BLUE BOX", "address": {"city": "BRIDGEPORT", "state": "CT", "street": "296 PARK AVE", "postcode": "06604"}}},
{"geometry": {"type": "Point", "coordinates": [-73.1927978503, 41.1806066503]}, "type": "Feature", "properties": {"collection_times": [{"days": "Mon-Sat", "time": "9:30am"}, {"days": "Sun", "time": "Closed"}], "id": "0660400057", "name": "USPS COLLECTION BOX - BLUE BOX", "address": {"city": "BRIDGEPORT", "state": "CT", "street": "45 LYON TER", "postcode": "06604"}}},
{"geometry": {"type": "Point", "coordinates": [-73.1928458684, 41.1776176963]}, "type": "Feature", "properties": {"collection_times": [{"days": "Mon-Fri", "time": "3:00pm"}, {"days": "Sat", "time": "10:00am"}, {"days": "Sun", "time": "Closed"}], "id": "0660400059", "name": "USPS COLLECTION BOX - BLUE BOX", "address": {"city": "BRIDGEPORT", "state": "CT", "street": "1 LAFAYETTE CIR", "postcode": "06604"}}},
{"geometry": {"type": "Point", "coordinates": [-73.1920991769, 41.1746742524]}, "type": "Feature", "properties": {"collection_times": [{"days": "Mon-Fri", "time": "3:30pm"}, {"days": "Sat", "time": "10:00am"}, {"days": "Sun", "time": "Closed"}], "id": "0660400062", "name": "USPS COLLECTION BOX - BLUE BOX", "address": {"city": "BRIDGEPORT", "state": "CT", "street": "881 LAFAYETTE BLVD", "postcode": "06604"}}},
{"geometry": {"type": "Point", "coordinates": [-73.1921266293, 41.181548669]}, "type": "Feature", "properties": {"collection_times": [{"days": "Mon-Sat", "time": "9:30am"}, {"days": "Sun", "time": "Closed"}], "id": "0660400065", "name": "USPS COLLECTION BOX - BLUE BOX", "address": {"city": "BRIDGEPORT", "state": "CT", "street": "300 CONGRESS ST", "postcode": "06604"}}},
{"geometry": {"type": "Point", "coordinates": [-73.2008563364, 41.1796543105]}, "type": "Feature", "properties": {"collection_times": [{"days": "Mon-Fri", "time": "3:00pm"}, {"days": "Sat", "time": "2:00pm"}, {"days": "Sun", "time": "Closed"}], "id": "0660400071", "name": "USPS COLLECTION BOX - BLUE BOX", "address": {"city": "BRIDGEPORT", "state": "CT", "street": "952 MAIN ST", "postcode": "06604"}}},
{"geometry": {"type": "Point", "coordinates": [-73.2008563364, 41.1796543105]}, "type": "Feature", "properties": {"collection_times": [{"days": "Mon-Fri", "time": "6:00pm"}, {"days": "Sat", "time": "5:00pm"}, {"days": "Sun", "time": "Closed"}], "id": "0660400075", "name": "USPS COLLECTION BOX - EXPRESS", "address": {"city": "BRIDGEPORT", "state": "CT", "street": "120 MIDDLE ST", "postcode": "06604"}}},
{"geometry": {"type": "Point", "coordinates": [-73.1887895021, 41.1797754135]}, "type": "Feature", "properties": {"collection_times": [{"days": "Mon-Fri", "time": "6:00pm"}, {"days": "Sat", "time": "5:00pm"}, {"days": "Sun", "time": "Closed"}], "id": "0660400076", "name": "USPS COLLECTION BOX - BLUE BOX", "address": {"city": "BRIDGEPORT", "state": "CT", "street": "120 MIDDLE ST", "postcode": "06604"}}},
{"geometry": {"type": "Point", "coordinates": [-73.1887895021, 41.1797754135]}, "type": "Feature", "properties": {"collection_times": [{"days": "Mon-Fri", "time": "6:00pm"}, {"days": "Sat", "time": "5:00pm"}, {"days": "Sun", "time": "Closed"}], "id": "0660400077", "name": "USPS COLLECTION BOX - BLUE BOX", "address": {"city": "BRIDGEPORT", "state": "CT", "street": "120 MIDDLE ST", "postcode": "06604"}}},
{"geometry": {"type": "Point", "coordinates": [-73.1935248868, 41.1778495563]}, "type": "Feature", "properties": {"collection_times": [{"days": "Mon-Fri", "time": "11:00am"}, {"days": "Sat", "time": "10:00am"}, {"days": "Sun", "time": "Closed"}], "id": "0660400088", "name": "USPS COLLECTION BOX - BLUE BOX", "address": {"city": "BRIDGEPORT", "state": "CT", "street": "350 FAIRFIELD AVE", "postcode": "06604"}}},
{"geometry": {"type": "Point", "coordinates": [-73.1910309494, 41.1778937628]}, "type": "Feature", "properties": {"collection_times": [{"days": "Mon-Fri", "time": "5:00pm"}, {"days": "Sat", "time": "12:00pm"}, {"days": "Sun", "time": "Closed"}], "id": "0660400089", "name": "USPS COLLECTION BOX - BLUE BOX", "address": {"city": "BRIDGEPORT", "state": "CT", "street": "1087 BROAD ST", "postcode": "06604"}}},
{"geometry": {"type": "Point", "coordinates": [-73.190980006, 41.1778755531]}, "type": "Feature", "properties": {"collection_times": [{"days": "Mon-Fri", "time": "5:00pm"}, {"days": "Sat", "time": "12:00pm"}, {"days": "Sun", "time": "Closed"}], "id": "0660400090", "name": "USPS COLLECTION BOX - BLUE BOX", "address": {"city": "BRIDGEPORT", "state": "CT", "street": "1087 BROAD ST", "postcode": "06604"}}},
{"geometry": {"type": "Point", "coordinates": [-73.1928458684, 41.1776176963]}, "type": "Feature", "properties": {"collection_times": [{"days": "Mon-Fri", "time": "3:00pm"}, {"days": "Sat", "time": "10:00am"}, {"days": "Sun", "time": "Closed"}], "id": "0660400091", "name": "USPS COLLECTION BOX - BLUE BOX", "address": {"city": "BRIDGEPORT", "state": "CT", "street": "1 LAFAYETTE CIR", "postcode": "06604"}}},
{"geometry": {"type": "Point", "coordinates": [-73.1926968155, 41.1761046918]}, "type": "Feature", "properties": {"collection_times": [{"days": "Mon-Fri", "time": "5:00pm"}, {"days": "Sat", "time": "12:00pm"}, {"days": "Sun", "time": "Closed"}], "id": "0660400095", "name": "USPS COLLECTION BOX - BLUE BOX", "address": {"city": "BRIDGEPORT", "state": "CT", "street": "1000 LAFAYETTE BLVD", "postcode": "06604"}}},
{"geometry": {"type": "Point", "coordinates": [-73.1888013317, 41.1764382862]}, "type": "Feature", "properties": {"collection_times": [{"days": "Mon-Fri", "time": "2:30pm"}, {"days": "Sat", "time": "2:00pm"}, {"days": "Sun", "time": "Closed"}], "id": "0660400097", "name": "USPS COLLECTION BOX - BLUE BOX", "address": {"city": "BRIDGEPORT", "state": "CT", "street": "855 MAIN ST", "postcode": "06604"}}},
{"geometry": {"type": "Point", "coordinates": [-73.205961637, 41.1836387448]}, "type": "Feature", "properties": {"collection_times": [{"days": "Mon-Sat", "time": "10:00am"}, {"days": "Sun", "time": "Closed"}], "id": "0660400098", "name": "USPS COLLECTION BOX - BLUE BOX", "address": {"city": "BRIDGEPORT", "state": "CT", "street": "1711 NORTH AVE", "postcode": "06604"}}},
{"geometry": {"type": "Point", "coordinates": [-73.1893086344, 41.1766030899]}, "type": "Feature", "properties": {"collection_times": [{"days": "Mon-Fri", "time": "2:00pm"}, {"days": "Sat", "time": "10:00am"}, {"days": "Sun", "time": "Closed"}], "id": "0660400100", "name": "USPS COLLECTION BOX - BLUE BOX", "address": {"city": "BRIDGEPORT", "state": "CT", "street": "181 STATE ST", "postcode": "06604"}}},
{"geometry": {"type": "Point", "coordinates": [-73.1887895021, 41.1797754135]}, "type": "Feature", "properties": {"collection_times": [{"days": "Mon-Fri", "time": "6:00pm"}, {"days": "Sat", "time": "5:00pm"}, {"days": "Sun", "time": "Closed"}], "id": "0660400107", "name": "USPS COLLECTION BOX - PO LOBBY", "address": {"city": "BRIDGEPORT", "state": "CT", "street": "120 MIDDLE ST", "postcode": "06604"}}},
{"geometry": {"type": "Point", "coordinates": [-73.2008563364, 41.1796543105]}, "type": "Feature", "properties": {"collection_times": [{"days": "Mon-Fri", "time": "5:00pm"}, {"days": "Sat", "time": "12:00pm"}, {"days": "Sun", "time": "Closed"}], "id": "0660400110", "name": "USPS COLLECTION BOX - BLUE BOX", "address": {"city": "BRIDGEPORT", "state": "CT", "street": "295 CENTER RD", "postcode": "06604"}}},
{"geometry": {"type": "Point", "coordinates": [-73.2008563364, 41.1796543105]}, "type": "Feature", "properties": {"collection_times": [{"days": "Mon-Fri", "time": "5:00pm"}, {"days": "Sat", "time": "12:00pm"}, {"days": "Sun", "time": "Closed"}], "id": "0660400111", "name": "USPS COLLECTION BOX - PO LOBBY", "address": {"city": "BRIDGEPORT", "state": "CT", "street": "295 CENTER RD", "postcode": "06604"}}},
{"geometry": {"type": "Point", "coordinates": [-73.2017248075, 41.174402675]}, "type": "Feature", "properties": {"collection_times": [{"days": "Mon-Fri", "time": "11:15am"}, {"days": "Sat", "time": "11:00am"}, {"days": "Sun", "time": "Closed"}], "id": "0660500001", "name": "USPS COLLECTION BOX - BLUE BOX", "address": {"city": "BRIDGEPORT", "state": "CT", "street": "919 FAIRFIELD AVE", "postcode": "06605"}}},
{"geometry": {"type": "Point", "coordinates": [-73.216346281, 41.1640817646]}, "type": "Feature", "properties": {"collection_times": [{"days": "Mon-Sat", "time": "10:15am"}, {"days": "Sun", "time": "Closed"}], "id": "0660500002", "name": "USPS COLLECTION BOX - BLUE BOX", "address": {"city": "BRIDGEPORT", "state": "CT", "street": "1300 FAIRFIELD AVE", "postcode": "06605"}}},
{"geometry": {"type": "Point", "coordinates": [-73.22632479, 41.1576351535]}, "type": "Feature", "properties": {"collection_times": [{"days": "Mon-Sat", "time": "10:45am"}, {"days": "Sun", "time": "Closed"}], "id": "0660500008", "name": "USPS COLLECTION BOX - BLUE BOX", "address": {"city": "BRIDGEPORT", "state": "CT", "street": "2814 FAIRFIELD AVE", "postcode": "06605"}}},
{"geometry": {"type": "Point", "coordinates": [-73.2288649161, 41.1559753535]}, "type": "Feature", "properties": {"collection_times": [{"days": "Mon-Fri", "time": "10:30am"}, {"days": "Sat", "time": "10:45am"}, {"days": "Sun", "time": "Closed"}], "id": "0660500010", "name": "USPS COLLECTION BOX - BLUE BOX", "address": {"city": "BRIDGEPORT", "state": "CT", "street": "3002 FAIRFIELD AVE", "postcode": "06605"}}},
{"geometry": {"type": "Point", "coordinates": [-73.2226268603, 41.1589718971]}, "type": "Feature", "properties": {"collection_times": [{"days": "Mon-Sat", "time": "11:00am"}, {"days": "Sun", "time": "Closed"}], "id": "0660500012", "name": "USPS COLLECTION BOX - BLUE BOX", "address": {"city": "BRIDGEPORT", "state": "CT", "street": "364 ELLSWORTH ST", "postcode": "06605"}}},
{"geometry": {"type": "Point", "coordinates": [-73.2165999751, 41.1593140121]}, "type": "Feature", "properties": {"collection_times": [{"days": "Mon-Sat", "time": "11:00am"}, {"days": "Sun", "time": "Closed"}], "id": "0660500013", "name": "USPS COLLECTION BOX - BLUE BOX", "address": {"city": "BRIDGEPORT", "state": "CT", "street": "199 YACHT ST", "postcode": "06605"}}},
{"geometry": {"type": "Point", "coordinates": [-73.1985218655, 41.1695206377]}, "type": "Feature", "properties": {"collection_times": [{"days": "Mon-Fri", "time": "11:00am"}, {"days": "Sat", "time": "9:00am"}, {"days": "Sun", "time": "Closed"}], "id": "0660500015", "name": "USPS COLLECTION BOX - BLUE BOX", "address": {"city": "BRIDGEPORT", "state": "CT", "street": "184 GARDEN ST", "postcode": "06605"}}},
{"geometry": {"type": "Point", "coordinates": [-73.2252019066, 41.1574948415]}, "type": "Feature", "properties": {"collection_times": [{"days": "Mon-Fri", "time": "10:45am"}, {"days": "Sat", "time": "10:30am"}, {"days": "Sun", "time": "Closed"}], "id": "0660500016", "name": "USPS COLLECTION BOX - BLUE BOX", "address": {"city": "BRIDGEPORT", "state": "CT", "street": "44 HADDON ST", "postcode": "06605"}}},
{"geometry": {"type": "Point", "coordinates": [-73.2299834844, 41.1542630308]}, "type": "Feature", "properties": {"collection_times": [{"days": "Mon-Sat", "time": "10:45am"}, {"days": "Sun", "time": "Closed"}], "id": "0660500017", "name": "USPS COLLECTION BOX - BLUE BOX", "address": {"city": "BRIDGEPORT", "state": "CT", "street": "138 CLARKSON ST", "postcode": "06605"}}},
{"geometry": {"type": "Point", "coordinates": [-73.2163375908, 41.1640731208]}, "type": "Feature", "properties": {"collection_times": [{"days": "Mon-Fri", "time": "10:45am"}, {"days": "Sat", "time": "11:00am"}, {"days": "Sun", "time": "Closed"}], "id": "0660500022", "name": "USPS COLLECTION BOX - BLUE BOX", "address": {"city": "BRIDGEPORT", "state": "CT", "street": "167 GROVERS AVE", "postcode": "06605"}}},
{"geometry": {"type": "Point", "coordinates": [-73.216346281, 41.1640817646]}, "type": "Feature", "properties": {"collection_times": [{"days": "Mon-Fri", "time": "3:15pm"}, {"days": "Sat", "time": "3:00pm"}, {"days": "Sun", "time": "Closed"}], "id": "0660500029", "name": "USPS COLLECTION BOX - EXPRESS", "address": {"city": "BRIDGEPORT", "state": "CT", "street": "2253 FAIRFIELD AVE", "postcode": "06605"}}},
{"geometry": {"type": "Point", "coordinates": [-73.2202124411, 41.1638598836]}, "type": "Feature", "properties": {"collection_times": [{"days": "Mon-Fri", "time": "5:00pm"}, {"days": "Sat", "time": "3:00pm"}, {"days": "Sun", "time": "Closed"}], "id": "0660500032", "name": "USPS COLLECTION BOX - BLUE BOX", "address": {"city": "BRIDGEPORT", "state": "CT", "street": "2253 FAIRFIELD AVE", "postcode": "06605"}}},
{"geometry": {"type": "Point", "coordinates": [-73.2202124411, 41.1638598836]}, "type": "Feature", "properties": {"collection_times": [{"days": "Mon-Fri", "time": "5:00pm"}, {"days": "Sat", "time": "12:00pm"}, {"days": "Sun", "time": "Closed"}], "id": "0660500033", "name": "USPS COLLECTION BOX - PO LOBBY", "address": {"city": "BRIDGEPORT", "state": "CT", "street": "2253 FAIRFIELD AVE", "postcode": "06605"}}},
{"geometry": {"type": "Point", "coordinates": [-73.1981669041, 41.1978100818]}, "type": "Feature", "properties": {"collection_times": [{"days": "Mon-Sat", "time": "10:00am"}, {"days": "Sun", "time": "Closed"}], "id": "0660600001", "name": "USPS COLLECTION BOX - BLUE BOX", "address": {"city": "BRIDGEPORT", "state": "CT", "street": "357 CAPITOL AVE", "postcode": "06606"}}},
{"geometry": {"type": "Point", "coordinates": [-73.2068615662, 41.1954531686]}, "type": "Feature", "properties": {"collection_times": [{"days": "Mon-Sat", "time": "10:00am"}, {"days": "Sun", "time": "Closed"}], "id": "0660600004", "name": "USPS COLLECTION BOX - BLUE BOX", "address": {"city": "BRIDGEPORT", "state": "CT", "street": "1089 MADISON AVE", "postcode": "06606"}}},
{"geometry": {"type": "Point", "coordinates": [-73.226121987, 41.2135958024]}, "type": "Feature", "properties": {"collection_times": [{"days": "Mon-Fri", "time": "10:30am"}, {"days": "Sat", "time": "10:00am"}, {"days": "Sun", "time": "Closed"}], "id": "0660600006", "name": "USPS COLLECTION BOX - BLUE BOX", "address": {"city": "BRIDGEPORT", "state": "CT", "street": "2768 MADISON AVE", "postcode": "06606"}}},
{"geometry": {"type": "Point", "coordinates": [-73.2155507704, 41.2022430994]}, "type": "Feature", "properties": {"collection_times": [{"days": "Mon-Sat", "time": "10:00am"}, {"days": "Sun", "time": "Closed"}], "id": "0660600010", "name": "USPS COLLECTION BOX - BLUE BOX", "address": {"city": "BRIDGEPORT", "state": "CT", "street": "1776 MADISON AVE", "postcode": "06606"}}},
{"geometry": {"type": "Point", "coordinates": [-73.2305448632, 41.2223589899]}, "type": "Feature", "properties": {"collection_times": [{"days": "Mon-Sat", "time": "10:00am"}, {"days": "Sun", "time": "Closed"}], "id": "0660600011", "name": "USPS COLLECTION BOX - BLUE BOX", "address": {"city": "BRIDGEPORT", "state": "CT", "street": "3741 MADISON AVE", "postcode": "06606"}}},
{"geometry": {"type": "Point", "coordinates": [-73.2180547682, 41.2217699618]}, "type": "Feature", "properties": {"collection_times": [{"days": "Mon-Fri", "time": "3:30pm"}, {"days": "Sat", "time": "10:00am"}, {"days": "Sun", "time": "Closed"}], "id": "0660600014", "name": "USPS COLLECTION BOX - BLUE BOX", "address": {"city": "BRIDGEPORT", "state": "CT", "street": "4557 MAIN ST", "postcode": "06606"}}},
{"geometry": {"type": "Point", "coordinates": [-73.2091770223, 41.2103734995]}, "type": "Feature", "properties": {"collection_times": [{"days": "Mon-Fri", "time": "3:30pm"}, {"days": "Sat", "time": "11:00am"}, {"days": "Sun", "time": "Closed"}], "id": "0660600015", "name": "USPS COLLECTION BOX - BLUE BOX", "address": {"city": "BRIDGEPORT", "state": "CT", "street": "4675 MAIN ST", "postcode": "06606"}}},
{"geometry": {"type": "Point", "coordinates": [-73.2182877512, 41.2235443988]}, "type": "Feature", "properties": {"collection_times": [{"days": "Mon-Sat", "time": "3:00pm"}, {"days": "Sun", "time": "Closed"}], "id": "0660600017", "name": "USPS COLLECTION BOX - BLUE BOX", "address": {"city": "BRIDGEPORT", "state": "CT", "street": "4697 MAIN ST", "postcode": "06606"}}},
{"geometry": {"type": "Point", "coordinates": [-73.2144516114, 41.2177828536]}, "type": "Feature", "properties": {"collection_times": [{"days": "Mon-Sat", "time": "10:00am"}, {"days": "Sun", "time": "Closed"}], "id": "0660600020", "name": "USPS COLLECTION BOX - BLUE BOX", "address": {"city": "BRIDGEPORT", "state": "CT", "street": "4200 MAIN ST", "postcode": "06606"}}},
{"geometry": {"type": "Point", "coordinates": [-73.2006488058, 41.200808354]}, "type": "Feature", "properties": {"collection_times": [{"days": "Mon-Sat", "time": "10:00am"}, {"days": "Sun", "time": "Closed"}], "id": "0660600022", "name": "USPS COLLECTION BOX - BLUE BOX", "address": {"city": "BRIDGEPORT", "state": "CT", "street": "180 HAWLEY AVE", "postcode": "06606"}}},
{"geometry": {"type": "Point", "coordinates": [-73.1990073906, 41.1899719611]}, "type": "Feature", "properties": {"collection_times": [{"days": "Mon-Sat", "time": "10:00am"}, {"days": "Sun", "time": "Closed"}], "id": "0660600032", "name": "USPS COLLECTION BOX - BLUE BOX", "address": {"city": "BRIDGEPORT", "state": "CT", "street": "1106 NORTH", "postcode": "06606"}}},
{"geometry": {"type": "Point", "coordinates": [-73.2025612888, 41.1999152816]}, "type": "Feature", "properties": {"collection_times": [{"days": "Mon-Fri", "time": "3:30pm"}, {"days": "Sat", "time": "4:00pm"}, {"days": "Sun", "time": "Closed"}], "id": "0660600040", "name": "USPS COLLECTION BOX - BLUE BOX", "address": {"city": "BRIDGEPORT", "state": "CT", "street": "2755 MAIN ST", "postcode": "06606"}}},
{"geometry": {"type": "Point", "coordinates": [-73.2101490091, 41.2117188544]}, "type": "Feature", "properties": {"collection_times": [{"days": "Mon-Fri", "time": "2:00pm"}, {"days": "Sat", "time": "10:00am"}, {"days": "Sun", "time": "Closed"}], "id": "0660600052", "name": "USPS COLLECTION BOX - BLUE BOX", "address": {"city": "BRIDGEPORT", "state": "CT", "street": "3715 MAIN ST", "postcode": "06606"}}},
{"geometry": {"type": "Point", "coordinates": [-73.1658448144, 41.1782503164]}, "type": "Feature", "properties": {"collection_times": [{"days": "Mon-Fri", "time": "4:30pm"}, {"days": "Sat", "time": "1:15pm"}, {"days": "Sun", "time": "Closed"}], "id": "0660700003", "name": "USPS COLLECTION BOX - BLUE BOX", "address": {"city": "BRIDGEPORT", "state": "CT", "street": "1242 STRATFORD AVE", "postcode": "06607"}}},
{"geometry": {"type": "Point", "coordinates": [-73.1912691138, 41.1818843099]}, "type": "Feature", "properties": {"collection_times": [{"days": "Mon-Sat", "time": "10:00am"}, {"days": "Sun", "time": "Closed"}], "id": "0660700004", "name": "USPS COLLECTION BOX - BLUE BOX", "address": {"city": "BRIDGEPORT", "state": "CT", "street": "1060 CONNECTICUT AVE", "postcode": "06607"}}},
{"geometry": {"type": "Point", "coordinates": [-73.1806874161, 41.1893396367]}, "type": "Feature", "properties": {"collection_times": [{"days": "Mon-Fri", "time": "11:30am"}, {"days": "Sat", "time": "9:00am"}, {"days": "Sun", "time": "Closed"}], "id": "0660800002", "name": "USPS COLLECTION BOX - BLUE BOX", "address": {"city": "BRIDGEPORT", "state": "CT", "street": "1071 E MAIN ST", "postcode": "06608"}}},
{"geometry": {"type": "Point", "coordinates": [-73.180756126, 41.187288859]}, "type": "Feature", "properties": {"collection_times": [{"days": "Mon-Fri", "time": "4:30pm"}, {"days": "Sat-Sun", "time": "Closed"}], "id": "0660800020", "name": "USPS COLLECTION BOX - EXPRESS", "address": {"city": "BRIDGEPORT", "state": "CT", "street": "934 E MAIN ST", "postcode": "06608"}}},
{"geometry": {"type": "Point", "coordinates": [-73.1665676179, 41.1888084881]}, "type": "Feature", "properties": {"collection_times": [{"days": "Mon-Fri", "time": "4:00pm"}, {"days": "Sat", "time": "10:00am"}, {"days": "Sun", "time": "Closed"}], "id": "0661000013", "name": "USPS COLLECTION BOX - BLUE BOX", "address": {"city": "BRIDGEPORT", "state": "CT", "street": "267 GRANT ST", "postcode": "06610"}}},
{"geometry": {"type": "Point", "coordinates": [-73.1672781343, 41.1997543057]}, "type": "Feature", "properties": {"collection_times": [{"days": "Mon-Sat", "time": "10:00am"}, {"days": "Sun", "time": "Closed"}], "id": "0661000014", "name": "USPS COLLECTION BOX - BLUE BOX", "address": {"city": "BRIDGEPORT", "state": "CT", "street": "392 GRANFIELD AVE", "postcode": "06610"}}},
{"geometry": {"type": "Point", "coordinates": [-73.1572492859, 41.1891624445]}, "type": "Feature", "properties": {"collection_times": [{"days": "Mon-Sat", "time": "10:00am"}, {"days": "Sun", "time": "Closed"}], "id": "0661000015", "name": "USPS COLLECTION BOX - BLUE BOX", "address": {"city": "BRIDGEPORT", "state": "CT", "street": "1788 BARNUM AVE", "postcode": "06610"}}},
{"geometry": {"type": "Point", "coordinates": [-73.156627602, 41.2006471179]}, "type": "Feature", "properties": {"collection_times": [{"days": "Mon-Sat", "time": "10:00am"}, {"days": "Sun", "time": "Closed"}], "id": "0661000016", "name": "USPS COLLECTION BOX - BLUE BOX", "address": {"city": "BRIDGEPORT", "state": "CT", "street": "553 SUCCESS AVE", "postcode": "06610"}}},
{"geometry": {"type": "Point", "coordinates": [-73.1584892487, 41.1988223599]}, "type": "Feature", "properties": {"collection_times": [{"days": "Mon-Sat", "time": "10:00am"}, {"days": "Sun", "time": "Closed"}], "id": "0661000017", "name": "USPS COLLECTION BOX - BLUE BOX", "address": {"city": "BRIDGEPORT", "state": "CT", "street": "100 COURT D", "postcode": "06610"}}},
{"geometry": {"type": "Point", "coordinates": [-73.1653809859, 41.2015535442]}, "type": "Feature", "properties": {"collection_times": [{"days": "Mon-Sat", "time": "10:00am"}, {"days": "Sun", "time": "Closed"}], "id": "0661000018", "name": "USPS COLLECTION BOX - BLUE BOX", "address": {"city": "BRIDGEPORT", "state": "CT", "street": "655 PALISADE AVE", "postcode": "06610"}}},
{"geometry": {"type": "Point", "coordinates": [-73.1627679537, 41.1951302208]}, "type": "Feature", "properties": {"collection_times": [{"days": "Mon-Sat", "time": "5:00pm"}, {"days": "Sun", "time": "Closed"}], "id": "0661000026", "name": "USPS COLLECTION BOX - BLUE BOX", "address": {"city": "BRIDGEPORT", "state": "CT", "street": "115 BOSTON", "postcode": "06610"}}},
{"geometry": {"type": "Point", "coordinates": [-73.1627679537, 41.1951302208]}, "type": "Feature", "properties": {"collection_times": [{"days": "Mon-Fri", "time": "5:00pm"}, {"days": "Sat", "time": "12:00pm"}, {"days": "Sun", "time": "Closed"}], "id": "0661000031", "name": "USPS COLLECTION BOX - PO LOBBY", "address": {"city": "BRIDGEPORT", "state": "CT", "street": "115 BOSTON AVE", "postcode": "06610"}}},
{"geometry": {"type": "Point", "coordinates": [-73.2189193698, 41.2560934563]}, "type": "Feature", "properties": {"collection_times": [{"days": "Mon-Fri", "time": "5:00pm"}, {"days": "Sat-Sun", "time": "Closed"}], "id": "0661100010", "name": "USPS COLLECTION BOX - BLUE BOX", "address": {"city": "TRUMBULL", "state": "CT", "street": "3 QUALITY ST", "postcode": "06611"}}},
{"geometry": {"type": "Point", "coordinates": [-73.2196693721, 41.2349511248]}, "type": "Feature", "properties": {"collection_times": [{"days": "Mon-Sat", "time": "12:00pm"}, {"days": "Sun", "time": "Closed"}], "id": "0661100013", "name": "USPS COLLECTION BOX - BLUE BOX", "address": {"city": "TRUMBULL", "state": "CT", "street": "6 BROADWAY", "postcode": "06611"}}},
{"geometry": {"type": "Point", "coordinates": [-73.2349544757, 41.2935890785]}, "type": "Feature", "properties": {"collection_times": [{"days": "Mon-Fri", "time": "10:00am"}, {"days": "Sat-Sun", "time": "Closed"}], "id": "0661100015", "name": "USPS COLLECTION BOX - BLUE BOX", "address": {"city": "TRUMBULL", "state": "CT", "street": "30 TREFOIL DR", "postcode": "06611"}}},
{"geometry": {"type": "Point", "coordinates": [-73.2259166692, 41.2963737639]}, "type": "Feature", "properties": {"collection_times": [{"days": "Mon-Fri", "time": "10:00am"}, {"days": "Sat-Sun", "time": "Closed"}], "id": "0661100016", "name": "USPS COLLECTION BOX - BLUE BOX", "address": {"city": "TRUMBULL", "state": "CT", "street": "35 CORPORATE DR", "postcode": "06611"}}},
{"geometry": {"type": "Point", "coordinates": [-73.2272545958, 41.2961750268]}, "type": "Feature", "properties": {"collection_times": [{"days": "Mon-Fri", "time": "10:00am"}, {"days": "Sat-Sun", "time": "Closed"}], "id": "0661100017", "name": "USPS COLLECTION BOX - BLUE BOX", "address": {"city": "TRUMBULL", "state": "CT", "street": "15 CORPORATE DR", "postcode": "06611"}}},
{"geometry": {"type": "Point", "coordinates": [-73.2190295899, 41.2276027805]}, "type": "Feature", "properties": {"collection_times": [{"days": "Mon-Sat", "time": "10:00am"}, {"days": "Sun", "time": "Closed"}], "id": "0661100019", "name": "USPS COLLECTION BOX - BLUE BOX", "address": {"city": "TRUMBULL", "state": "CT", "street": "5065 MAIN ST", "postcode": "06611"}}},
{"geometry": {"type": "Point", "coordinates": [-73.1916343654, 41.2568273965]}, "type": "Feature", "properties": {"collection_times": [{"days": "Mon-Sat", "time": "12:00pm"}, {"days": "Sun", "time": "Closed"}], "id": "0661100021", "name": "USPS COLLECTION BOX - BLUE BOX", "address": {"city": "TRUMBULL", "state": "CT", "street": "73 HEDGEHOG CIR", "postcode": "06611"}}},
{"geometry": {"type": "Point", "coordinates": [-73.210137268, 41.2521941771]}, "type": "Feature", "properties": {"collection_times": [{"days": "Mon-Sat", "time": "10:00am"}, {"days": "Sun", "time": "Closed"}], "id": "0661100023", "name": "USPS COLLECTION BOX - BLUE BOX", "address": {"city": "TRUMBULL", "state": "CT", "street": "960 WHITE PLAINS RD", "postcode": "06611"}}},
{"geometry": {"type": "Point", "coordinates": [-73.210137268, 41.2521941771]}, "type": "Feature", "properties": {"collection_times": [{"days": "Mon-Sat", "time": "10:00am"}, {"days": "Sun", "time": "Closed"}], "id": "0661100024", "name": "USPS COLLECTION BOX - BLUE BOX", "address": {"city": "TRUMBULL", "state": "CT", "street": "935 WHITE PLAINS RD", "postcode": "06611"}}},
{"geometry": {"type": "Point", "coordinates": [-73.1954909646, 41.2308685941]}, "type": "Feature", "properties": {"collection_times": [{"days": "Mon-Sat", "time": "10:00am"}, {"days": "Sun", "time": "Closed"}], "id": "0661100026", "name": "USPS COLLECTION BOX - BLUE BOX", "address": {"city": "TRUMBULL", "state": "CT", "street": "2225 RESERVOIR AVE", "postcode": "06611"}}},
{"geometry": {"type": "Point", "coordinates": [-73.1952945934, 41.2440029875]}, "type": "Feature", "properties": {"collection_times": [{"days": "Mon-Sat", "time": "10:00am"}, {"days": "Sun", "time": "Closed"}], "id": "0661100028", "name": "USPS COLLECTION BOX - BLUE BOX", "address": {"city": "TRUMBULL", "state": "CT", "street": "888 WHITE PLAINS RD", "postcode": "06611"}}},
{"geometry": {"type": "Point", "coordinates": [-73.1518953779, 41.2315819184]}, "type": "Feature", "properties": {"collection_times": [{"days": "Mon-Fri", "time": "10:00am"}, {"days": "Sat-Sun", "time": "Closed"}], "id": "0661100030", "name": "USPS COLLECTION BOX - BLUE BOX", "address": {"city": "TRUMBULL", "state": "CT", "street": "100 HAWLEY LN", "postcode": "06611"}}},
{"geometry": {"type": "Point", "coordinates": [-73.1479892474, 41.2432127709]}, "type": "Feature", "properties": {"collection_times": [{"days": "Mon-Fri", "time": "10:00am"}, {"days": "Sat-Sun", "time": "Closed"}], "id": "0661100031", "name": "USPS COLLECTION BOX - BLUE BOX", "address": {"city": "TRUMBULL", "state": "CT", "street": "40 MERRITT BLVD", "postcode": "06611"}}},
{"geometry": {"type": "Point", "coordinates": [-73.2443826586, 41.226923426]}, "type": "Feature", "properties": {"collection_times": [{"days": "Mon-Fri", "time": "10:00am"}, {"days": "Sat-Sun", "time": "Closed"}], "id": "0661100038", "name": "USPS COLLECTION BOX - BLUE BOX", "address": {"city": "TRUMBULL", "state": "CT", "street": "5520 PARK AVE", "postcode": "06611"}}},
{"geometry": {"type": "Point", "coordinates": [-73.2251643073, 41.2959467157]}, "type": "Feature", "properties": {"collection_times": [{"days": "Mon-Fri", "time": "10:00am"}, {"days": "Sat-Sun", "time": "Closed"}], "id": "0661100039", "name": "USPS COLLECTION BOX - BLUE BOX", "address": {"city": "TRUMBULL", "state": "CT", "street": "55 CORPORATE DR", "postcode": "06611"}}},
{"geometry": {"type": "Point", "coordinates": [-73.1497187334, 41.2410574197]}, "type": "Feature", "properties": {"collection_times": [{"days": "Mon-Fri", "time": "10:00am"}, {"days": "Sat-Sun", "time": "Closed"}], "id": "0661100043", "name": "USPS COLLECTION BOX - BLUE BOX", "address": {"city": "TRUMBULL", "state": "CT", "street": "35 NUTMEG DR", "postcode": "06611"}}},
{"geometry": {"type": "Point", "coordinates": [-73.217937611, 41.2560348632]}, "type": "Feature", "properties": {"collection_times": [{"days": "Mon-Fri", "time": "5:00pm"}, {"days": "Sat", "time": "3:30pm"}, {"days": "Sun", "time": "Closed"}], "id": "0661100045", "name": "USPS COLLECTION BOX - BLUE BOX", "address": {"city": "TRUMBULL", "state": "CT", "street": "8 QUALITY ST", "postcode": "06611"}}},
{"geometry": {"type": "Point", "coordinates": [-73.2101372682, 41.2522028211]}, "type": "Feature", "properties": {"collection_times": [{"days": "Mon-Fri", "time": "5:00pm"}, {"days": "Sat", "time": "3:30pm"}, {"days": "Sun", "time": "Closed"}], "id": "0661100047", "name": "USPS COLLECTION BOX - EXPRESS", "address": {"city": "TRUMBULL", "state": "CT", "street": "8 QUALITY ST", "postcode": "06611"}}},
{"geometry": {"type": "Point", "coordinates": [-73.217937611, 41.2560348632]}, "type": "Feature", "properties": {"collection_times": [{"days": "Mon-Fri", "time": "5:00pm"}, {"days": "Sat", "time": "1:30pm"}, {"days": "Sun", "time": "Closed"}], "id": "0661100049", "name": "USPS COLLECTION BOX - PO LOBBY", "address": {"city": "TRUMBULL", "state": "CT", "street": "8 QUALITY ST", "postcode": "06611"}}},
{"geometry": {"type": "Point", "coordinates": [-73.2173945995, 41.2559861455]}, "type": "Feature", "properties": {"collection_times": [{"days": "Mon-Fri", "time": "5:00pm"}, {"days": "Sat", "time": "1:30pm"}, {"days": "Sun", "time": "Closed"}], "id": "0661100055", "name": "USPS COLLECTION BOX - APC", "address": {"city": "TRUMBULL", "state": "CT", "street": "50 QUALITY ST", "postcode": "06611"}}},
{"geometry": {"type": "Point", "coordinates": [-73.2300676722, 41.296861143]}, "type": "Feature", "properties": {"collection_times": [{"days": "Mon-Fri", "time": "10:00am"}, {"days": "Sat-Sun", "time": "Closed"}], "id": "0661100056", "name": "USPS COLLECTION BOX - BLUE BOX", "address": {"city": "TRUMBULL", "state": "CT", "street": "115 TECHNOLOGY DR", "postcode": "06611"}}},
{"geometry": {"type": "Point", "coordinates": [-73.1313107089, 41.2027153537]}, "type": "Feature", "properties": {"collection_times": [{"days": "Mon-Fri", "time": "5:00pm"}, {"days": "Sat", "time": "3:00pm"}, {"days": "Sun", "time": "Closed"}], "id": "0661400001", "name": "USPS COLLECTION BOX - BLUE BOX", "address": {"city": "STRATFORD", "state": "CT", "street": "3100 MAIN ST", "postcode": "06614"}}},
{"geometry": {"type": "Point", "coordinates": [-73.1050162236, 41.2490128596]}, "type": "Feature", "properties": {"collection_times": [{"days": "Mon-Fri", "time": "3:15pm"}, {"days": "Sat", "time": "10:30am"}, {"days": "Sun", "time": "Closed"}], "id": "0661400005", "name": "USPS COLLECTION BOX - BLUE BOX", "address": {"city": "STRATFORD", "state": "CT", "street": "925 ORONOQUE LN", "postcode": "06614"}}},
{"geometry": {"type": "Point", "coordinates": [-73.1323532446, 41.1990294286]}, "type": "Feature", "properties": {"collection_times": [{"days": "Mon-Fri", "time": "3:30pm"}, {"days": "Sat", "time": "10:00am"}, {"days": "Sun", "time": "Closed"}], "id": "0661400006", "name": "USPS COLLECTION BOX - BLUE BOX", "address": {"city": "STRATFORD", "state": "CT", "street": "1030 BARNUM AVE", "postcode": "06614"}}},
{"geometry": {"type": "Point", "coordinates": [-73.1347199967, 41.2215953788]}, "type": "Feature", "properties": {"collection_times": [{"days": "Mon-Sat", "time": "10:00am"}, {"days": "Sun", "time": "Closed"}], "id": "0661400020", "name": "USPS COLLECTION BOX - BLUE BOX", "address": {"city": "STRATFORD", "state": "CT", "street": "1081 HUNTINGTON RD", "postcode": "06614"}}},
{"geometry": {"type": "Point", "coordinates": [-73.1006827184, 41.2510250319]}, "type": "Feature", "properties": {"collection_times": [{"days": "Mon-Sat", "time": "10:00am"}, {"days": "Sun", "time": "Closed"}], "id": "0661400023", "name": "USPS COLLECTION BOX - BLUE BOX", "address": {"city": "STRATFORD", "state": "CT", "street": "7003 MAIN ST", "postcode": "06614"}}},
{"geometry": {"type": "Point", "coordinates": [-73.1321791794, 41.2236431456]}, "type": "Feature", "properties": {"collection_times": [{"days": "Mon-Sat", "time": "11:00am"}, {"days": "Sun", "time": "Closed"}], "id": "0661400030", "name": "USPS COLLECTION BOX - BLUE BOX", "address": {"city": "STRATFORD", "state": "CT", "street": "966 E MAIN ST", "postcode": "06614"}}},
{"geometry": {"type": "Point", "coordinates": [-73.1308848437, 41.2084562536]}, "type": "Feature", "properties": {"collection_times": [{"days": "Mon-Fri", "time": "9:00am"}, {"days": "Sat", "time": "10:00am"}, {"days": "Sun", "time": "Closed"}], "id": "0661400033", "name": "USPS COLLECTION BOX - BLUE BOX", "address": {"city": "STRATFORD", "state": "CT", "street": "3520 MAIN ST", "postcode": "06614"}}},
{"geometry": {"type": "Point", "coordinates": [-73.1320921435, 41.2059416505]}, "type": "Feature", "properties": {"collection_times": [{"days": "Mon-Fri", "time": "9:00am"}, {"days": "Sat", "time": "9:45am"}, {"days": "Sun", "time": "Closed"}], "id": "0661400034", "name": "USPS COLLECTION BOX - BLUE BOX", "address": {"city": "STRATFORD", "state": "CT", "street": "3355 MAIN ST", "postcode": "06614"}}},
{"geometry": {"type": "Point", "coordinates": [-73.1317850755, 41.2044637671]}, "type": "Feature", "properties": {"collection_times": [{"days": "Mon-Fri", "time": "9:45am"}, {"days": "Sat", "time": "10:00am"}, {"days": "Sun", "time": "Closed"}], "id": "0661400035", "name": "USPS COLLECTION BOX - BLUE BOX", "address": {"city": "STRATFORD", "state": "CT", "street": "3226 MAIN ST", "postcode": "06614"}}},
{"geometry": {"type": "Point", "coordinates": [-73.1222625408, 41.1985739361]}, "type": "Feature", "properties": {"collection_times": [{"days": "Mon-Fri", "time": "5:00pm"}, {"days": "Sat", "time": "3:00pm"}, {"days": "Sun", "time": "Closed"}], "id": "0661400037", "name": "USPS COLLECTION BOX - BLUE BOX", "address": {"city": "STRATFORD", "state": "CT", "street": "411 BARNUM AVENUE CUTOFF", "postcode": "06614"}}},
{"geometry": {"type": "Point", "coordinates": [-73.1500937648, 41.2327104791]}, "type": "Feature", "properties": {"collection_times": [{"days": "Mon-Fri", "time": "3:00pm"}, {"days": "Sat", "time": "10:00am"}, {"days": "Sun", "time": "Closed"}], "id": "0661400042", "name": "USPS COLLECTION BOX - BLUE BOX", "address": {"city": "STRATFORD", "state": "CT", "street": "99 HAWLEY LN", "postcode": "06614"}}},
{"geometry": {"type": "Point", "coordinates": [-73.1321878695, 41.2236431]}, "type": "Feature", "properties": {"collection_times": [{"days": "Mon-Fri", "time": "3:15pm"}, {"days": "Sat", "time": "3:00pm"}, {"days": "Sun", "time": "Closed"}], "id": "0661400048", "name": "USPS COLLECTION BOX - EXPRESS", "address": {"city": "STRATFORD", "state": "CT", "street": "411 BARNUM AVENUE CUTOFF", "postcode": "06614"}}},
{"geometry": {"type": "Point", "coordinates": [-73.1313107089, 41.2027153537]}, "type": "Feature", "properties": {"collection_times": [{"days": "Mon-Sat", "time": "5:00pm"}, {"days": "Sun", "time": "Closed"}], "id": "0661400054", "name": "USPS COLLECTION BOX - PO LOBBY", "address": {"city": "STRATFORD", "state": "CT", "street": "3100 MAIN ST", "postcode": "06614"}}},
{"geometry": {"type": "Point", "coordinates": [-73.1280610133, 41.2301942855]}, "type": "Feature", "properties": {"collection_times": [{"days": "Mon-Fri", "time": "5:00pm"}, {"days": "Sat", "time": "2:00pm"}, {"days": "Sun", "time": "Closed"}], "id": "0661400055", "name": "USPS COLLECTION BOX - APC", "address": {"city": "STRATFORD", "state": "CT", "street": "411 BARNUM CUTOFF", "postcode": "06614"}}},
{"geometry": {"type": "Point", "coordinates": [-73.1222625408, 41.1985739361]}, "type": "Feature", "properties": {"collection_times": [{"days": "Mon-Fri", "time": "5:00pm"}, {"days": "Sat", "time": "2:00pm"}, {"days": "Sun", "time": "Closed"}], "id": "0661400059", "name": "USPS COLLECTION BOX - BLUE BOX", "address": {"city": "STRATFORD", "state": "CT", "street": "411 BARNUM AVENUE CUTOFF", "postcode": "06614"}}},
{"geometry": {"type": "Point", "coordinates": [-73.1319565729, 41.1970126856]}, "type": "Feature", "properties": {"collection_times": [{"days": "Mon-Fri", "time": "3:30pm"}, {"days": "Sat", "time": "10:30am"}, {"days": "Sun", "time": "Closed"}], "id": "0661500002", "name": "USPS COLLECTION BOX - BLUE BOX", "address": {"city": "STRATFORD", "state": "CT", "street": "2725 MAIN ST", "postcode": "06615"}}},
{"geometry": {"type": "Point", "coordinates": [-73.131810723, 41.1943753088]}, "type": "Feature", "properties": {"collection_times": [{"days": "Mon-Fri", "time": "3:30pm"}, {"days": "Sat", "time": "10:30am"}, {"days": "Sun", "time": "Closed"}], "id": "0661500004", "name": "USPS COLLECTION BOX - BLUE BOX", "address": {"city": "STRATFORD", "state": "CT", "street": "2505 MAIN ST", "postcode": "06615"}}},
{"geometry": {"type": "Point", "coordinates": [-73.1347079723, 41.1766041168]}, "type": "Feature", "properties": {"collection_times": [{"days": "Mon-Fri", "time": "3:30pm"}, {"days": "Sat", "time": "10:30am"}, {"days": "Sun", "time": "Closed"}], "id": "0661500005", "name": "USPS COLLECTION BOX - BLUE BOX", "address": {"city": "STRATFORD", "state": "CT", "street": "599 BIRDSEYE ST", "postcode": "06615"}}},
{"geometry": {"type": "Point", "coordinates": [-73.1285958181, 41.1514293508]}, "type": "Feature", "properties": {"collection_times": [{"days": "Mon-Sat", "time": "10:00am"}, {"days": "Sun", "time": "Closed"}], "id": "0661500009", "name": "USPS COLLECTION BOX - BLUE BOX", "address": {"city": "STRATFORD", "state": "CT", "street": "245 WASHINGTON PKWY", "postcode": "06615"}}},
{"geometry": {"type": "Point", "coordinates": [-73.1206723589, 41.1542211339]}, "type": "Feature", "properties": {"collection_times": [{"days": "Mon-Sat", "time": "10:00am"}, {"days": "Sun", "time": "Closed"}], "id": "0661500012", "name": "USPS COLLECTION BOX - BLUE BOX", "address": {"city": "STRATFORD", "state": "CT", "street": "631 STRATFORD RD", "postcode": "06615"}}},
{"geometry": {"type": "Point", "coordinates": [-73.1347079723, 41.1766041168]}, "type": "Feature", "properties": {"collection_times": [{"days": "Mon-Sat", "time": "10:00am"}, {"days": "Sun", "time": "Closed"}], "id": "0661500023", "name": "USPS COLLECTION BOX - BLUE BOX", "address": {"city": "STRATFORD", "state": "CT", "street": "1889 MAIN ST", "postcode": "06615"}}},
{"geometry": {"type": "Point", "coordinates": [-73.1505362837, 41.1697736105]}, "type": "Feature", "properties": {"collection_times": [{"days": "Mon-Fri", "time": "4:30pm"}, {"days": "Sat", "time": "10:30am"}, {"days": "Sun", "time": "Closed"}], "id": "0661500024", "name": "USPS COLLECTION BOX - BLUE BOX", "address": {"city": "STRATFORD", "state": "CT", "street": "555 LORDSHIP BLVD", "postcode": "06615"}}},
{"geometry": {"type": "Point", "coordinates": [-73.1303714395, 41.1910135237]}, "type": "Feature", "properties": {"collection_times": [{"days": "Mon-Fri", "time": "2:00pm"}, {"days": "Sat", "time": "10:00am"}, {"days": "Sun", "time": "Closed"}], "id": "0661500025", "name": "USPS COLLECTION BOX - BLUE BOX", "address": {"city": "STRATFORD", "state": "CT", "street": "2220 MAIN ST", "postcode": "06615"}}},
{"geometry": {"type": "Point", "coordinates": [-73.1233296874, 41.193053605]}, "type": "Feature", "properties": {"collection_times": [{"days": "Mon-Sat", "time": "10:00am"}, {"days": "Sun", "time": "Closed"}], "id": "0661500030", "name": "USPS COLLECTION BOX - BLUE BOX", "address": {"city": "STRATFORD", "state": "CT", "street": "281 FERRY BLVD", "postcode": "06615"}}},
{"geometry": {"type": "Point", "coordinates": [-73.1193486279, 41.1942962348]}, "type": "Feature", "properties": {"collection_times": [{"days": "Mon-Sat", "time": "10:00am"}, {"days": "Sun", "time": "Closed"}], "id": "0661500034", "name": "USPS COLLECTION BOX - BLUE BOX", "address": {"city": "STRATFORD", "state": "CT", "street": "355 HOUSATONIC AVE", "postcode": "06615"}}},
{"geometry": {"type": "Point", "coordinates": [-73.131810723, 41.1943753088]}, "type": "Feature", "properties": {"collection_times": [{"days": "Mon-Fri", "time": "3:30pm"}, {"days": "Sat", "time": "10:30am"}, {"days": "Sun", "time": "Closed"}], "id": "0661500038", "name": "USPS COLLECTION BOX - BLUE BOX", "address": {"city": "STRATFORD", "state": "CT", "street": "2505 MAIN ST", "postcode": "06615"}}}
]}
