{"type": "FeatureCollection", "features": [
{"geometry": {"type": "Point", "coordinates": [-73.0418318806, 41.55370637]}, "type": "Feature", "properties": {"collection_times": [{"days": "Mon-Sat", "time": "6:00pm"}, {"days": "Sun", "time": "Closed"}], "id": "0670100001", "name": "USPS COLLECTION BOX - BLUE BOX", "address": {"city": "WATERBURY", "state": "CT", "street": "135 GRAND ST", "postcode": "06701"}}},
{"geometry": {"type": "Point", "coordinates": [-73.041867729, 41.553778514]}, "type": "Feature", "properties": {"collection_times": [{"days": "Mon-Fri", "time": "5:00pm"}, {"days": "Sat", "time": "4:30pm"}, {"days": "Sun", "time": "Closed"}], "id": "0670100003", "name": "USPS COLLECTION BOX - EXPRESS", "address": {"city": "WATERBURY", "state": "CT", "street": "135 GRAND ST", "postcode": "06701"}}},
{"geometry": {"type": "Point", "coordinates": [-73.041076338, 41.557686013]}, "type": "Feature", "properties": {"collection_times": [{"days": "Mon-Sat", "time": "1:00pm"}, {"days": "Sun", "time": "Closed"}], "id": "0670200003", "name": "USPS COLLECTION BOX - BLUE BOX", "address": {"city": "WATERBURY", "state": "CT", "street": "41 PROSPECT ST", "postcode": "06702"}}},
{"geometry": {"type": "Point", "coordinates": [-73.0393428642, 41.5572844616]}, "type": "Feature", "properties": {"collection_times": [{"days": "Mon-Sat", "time": "2:00pm"}, {"days": "Sun", "time": "Closed"}], "id": "0670200004", "name": "USPS COLLECTION BOX - BLUE BOX", "address": {"city": "WATERBURY", "state": "CT", "street": "80 PHOENIX AVE", "postcode": "06702"}}},
{"geometry": {"type": "Point", "coordinates": [-73.0361570387, 41.554554558]}, "type": "Feature", "properties": {"collection_times": [{"days": "Mon-Sat", "time": "1:00pm"}, {"days": "Sun", "time": "Closed"}], "id": "0670200008", "name": "USPS COLLECTION BOX - BLUE BOX", "address": {"city": "WATERBURY", "state": "CT", "street": "255 E MAIN ST", "postcode": "06702"}}},
{"geometry": {"type": "Point", "coordinates": [-73.0530515511, 41.559939793]}, "type": "Feature", "properties": {"collection_times": [{"days": "Mon-Sat", "time": "3:00pm"}, {"days": "Sun", "time": "Closed"}], "id": "0670200011", "name": "USPS COLLECTION BOX - BLUE BOX", "address": {"city": "WATERBURY", "state": "CT", "street": "95 THOMASTON AVE", "postcode": "06702"}}},
{"geometry": {"type": "Point", "coordinates": [-73.0422417227, 41.5549506389]}, "type": "Feature", "properties": {"collection_times": [{"days": "Mon-Sat", "time": "2:00pm"}, {"days": "Sun", "time": "Closed"}], "id": "0670200017", "name": "USPS COLLECTION BOX - BLUE BOX", "address": {"city": "WATERBURY", "state": "CT", "street": "76 CENTER ST", "postcode": "06702"}}},
{"geometry": {"type": "Point", "coordinates": [-73.0352579898, 41.5594224341]}, "type": "Feature", "properties": {"collection_times": [{"days": "Mon-Sat", "time": "2:00pm"}, {"days": "Sun", "time": "Closed"}], "id": "0670200019", "name": "USPS COLLECTION BOX - BLUE BOX", "address": {"city": "WATERBURY", "state": "CT", "street": "232 N ELM ST", "postcode": "06702"}}},
{"geometry": {"type": "Point", "coordinates": [-73.0391771329, 41.5567501298]}, "type": "Feature", "properties": {"collection_times": [{"days": "Mon-Sat", "time": "2:00pm"}, {"days": "Sun", "time": "Closed"}], "id": "0670200021", "name": "USPS COLLECTION BOX - BLUE BOX", "address": {"city": "WATERBURY", "state": "CT", "street": "45 SAVINGS ST", "postcode": "06702"}}},
{"geometry": {"type": "Point", "coordinates": [-73.0443135407, 41.5547095256]}, "type": "Feature", "properties": {"collection_times": [{"days": "Mon-Sat", "time": "3:00pm"}, {"days": "Sun", "time": "Closed"}], "id": "0670200022", "name": "USPS COLLECTION BOX - BLUE BOX", "address": {"city": "WATERBURY", "state": "CT", "street": "300 GRAND ST", "postcode": "06702"}}},
{"geometry": {"type": "Point", "coordinates": [-73.041168694, 41.5566400227]}, "type": "Feature", "properties": {"collection_times": [{"days": "Mon-Sat", "time": "2:00pm"}, {"days": "Sun", "time": "Closed"}], "id": "0670200026", "name": "USPS COLLECTION BOX - BLUE BOX", "address": {"city": "WATERBURY", "state": "CT", "street": "395 W MAIN ST", "postcode": "06702"}}},
{"geometry": {"type": "Point", "coordinates": [-73.041168694, 41.5566400227]}, "type": "Feature", "properties": {"collection_times": [{"days": "Mon-Sat", "time": "3:00pm"}, {"days": "Sun", "time": "Closed"}], "id": "0670200032", "name": "USPS COLLECTION BOX - BLUE BOX", "address": {"city": "WATERBURY", "state": "CT", "street": "136 W MAIN ST", "postcode": "06702"}}},
{"geometry": {"type": "Point", "coordinates": [-73.0418156882, 41.5523672499]}, "type": "Feature", "properties": {"collection_times": [{"days": "Mon-Sat", "time": "2:00pm"}, {"days": "Sun", "time": "Closed"}], "id": "0670200035", "name": "USPS COLLECTION BOX - BLUE BOX", "address": {"city": "WATERBURY", "state": "CT", "street": "255 BANK ST", "postcode": "06702"}}},
{"geometry": {"type": "Point", "coordinates": [-73.0408231545, 41.5566011954]}, "type": "Feature", "properties": {"collection_times": [{"days": "Mon-Sat", "time": "3:00pm"}, {"days": "Sun", "time": "Closed"}], "id": "0670200036", "name": "USPS COLLECTION BOX - BLUE BOX", "address": {"city": "WATERBURY", "state": "CT", "street": "30 W MAIN ST", "postcode": "06702"}}},
{"geometry": {"type": "Point", "coordinates": [-73.0410781479, 41.553804562]}, "type": "Feature", "properties": {"collection_times": [{"days": "Mon-Sat", "time": "1:00pm"}, {"days": "Sun", "time": "Closed"}], "id": "0670200045", "name": "USPS COLLECTION BOX - BLUE BOX", "address": {"city": "WATERBURY", "state": "CT", "street": "145 BANK ST", "postcode": "06702"}}},
{"geometry": {"type": "Point", "coordinates": [-73.0410082197, 41.5546408243]}, "type": "Feature", "properties": {"collection_times": [{"days": "Mon-Sat", "time": "1:00pm"}, {"days": "Sun", "time": "Closed"}], "id": "0670200046", "name": "USPS COLLECTION BOX - BLUE BOX", "address": {"city": "WATERBURY", "state": "CT", "street": "108 BANK ST", "postcode": "06702"}}},
{"geometry": {"type": "Point", "coordinates": [-73.0495107459, 41.555188341]}, "type": "Feature", "properties": {"collection_times": [{"days": "Mon-Sat", "time": "3:00pm"}, {"days": "Sun", "time": "Closed"}], "id": "0670200049", "name": "USPS COLLECTION BOX - BLUE BOX", "address": {"city": "WATERBURY", "state": "CT", "street": "130 FREIGHT ST", "postcode": "06702"}}},
{"geometry": {"type": "Point", "coordinates": [-73.0540516589, 41.5628754913]}, "type": "Feature", "properties": {"collection_times": [{"days": "Mon-Sat", "time": "3:00pm"}, {"days": "Sun", "time": "Closed"}], "id": "0670200051", "name": "USPS COLLECTION BOX - BLUE BOX", "address": {"city": "WATERBURY", "state": "CT", "street": "249 THOMASTON AVE", "postcode": "06702"}}},
{"geometry": {"type": "Point", "coordinates": [-73.0245917759, 41.5749612073]}, "type": "Feature", "properties": {"collection_times": [{"days": "Mon-Sat", "time": "10:00am"}, {"days": "Sun", "time": "Closed"}], "id": "0670400003", "name": "USPS COLLECTION BOX - BLUE BOX", "address": {"city": "WATERBURY", "state": "CT", "street": "140 HAMDEN AVE", "postcode": "06704"}}},
{"geometry": {"type": "Point", "coordinates": [-73.0320876331, 41.5779913796]}, "type": "Feature", "properties": {"collection_times": [{"days": "Mon-Sat", "time": "5:00pm"}, {"days": "Sun", "time": "Closed"}], "id": "0670400007", "name": "USPS COLLECTION BOX - BLUE BOX", "address": {"city": "WATERBURY", "state": "CT", "street": "797 LAKEWOOD RD", "postcode": "06704"}}},
{"geometry": {"type": "Point", "coordinates": [-73.0320876331, 41.5779913796]}, "type": "Feature", "properties": {"collection_times": [{"days": "Mon-Sat", "time": "12:00pm"}, {"days": "Sun", "time": "Closed"}], "id": "0670400009", "name": "USPS COLLECTION BOX - BLUE BOX", "address": {"city": "WATERBURY", "state": "CT", "street": "181 LONG HILL RD", "postcode": "06704"}}},
{"geometry": {"type": "Point", "coordinates": [-73.0320876331, 41.5779913796]}, "type": "Feature", "properties": {"collection_times": [{"days": "Mon-Sat", "time": "5:00pm"}, {"days": "Sun", "time": "Closed"}], "id": "0670400011", "name": "USPS COLLECTION BOX - EXPRESS", "address": {"city": "WATERBURY", "state": "CT", "street": "797 LAKEWOOD RD", "postcode": "06704"}}},
{"geometry": {"type": "Point", "coordinates": [-73.0320876331, 41.5779913796]}, "type": "Feature", "properties": {"collection_times": [{"days": "Mon-Sat", "time": "10:00am"}, {"days": "Sun", "time": "Closed"}], "id": "0670400016", "name": "USPS COLLECTION BOX - BLUE BOX", "address": {"city": "WATERBURY", "state": "CT", "street": "262 HILL ST", "postcode": "06704"}}},
{"geometry": {"type": "Point", "coordinates": [-73.0320876328, 41.5780000235]}, "type": "Feature", "properties": {"collection_times": [{"days": "Mon-Sat", "time": "5:00pm"}, {"days": "Sun", "time": "Closed"}], "id": "0670400020", "name": "USPS COLLECTION BOX - EXPRESS", "address": {"city": "WATERBURY", "state": "CT", "street": "41 WIGWAM AVE", "postcode": "06704"}}},
{"geometry": {"type": "Point", "coordinates": [-73.0349445205, 41.582530049]}, "type": "Feature", "properties": {"collection_times": [{"days": "Mon-Sat", "time": "5:00pm"}, {"days": "Sun", "time": "Closed"}], "id": "0670400021", "name": "USPS COLLECTION BOX - BLUE BOX", "address": {"city": "WATERBURY", "state": "CT", "street": "41 WIGWAM AVE", "postcode": "06704"}}},
{"geometry": {"type": "Point", "coordinates": [-73.0631462474, 41.5877259103]}, "type": "Feature", "properties": {"collection_times": [{"days": "Mon-Sat", "time": "10:00am"}, {"days": "Sun", "time": "Closed"}], "id": "0670400024", "name": "USPS COLLECTION BOX - BLUE BOX", "address": {"city": "WATERBURY", "state": "CT", "street": "283 COLONIAL AVE", "postcode": "06704"}}},
{"geometry": {"type": "Point", "coordinates": [-73.0104773654, 41.5528794881]}, "type": "Feature", "properties": {"collection_times": [{"days": "Mon-Sat", "time": "2:00pm"}, {"days": "Sun", "time": "Closed"}], "id": "0670500003", "name": "USPS COLLECTION BOX - BLUE BOX", "address": {"city": "WATERBURY", "state": "CT", "street": "119 STORE AVE", "postcode": "06705"}}},
{"geometry": {"type": "Point", "coordinates": [-72.9692958526, 41.5531038181]}, "type": "Feature", "properties": {"collection_times": [{"days": "Mon-Sat", "time": "2:00pm"}, {"days": "Sun", "time": "Closed"}], "id": "0670500012", "name": "USPS COLLECTION BOX - BLUE BOX", "address": {"city": "WATERBURY", "state": "CT", "street": "560 PIERPONT RD", "postcode": "06705"}}},
{"geometry": {"type": "Point", "coordinates": [-72.997613419, 41.539301374]}, "type": "Feature", "properties": {"collection_times": [{"days": "Mon-Sat", "time": "2:00pm"}, {"days": "Sun", "time": "Closed"}], "id": "0670500013", "name": "USPS COLLECTION BOX - BLUE BOX", "address": {"city": "WATERBURY", "state": "CT", "street": "464 REIDVILLE DR", "postcode": "06705"}}},
{"geometry": {"type": "Point", "coordinates": [-73.0110362271, 41.5615410611]}, "type": "Feature", "properties": {"collection_times": [{"days": "Mon-Sat", "time": "3:00pm"}, {"days": "Sun", "time": "Closed"}], "id": "0670500015", "name": "USPS COLLECTION BOX - BLUE BOX", "address": {"city": "WATERBURY", "state": "CT", "street": "650 WOLCOTT ST", "postcode": "06705"}}},
{"geometry": {"type": "Point", "coordinates": [-73.0090625465, 41.5645955137]}, "type": "Feature", "properties": {"collection_times": [{"days": "Mon-Sat", "time": "3:00pm"}, {"days": "Sun", "time": "Closed"}], "id": "0670500016", "name": "USPS COLLECTION BOX - BLUE BOX", "address": {"city": "WATERBURY", "state": "CT", "street": "835 WOLCOTT ST", "postcode": "06705"}}},
{"geometry": {"type": "Point", "coordinates": [-72.9890642944, 41.5532476517]}, "type": "Feature", "properties": {"collection_times": [{"days": "Mon-Sat", "time": "2:00pm"}, {"days": "Sun", "time": "Closed"}], "id": "0670500018", "name": "USPS COLLECTION BOX - BLUE BOX", "address": {"city": "WATERBURY", "state": "CT", "street": "975 MERIDEN RD", "postcode": "06705"}}},
{"geometry": {"type": "Point", "coordinates": [-72.9959980166, 41.5485018273]}, "type": "Feature", "properties": {"collection_times": [{"days": "Mon-Sat", "time": "10:00am"}, {"days": "Sun", "time": "Closed"}], "id": "0670500023", "name": "USPS COLLECTION BOX - BLUE BOX", "address": {"city": "WATERBURY", "state": "CT", "street": "596 WOODTICK RD", "postcode": "06705"}}},
{"geometry": {"type": "Point", "coordinates": [-73.0006281202, 41.538208668]}, "type": "Feature", "properties": {"collection_times": [{"days": "Mon-Sat", "time": "2:00pm"}, {"days": "Sun", "time": "Closed"}], "id": "0670500024", "name": "USPS COLLECTION BOX - BLUE BOX", "address": {"city": "WATERBURY", "state": "CT", "street": "410 REIDVILLE DR", "postcode": "06705"}}},
{"geometry": {"type": "Point", "coordinates": [-72.9959980166, 41.5485018273]}, "type": "Feature", "properties": {"collection_times": [{"days": "Mon-Sat", "time": "2:00pm"}, {"days": "Sun", "time": "Closed"}], "id": "0670500034", "name": "USPS COLLECTION BOX - BLUE BOX", "address": {"city": "WATERBURY", "state": "CT", "street": "380 HITCHCOCK RD", "postcode": "06705"}}},
{"geometry": {"type": "Point", "coordinates": [-73.0150116472, 41.550058131]}, "type": "Feature", "properties": {"collection_times": [{"days": "Mon-Sat", "time": "5:00pm"}, {"days": "Sun", "time": "Closed"}], "id": "0670500036", "name": "USPS COLLECTION BOX - BLUE BOX", "address": {"city": "WATERBURY", "state": "CT", "street": "159 MANOR AVE", "postcode": "06705"}}},
{"geometry": {"type": "Point", "coordinates": [-72.9959980166, 41.5485018273]}, "type": "Feature", "properties": {"collection_times": [{"days": "Mon-Sat", "time": "5:00pm"}, {"days": "Sun", "time": "Closed"}], "id": "0670500037", "name": "USPS COLLECTION BOX - EXPRESS", "address": {"city": "WATERBURY", "state": "CT", "street": "159 MANOR AVE", "postcode": "06705"}}},
{"geometry": {"type": "Point", "coordinates": [-72.9959980166, 41.5485018273]}, "type": "Feature", "properties": {"collection_times": [{"days": "Mon-Sat", "time": "3:00pm"}, {"days": "Sun", "time": "Closed"}], "id": "0670500040", "name": "USPS COLLECTION BOX - BLUE BOX", "address": {"city": "WATERBURY", "state": "CT", "street": "920 WOLCOTT ST", "postcode": "06705"}}},
{"geometry": {"type": "Point", "coordinates": [-73.0375491001, 41.5535932312]}, "type": "Feature", "properties": {"collection_times": [{"days": "Mon-Sat", "time": "1:00pm"}, {"days": "Sun", "time": "Closed"}], "id": "0670600002", "name": "USPS COLLECTION BOX - BLUE BOX", "address": {"city": "WATERBURY", "state": "CT", "street": "95 SCOVILL ST", "postcode": "06706"}}},
{"geometry": {"type": "Point", "coordinates": [-73.0293676594, 41.5377131325]}, "type": "Feature", "properties": {"collection_times": [{"days": "Mon-Sat", "time": "10:00am"}, {"days": "Sun", "time": "Closed"}], "id": "0670600003", "name": "USPS COLLECTION BOX - BLUE BOX", "address": {"city": "WATERBURY", "state": "CT", "street": "1585 BALDWIN ST", "postcode": "06706"}}},
{"geometry": {"type": "Point", "coordinates": [-73.0340552231, 41.5354341226]}, "type": "Feature", "properties": {"collection_times": [{"days": "Mon-Sat", "time": "10:00am"}, {"days": "Sun", "time": "Closed"}], "id": "0670600010", "name": "USPS COLLECTION BOX - BLUE BOX", "address": {"city": "WATERBURY", "state": "CT", "street": "1291 BALDWIN ST", "postcode": "06706"}}},
{"geometry": {"type": "Point", "coordinates": [-73.0405902894, 41.5553480761]}, "type": "Feature", "properties": {"collection_times": [{"days": "Mon-Sat", "time": "2:00pm"}, {"days": "Sun", "time": "Closed"}], "id": "0670600012", "name": "USPS COLLECTION BOX - BLUE BOX", "address": {"city": "WATERBURY", "state": "CT", "street": "11 S MAIN ST", "postcode": "06706"}}},
{"geometry": {"type": "Point", "coordinates": [-73.0293589695, 41.5377131787]}, "type": "Feature", "properties": {"collection_times": [{"days": "Mon-Sat", "time": "10:00am"}, {"days": "Sun", "time": "Closed"}], "id": "0670600017", "name": "USPS COLLECTION BOX - BLUE BOX", "address": {"city": "WATERBURY", "state": "CT", "street": "820 HAMILTON AVE", "postcode": "06706"}}},
{"geometry": {"type": "Point", "coordinates": [-73.0396674325, 41.5528627094]}, "type": "Feature", "properties": {"collection_times": [{"days": "Mon-Sat", "time": "1:00pm"}, {"days": "Sun", "time": "Closed"}], "id": "0670600018", "name": "USPS COLLECTION BOX - BLUE BOX", "address": {"city": "WATERBURY", "state": "CT", "street": "125 S MAIN ST", "postcode": "06706"}}},
{"geometry": {"type": "Point", "coordinates": [-73.0293589695, 41.5377131787]}, "type": "Feature", "properties": {"collection_times": [{"days": "Mon-Sat", "time": "10:00am"}, {"days": "Sun", "time": "Closed"}], "id": "0670600019", "name": "USPS COLLECTION BOX - BLUE BOX", "address": {"city": "WATERBURY", "state": "CT", "street": "2095 S MAIN ST", "postcode": "06706"}}},
{"geometry": {"type": "Point", "coordinates": [-73.0393415639, 41.5526405307]}, "type": "Feature", "properties": {"collection_times": [{"days": "Mon-Sat", "time": "1:00pm"}, {"days": "Sun", "time": "Closed"}], "id": "0670600020", "name": "USPS COLLECTION BOX - BLUE BOX", "address": {"city": "WATERBURY", "state": "CT", "street": "24 UNION ST", "postcode": "06706"}}},
{"geometry": {"type": "Point", "coordinates": [-73.0606869462, 41.5681171897]}, "type": "Feature", "properties": {"collection_times": [{"days": "Mon-Sat", "time": "10:00am"}, {"days": "Sun", "time": "Closed"}], "id": "0670800002", "name": "USPS COLLECTION BOX - BLUE BOX", "address": {"city": "WATERBURY", "state": "CT", "street": "585 WATERTOWN AVE", "postcode": "06708"}}},
{"geometry": {"type": "Point", "coordinates": [-73.0758779519, 41.584835735]}, "type": "Feature", "properties": {"collection_times": [{"days": "Mon-Sat", "time": "10:00am"}, {"days": "Sun", "time": "Closed"}], "id": "0670800004", "name": "USPS COLLECTION BOX - BLUE BOX", "address": {"city": "WATERBURY", "state": "CT", "street": "1650 WATERTOWN AVE", "postcode": "06708"}}},
{"geometry": {"type": "Point", "coordinates": [-73.0265632414, 41.5674085901]}, "type": "Feature", "properties": {"collection_times": [{"days": "Mon-Sat", "time": "2:00pm"}, {"days": "Sun", "time": "Closed"}], "id": "0670800006", "name": "USPS COLLECTION BOX - BLUE BOX", "address": {"city": "WATERBURY", "state": "CT", "street": "1211 W MAIN ST", "postcode": "06708"}}},
{"geometry": {"type": "Point", "coordinates": [-73.0589810489, 41.5330128752]}, "type": "Feature", "properties": {"collection_times": [{"days": "Mon-Fri", "time": "2:30pm"}, {"days": "Sat", "time": "4:00pm"}, {"days": "Sun", "time": "Closed"}], "id": "0670800007", "name": "USPS COLLECTION BOX - BLUE BOX", "address": {"city": "WATERBURY", "state": "CT", "street": "232 BRADLEY AVE", "postcode": "06708"}}},
{"geometry": {"type": "Point", "coordinates": [-73.0633833578, 41.5682812034]}, "type": "Feature", "properties": {"collection_times": [{"days": "Mon-Fri", "time": "2:30pm"}, {"days": "Sat", "time": "3:00pm"}, {"days": "Sun", "time": "Closed"}], "id": "0670800009", "name": "USPS COLLECTION BOX - BLUE BOX", "address": {"city": "WATERBURY", "state": "CT", "street": "203 BUNKER HILL AVE", "postcode": "06708"}}},
{"geometry": {"type": "Point", "coordinates": [-73.0638019771, 41.560719959]}, "type": "Feature", "properties": {"collection_times": [{"days": "Mon-Fri", "time": "3:00pm"}, {"days": "Sat", "time": "3:30pm"}, {"days": "Sun", "time": "Closed"}], "id": "0670800011", "name": "USPS COLLECTION BOX - BLUE BOX", "address": {"city": "WATERBURY", "state": "CT", "street": "60 WESTWOOD AVE", "postcode": "06708"}}},
{"geometry": {"type": "Point", "coordinates": [-73.064088598, 41.5524514375]}, "type": "Feature", "properties": {"collection_times": [{"days": "Mon-Fri", "time": "2:30pm"}, {"days": "Sat", "time": "3:00pm"}, {"days": "Sun", "time": "Closed"}], "id": "0670800013", "name": "USPS COLLECTION BOX - BLUE BOX", "address": {"city": "WATERBURY", "state": "CT", "street": "1389 W MAIN ST", "postcode": "06708"}}},
{"geometry": {"type": "Point", "coordinates": [-73.077622608, 41.572260668]}, "type": "Feature", "properties": {"collection_times": [{"days": "Mon-Fri", "time": "2:30pm"}, {"days": "Sat", "time": "3:00pm"}, {"days": "Sun", "time": "Closed"}], "id": "0670800017", "name": "USPS COLLECTION BOX - BLUE BOX", "address": {"city": "WATERBURY", "state": "CT", "street": "672 BUNKER HILL AVE", "postcode": "06708"}}},
{"geometry": {"type": "Point", "coordinates": [-73.0726821067, 41.5468920534]}, "type": "Feature", "properties": {"collection_times": [{"days": "Mon-Fri", "time": "2:30pm"}, {"days": "Sat", "time": "3:00pm"}, {"days": "Sun", "time": "Closed"}], "id": "0670800019", "name": "USPS COLLECTION BOX - BLUE BOX", "address": {"city": "WATERBURY", "state": "CT", "street": "750 CHASE PKWY", "postcode": "06708"}}},
{"geometry": {"type": "Point", "coordinates": [-73.0782084128, 41.5432438294]}, "type": "Feature", "properties": {"collection_times": [{"days": "Mon-Fri", "time": "2:30pm"}, {"days": "Sat", "time": "3:00pm"}, {"days": "Sun", "time": "Closed"}], "id": "0670800021", "name": "USPS COLLECTION BOX - BLUE BOX", "address": {"city": "WATERBURY", "state": "CT", "street": "963 CHASE PKWY", "postcode": "06708"}}},
{"geometry": {"type": "Point", "coordinates": [-73.064088598, 41.5524514375]}, "type": "Feature", "properties": {"collection_times": [{"days": "Mon-Fri", "time": "2:30pm"}, {"days": "Sat", "time": "4:00pm"}, {"days": "Sun", "time": "Closed"}], "id": "0670800025", "name": "USPS COLLECTION BOX - BLUE BOX", "address": {"city": "WATERBURY", "state": "CT", "street": "61 COUNTRY CLUB RD", "postcode": "06708"}}},
{"geometry": {"type": "Point", "coordinates": [-73.0618804813, 41.5600742445]}, "type": "Feature", "properties": {"collection_times": [{"days": "Mon-Fri", "time": "2:30pm"}, {"days": "Sat", "time": "3:00pm"}, {"days": "Sun", "time": "Closed"}], "id": "0670800026", "name": "USPS COLLECTION BOX - BLUE BOX", "address": {"city": "WATERBURY", "state": "CT", "street": "134 GRANDVIEW AVE", "postcode": "06708"}}},
{"geometry": {"type": "Point", "coordinates": [-73.064088598, 41.5524514375]}, "type": "Feature", "properties": {"collection_times": [{"days": "Mon-Sat", "time": "10:00am"}, {"days": "Sun", "time": "Closed"}], "id": "0670800029", "name": "USPS COLLECTION BOX - BLUE BOX", "address": {"city": "WATERBURY", "state": "CT", "street": "299 FAIRFIELD AVE", "postcode": "06708"}}},
{"geometry": {"type": "Point", "coordinates": [-73.0632479819, 41.521777131]}, "type": "Feature", "properties": {"collection_times": [{"days": "Mon-Sat", "time": "2:00pm"}, {"days": "Sun", "time": "Closed"}], "id": "0670800030", "name": "USPS COLLECTION BOX - BLUE BOX", "address": {"city": "WATERBURY", "state": "CT", "street": "925 ORONOKE RD", "postcode": "06708"}}},
{"geometry": {"type": "Point", "coordinates": [-73.056389959, 41.546847604]}, "type": "Feature", "properties": {"collection_times": [{"days": "Mon-Sat", "time": "10:00am"}, {"days": "Sun", "time": "Closed"}], "id": "0670800035", "name": "USPS COLLECTION BOX - BLUE BOX", "address": {"city": "WATERBURY", "state": "CT", "street": "395 HIGHLAND AVE", "postcode": "06708"}}},
{"geometry": {"type": "Point", "coordinates": [-73.0519700051, 41.5365656998]}, "type": "Feature", "properties": {"collection_times": [{"days": "Mon-Sat", "time": "2:00pm"}, {"days": "Sun", "time": "Closed"}], "id": "0670800036", "name": "USPS COLLECTION BOX - BLUE BOX", "address": {"city": "WATERBURY", "state": "CT", "street": "785 HIGHLAND AVE", "postcode": "06708"}}},
{"geometry": {"type": "Point", "coordinates": [-73.0641394213, 41.5474144609]}, "type": "Feature", "properties": {"collection_times": [{"days": "Mon-Fri", "time": "2:30pm"}, {"days": "Sat", "time": "4:00pm"}, {"days": "Sun", "time": "Closed"}], "id": "0670800038", "name": "USPS COLLECTION BOX - BLUE BOX", "address": {"city": "WATERBURY", "state": "CT", "street": "500 CHASE PKWY", "postcode": "06708"}}},
{"geometry": {"type": "Point", "coordinates": [-73.0405245231, 41.5389217553]}, "type": "Feature", "properties": {"collection_times": [{"days": "Mon-Sat", "time": "1:00pm"}, {"days": "Sun", "time": "Closed"}], "id": "0670800040", "name": "USPS COLLECTION BOX - BLUE BOX", "address": {"city": "WATERBURY", "state": "CT", "street": "165 RAILROAD HILL ST", "postcode": "06708"}}},
{"geometry": {"type": "Point", "coordinates": [-73.0500177688, 41.5291611608]}, "type": "Feature", "properties": {"collection_times": [{"days": "Mon-Sat", "time": "2:00pm"}, {"days": "Sun", "time": "Closed"}], "id": "0670800050", "name": "USPS COLLECTION BOX - BLUE BOX", "address": {"city": "WATERBURY", "state": "CT", "street": "1075 HIGHLAND AVE", "postcode": "06708"}}},
{"geometry": {"type": "Point", "coordinates": [-73.0446648795, 41.5586109243]}, "type": "Feature", "properties": {"collection_times": [{"days": "Mon-Sat", "time": "10:00am"}, {"days": "Sun", "time": "Closed"}], "id": "0671000004", "name": "USPS COLLECTION BOX - BLUE BOX", "address": {"city": "WATERBURY", "state": "CT", "street": "30 HOLMES AVE", "postcode": "06710"}}},
{"geometry": {"type": "Point", "coordinates": [-73.0418967555, 41.5719156638]}, "type": "Feature", "properties": {"collection_times": [{"days": "Mon-Sat", "time": "10:00am"}, {"days": "Sun", "time": "Closed"}], "id": "0671000005", "name": "USPS COLLECTION BOX - BLUE BOX", "address": {"city": "WATERBURY", "state": "CT", "street": "511 COOKE ST", "postcode": "06710"}}},
{"geometry": {"type": "Point", "coordinates": [-73.0461683094, 41.5540710661]}, "type": "Feature", "properties": {"collection_times": [{"days": "Mon-Fri", "time": "5:00pm"}, {"days": "Sat", "time": "4:30pm"}, {"days": "Sun", "time": "Closed"}], "id": "0671200003", "name": "USPS COLLECTION BOX - BLUE BOX", "address": {"city": "WATERBURY", "state": "CT", "street": "70 WATERBURY RD", "postcode": "06712"}}},
{"geometry": {"type": "Point", "coordinates": [-72.9786484102, 41.5032007539]}, "type": "Feature", "properties": {"collection_times": [{"days": "Mon-Sat", "time": "1:15pm"}, {"days": "Sun", "time": "Closed"}], "id": "0671200005", "name": "USPS COLLECTION BOX - EXPRESS", "address": {"city": "WATERBURY", "state": "CT", "street": "70 WATERBURY RD", "postcode": "06712"}}},
{"geometry": {"type": "Point", "coordinates": [-72.9785766969, 41.5030449509]}, "type": "Feature", "properties": {"collection_times": [{"days": "Mon-Sat", "time": "4:00pm"}, {"days": "Sun", "time": "Closed"}], "id": "0671200007", "name": "USPS COLLECTION BOX - BLUE BOX", "address": {"city": "WATERBURY", "state": "CT", "street": "36 CENTER ST", "postcode": "06712"}}},
{"geometry": {"type": "Point", "coordinates": [-72.9965019397, 41.5249388271]}, "type": "Feature", "properties": {"collection_times": [{"days": "Mon-Sat", "time": "1:00pm"}, {"days": "Sun", "time": "Closed"}], "id": "0671200008", "name": "USPS COLLECTION BOX - BLUE BOX", "address": {"city": "WATERBURY", "state": "CT", "street": "166 WATERBURY RD", "postcode": "06712"}}},
{"geometry": {"type": "Point", "coordinates": [-72.981707294, 41.5974526132]}, "type": "Feature", "properties": {"collection_times": [{"days": "Mon-Fri", "time": "5:00pm"}, {"days": "Sat", "time": "4:00pm"}, {"days": "Sun", "time": "Closed"}], "id": "0671600001", "name": "USPS COLLECTION BOX - EXPRESS", "address": {"city": "WATERBURY", "state": "CT", "street": "803 WOLCOTT RD", "postcode": "06716"}}},
{"geometry": {"type": "Point", "coordinates": [-72.9864479173, 41.6045595112]}, "type": "Feature", "properties": {"collection_times": [{"days": "Mon-Fri", "time": "5:00pm"}, {"days": "Sat", "time": "4:00pm"}, {"days": "Sun", "time": "Closed"}], "id": "0671600007", "name": "USPS COLLECTION BOX - BLUE BOX", "address": {"city": "WATERBURY", "state": "CT", "street": "803 WOLCOTT RD", "postcode": "06716"}}},
{"geometry": {"type": "Point", "coordinates": [-72.9861792919, 41.6052942898]}, "type": "Feature", "properties": {"collection_times": [{"days": "Mon-Sat", "time": "3:00pm"}, {"days": "Sun", "time": "Closed"}], "id": "0671600008", "name": "USPS COLLECTION BOX - BLUE BOX", "address": {"city": "WATERBURY", "state": "CT", "street": "816 WOLCOTT RD", "postcode": "06716"}}},
{"geometry": {"type": "Point", "coordinates": [-73.2459488035, 41.7233317675]}, "type": "Feature", "properties": {"collection_times": [{"days": "Mon-Fri", "time": "4:30pm"}, {"days": "Sat", "time": "12:00pm"}, {"days": "Sun", "time": "Closed"}], "id": "0675000001", "name": "USPS COLLECTION BOX - BLUE BOX", "address": {"city": "BANTAM", "state": "CT", "street": "80 DOYLE RD", "postcode": "06750"}}},
{"geometry": {"type": "Point", "coordinates": [-73.2378408956, 41.7263296634]}, "type": "Feature", "properties": {"collection_times": [{"days": "Mon-Fri", "time": "5:00pm"}, {"days": "Sat", "time": "12:30pm"}, {"days": "Sun", "time": "Closed"}], "id": "0675000003", "name": "USPS COLLECTION BOX - PO LOBBY", "address": {"city": "BANTAM", "state": "CT", "street": "80 DOYLE RD", "postcode": "06750"}}},
{"geometry": {"type": "Point", "coordinates": [-73.2052290828, 41.6396483452]}, "type": "Feature", "properties": {"collection_times": [{"days": "Mon-Fri", "time": "5:15pm"}, {"days": "Sat", "time": "12:00pm"}, {"days": "Sun", "time": "Closed"}], "id": "0675100002", "name": "USPS COLLECTION BOX - BLUE BOX", "address": {"city": "BETHLEHEM", "state": "CT", "street": "34 EAST ST", "postcode": "06751"}}},
{"geometry": {"type": "Point", "coordinates": [-73.2052290828, 41.6396483452]}, "type": "Feature", "properties": {"collection_times": [{"days": "Mon-Fri", "time": "5:15pm"}, {"days": "Sat", "time": "12:00pm"}, {"days": "Sun", "time": "Closed"}], "id": "0675100003", "name": "USPS COLLECTION BOX - PO LOBBY", "address": {"city": "BETHLEHEM", "state": "CT", "street": "34 EAST ST", "postcode": "06751"}}},
{"geometry": {"type": "Point", "coordinates": [-73.3652583096, 41.5306916499]}, "type": "Feature", "properties": {"collection_times": [{"days": "Mon-Fri", "time": "5:00pm"}, {"days": "Sat", "time": "12:00pm"}, {"days": "Sun", "time": "Closed"}], "id": "0675200001", "name": "USPS COLLECTION BOX - BLUE BOX", "address": {"city": "BRIDGEWATER", "state": "CT", "street": "19 MAIN ST S", "postcode": "06752"}}},
{"geometry": {"type": "Point", "coordinates": [-73.3652583096, 41.5306916499]}, "type": "Feature", "properties": {"collection_times": [{"days": "Mon-Fri", "time": "5:00pm"}, {"days": "Sat", "time": "12:00pm"}, {"days": "Sun", "time": "Closed"}], "id": "0675200002", "name": "USPS COLLECTION BOX - PO LOBBY", "address": {"city": "BRIDGEWATER", "state": "CT", "street": "19 MAIN ST S", "postcode": "06752"}}},
{"geometry": {"type": "Point", "coordinates": [-73.3362985702, 41.8448207481]}, "type": "Feature", "properties": {"collection_times": [{"days": "Mon-Fri", "time": "4:15pm"}, {"days": "Sat", "time": "11:45am"}, {"days": "Sun", "time": "Closed"}], "id": "0675300001", "name": "USPS COLLECTION BOX - BLUE BOX", "address": {"city": "CORNWALL", "state": "CT", "street": "36 BOLTON HILL RD", "postcode": "06753"}}},
{"geometry": {"type": "Point", "coordinates": [-73.3343113538, 41.8445811585]}, "type": "Feature", "properties": {"collection_times": [{"days": "Mon-Fri", "time": "1:00pm"}, {"days": "Sat", "time": "12:00pm"}, {"days": "Sun", "time": "Closed"}], "id": "0675300002", "name": "USPS COLLECTION BOX - PO LOBBY", "address": {"city": "CORNWALL", "state": "CT", "street": "36 BOLTON HILL RD", "postcode": "06753"}}},
{"geometry": {"type": "Point", "coordinates": [-73.3708279594, 41.8173311477]}, "type": "Feature", "properties": {"collection_times": [{"days": "Mon-Fri", "time": "4:45pm"}, {"days": "Sat", "time": "12:30pm"}, {"days": "Sun", "time": "Closed"}], "id": "0675400001", "name": "USPS COLLECTION BOX - BLUE BOX", "address": {"city": "WARREN", "state": "CT", "street": "18 KENT RD S", "postcode": "06754"}}},
{"geometry": {"type": "Point", "coordinates": [-73.3492022866, 41.7461643363]}, "type": "Feature", "properties": {"collection_times": [{"days": "Mon-Sat", "time": "12:30pm"}, {"days": "Sun", "time": "Closed"}], "id": "0675400002", "name": "USPS COLLECTION BOX - BLUE BOX", "address": {"city": "WARREN", "state": "CT", "street": "12 CORNWALL RD", "postcode": "06754"}}},
{"geometry": {"type": "Point", "coordinates": [-73.3708279594, 41.8173311477]}, "type": "Feature", "properties": {"collection_times": [{"days": "Mon-Fri", "time": "5:00pm"}, {"days": "Sat", "time": "12:30pm"}, {"days": "Sun", "time": "Closed"}], "id": "0675400003", "name": "USPS COLLECTION BOX - PO LOBBY", "address": {"city": "WARREN", "state": "CT", "street": "18 KENT RD S", "postcode": "06754"}}},
{"geometry": {"type": "Point", "coordinates": [-73.483882578, 41.648201432]}, "type": "Feature", "properties": {"collection_times": [{"days": "Mon-Sat", "time": "12:30pm"}, {"days": "Sun", "time": "Closed"}], "id": "0675500001", "name": "USPS COLLECTION BOX - BLUE BOX", "address": {"city": "GAYLORDSVILLE", "state": "CT", "street": "1 RIVERVIEW RD", "postcode": "06755"}}},
{"geometry": {"type": "Point", "coordinates": [-73.4817926574, 41.6397462327]}, "type": "Feature", "properties": {"collection_times": [{"days": "Mon-Fri", "time": "5:00pm"}, {"days": "Sat", "time": "12:00pm"}, {"days": "Sun", "time": "Closed"}], "id": "0675500002", "name": "USPS COLLECTION BOX - BLUE BOX", "address": {"city": "GAYLORDSVILLE", "state": "CT", "street": "3 GEORGE WASHINGTON PLZ", "postcode": "06755"}}},
{"geometry": {"type": "Point", "coordinates": [-73.4817926574, 41.6397462327]}, "type": "Feature", "properties": {"collection_times": [{"days": "Mon-Fri", "time": "5:00pm"}, {"days": "Sat", "time": "12:00pm"}, {"days": "Sun", "time": "Closed"}], "id": "0675500003", "name": "USPS COLLECTION BOX - PO LOBBY", "address": {"city": "GAYLORDSVILLE", "state": "CT", "street": "3 GEORGE WASHINGTON PLZ", "postcode": "06755"}}},
{"geometry": {"type": "Point", "coordinates": [-73.2313452679, 41.830265621]}, "type": "Feature", "properties": {"collection_times": [{"days": "Mon-Fri", "time": "5:00pm"}, {"days": "Sat", "time": "12:00pm"}, {"days": "Sun", "time": "Closed"}], "id": "0675600001", "name": "USPS COLLECTION BOX - BLUE BOX", "address": {"city": "GOSHEN", "state": "CT", "street": "9 SUNSET DR", "postcode": "06756"}}},
{"geometry": {"type": "Point", "coordinates": [-73.2313452679, 41.830265621]}, "type": "Feature", "properties": {"collection_times": [{"days": "Mon-Fri", "time": "5:30pm"}, {"days": "Sat", "time": "12:30pm"}, {"days": "Sun", "time": "Closed"}], "id": "0675600002", "name": "USPS COLLECTION BOX - PO LOBBY", "address": {"city": "GOSHEN", "state": "CT", "street": "9 SUNSET DR", "postcode": "06756"}}},
{"geometry": {"type": "Point", "coordinates": [-73.4725198439, 41.7279361216]}, "type": "Feature", "properties": {"collection_times": [{"days": "Mon-Fri", "time": "4:45pm"}, {"days": "Sat", "time": "12:30pm"}, {"days": "Sun", "time": "Closed"}], "id": "0675700001", "name": "USPS COLLECTION BOX - BLUE BOX", "address": {"city": "KENT", "state": "CT", "street": "31 KENT GREEN BLVD", "postcode": "06757"}}},
{"geometry": {"type": "Point", "coordinates": [-73.4725198439, 41.7279361216]}, "type": "Feature", "properties": {"collection_times": [{"days": "Mon-Fri", "time": "5:00pm"}, {"days": "Sat", "time": "12:30pm"}, {"days": "Sun", "time": "Closed"}], "id": "0675700002", "name": "USPS COLLECTION BOX - PO LOBBY", "address": {"city": "KENT", "state": "CT", "street": "31 KENT GREEN BLVD", "postcode": "06757"}}},
{"geometry": {"type": "Point", "coordinates": [-73.2043974627, 41.7453066911]}, "type": "Feature", "properties": {"collection_times": [{"days": "Mon-Sat", "time": "11:00am"}, {"days": "Sun", "time": "Closed"}], "id": "0675900001", "name": "USPS COLLECTION BOX - BLUE BOX", "address": {"city": "LITCHFIELD", "state": "CT", "street": "331 WEST ST", "postcode": "06759"}}},
{"geometry": {"type": "Point", "coordinates": [-73.1889101639, 41.746174983]}, "type": "Feature", "properties": {"collection_times": [{"days": "Mon-Fri", "time": "5:00pm"}, {"days": "Sat", "time": "1:30pm"}, {"days": "Sun", "time": "Closed"}], "id": "0675900004", "name": "USPS COLLECTION BOX - BLUE BOX", "address": {"city": "LITCHFIELD", "state": "CT", "street": "16 SOUTH ST", "postcode": "06759"}}},
{"geometry": {"type": "Point", "coordinates": [-73.1889101639, 41.746174983]}, "type": "Feature", "properties": {"collection_times": [{"days": "Mon-Fri", "time": "5:00pm"}, {"days": "Sat", "time": "1:30pm"}, {"days": "Sun", "time": "Closed"}], "id": "0675900005", "name": "USPS COLLECTION BOX - PO LOBBY", "address": {"city": "LITCHFIELD", "state": "CT", "street": "16 SOUTH ST", "postcode": "06759"}}},
{"geometry": {"type": "Point", "coordinates": [-73.1927666101, 41.7468433548]}, "type": "Feature", "properties": {"collection_times": [{"days": "Mon-Sat", "time": "9:00am"}, {"days": "Sun", "time": "Closed"}], "id": "0675900006", "name": "USPS COLLECTION BOX - BLUE BOX", "address": {"city": "LITCHFIELD", "state": "CT", "street": "74 WEST ST", "postcode": "06759"}}},
{"geometry": {"type": "Point", "coordinates": [-73.1078996399, 41.5378029014]}, "type": "Feature", "properties": {"collection_times": [{"days": "Mon-Fri", "time": "5:00pm"}, {"days": "Sat", "time": "12:00pm"}, {"days": "Sun", "time": "Closed"}], "id": "0676200001", "name": "USPS COLLECTION BOX - BLUE BOX", "address": {"city": "MIDDLEBURY", "state": "CT", "street": "590 MIDDLEBURY RD STE F", "postcode": "06762"}}},
{"geometry": {"type": "Point", "coordinates": [-73.0854320114, 41.5326887445]}, "type": "Feature", "properties": {"collection_times": [{"days": "Mon-Sat", "time": "10:00am"}, {"days": "Sun", "time": "Closed"}], "id": "0676200002", "name": "USPS COLLECTION BOX - BLUE BOX", "address": {"city": "MIDDLEBURY", "state": "CT", "street": "850 STRAITS TPKE", "postcode": "06762"}}},
{"geometry": {"type": "Point", "coordinates": [-73.1059066651, 41.5380014132]}, "type": "Feature", "properties": {"collection_times": [{"days": "Mon-Sat", "time": "10:30am"}, {"days": "Sun", "time": "Closed"}], "id": "0676200005", "name": "USPS COLLECTION BOX - BLUE BOX", "address": {"city": "MIDDLEBURY", "state": "CT", "street": "530 MIDDLEBURY RD", "postcode": "06762"}}},
{"geometry": {"type": "Point", "coordinates": [-73.1073342103, 41.5379100271]}, "type": "Feature", "properties": {"collection_times": [{"days": "Mon-Fri", "time": "5:00pm"}, {"days": "Sat", "time": "12:00pm"}, {"days": "Sun", "time": "Closed"}], "id": "0676200006", "name": "USPS COLLECTION BOX - PO LOBBY", "address": {"city": "MIDDLEBURY", "state": "CT", "street": "590 MIDDLEBURY RD STE F", "postcode": "06762"}}},
{"geometry": {"type": "Point", "coordinates": [-73.2006993209, 41.6833308842]}, "type": "Feature", "properties": {"collection_times": [{"days": "Mon-Fri", "time": "5:00pm"}, {"days": "Sat", "time": "12:00pm"}, {"days": "Sun", "time": "Closed"}], "id": "0676300001", "name": "USPS COLLECTION BOX - BLUE BOX", "address": {"city": "MORRIS", "state": "CT", "street": "8 WEST", "postcode": "06763"}}},
{"geometry": {"type": "Point", "coordinates": [-73.2006993209, 41.6833308842]}, "type": "Feature", "properties": {"collection_times": [{"days": "Mon-Fri", "time": "5:00pm"}, {"days": "Sat", "time": "12:00pm"}, {"days": "Sun", "time": "Closed"}], "id": "0676300002", "name": "USPS COLLECTION BOX - PO LOBBY", "address": {"city": "MORRIS", "state": "CT", "street": "8 WEST ST", "postcode": "06763"}}},
{"geometry": {"type": "Point", "coordinates": [-73.0495588999, 41.4923338951]}, "type": "Feature", "properties": {"collection_times": [{"days": "Mon-Fri", "time": "5:00pm"}, {"days": "Sat", "time": "1:30pm"}, {"days": "Sun", "time": "Closed"}], "id": "0677000002", "name": "USPS COLLECTION BOX - EXPRESS", "address": {"city": "NAUGATUCK", "state": "CT", "street": "505 N MAIN ST", "postcode": "06770"}}},
{"geometry": {"type": "Point", "coordinates": [-73.0417856333, 41.4737502014]}, "type": "Feature", "properties": {"collection_times": [{"days": "Mon-Sat", "time": "1:30pm"}, {"days": "Sun", "time": "Closed"}], "id": "0677000005", "name": "USPS COLLECTION BOX - BLUE BOX", "address": {"city": "NAUGATUCK", "state": "CT", "street": "799 NEW HAVEN RD", "postcode": "06770"}}},
{"geometry": {"type": "Point", "coordinates": [-73.0513710161, 41.4897670937]}, "type": "Feature", "properties": {"collection_times": [{"days": "Mon-Fri", "time": "1:30pm"}, {"days": "Sat", "time": "1:45pm"}, {"days": "Sun", "time": "Closed"}], "id": "0677000007", "name": "USPS COLLECTION BOX - BLUE BOX", "address": {"city": "NAUGATUCK", "state": "CT", "street": "155 MAPLE ST", "postcode": "06770"}}},
{"geometry": {"type": "Point", "coordinates": [-73.0549799114, 41.4787047977]}, "type": "Feature", "properties": {"collection_times": [{"days": "Mon-Fri", "time": "4:15pm"}, {"days": "Sat", "time": "2:30pm"}, {"days": "Sun", "time": "Closed"}], "id": "0677000012", "name": "USPS COLLECTION BOX - BLUE BOX", "address": {"city": "NAUGATUCK", "state": "CT", "street": "32 SPENCER ST", "postcode": "06770"}}},
{"geometry": {"type": "Point", "coordinates": [-73.0551445002, 41.4913080814]}, "type": "Feature", "properties": {"collection_times": [{"days": "Mon-Fri", "time": "4:30pm"}, {"days": "Sat", "time": "2:00pm"}, {"days": "Sun", "time": "Closed"}], "id": "0677000017", "name": "USPS COLLECTION BOX - BLUE BOX", "address": {"city": "NAUGATUCK", "state": "CT", "street": "229 CHURCH ST", "postcode": "06770"}}},
{"geometry": {"type": "Point", "coordinates": [-73.0681522248, 41.4958048192]}, "type": "Feature", "properties": {"collection_times": [{"days": "Mon-Sat", "time": "2:00pm"}, {"days": "Sun", "time": "Closed"}], "id": "0677000022", "name": "USPS COLLECTION BOX - BLUE BOX", "address": {"city": "NAUGATUCK", "state": "CT", "street": "53 CONRAD ST", "postcode": "06770"}}},
{"geometry": {"type": "Point", "coordinates": [-73.0794058514, 41.4929080792]}, "type": "Feature", "properties": {"collection_times": [{"days": "Mon-Fri", "time": "4:15pm"}, {"days": "Sat", "time": "2:45pm"}, {"days": "Sun", "time": "Closed"}], "id": "0677000025", "name": "USPS COLLECTION BOX - BLUE BOX", "address": {"city": "NAUGATUCK", "state": "CT", "street": "727 RUBBER AVE", "postcode": "06770"}}},
{"geometry": {"type": "Point", "coordinates": [-73.0663333637, 41.5086641213]}, "type": "Feature", "properties": {"collection_times": [{"days": "Mon-Sat", "time": "2:00pm"}, {"days": "Sun", "time": "Closed"}], "id": "0677000026", "name": "USPS COLLECTION BOX - BLUE BOX", "address": {"city": "NAUGATUCK", "state": "CT", "street": "11 LANTERN PARK DR", "postcode": "06770"}}},
{"geometry": {"type": "Point", "coordinates": [-73.0495458644, 41.4923339414]}, "type": "Feature", "properties": {"collection_times": [{"days": "Mon-Fri", "time": "1:30pm"}, {"days": "Sat", "time": "1:45pm"}, {"days": "Sun", "time": "Closed"}], "id": "0677000027", "name": "USPS COLLECTION BOX - BLUE BOX", "address": {"city": "NAUGATUCK", "state": "CT", "street": "1059 NEW HAVEN RD", "postcode": "06770"}}},
{"geometry": {"type": "Point", "coordinates": [-73.0552979404, 41.506448272]}, "type": "Feature", "properties": {"collection_times": [{"days": "Mon-Sat", "time": "2:00pm"}, {"days": "Sun", "time": "Closed"}], "id": "0677000028", "name": "USPS COLLECTION BOX - BLUE BOX", "address": {"city": "NAUGATUCK", "state": "CT", "street": "270 SPRING ST", "postcode": "06770"}}},
{"geometry": {"type": "Point", "coordinates": [-73.0635328025, 41.4992315096]}, "type": "Feature", "properties": {"collection_times": [{"days": "Mon-Sat", "time": "2:00pm"}, {"days": "Sun", "time": "Closed"}], "id": "0677000029", "name": "USPS COLLECTION BOX - BLUE BOX", "address": {"city": "NAUGATUCK", "state": "CT", "street": "157 QUINN ST", "postcode": "06770"}}},
{"geometry": {"type": "Point", "coordinates": [-73.0596138247, 41.4822252317]}, "type": "Feature", "properties": {"collection_times": [{"days": "Mon-Fri", "time": "2:00pm"}, {"days": "Sat", "time": "2:30pm"}, {"days": "Sun", "time": "Closed"}], "id": "0677000040", "name": "USPS COLLECTION BOX - BLUE BOX", "address": {"city": "NAUGATUCK", "state": "CT", "street": "80 LEWIS ST", "postcode": "06770"}}},
{"geometry": {"type": "Point", "coordinates": [-73.0456297447, 41.5040132148]}, "type": "Feature", "properties": {"collection_times": [{"days": "Mon-Fri", "time": "5:00pm"}, {"days": "Sat", "time": "1:30pm"}, {"days": "Sun", "time": "Closed"}], "id": "0677000044", "name": "USPS COLLECTION BOX - BLUE BOX", "address": {"city": "NAUGATUCK", "state": "CT", "street": "505 N MAIN ST", "postcode": "06770"}}},
{"geometry": {"type": "Point", "coordinates": [-73.0516946753, 41.5014148098]}, "type": "Feature", "properties": {"collection_times": [{"days": "Mon-Fri", "time": "4:30pm"}, {"days": "Sat", "time": "2:00pm"}, {"days": "Sun", "time": "Closed"}], "id": "0677000045", "name": "USPS COLLECTION BOX - BLUE BOX", "address": {"city": "NAUGATUCK", "state": "CT", "street": "115 BRIDGE ST", "postcode": "06770"}}},
{"geometry": {"type": "Point", "coordinates": [-73.0312972082, 41.5069039724]}, "type": "Feature", "properties": {"collection_times": [{"days": "Mon-Fri", "time": "5:00pm"}, {"days": "Sat", "time": "1:45pm"}, {"days": "Sun", "time": "Closed"}], "id": "0677000046", "name": "USPS COLLECTION BOX - BLUE BOX", "address": {"city": "NAUGATUCK", "state": "CT", "street": "43 UNION CITY RD", "postcode": "06770"}}},
{"geometry": {"type": "Point", "coordinates": [-73.0102057982, 41.4679472837]}, "type": "Feature", "properties": {"collection_times": [{"days": "Mon-Fri", "time": "1:30pm"}, {"days": "Sat", "time": "1:45pm"}, {"days": "Sun", "time": "Closed"}], "id": "0677000050", "name": "USPS COLLECTION BOX - BLUE BOX", "address": {"city": "NAUGATUCK", "state": "CT", "street": "1419 NEW HAVEN RD", "postcode": "06770"}}},
{"geometry": {"type": "Point", "coordinates": [-73.0331582059, 41.4681960401]}, "type": "Feature", "properties": {"collection_times": [{"days": "Mon-Sat", "time": "1:30pm"}, {"days": "Sun", "time": "Closed"}], "id": "0677000051", "name": "USPS COLLECTION BOX - BLUE BOX", "address": {"city": "NAUGATUCK", "state": "CT", "street": "1013 WEID DR", "postcode": "06770"}}},
{"geometry": {"type": "Point", "coordinates": [-73.0456297447, 41.5040132148]}, "type": "Feature", "properties": {"collection_times": [{"days": "Mon-Fri", "time": "5:00pm"}, {"days": "Sat", "time": "1:30pm"}, {"days": "Sun", "time": "Closed"}], "id": "0677000056", "name": "USPS COLLECTION BOX - PO LOBBY", "address": {"city": "NAUGATUCK", "state": "CT", "street": "505 N MAIN ST", "postcode": "06770"}}},
{"geometry": {"type": "Point", "coordinates": [-73.0495588999, 41.4923338951]}, "type": "Feature", "properties": {"collection_times": [{"days": "Mon-Fri", "time": "5:00pm"}, {"days": "Sat", "time": "3:00pm"}, {"days": "Sun", "time": "Closed"}], "id": "0677000057", "name": "USPS COLLECTION BOX - BLUE BOX", "address": {"city": "NAUGATUCK", "state": "CT", "street": "170 WATER ST", "postcode": "06770"}}},
{"geometry": {"type": "Point", "coordinates": [-73.0528948401, 41.4918292422]}, "type": "Feature", "properties": {"collection_times": [{"days": "Mon-Fri", "time": "5:00pm"}, {"days": "Sat", "time": "3:00pm"}, {"days": "Sun", "time": "Closed"}], "id": "0677000058", "name": "USPS COLLECTION BOX - PO LOBBY", "address": {"city": "NAUGATUCK", "state": "CT", "street": "170 WATER ST", "postcode": "06770"}}},
{"geometry": {"type": "Point", "coordinates": [-73.0495588999, 41.4923338951]}, "type": "Feature", "properties": {"collection_times": [{"days": "Mon-Fri", "time": "5:00pm"}, {"days": "Sat", "time": "3:00pm"}, {"days": "Sun", "time": "Closed"}], "id": "0677000059", "name": "USPS COLLECTION BOX - EXPRESS", "address": {"city": "NAUGATUCK", "state": "CT", "street": "170 WATER ST", "postcode": "06770"}}},
{"geometry": {"type": "Point", "coordinates": [-73.4256801372, 41.5339670783]}, "type": "Feature", "properties": {"collection_times": [{"days": "Mon-Fri", "time": "3:30pm"}, {"days": "Sat", "time": "2:30pm"}, {"days": "Sun", "time": "Closed"}], "id": "0677600003", "name": "USPS COLLECTION BOX - BLUE BOX", "address": {"city": "NEW MILFORD", "state": "CT", "street": "5 OLD TOWN PARK RD", "postcode": "06776"}}},
{"geometry": {"type": "Point", "coordinates": [-73.4156847312, 41.5994875675]}, "type": "Feature", "properties": {"collection_times": [{"days": "Mon-Fri", "time": "3:00pm"}, {"days": "Sat", "time": "2:30pm"}, {"days": "Sun", "time": "Closed"}], "id": "0677600005", "name": "USPS COLLECTION BOX - BLUE BOX", "address": {"city": "NEW MILFORD", "state": "CT", "street": "100 PARK AVE", "postcode": "06776"}}},
{"geometry": {"type": "Point", "coordinates": [-73.412799465, 41.5772529822]}, "type": "Feature", "properties": {"collection_times": [{"days": "Mon-Fri", "time": "3:30pm"}, {"days": "Sat", "time": "2:30pm"}, {"days": "Sun", "time": "Closed"}], "id": "0677600006", "name": "USPS COLLECTION BOX - BLUE BOX", "address": {"city": "NEW MILFORD", "state": "CT", "street": "62 BANK ST", "postcode": "06776"}}},
{"geometry": {"type": "Point", "coordinates": [-73.41938301, 41.5484663421]}, "type": "Feature", "properties": {"collection_times": [{"days": "Mon-Fri", "time": "3:30pm"}, {"days": "Sat", "time": "2:30pm"}, {"days": "Sun", "time": "Closed"}], "id": "0677600012", "name": "USPS COLLECTION BOX - BLUE BOX", "address": {"city": "NEW MILFORD", "state": "CT", "street": "180 DANBURY RD", "postcode": "06776"}}},
{"geometry": {"type": "Point", "coordinates": [-73.4125884545, 41.5816411382]}, "type": "Feature", "properties": {"collection_times": [{"days": "Mon-Fri", "time": "2:15pm"}, {"days": "Sat", "time": "3:00pm"}, {"days": "Sun", "time": "Closed"}], "id": "0677600016", "name": "USPS COLLECTION BOX - EXPRESS", "address": {"city": "NEW MILFORD", "state": "CT", "street": "37 MAIN ST", "postcode": "06776"}}},
{"geometry": {"type": "Point", "coordinates": [-73.4102962023, 41.5737386035]}, "type": "Feature", "properties": {"collection_times": [{"days": "Mon-Fri", "time": "5:00pm"}, {"days": "Sat", "time": "3:00pm"}, {"days": "Sun", "time": "Closed"}], "id": "0677600017", "name": "USPS COLLECTION BOX - BLUE BOX", "address": {"city": "NEW MILFORD", "state": "CT", "street": "37 MAIN ST", "postcode": "06776"}}},
{"geometry": {"type": "Point", "coordinates": [-73.4102962023, 41.5737386035]}, "type": "Feature", "properties": {"collection_times": [{"days": "Mon-Fri", "time": "5:30pm"}, {"days": "Sat", "time": "3:00pm"}, {"days": "Sun", "time": "Closed"}], "id": "0677600018", "name": "USPS COLLECTION BOX - PO LOBBY", "address": {"city": "NEW MILFORD", "state": "CT", "street": "37 MAIN ST", "postcode": "06776"}}},
{"geometry": {"type": "Point", "coordinates": [-73.4102962023, 41.5737386035]}, "type": "Feature", "properties": {"collection_times": [{"days": "Mon-Fri", "time": "5:30pm"}, {"days": "Sat", "time": "3:00pm"}, {"days": "Sun", "time": "Closed"}], "id": "0677600019", "name": "USPS COLLECTION BOX - PO LOBBY", "address": {"city": "NEW MILFORD", "state": "CT", "street": "37 MAIN ST", "postcode": "06776"}}},
{"geometry": {"type": "Point", "coordinates": [-73.392663016, 41.6318301694]}, "type": "Feature", "properties": {"collection_times": [{"days": "Mon-Sat", "time": "11:30am"}, {"days": "Sun", "time": "Closed"}], "id": "0677600020", "name": "USPS COLLECTION BOX - BLUE BOX", "address": {"city": "NEW MILFORD", "state": "CT", "street": "301 LITCHFIELD RD", "postcode": "06776"}}},
{"geometry": {"type": "Point", "coordinates": [-72.9927099291, 41.6721962405]}, "type": "Feature", "properties": {"collection_times": [{"days": "Mon-Fri", "time": "4:30pm"}, {"days": "Sat", "time": "12:00pm"}, {"days": "Sun", "time": "Closed"}], "id": "0678100001", "name": "USPS COLLECTION BOX - BLUE BOX", "address": {"city": "PEQUABUCK", "state": "CT", "street": "153 S RIVERSIDE AVE", "postcode": "06781"}}},
{"geometry": {"type": "Point", "coordinates": [-72.9927099291, 41.6721962405]}, "type": "Feature", "properties": {"collection_times": [{"days": "Mon-Sat", "time": "12:00pm"}, {"days": "Sun", "time": "Closed"}], "id": "0678100002", "name": "USPS COLLECTION BOX - PO LOBBY", "address": {"city": "PEQUABUCK", "state": "CT", "street": "153 S RIVERSIDE AVE", "postcode": "06781"}}},
{"geometry": {"type": "Point", "coordinates": [-73.0484856834, 41.6625625663]}, "type": "Feature", "properties": {"collection_times": [{"days": "Mon-Fri", "time": "5:00pm"}, {"days": "Sat", "time": "12:00pm"}, {"days": "Sun", "time": "Closed"}], "id": "0678200001", "name": "USPS COLLECTION BOX - BLUE BOX", "address": {"city": "PLYMOUTH", "state": "CT", "street": "696 MAIN ST", "postcode": "06782"}}},
{"geometry": {"type": "Point", "coordinates": [-73.0522677568, 41.6719738819]}, "type": "Feature", "properties": {"collection_times": [{"days": "Mon-Fri", "time": "5:00pm"}, {"days": "Sat", "time": "1:00pm"}, {"days": "Sun", "time": "Closed"}], "id": "0678200002", "name": "USPS COLLECTION BOX - PO LOBBY", "address": {"city": "PLYMOUTH", "state": "CT", "street": "696 MAIN ST", "postcode": "06782"}}},
{"geometry": {"type": "Point", "coordinates": [-73.5633576146, 41.0898011932]}, "type": "Feature", "properties": {"collection_times": [{"days": "Mon-Fri", "time": "5:00pm"}, {"days": "Sat", "time": "12:00pm"}, {"days": "Sun", "time": "Closed"}], "id": "0678300001", "name": "USPS COLLECTION BOX - BLUE BOX", "address": {"city": "ROXBURY", "state": "CT", "street": "26 NORTH ST", "postcode": "06783"}}},
{"geometry": {"type": "Point", "coordinates": [-73.3102876685, 41.5607449822]}, "type": "Feature", "properties": {"collection_times": [{"days": "Mon-Fri", "time": "5:00pm"}, {"days": "Sat", "time": "12:00pm"}, {"days": "Sun", "time": "Closed"}], "id": "0678300002", "name": "USPS COLLECTION BOX - PO LOBBY", "address": {"city": "ROXBURY", "state": "CT", "street": "26 NORTH ST", "postcode": "06783"}}},
{"geometry": {"type": "Point", "coordinates": [-73.4995930428, 41.5727827727]}, "type": "Feature", "properties": {"collection_times": [{"days": "Mon-Fri", "time": "5:00pm"}, {"days": "Sat", "time": "12:00pm"}, {"days": "Sun", "time": "Closed"}], "id": "0678400001", "name": "USPS COLLECTION BOX - BLUE BOX", "address": {"city": "SHERMAN", "state": "CT", "street": "29 ROUTE 37 CTR", "postcode": "06784"}}},
{"geometry": {"type": "Point", "coordinates": [-73.4979315396, 41.5818620459]}, "type": "Feature", "properties": {"collection_times": [{"days": "Mon-Sat", "time": "10:00am"}, {"days": "Sun", "time": "Closed"}], "id": "0678400002", "name": "USPS COLLECTION BOX - BLUE BOX", "address": {"city": "SHERMAN", "state": "CT", "street": "11 ROUTE 39 N", "postcode": "06784"}}},
{"geometry": {"type": "Point", "coordinates": [-73.4995930428, 41.5727827727]}, "type": "Feature", "properties": {"collection_times": [{"days": "Mon-Fri", "time": "5:00pm"}, {"days": "Sat", "time": "12:00pm"}, {"days": "Sun", "time": "Closed"}], "id": "0678400003", "name": "USPS COLLECTION BOX - PO LOBBY", "address": {"city": "SHERMAN", "state": "CT", "street": "29 ROUTE 37 CTR", "postcode": "06784"}}},
{"geometry": {"type": "Point", "coordinates": [-73.4698149653, 41.6778360479]}, "type": "Feature", "properties": {"collection_times": [{"days": "Mon-Fri", "time": "5:00pm"}, {"days": "Sat", "time": "12:30pm"}, {"days": "Sun", "time": "Closed"}], "id": "0678500001", "name": "USPS COLLECTION BOX - BLUE BOX", "address": {"city": "SOUTH KENT", "state": "CT", "street": "314 S KENT RD", "postcode": "06785"}}},
{"geometry": {"type": "Point", "coordinates": [-73.0218865179, 41.6880784345]}, "type": "Feature", "properties": {"collection_times": [{"days": "Mon-Fri", "time": "2:00pm"}, {"days": "Sat", "time": "1:00pm"}, {"days": "Sun", "time": "Closed"}], "id": "0678600001", "name": "USPS COLLECTION BOX - BLUE BOX", "address": {"city": "TERRYVILLE", "state": "CT", "street": "1 NAPCO DR", "postcode": "06786"}}},
{"geometry": {"type": "Point", "coordinates": [-73.0192031253, 41.6799193271]}, "type": "Feature", "properties": {"collection_times": [{"days": "Mon-Fri", "time": "2:00pm"}, {"days": "Sat", "time": "1:00pm"}, {"days": "Sun", "time": "Closed"}], "id": "0678600002", "name": "USPS COLLECTION BOX - BLUE BOX", "address": {"city": "TERRYVILLE", "state": "CT", "street": "311 MAIN ST", "postcode": "06786"}}},
{"geometry": {"type": "Point", "coordinates": [-73.0099273783, 41.6781218414]}, "type": "Feature", "properties": {"collection_times": [{"days": "Mon-Fri", "time": "2:00pm"}, {"days": "Sat", "time": "1:00pm"}, {"days": "Sun", "time": "Closed"}], "id": "0678600003", "name": "USPS COLLECTION BOX - BLUE BOX", "address": {"city": "TERRYVILLE", "state": "CT", "street": "10 AGNEY AVE", "postcode": "06786"}}},
{"geometry": {"type": "Point", "coordinates": [-73.0113048268, 41.678144087]}, "type": "Feature", "properties": {"collection_times": [{"days": "Mon-Fri", "time": "2:00pm"}, {"days": "Sat", "time": "1:00pm"}, {"days": "Sun", "time": "Closed"}], "id": "0678600004", "name": "USPS COLLECTION BOX - BLUE BOX", "address": {"city": "TERRYVILLE", "state": "CT", "street": "8 S MAIN ST", "postcode": "06786"}}},
{"geometry": {"type": "Point", "coordinates": [-72.99907619, 41.6792628544]}, "type": "Feature", "properties": {"collection_times": [{"days": "Mon-Fri", "time": "2:00pm"}, {"days": "Sat", "time": "1:00pm"}, {"days": "Sun", "time": "Closed"}], "id": "0678600005", "name": "USPS COLLECTION BOX - BLUE BOX", "address": {"city": "TERRYVILLE", "state": "CT", "street": "80 MAIN ST", "postcode": "06786"}}},
{"geometry": {"type": "Point", "coordinates": [-73.0032209009, 41.6773406057]}, "type": "Feature", "properties": {"collection_times": [{"days": "Mon-Fri", "time": "2:00pm"}, {"days": "Sat", "time": "1:00pm"}, {"days": "Sun", "time": "Closed"}], "id": "0678600007", "name": "USPS COLLECTION BOX - BLUE BOX", "address": {"city": "TERRYVILLE", "state": "CT", "street": "17 ALLEN ST", "postcode": "06786"}}},
{"geometry": {"type": "Point", "coordinates": [-73.0127311084, 41.6790833794]}, "type": "Feature", "properties": {"collection_times": [{"days": "Mon-Fri", "time": "2:00pm"}, {"days": "Sat", "time": "1:00pm"}, {"days": "Sun", "time": "Closed"}], "id": "0678600008", "name": "USPS COLLECTION BOX - BLUE BOX", "address": {"city": "TERRYVILLE", "state": "CT", "street": "1 PROSPECT ST", "postcode": "06786"}}},
{"geometry": {"type": "Point", "coordinates": [-73.0002263123, 41.6895965539]}, "type": "Feature", "properties": {"collection_times": [{"days": "Mon-Fri", "time": "2:00pm"}, {"days": "Sat", "time": "1:00pm"}, {"days": "Sun", "time": "Closed"}], "id": "0678600009", "name": "USPS COLLECTION BOX - BLUE BOX", "address": {"city": "TERRYVILLE", "state": "CT", "street": "2 HOYE ST", "postcode": "06786"}}},
{"geometry": {"type": "Point", "coordinates": [-73.0006377881, 41.6806990574]}, "type": "Feature", "properties": {"collection_times": [{"days": "Mon-Fri", "time": "5:00pm"}, {"days": "Sat", "time": "3:00pm"}, {"days": "Sun", "time": "Closed"}], "id": "0678600011", "name": "USPS COLLECTION BOX - BLUE BOX", "address": {"city": "TERRYVILLE", "state": "CT", "street": "19 N RIVERSIDE AVE", "postcode": "06786"}}},
{"geometry": {"type": "Point", "coordinates": [-73.010718896, 41.6757322779]}, "type": "Feature", "properties": {"collection_times": [{"days": "Mon-Fri", "time": "5:00pm"}, {"days": "Sat", "time": "3:00pm"}, {"days": "Sun", "time": "Closed"}], "id": "0678600013", "name": "USPS COLLECTION BOX - PO LOBBY", "address": {"city": "TERRYVILLE", "state": "CT", "street": "19 N RIVERSIDE AVE", "postcode": "06786"}}},
{"geometry": {"type": "Point", "coordinates": [-73.010718896, 41.6757322779]}, "type": "Feature", "properties": {"collection_times": [{"days": "Mon-Fri", "time": "5:00pm"}, {"days": "Sat", "time": "3:00pm"}, {"days": "Sun", "time": "Closed"}], "id": "0678600015", "name": "USPS COLLECTION BOX - PO LOBBY", "address": {"city": "TERRYVILLE", "state": "CT", "street": "19 N RIVERSIDE AVE", "postcode": "06786"}}},
{"geometry": {"type": "Point", "coordinates": [-73.0846057141, 41.672121579]}, "type": "Feature", "properties": {"collection_times": [{"days": "Mon-Sat", "time": "12:00pm"}, {"days": "Sun", "time": "Closed"}], "id": "0678700002", "name": "USPS COLLECTION BOX - BLUE BOX", "address": {"city": "THOMASTON", "state": "CT", "street": "36 WATERTOWN RD", "postcode": "06787"}}},
{"geometry": {"type": "Point", "coordinates": [-73.0847252915, 41.6571527862]}, "type": "Feature", "properties": {"collection_times": [{"days": "Mon-Sat", "time": "12:00pm"}, {"days": "Sun", "time": "Closed"}], "id": "0678700003", "name": "USPS COLLECTION BOX - BLUE BOX", "address": {"city": "THOMASTON", "state": "CT", "street": "143 PINE HILL RD", "postcode": "06787"}}},
{"geometry": {"type": "Point", "coordinates": [-73.0743988549, 41.6732324603]}, "type": "Feature", "properties": {"collection_times": [{"days": "Mon-Sat", "time": "12:00pm"}, {"days": "Sun", "time": "Closed"}], "id": "0678700005", "name": "USPS COLLECTION BOX - BLUE BOX", "address": {"city": "THOMASTON", "state": "CT", "street": "92 MAIN ST", "postcode": "06787"}}},
{"geometry": {"type": "Point", "coordinates": [-73.0728806597, 41.674362521]}, "type": "Feature", "properties": {"collection_times": [{"days": "Mon-Sat", "time": "12:00pm"}, {"days": "Sun", "time": "Closed"}], "id": "0678700008", "name": "USPS COLLECTION BOX - BLUE BOX", "address": {"city": "THOMASTON", "state": "CT", "street": "38 MAIN ST", "postcode": "06787"}}},
{"geometry": {"type": "Point", "coordinates": [-73.0744908239, 41.6731805]}, "type": "Feature", "properties": {"collection_times": [{"days": "Mon-Fri", "time": "5:00pm"}, {"days": "Sat", "time": "3:30pm"}, {"days": "Sun", "time": "Closed"}], "id": "0678700010", "name": "USPS COLLECTION BOX - BLUE BOX", "address": {"city": "THOMASTON", "state": "CT", "street": "150 MAIN ST", "postcode": "06787"}}},
{"geometry": {"type": "Point", "coordinates": [-73.0846057143, 41.6721302227]}, "type": "Feature", "properties": {"collection_times": [{"days": "Mon-Fri", "time": "5:00pm"}, {"days": "Sat", "time": "3:30pm"}, {"days": "Sun", "time": "Closed"}], "id": "0678700012", "name": "USPS COLLECTION BOX - BLUE BOX", "address": {"city": "THOMASTON", "state": "CT", "street": "4 THOMAS AVE", "postcode": "06787"}}},
{"geometry": {"type": "Point", "coordinates": [-73.0744908239, 41.6731805]}, "type": "Feature", "properties": {"collection_times": [{"days": "Mon-Fri", "time": "5:00pm"}, {"days": "Sat", "time": "3:30pm"}, {"days": "Sun", "time": "Closed"}], "id": "0678700013", "name": "USPS COLLECTION BOX - PO LOBBY", "address": {"city": "THOMASTON", "state": "CT", "street": "150 MAIN ST", "postcode": "06787"}}},
{"geometry": {"type": "Point", "coordinates": [-73.1154987034, 41.8164713054]}, "type": "Feature", "properties": {"collection_times": [{"days": "Mon-Fri", "time": "3:15pm"}, {"days": "Sat", "time": "3:30pm"}, {"days": "Sun", "time": "Closed"}], "id": "0679000001", "name": "USPS COLLECTION BOX - EXPRESS", "address": {"city": "TORRINGTON", "state": "CT", "street": "185 E ELM ST", "postcode": "06790"}}},
{"geometry": {"type": "Point", "coordinates": [-73.0901614315, 41.8010120426]}, "type": "Feature", "properties": {"collection_times": [{"days": "Mon-Sat", "time": "1:30pm"}, {"days": "Sun", "time": "Closed"}], "id": "0679000006", "name": "USPS COLLECTION BOX - BLUE BOX", "address": {"city": "TORRINGTON", "state": "CT", "street": "5 CIRCLE CIR", "postcode": "06790"}}},
{"geometry": {"type": "Point", "coordinates": [-73.118191694, 41.8096513781]}, "type": "Feature", "properties": {"collection_times": [{"days": "Mon-Fri", "time": "5:00pm"}, {"days": "Sat", "time": "3:30pm"}, {"days": "Sun", "time": "Closed"}], "id": "0679000009", "name": "USPS COLLECTION BOX - BLUE BOX", "address": {"city": "TORRINGTON", "state": "CT", "street": "185 E ELM ST", "postcode": "06790"}}},
{"geometry": {"type": "Point", "coordinates": [-73.118191694, 41.8096513781]}, "type": "Feature", "properties": {"collection_times": [{"days": "Mon-Fri", "time": "5:00pm"}, {"days": "Sat", "time": "3:30pm"}, {"days": "Sun", "time": "Closed"}], "id": "0679000011", "name": "USPS COLLECTION BOX - BLUE BOX", "address": {"city": "TORRINGTON", "state": "CT", "street": "185 E ELM ST", "postcode": "06790"}}},
{"geometry": {"type": "Point", "coordinates": [-73.1177327059, 41.8028600107]}, "type": "Feature", "properties": {"collection_times": [{"days": "Mon-Sat", "time": "1:30pm"}, {"days": "Sun", "time": "Closed"}], "id": "0679000013", "name": "USPS COLLECTION BOX - BLUE BOX", "address": {"city": "TORRINGTON", "state": "CT", "street": "176 E MAIN ST", "postcode": "06790"}}},
{"geometry": {"type": "Point", "coordinates": [-73.0932363154, 41.8162235536]}, "type": "Feature", "properties": {"collection_times": [{"days": "Mon-Sat", "time": "1:00pm"}, {"days": "Sun", "time": "Closed"}], "id": "0679000016", "name": "USPS COLLECTION BOX - BLUE BOX", "address": {"city": "TORRINGTON", "state": "CT", "street": "1238 E MAIN ST", "postcode": "06790"}}},
{"geometry": {"type": "Point", "coordinates": [-73.1154987034, 41.8164713515]}, "type": "Feature", "properties": {"collection_times": [{"days": "Mon-Fri", "time": "2:00pm"}, {"days": "Sat", "time": "1:45pm"}, {"days": "Sun", "time": "Closed"}], "id": "0679000021", "name": "USPS COLLECTION BOX - BLUE BOX", "address": {"city": "TORRINGTON", "state": "CT", "street": "601 S MAIN ST", "postcode": "06790"}}},
{"geometry": {"type": "Point", "coordinates": [-73.1216110508, 41.8145341162]}, "type": "Feature", "properties": {"collection_times": [{"days": "Mon-Fri", "time": "3:00pm"}, {"days": "Sat", "time": "2:30pm"}, {"days": "Sun", "time": "Closed"}], "id": "0679000025", "name": "USPS COLLECTION BOX - BLUE BOX", "address": {"city": "TORRINGTON", "state": "CT", "street": "685 MAIN ST", "postcode": "06790"}}},
{"geometry": {"type": "Point", "coordinates": [-73.1205339527, 41.7951719603]}, "type": "Feature", "properties": {"collection_times": [{"days": "Mon-Sat", "time": "2:15pm"}, {"days": "Sun", "time": "Closed"}], "id": "0679000035", "name": "USPS COLLECTION BOX - BLUE BOX", "address": {"city": "TORRINGTON", "state": "CT", "street": "258 MAIN ST", "postcode": "06790"}}},
{"geometry": {"type": "Point", "coordinates": [-73.1212780339, 41.8117038119]}, "type": "Feature", "properties": {"collection_times": [{"days": "Mon-Fri", "time": "3:30pm"}, {"days": "Sat", "time": "3:00pm"}, {"days": "Sun", "time": "Closed"}], "id": "0679000037", "name": "USPS COLLECTION BOX - BLUE BOX", "address": {"city": "TORRINGTON", "state": "CT", "street": "551 MAIN ST", "postcode": "06790"}}},
{"geometry": {"type": "Point", "coordinates": [-73.1283301764, 41.7995750184]}, "type": "Feature", "properties": {"collection_times": [{"days": "Mon-Fri", "time": "3:30pm"}, {"days": "Sat", "time": "1:15pm"}, {"days": "Sun", "time": "Closed"}], "id": "0679000038", "name": "USPS COLLECTION BOX - BLUE BOX", "address": {"city": "TORRINGTON", "state": "CT", "street": "251 HIGH ST", "postcode": "06790"}}},
{"geometry": {"type": "Point", "coordinates": [-73.122324424, 41.802913565]}, "type": "Feature", "properties": {"collection_times": [{"days": "Mon-Fri", "time": "3:30pm"}, {"days": "Sat", "time": "3:15pm"}, {"days": "Sun", "time": "Closed"}], "id": "0679000043", "name": "USPS COLLECTION BOX - BLUE BOX", "address": {"city": "TORRINGTON", "state": "CT", "street": "19 MASON ST", "postcode": "06790"}}},
{"geometry": {"type": "Point", "coordinates": [-73.1459270508, 41.7862771803]}, "type": "Feature", "properties": {"collection_times": [{"days": "Mon-Fri", "time": "3:00pm"}, {"days": "Sat", "time": "1:30pm"}, {"days": "Sun", "time": "Closed"}], "id": "0679000045", "name": "USPS COLLECTION BOX - BLUE BOX", "address": {"city": "TORRINGTON", "state": "CT", "street": "1185 NEW LITCHFIELD ST", "postcode": "06790"}}},
{"geometry": {"type": "Point", "coordinates": [-73.1135024447, 41.7932957874]}, "type": "Feature", "properties": {"collection_times": [{"days": "Mon-Fri", "time": "2:00pm"}, {"days": "Sat", "time": "1:45pm"}, {"days": "Sun", "time": "Closed"}], "id": "0679000048", "name": "USPS COLLECTION BOX - BLUE BOX", "address": {"city": "TORRINGTON", "state": "CT", "street": "221 OAK AVE", "postcode": "06790"}}},
{"geometry": {"type": "Point", "coordinates": [-73.1226857551, 41.8057097588]}, "type": "Feature", "properties": {"collection_times": [{"days": "Mon-Fri", "time": "3:30pm"}, {"days": "Sat", "time": "2:45pm"}, {"days": "Sun", "time": "Closed"}], "id": "0679000049", "name": "USPS COLLECTION BOX - BLUE BOX", "address": {"city": "TORRINGTON", "state": "CT", "street": "400 PROSPECT ST", "postcode": "06790"}}},
{"geometry": {"type": "Point", "coordinates": [-73.1448109467, 41.8170495739]}, "type": "Feature", "properties": {"collection_times": [{"days": "Mon-Fri", "time": "3:30pm"}, {"days": "Sat", "time": "2:30pm"}, {"days": "Sun", "time": "Closed"}], "id": "0679000052", "name": "USPS COLLECTION BOX - BLUE BOX", "address": {"city": "TORRINGTON", "state": "CT", "street": "835 RIVERSIDE AVE", "postcode": "06790"}}},
{"geometry": {"type": "Point", "coordinates": [-73.1116798271, 41.8267631316]}, "type": "Feature", "properties": {"collection_times": [{"days": "Mon-Fri", "time": "3:00pm"}, {"days": "Sat", "time": "2:30pm"}, {"days": "Sun", "time": "Closed"}], "id": "0679000055", "name": "USPS COLLECTION BOX - BLUE BOX", "address": {"city": "TORRINGTON", "state": "CT", "street": "500 WINSTED RD", "postcode": "06790"}}},
{"geometry": {"type": "Point", "coordinates": [-73.1232830392, 41.7984587687]}, "type": "Feature", "properties": {"collection_times": [{"days": "Mon-Fri", "time": "5:00pm"}, {"days": "Sat", "time": "12:00pm"}, {"days": "Sun", "time": "Closed"}], "id": "0679000067", "name": "USPS COLLECTION BOX - BLUE BOX", "address": {"city": "TORRINGTON", "state": "CT", "street": "122 LITCHFIELD ST", "postcode": "06790"}}},
{"geometry": {"type": "Point", "coordinates": [-73.1154987034, 41.8164713515]}, "type": "Feature", "properties": {"collection_times": [{"days": "Mon-Sat", "time": "1:15pm"}, {"days": "Sun", "time": "Closed"}], "id": "0679000074", "name": "USPS COLLECTION BOX - BLUE BOX", "address": {"city": "TORRINGTON", "state": "CT", "street": "990 TORRINGFORD ST", "postcode": "06790"}}},
{"geometry": {"type": "Point", "coordinates": [-73.118191694, 41.8096513781]}, "type": "Feature", "properties": {"collection_times": [{"days": "Mon-Fri", "time": "5:00pm"}, {"days": "Sat", "time": "3:30pm"}, {"days": "Sun", "time": "Closed"}], "id": "0679000075", "name": "USPS COLLECTION BOX - PO LOBBY", "address": {"city": "TORRINGTON", "state": "CT", "street": "185 E ELM ST", "postcode": "06790"}}},
{"geometry": {"type": "Point", "coordinates": [-73.1221627101, 41.7995563202]}, "type": "Feature", "properties": {"collection_times": [{"days": "Mon-Fri", "time": "3:30pm"}, {"days": "Sat", "time": "1:15pm"}, {"days": "Sun", "time": "Closed"}], "id": "0679000078", "name": "USPS COLLECTION BOX - BLUE BOX", "address": {"city": "TORRINGTON", "state": "CT", "street": "1 DAYCOETON PL", "postcode": "06790"}}},
{"geometry": {"type": "Point", "coordinates": [-73.1213714877, 41.8032468382]}, "type": "Feature", "properties": {"collection_times": [{"days": "Mon-Fri", "time": "3:30pm"}, {"days": "Sat", "time": "3:00pm"}, {"days": "Sun", "time": "Closed"}], "id": "0679000079", "name": "USPS COLLECTION BOX - BLUE BOX", "address": {"city": "TORRINGTON", "state": "CT", "street": "140 MAIN ST", "postcode": "06790"}}},
{"geometry": {"type": "Point", "coordinates": [-73.1212673873, 41.8075445282]}, "type": "Feature", "properties": {"collection_times": [{"days": "Mon-Fri", "time": "2:30pm"}, {"days": "Sat", "time": "2:00pm"}, {"days": "Sun", "time": "Closed"}], "id": "0679000080", "name": "USPS COLLECTION BOX - BLUE BOX", "address": {"city": "TORRINGTON", "state": "CT", "street": "350 MAIN ST", "postcode": "06790"}}},
{"geometry": {"type": "Point", "coordinates": [-73.1227543667, 41.8046569253]}, "type": "Feature", "properties": {"collection_times": [{"days": "Mon-Fri", "time": "3:30pm"}, {"days": "Sat-Sun", "time": "Closed"}], "id": "0679000081", "name": "USPS COLLECTION BOX - BLUE BOX", "address": {"city": "TORRINGTON", "state": "CT", "street": "355 PROSPECT ST", "postcode": "06790"}}},
{"geometry": {"type": "Point", "coordinates": [-73.3225309619, 41.6509910242]}, "type": "Feature", "properties": {"collection_times": [{"days": "Mon-Fri", "time": "4:45pm"}, {"days": "Sat", "time": "12:00pm"}, {"days": "Sun", "time": "Closed"}], "id": "0679400003", "name": "USPS COLLECTION BOX - BLUE BOX", "address": {"city": "WASHINGTON DT", "state": "CT", "street": "253 NEW MILFORD", "postcode": "06794"}}},
{"geometry": {"type": "Point", "coordinates": [-73.3201440826, 41.639799764]}, "type": "Feature", "properties": {"collection_times": [{"days": "Mon-Fri", "time": "4:45pm"}, {"days": "Sat", "time": "12:00pm"}, {"days": "Sun", "time": "Closed"}], "id": "0679400006", "name": "USPS COLLECTION BOX - BLUE BOX", "address": {"city": "WASHINGTON DT", "state": "CT", "street": "9 BRYAN HALL PLZ", "postcode": "06794"}}},
{"geometry": {"type": "Point", "coordinates": [-73.3225309619, 41.6509910242]}, "type": "Feature", "properties": {"collection_times": [{"days": "Mon-Fri", "time": "4:45pm"}, {"days": "Sat", "time": "12:00pm"}, {"days": "Sun", "time": "Closed"}], "id": "0679400008", "name": "USPS COLLECTION BOX - BLUE BOX", "address": {"city": "WASHINGTON DT", "state": "CT", "street": "5 KIRBY", "postcode": "06794"}}},
{"geometry": {"type": "Point", "coordinates": [-73.3199772854, 41.640345108]}, "type": "Feature", "properties": {"collection_times": [{"days": "Mon-Sat", "time": "10:00am"}, {"days": "Sun", "time": "Closed"}], "id": "0679400009", "name": "USPS COLLECTION BOX - BLUE BOX", "address": {"city": "WASHINGTON DT", "state": "CT", "street": "2 BRYAN HALL PLZ", "postcode": "06794"}}},
{"geometry": {"type": "Point", "coordinates": [-73.3225309619, 41.6509910242]}, "type": "Feature", "properties": {"collection_times": [{"days": "Mon-Fri", "time": "4:45pm"}, {"days": "Sat", "time": "12:00pm"}, {"days": "Sun", "time": "Closed"}], "id": "0679400010", "name": "USPS COLLECTION BOX - PO LOBBY", "address": {"city": "WASHINGTON DT", "state": "CT", "street": "253 NEW MILFORD", "postcode": "06794"}}},
{"geometry": {"type": "Point", "coordinates": [-73.3225309619, 41.6509910242]}, "type": "Feature", "properties": {"collection_times": [{"days": "Mon-Fri", "time": "4:45pm"}, {"days": "Sat", "time": "12:00pm"}, {"days": "Sun", "time": "Closed"}], "id": "0679400011", "name": "USPS COLLECTION BOX - PO LOBBY", "address": {"city": "WASHINGTON DT", "state": "CT", "street": "5 KIRBY", "postcode": "06794"}}},
{"geometry": {"type": "Point", "coordinates": [-73.1185805903, 41.6061859745]}, "type": "Feature", "properties": {"collection_times": [{"days": "Mon-Fri", "time": "10:00am"}, {"days": "Sat-Sun", "time": "Closed"}], "id": "0679500001", "name": "USPS COLLECTION BOX - BLUE BOX", "address": {"city": "WATERTOWN", "state": "CT", "street": "10 DEFOREST ST", "postcode": "06795"}}},
{"geometry": {"type": "Point", "coordinates": [-73.1191234146, 41.6052509396]}, "type": "Feature", "properties": {"collection_times": [{"days": "Mon-Fri", "time": "3:00pm"}, {"days": "Sat", "time": "2:00pm"}, {"days": "Sun", "time": "Closed"}], "id": "0679500002", "name": "USPS COLLECTION BOX - BLUE BOX", "address": {"city": "WATERTOWN", "state": "CT", "street": "37 DEFOREST ST", "postcode": "06795"}}},
{"geometry": {"type": "Point", "coordinates": [-73.1150885789, 41.6080641199]}, "type": "Feature", "properties": {"collection_times": [{"days": "Mon-Sat", "time": "10:00am"}, {"days": "Sun", "time": "Closed"}], "id": "0679500005", "name": "USPS COLLECTION BOX - BLUE BOX", "address": {"city": "WATERTOWN", "state": "CT", "street": "100 STEELE BROOK RD", "postcode": "06795"}}},
{"geometry": {"type": "Point", "coordinates": [-73.1130195808, 41.6033999818]}, "type": "Feature", "properties": {"collection_times": [{"days": "Mon-Fri", "time": "3:00pm"}, {"days": "Sat", "time": "2:00pm"}, {"days": "Sun", "time": "Closed"}], "id": "0679500008", "name": "USPS COLLECTION BOX - BLUE BOX", "address": {"city": "WATERTOWN", "state": "CT", "street": "27 SIEMON COMPANY DR", "postcode": "06795"}}},
{"geometry": {"type": "Point", "coordinates": [-73.1000947878, 41.5756183253]}, "type": "Feature", "properties": {"collection_times": [{"days": "Mon-Sat", "time": "2:00pm"}, {"days": "Sun", "time": "Closed"}], "id": "0679500009", "name": "USPS COLLECTION BOX - BLUE BOX", "address": {"city": "WATERTOWN", "state": "CT", "street": "639 STRAITS TPKE", "postcode": "06795"}}},
{"geometry": {"type": "Point", "coordinates": [-73.0985190409, 41.5689142704]}, "type": "Feature", "properties": {"collection_times": [{"days": "Mon-Sat", "time": "11:00am"}, {"days": "Sun", "time": "Closed"}], "id": "0679500010", "name": "USPS COLLECTION BOX - BLUE BOX", "address": {"city": "WATERTOWN", "state": "CT", "street": "764 STRAITS TPKE", "postcode": "06795"}}},
{"geometry": {"type": "Point", "coordinates": [-73.1215860561, 41.6058341288]}, "type": "Feature", "properties": {"collection_times": [{"days": "Mon-Sat", "time": "5:00pm"}, {"days": "Sun", "time": "Closed"}], "id": "0679500012", "name": "USPS COLLECTION BOX - EXPRESS", "address": {"city": "WATERTOWN", "state": "CT", "street": "30 WOODRUFF AVE", "postcode": "06795"}}},
{"geometry": {"type": "Point", "coordinates": [-73.1215860561, 41.6058341288]}, "type": "Feature", "properties": {"collection_times": [{"days": "Mon-Fri", "time": "5:00pm"}, {"days": "Sat", "time": "4:00pm"}, {"days": "Sun", "time": "Closed"}], "id": "0679500013", "name": "USPS COLLECTION BOX - EXPRESS", "address": {"city": "WATERTOWN", "state": "CT", "street": "322 MAIN     OAKVILLE", "postcode": "06795"}}},
{"geometry": {"type": "Point", "coordinates": [-73.1093565028, 41.5933374653]}, "type": "Feature", "properties": {"collection_times": [{"days": "Mon-Sat", "time": "11:00am"}, {"days": "Sun", "time": "Closed"}], "id": "0679500014", "name": "USPS COLLECTION BOX - BLUE BOX", "address": {"city": "WATERTOWN", "state": "CT", "street": "1161 MAIN ST", "postcode": "06795"}}},
{"geometry": {"type": "Point", "coordinates": [-73.0992585867, 41.5895108443]}, "type": "Feature", "properties": {"collection_times": [{"days": "Mon-Sat", "time": "11:00am"}, {"days": "Sun", "time": "Closed"}], "id": "0679500015", "name": "USPS COLLECTION BOX - BLUE BOX", "address": {"city": "WATERTOWN", "state": "CT", "street": "975 MAIN ST", "postcode": "06795"}}},
{"geometry": {"type": "Point", "coordinates": [-73.0992585867, 41.5895108443]}, "type": "Feature", "properties": {"collection_times": [{"days": "Mon-Fri", "time": "3:00pm"}, {"days": "Sat", "time": "2:00pm"}, {"days": "Sun", "time": "Closed"}], "id": "0679500016", "name": "USPS COLLECTION BOX - BLUE BOX", "address": {"city": "WATERTOWN", "state": "CT", "street": "656 MAIN ST", "postcode": "06795"}}},
{"geometry": {"type": "Point", "coordinates": [-73.117019954, 41.6040417904]}, "type": "Feature", "properties": {"collection_times": [{"days": "Mon-Sat", "time": "10:00am"}, {"days": "Sun", "time": "Closed"}], "id": "0679500017", "name": "USPS COLLECTION BOX - BLUE BOX", "address": {"city": "WATERTOWN", "state": "CT", "street": "449 MAIN ST", "postcode": "06795"}}},
{"geometry": {"type": "Point", "coordinates": [-73.1159984881, 41.6002842027]}, "type": "Feature", "properties": {"collection_times": [{"days": "Mon-Fri", "time": "5:00pm"}, {"days": "Sat", "time": "4:00pm"}, {"days": "Sun", "time": "Closed"}], "id": "0679500019", "name": "USPS COLLECTION BOX - BLUE BOX", "address": {"city": "WATERTOWN", "state": "CT", "street": "30 WOODRUFF AVE", "postcode": "06795"}}},
{"geometry": {"type": "Point", "coordinates": [-73.1181270921, 41.6056431691]}, "type": "Feature", "properties": {"collection_times": [{"days": "Mon-Fri", "time": "5:00pm"}, {"days": "Sat", "time": "4:00pm"}, {"days": "Sun", "time": "Closed"}], "id": "0679500021", "name": "USPS COLLECTION BOX - BLUE BOX", "address": {"city": "WATERTOWN", "state": "CT", "street": "322 MAIN ST", "postcode": "06795"}}},
{"geometry": {"type": "Point", "coordinates": [-73.1224929568, 41.6183740627]}, "type": "Feature", "properties": {"collection_times": [{"days": "Mon-Sat", "time": "10:00am"}, {"days": "Sun", "time": "Closed"}], "id": "0679500023", "name": "USPS COLLECTION BOX - BLUE BOX", "address": {"city": "WATERTOWN", "state": "CT", "street": "382 BUCKINGHAM", "postcode": "06795"}}},
{"geometry": {"type": "Point", "coordinates": [-73.1224929568, 41.6183740627]}, "type": "Feature", "properties": {"collection_times": [{"days": "Mon-Sat", "time": "10:00am"}, {"days": "Sun", "time": "Closed"}], "id": "0679500024", "name": "USPS COLLECTION BOX - BLUE BOX", "address": {"city": "WATERTOWN", "state": "CT", "street": "237 BUCKINGHAM", "postcode": "06795"}}},
{"geometry": {"type": "Point", "coordinates": [-73.1191950945, 41.6080337294]}, "type": "Feature", "properties": {"collection_times": [{"days": "Mon-Sat", "time": "10:00am"}, {"days": "Sun", "time": "Closed"}], "id": "0679500027", "name": "USPS COLLECTION BOX - BLUE BOX", "address": {"city": "WATERTOWN", "state": "CT", "street": "151 MAIN ST", "postcode": "06795"}}},
{"geometry": {"type": "Point", "coordinates": [-73.1151197841, 41.6008309742]}, "type": "Feature", "properties": {"collection_times": [{"days": "Mon-Sat", "time": "10:00am"}, {"days": "Sun", "time": "Closed"}], "id": "0679500028", "name": "USPS COLLECTION BOX - BLUE BOX", "address": {"city": "WATERTOWN", "state": "CT", "street": "714 MAIN ST", "postcode": "06795"}}},
{"geometry": {"type": "Point", "coordinates": [-73.1224929568, 41.6183740627]}, "type": "Feature", "properties": {"collection_times": [{"days": "Mon-Sat", "time": "10:00am"}, {"days": "Sun", "time": "Closed"}], "id": "0679500030", "name": "USPS COLLECTION BOX - BLUE BOX", "address": {"city": "WATERTOWN", "state": "CT", "street": "395 DAVIS", "postcode": "06795"}}},
{"geometry": {"type": "Point", "coordinates": [-73.1227749977, 41.6027176965]}, "type": "Feature", "properties": {"collection_times": [{"days": "Mon-Sat", "time": "10:00am"}, {"days": "Sun", "time": "Closed"}], "id": "0679500033", "name": "USPS COLLECTION BOX - BLUE BOX", "address": {"city": "WATERTOWN", "state": "CT", "street": "2 MIDDLEBURY RD", "postcode": "06795"}}},
{"geometry": {"type": "Point", "coordinates": [-73.0992585867, 41.5895108443]}, "type": "Feature", "properties": {"collection_times": [{"days": "Mon-Sat", "time": "10:00am"}, {"days": "Sun", "time": "Closed"}], "id": "0679500036", "name": "USPS COLLECTION BOX - BLUE BOX", "address": {"city": "WATERTOWN", "state": "CT", "street": "365 MAIN ST", "postcode": "06795"}}},
{"geometry": {"type": "Point", "coordinates": [-73.1159984881, 41.6002842027]}, "type": "Feature", "properties": {"collection_times": [{"days": "Mon-Fri", "time": "5:30pm"}, {"days": "Sat", "time": "4:00pm"}, {"days": "Sun", "time": "Closed"}], "id": "0679500037", "name": "USPS COLLECTION BOX - PO LOBBY", "address": {"city": "WATERTOWN", "state": "CT", "street": "30 WOODRUFF AVE", "postcode": "06795"}}},
{"geometry": {"type": "Point", "coordinates": [-73.1181270921, 41.6056431691]}, "type": "Feature", "properties": {"collection_times": [{"days": "Mon-Fri", "time": "5:00pm"}, {"days": "Sat", "time": "4:00pm"}, {"days": "Sun", "time": "Closed"}], "id": "0679500038", "name": "USPS COLLECTION BOX - PO LOBBY", "address": {"city": "WATERTOWN", "state": "CT", "street": "322 MAIN ST", "postcode": "06795"}}},
{"geometry": {"type": "Point", "coordinates": [-73.1144584636, 41.6018082737]}, "type": "Feature", "properties": {"collection_times": [{"days": "Mon-Fri", "time": "3:00pm"}, {"days": "Sat", "time": "1:00pm"}, {"days": "Sun", "time": "Closed"}], "id": "0679500039", "name": "USPS COLLECTION BOX - BLUE BOX", "address": {"city": "WATERTOWN", "state": "CT", "street": "51 DEPOT ST", "postcode": "06795"}}},
{"geometry": {"type": "Point", "coordinates": [-73.3294146653, 41.8711587113]}, "type": "Feature", "properties": {"collection_times": [{"days": "Mon-Fri", "time": "4:45pm"}, {"days": "Sat", "time": "12:15pm"}, {"days": "Sun", "time": "Closed"}], "id": "0679600001", "name": "USPS COLLECTION BOX - BLUE BOX", "address": {"city": "WEST CORNWALL", "state": "CT", "street": "408 GOSHEN/SHARON", "postcode": "06796"}}},
{"geometry": {"type": "Point", "coordinates": [-73.3294146653, 41.8711587113]}, "type": "Feature", "properties": {"collection_times": [{"days": "Mon-Fri", "time": "4:30pm"}, {"days": "Sat", "time": "12:00pm"}, {"days": "Sun", "time": "Closed"}], "id": "0679600002", "name": "USPS COLLECTION BOX - PO LOBBY", "address": {"city": "WEST CORNWALL", "state": "CT", "street": "408 GOSHEN/SHARON TPKE", "postcode": "06796"}}},
{"geometry": {"type": "Point", "coordinates": [-73.2093740746, 41.5445518631]}, "type": "Feature", "properties": {"collection_times": [{"days": "Mon-Fri", "time": "5:00pm"}, {"days": "Sat", "time": "2:00pm"}, {"days": "Sun", "time": "Closed"}], "id": "0679800003", "name": "USPS COLLECTION BOX - BLUE BOX", "address": {"city": "WOODBURY", "state": "CT", "street": "1 WASHINGTON AVE", "postcode": "06798"}}},
{"geometry": {"type": "Point", "coordinates": [-73.208477196, 41.542441207]}, "type": "Feature", "properties": {"collection_times": [{"days": "Mon-Sat", "time": "9:30am"}, {"days": "Sun", "time": "Closed"}], "id": "0679800006", "name": "USPS COLLECTION BOX - BLUE BOX", "address": {"city": "WOODBURY", "state": "CT", "street": "670 MAIN ST S", "postcode": "06798"}}},
{"geometry": {"type": "Point", "coordinates": [-73.2065178786, 41.5523818711]}, "type": "Feature", "properties": {"collection_times": [{"days": "Mon-Fri", "time": "2:45pm"}, {"days": "Sat", "time": "2:00pm"}, {"days": "Sun", "time": "Closed"}], "id": "0679800007", "name": "USPS COLLECTION BOX - EXPRESS", "address": {"city": "WOODBURY", "state": "CT", "street": "1 WASHINGTON AVE", "postcode": "06798"}}},
{"geometry": {"type": "Point", "coordinates": [-73.2093740746, 41.5445518631]}, "type": "Feature", "properties": {"collection_times": [{"days": "Mon-Fri", "time": "5:00pm"}, {"days": "Sat", "time": "2:00pm"}, {"days": "Sun", "time": "Closed"}], "id": "0679800008", "name": "USPS COLLECTION BOX - PO LOBBY", "address": {"city": "WOODBURY", "state": "CT", "street": "1 WASHINGTON AVE", "postcode": "06798"}}},
{"geometry": {"type": "Point", "coordinates": [-73.2313309778, 41.5212840937]}, "type": "Feature", "properties": {"collection_times": [{"days": "Mon-Sat", "time": "9:30am"}, {"days": "Sun", "time": "Closed"}], "id": "0679800009", "name": "USPS COLLECTION BOX - BLUE BOX", "address": {"city": "WOODBURY", "state": "CT", "street": "57 CLUBHOUSE DR", "postcode": "06798"}}},
{"geometry": {"type": "Point", "coordinates": [-73.2015409883, 41.5283364098]}, "type": "Feature", "properties": {"collection_times": [{"days": "Mon-Sat", "time": "9:30am"}, {"days": "Sun", "time": "Closed"}], "id": "0679800010", "name": "USPS COLLECTION BOX - BLUE BOX", "address": {"city": "WOODBURY", "state": "CT", "street": "47 SHERMAN HILL RD", "postcode": "06798"}}}
]}
