{"type": "FeatureCollection", "features": [
{"geometry": {"type": "Point", "coordinates": [-73.4096089032, 41.3713390564]}, "type": "Feature", "properties": {"collection_times": [{"days": "Mon-Fri", "time": "3:00pm"}, {"days": "Sat", "time": "2:00pm"}, {"days": "Sun", "time": "Closed"}], "id": "0680100002", "name": "USPS COLLECTION BOX - BLUE BOX", "address": {"city": "BETHEL", "state": "CT", "street": "98 GREENWOOD AVE", "postcode": "06801"}}},
{"geometry": {"type": "Point", "coordinates": [-73.4247708882, 41.3757562252]}, "type": "Feature", "properties": {"collection_times": [{"days": "Mon-Sat", "time": "2:00pm"}, {"days": "Sun", "time": "Closed"}], "id": "0680100003", "name": "USPS COLLECTION BOX - BLUE BOX", "address": {"city": "BETHEL", "state": "CT", "street": "40 GRASSY PLAIN ST", "postcode": "06801"}}},
{"geometry": {"type": "Point", "coordinates": [-73.4111771865, 41.3721373717]}, "type": "Feature", "properties": {"collection_times": [{"days": "Mon-Fri", "time": "3:00pm"}, {"days": "Sat", "time": "2:00pm"}, {"days": "Sun", "time": "Closed"}], "id": "0680100004", "name": "USPS COLLECTION BOX - BLUE BOX", "address": {"city": "BETHEL", "state": "CT", "street": "2 SCHOOL ST", "postcode": "06801"}}},
{"geometry": {"type": "Point", "coordinates": [-73.398888929, 41.4169622348]}, "type": "Feature", "properties": {"collection_times": [{"days": "Mon-Fri", "time": "3:00pm"}, {"days": "Sat", "time": "2:00pm"}, {"days": "Sun", "time": "Closed"}], "id": "0680100006", "name": "USPS COLLECTION BOX - BLUE BOX", "address": {"city": "BETHEL", "state": "CT", "street": "10 STONY HILL RD", "postcode": "06801"}}},
{"geometry": {"type": "Point", "coordinates": [-73.418608855, 41.3719754884]}, "type": "Feature", "properties": {"collection_times": [{"days": "Mon-Sat", "time": "2:00pm"}, {"days": "Sun", "time": "Closed"}], "id": "0680100008", "name": "USPS COLLECTION BOX - BLUE BOX", "address": {"city": "BETHEL", "state": "CT", "street": "235 GREENWOOD AVE", "postcode": "06801"}}},
{"geometry": {"type": "Point", "coordinates": [-73.4140935006, 41.3722085313]}, "type": "Feature", "properties": {"collection_times": [{"days": "Mon-Fri", "time": "5:00pm"}, {"days": "Sat", "time": "3:00pm"}, {"days": "Sun", "time": "Closed"}], "id": "0680100013", "name": "USPS COLLECTION BOX - BLUE BOX", "address": {"city": "BETHEL", "state": "CT", "street": "10 LIBRARY PL", "postcode": "06801"}}},
{"geometry": {"type": "Point", "coordinates": [-73.4039679635, 41.3802240632]}, "type": "Feature", "properties": {"collection_times": [{"days": "Mon-Fri", "time": "3:45pm"}, {"days": "Sat", "time": "3:00pm"}, {"days": "Sun", "time": "Closed"}], "id": "0680100014", "name": "USPS COLLECTION BOX - EXPRESS", "address": {"city": "BETHEL", "state": "CT", "street": "10 LIBRARY PL", "postcode": "06801"}}},
{"geometry": {"type": "Point", "coordinates": [-73.4140935006, 41.3722085313]}, "type": "Feature", "properties": {"collection_times": [{"days": "Mon-Fri", "time": "5:00pm"}, {"days": "Sat", "time": "3:00pm"}, {"days": "Sun", "time": "Closed"}], "id": "0680100015", "name": "USPS COLLECTION BOX - PO LOBBY", "address": {"city": "BETHEL", "state": "CT", "street": "10 LIBRARY PL", "postcode": "06801"}}},
{"geometry": {"type": "Point", "coordinates": [-73.4009222064, 41.419674419]}, "type": "Feature", "properties": {"collection_times": [{"days": "Mon-Fri", "time": "3:00pm"}, {"days": "Sat", "time": "2:00pm"}, {"days": "Sun", "time": "Closed"}], "id": "0680100017", "name": "USPS COLLECTION BOX - BLUE BOX", "address": {"city": "BETHEL", "state": "CT", "street": "8 BERKSHIRE BLVD", "postcode": "06801"}}},
{"geometry": {"type": "Point", "coordinates": [-73.3782817839, 41.414045058]}, "type": "Feature", "properties": {"collection_times": [{"days": "Mon-Sat", "time": "12:00pm"}, {"days": "Sun", "time": "Closed"}], "id": "0680100020", "name": "USPS COLLECTION BOX - BLUE BOX", "address": {"city": "BETHEL", "state": "CT", "street": "81 STONY HILL RD", "postcode": "06801"}}},
{"geometry": {"type": "Point", "coordinates": [-73.4114266553, 41.4335330923]}, "type": "Feature", "properties": {"collection_times": [{"days": "Mon-Sat", "time": "10:30am"}, {"days": "Sun", "time": "Closed"}], "id": "0680400003", "name": "USPS COLLECTION BOX - BLUE BOX", "address": {"city": "BROOKFIELD", "state": "CT", "street": "14 CANDLEWOOD LAKE RD", "postcode": "06804"}}},
{"geometry": {"type": "Point", "coordinates": [-73.3975981855, 41.4657815665]}, "type": "Feature", "properties": {"collection_times": [{"days": "Mon-Fri", "time": "5:00pm"}, {"days": "Sat", "time": "2:00pm"}, {"days": "Sun", "time": "Closed"}], "id": "0680400005", "name": "USPS COLLECTION BOX - EXPRESS", "address": {"city": "BROOKFIELD", "state": "CT", "street": "115 POCONO RD", "postcode": "06804"}}},
{"geometry": {"type": "Point", "coordinates": [-73.3979910632, 41.4668109427]}, "type": "Feature", "properties": {"collection_times": [{"days": "Mon-Fri", "time": "5:00pm"}, {"days": "Sat", "time": "2:00pm"}, {"days": "Sun", "time": "Closed"}], "id": "0680400006", "name": "USPS COLLECTION BOX - BLUE BOX", "address": {"city": "BROOKFIELD", "state": "CT", "street": "115 POCONO RD", "postcode": "06804"}}},
{"geometry": {"type": "Point", "coordinates": [-73.3979910632, 41.4668109427]}, "type": "Feature", "properties": {"collection_times": [{"days": "Mon-Fri", "time": "5:00pm"}, {"days": "Sat", "time": "2:00pm"}, {"days": "Sun", "time": "Closed"}], "id": "0680400010", "name": "USPS COLLECTION BOX - PO LOBBY", "address": {"city": "BROOKFIELD", "state": "CT", "street": "115 POCONO RD", "postcode": "06804"}}},
{"geometry": {"type": "Point", "coordinates": [-73.5946268049, 41.0501817904]}, "type": "Feature", "properties": {"collection_times": [{"days": "Mon-Fri", "time": "3:30pm"}, {"days": "Sat", "time": "2:00pm"}, {"days": "Sun", "time": "Closed"}], "id": "0680700003", "name": "USPS COLLECTION BOX - EXPRESS", "address": {"city": "GREENWICH", "state": "CT", "street": "152 E PUTNAM", "postcode": "06807"}}},
{"geometry": {"type": "Point", "coordinates": [-73.6012304454, 41.036993381]}, "type": "Feature", "properties": {"collection_times": [{"days": "Mon-Fri", "time": "3:00pm"}, {"days": "Sat", "time": "2:00pm"}, {"days": "Sun", "time": "Closed"}], "id": "0680700004", "name": "USPS COLLECTION BOX - BLUE BOX", "address": {"city": "GREENWICH", "state": "CT", "street": "133 E PUTNAM", "postcode": "06807"}}},
{"geometry": {"type": "Point", "coordinates": [-73.5989242362, 41.0382265796]}, "type": "Feature", "properties": {"collection_times": [{"days": "Mon-Fri", "time": "3:00pm"}, {"days": "Sat", "time": "2:00pm"}, {"days": "Sun", "time": "Closed"}], "id": "0680700005", "name": "USPS COLLECTION BOX - BLUE BOX", "address": {"city": "GREENWICH", "state": "CT", "street": "215 E PUTNAM", "postcode": "06807"}}},
{"geometry": {"type": "Point", "coordinates": [-73.5982559701, 41.0386791408]}, "type": "Feature", "properties": {"collection_times": [{"days": "Mon-Fri", "time": "3:00pm"}, {"days": "Sat", "time": "2:00pm"}, {"days": "Sun", "time": "Closed"}], "id": "0680700006", "name": "USPS COLLECTION BOX - BLUE BOX", "address": {"city": "GREENWICH", "state": "CT", "street": "232 E PUTNAM", "postcode": "06807"}}},
{"geometry": {"type": "Point", "coordinates": [-73.5979433302, 41.0305677214]}, "type": "Feature", "properties": {"collection_times": [{"days": "Mon-Fri", "time": "3:00pm"}, {"days": "Sat", "time": "2:00pm"}, {"days": "Sun", "time": "Closed"}], "id": "0680700007", "name": "USPS COLLECTION BOX - BLUE BOX", "address": {"city": "GREENWICH", "state": "CT", "street": "1 STATION STA", "postcode": "06807"}}},
{"geometry": {"type": "Point", "coordinates": [-73.5984335164, 41.0428074983]}, "type": "Feature", "properties": {"collection_times": [{"days": "Mon-Fri", "time": "3:00pm"}, {"days": "Sat", "time": "2:00pm"}, {"days": "Sun", "time": "Closed"}], "id": "0680700008", "name": "USPS COLLECTION BOX - BLUE BOX", "address": {"city": "GREENWICH", "state": "CT", "street": "2 ORCHARD ORCH", "postcode": "06807"}}},
{"geometry": {"type": "Point", "coordinates": [-73.5946268047, 41.0501818365]}, "type": "Feature", "properties": {"collection_times": [{"days": "Mon-Fri", "time": "5:00pm"}, {"days": "Sat", "time": "2:00pm"}, {"days": "Sun", "time": "Closed"}], "id": "0680700009", "name": "USPS COLLECTION BOX - BLUE BOX", "address": {"city": "GREENWICH", "state": "CT", "street": "152 E PUTNAM AVE", "postcode": "06807"}}},
{"geometry": {"type": "Point", "coordinates": [-73.6001788606, 41.0376795656]}, "type": "Feature", "properties": {"collection_times": [{"days": "Mon-Fri", "time": "5:00pm"}, {"days": "Sat", "time": "1:00pm"}, {"days": "Sun", "time": "Closed"}], "id": "0680700010", "name": "USPS COLLECTION BOX - PO LOBBY", "address": {"city": "GREENWICH", "state": "CT", "street": "152 E PUTNAM AVE", "postcode": "06807"}}},
{"geometry": {"type": "Point", "coordinates": [-73.4499052174, 41.380030256]}, "type": "Feature", "properties": {"collection_times": [{"days": "Mon-Fri", "time": "4:30pm"}, {"days": "Sat", "time": "2:00pm"}, {"days": "Sun", "time": "Closed"}], "id": "0681000023", "name": "USPS COLLECTION BOX - BLUE BOX", "address": {"city": "DANBURY", "state": "CT", "street": "7 BRUSHY HILL RD", "postcode": "06810"}}},
{"geometry": {"type": "Point", "coordinates": [-73.5073845952, 41.3832488797]}, "type": "Feature", "properties": {"collection_times": [{"days": "Mon-Sat", "time": "10:00am"}, {"days": "Sun", "time": "Closed"}], "id": "0681000026", "name": "USPS COLLECTION BOX - BLUE BOX", "address": {"city": "DANBURY", "state": "CT", "street": "1 LAKE SHR", "postcode": "06810"}}},
{"geometry": {"type": "Point", "coordinates": [-73.4486721357, 41.3805017765]}, "type": "Feature", "properties": {"collection_times": [{"days": "Mon-Sat", "time": "1:00pm"}, {"days": "Sun", "time": "Closed"}], "id": "0681000028", "name": "USPS COLLECTION BOX - BLUE BOX", "address": {"city": "DANBURY", "state": "CT", "street": "1 BRUSHY HILL RD", "postcode": "06810"}}},
{"geometry": {"type": "Point", "coordinates": [-73.4478638972, 41.4055641394]}, "type": "Feature", "properties": {"collection_times": [{"days": "Mon-Sat", "time": "12:00pm"}, {"days": "Sun", "time": "Closed"}], "id": "0681000032", "name": "USPS COLLECTION BOX - BLUE BOX", "address": {"city": "DANBURY", "state": "CT", "street": "24 HOSPITAL AVE", "postcode": "06810"}}},
{"geometry": {"type": "Point", "coordinates": [-73.4357964275, 41.4113636662]}, "type": "Feature", "properties": {"collection_times": [{"days": "Mon-Sat", "time": "10:00am"}, {"days": "Sun", "time": "Closed"}], "id": "0681000035", "name": "USPS COLLECTION BOX - BLUE BOX", "address": {"city": "DANBURY", "state": "CT", "street": "30 GERMANTOWN RD", "postcode": "06810"}}},
{"geometry": {"type": "Point", "coordinates": [-73.470330698, 41.3886641006]}, "type": "Feature", "properties": {"collection_times": [{"days": "Mon-Sat", "time": "10:00am"}, {"days": "Sun", "time": "Closed"}], "id": "0681000052", "name": "USPS COLLECTION BOX - BLUE BOX", "address": {"city": "DANBURY", "state": "CT", "street": "77 LAKE AVE", "postcode": "06810"}}},
{"geometry": {"type": "Point", "coordinates": [-73.4553857381, 41.4104157759]}, "type": "Feature", "properties": {"collection_times": [{"days": "Mon-Sat", "time": "11:00am"}, {"days": "Sun", "time": "Closed"}], "id": "0681000057", "name": "USPS COLLECTION BOX - BLUE BOX", "address": {"city": "DANBURY", "state": "CT", "street": "1 PADANARAM", "postcode": "06810"}}},
{"geometry": {"type": "Point", "coordinates": [-73.4567095973, 41.3983992428]}, "type": "Feature", "properties": {"collection_times": [{"days": "Mon-Sat", "time": "10:00am"}, {"days": "Sun", "time": "Closed"}], "id": "0681000063", "name": "USPS COLLECTION BOX - BLUE BOX", "address": {"city": "DANBURY", "state": "CT", "street": "345 MAIN ST", "postcode": "06810"}}},
{"geometry": {"type": "Point", "coordinates": [-73.4590320684, 41.4023993802]}, "type": "Feature", "properties": {"collection_times": [{"days": "Mon-Sat", "time": "11:00am"}, {"days": "Sun", "time": "Closed"}], "id": "0681000064", "name": "USPS COLLECTION BOX - BLUE BOX", "address": {"city": "DANBURY", "state": "CT", "street": "405 MAIN ST", "postcode": "06810"}}},
{"geometry": {"type": "Point", "coordinates": [-73.4572957373, 41.392183289]}, "type": "Feature", "properties": {"collection_times": [{"days": "Mon-Sat", "time": "10:00am"}, {"days": "Sun", "time": "Closed"}], "id": "0681000071", "name": "USPS COLLECTION BOX - BLUE BOX", "address": {"city": "DANBURY", "state": "CT", "street": "75 WEST ST", "postcode": "06810"}}},
{"geometry": {"type": "Point", "coordinates": [-73.4459837084, 41.3879501662]}, "type": "Feature", "properties": {"collection_times": [{"days": "Mon-Sat", "time": "3:30pm"}, {"days": "Sun", "time": "Closed"}], "id": "0681000073", "name": "USPS COLLECTION BOX - BLUE BOX", "address": {"city": "DANBURY", "state": "CT", "street": "30 MAIN ST", "postcode": "06810"}}},
{"geometry": {"type": "Point", "coordinates": [-73.4470945069, 41.3889746087]}, "type": "Feature", "properties": {"collection_times": [{"days": "Mon-Sat", "time": "12:30pm"}, {"days": "Sun", "time": "Closed"}], "id": "0681000075", "name": "USPS COLLECTION BOX - BLUE BOX", "address": {"city": "DANBURY", "state": "CT", "street": "51 MAIN ST", "postcode": "06810"}}},
{"geometry": {"type": "Point", "coordinates": [-73.4479107486, 41.3903681344]}, "type": "Feature", "properties": {"collection_times": [{"days": "Mon-Sat", "time": "10:00am"}, {"days": "Sun", "time": "Closed"}], "id": "0681000076", "name": "USPS COLLECTION BOX - BLUE BOX", "address": {"city": "DANBURY", "state": "CT", "street": "71 MAIN ST", "postcode": "06810"}}},
{"geometry": {"type": "Point", "coordinates": [-73.4541571222, 41.3916340936]}, "type": "Feature", "properties": {"collection_times": [{"days": "Mon-Sat", "time": "3:00pm"}, {"days": "Sun", "time": "Closed"}], "id": "0681000077", "name": "USPS COLLECTION BOX - BLUE BOX", "address": {"city": "DANBURY", "state": "CT", "street": "159 MAIN ST", "postcode": "06810"}}},
{"geometry": {"type": "Point", "coordinates": [-73.4519116047, 41.3942702918]}, "type": "Feature", "properties": {"collection_times": [{"days": "Mon-Sat", "time": "10:00am"}, {"days": "Sun", "time": "Closed"}], "id": "0681000078", "name": "USPS COLLECTION BOX - BLUE BOX", "address": {"city": "DANBURY", "state": "CT", "street": "205 MAIN ST", "postcode": "06810"}}},
{"geometry": {"type": "Point", "coordinates": [-73.4541571222, 41.3916340936]}, "type": "Feature", "properties": {"collection_times": [{"days": "Mon-Fri", "time": "4:30pm"}, {"days": "Sat", "time": "12:30pm"}, {"days": "Sun", "time": "Closed"}], "id": "0681000080", "name": "USPS COLLECTION BOX - BLUE BOX", "address": {"city": "DANBURY", "state": "CT", "street": "265 MAIN ST", "postcode": "06810"}}},
{"geometry": {"type": "Point", "coordinates": [-73.4900536617, 41.3736174354]}, "type": "Feature", "properties": {"collection_times": [{"days": "Mon-Sat", "time": "5:00pm"}, {"days": "Sun", "time": "Closed"}], "id": "0681000088", "name": "USPS COLLECTION BOX - BLUE BOX", "address": {"city": "DANBURY", "state": "CT", "street": "23 BACKUS AVE", "postcode": "06810"}}},
{"geometry": {"type": "Point", "coordinates": [-73.5353672712, 41.3887682462]}, "type": "Feature", "properties": {"collection_times": [{"days": "Mon-Sat", "time": "11:00am"}, {"days": "Sun", "time": "Closed"}], "id": "0681000092", "name": "USPS COLLECTION BOX - BLUE BOX", "address": {"city": "DANBURY", "state": "CT", "street": "71 MILL PLN", "postcode": "06810"}}},
{"geometry": {"type": "Point", "coordinates": [-73.4563886936, 41.4103053552]}, "type": "Feature", "properties": {"collection_times": [{"days": "Mon-Sat", "time": "11:00am"}, {"days": "Sun", "time": "Closed"}], "id": "0681000093", "name": "USPS COLLECTION BOX - BLUE BOX", "address": {"city": "DANBURY", "state": "CT", "street": "36 PADANARAM RD", "postcode": "06810"}}},
{"geometry": {"type": "Point", "coordinates": [-73.4360231939, 41.4124433316]}, "type": "Feature", "properties": {"collection_times": [{"days": "Mon-Sat", "time": "10:00am"}, {"days": "Sun", "time": "Closed"}], "id": "0681000094", "name": "USPS COLLECTION BOX - BLUE BOX", "address": {"city": "DANBURY", "state": "CT", "street": "41 GERMANTOWN RD", "postcode": "06810"}}},
{"geometry": {"type": "Point", "coordinates": [-73.4221724843, 41.4048759485]}, "type": "Feature", "properties": {"collection_times": [{"days": "Mon-Fri", "time": "4:00pm"}, {"days": "Sat", "time": "12:00pm"}, {"days": "Sun", "time": "Closed"}], "id": "0681000097", "name": "USPS COLLECTION BOX - BLUE BOX", "address": {"city": "DANBURY", "state": "CT", "street": "60 NEWTOWN RD", "postcode": "06810"}}},
{"geometry": {"type": "Point", "coordinates": [-73.429784674, 41.404640944]}, "type": "Feature", "properties": {"collection_times": [{"days": "Mon-Sat", "time": "11:00am"}, {"days": "Sun", "time": "Closed"}], "id": "0681000103", "name": "USPS COLLECTION BOX - BLUE BOX", "address": {"city": "DANBURY", "state": "CT", "street": "50 FEDERAL RD", "postcode": "06810"}}},
{"geometry": {"type": "Point", "coordinates": [-73.4540420249, 41.3916161561]}, "type": "Feature", "properties": {"collection_times": [{"days": "Mon-Sat", "time": "12:30pm"}, {"days": "Sun", "time": "Closed"}], "id": "0681000104", "name": "USPS COLLECTION BOX - BLUE BOX", "address": {"city": "DANBURY", "state": "CT", "street": "155 DEER HILL AVE", "postcode": "06810"}}},
{"geometry": {"type": "Point", "coordinates": [-73.4900536617, 41.3736174354]}, "type": "Feature", "properties": {"collection_times": [{"days": "Mon-Fri", "time": "5:30pm"}, {"days": "Sat", "time": "5:00pm"}, {"days": "Sun", "time": "Closed"}], "id": "0681000114", "name": "USPS COLLECTION BOX - PO LOBBY", "address": {"city": "DANBURY", "state": "CT", "street": "23 BACKUS AVE", "postcode": "06810"}}},
{"geometry": {"type": "Point", "coordinates": [-73.4499052174, 41.380030256]}, "type": "Feature", "properties": {"collection_times": [{"days": "Mon-Fri", "time": "4:30pm"}, {"days": "Sat", "time": "2:00pm"}, {"days": "Sun", "time": "Closed"}], "id": "0681000115", "name": "USPS COLLECTION BOX - PO LOBBY", "address": {"city": "DANBURY", "state": "CT", "street": "7 BRUSHY HILL RD", "postcode": "06810"}}},
{"geometry": {"type": "Point", "coordinates": [-73.4541571222, 41.3916340936]}, "type": "Feature", "properties": {"collection_times": [{"days": "Mon-Fri", "time": "5:00pm"}, {"days": "Sat", "time": "12:30pm"}, {"days": "Sun", "time": "Closed"}], "id": "0681000116", "name": "USPS COLLECTION BOX - PO LOBBY", "address": {"city": "DANBURY", "state": "CT", "street": "265 MAIN ST", "postcode": "06810"}}},
{"geometry": {"type": "Point", "coordinates": [-73.456289015, 41.4064165324]}, "type": "Feature", "properties": {"collection_times": [{"days": "Mon-Sat", "time": "3:00pm"}, {"days": "Sun", "time": "Closed"}], "id": "0681000135", "name": "USPS COLLECTION BOX - BLUE BOX", "address": {"city": "DANBURY", "state": "CT", "street": "57 NORTH ST", "postcode": "06810"}}},
{"geometry": {"type": "Point", "coordinates": [-73.4552534335, 41.4107106882]}, "type": "Feature", "properties": {"collection_times": [{"days": "Mon-Sat", "time": "1:00pm"}, {"days": "Sun", "time": "Closed"}], "id": "0681000138", "name": "USPS COLLECTION BOX - BLUE BOX", "address": {"city": "DANBURY", "state": "CT", "street": "100 STATE ROUTE 37", "postcode": "06810"}}},
{"geometry": {"type": "Point", "coordinates": [-73.4900536617, 41.3736174354]}, "type": "Feature", "properties": {"collection_times": [{"days": "Mon-Sat", "time": "5:00pm"}, {"days": "Sun", "time": "Closed"}], "id": "0681000141", "name": "USPS COLLECTION BOX - APC", "address": {"city": "DANBURY", "state": "CT", "street": "23 BACKUS AVE", "postcode": "06810"}}},
{"geometry": {"type": "Point", "coordinates": [-73.4874027388, 41.4345820246]}, "type": "Feature", "properties": {"collection_times": [{"days": "Mon-Sat", "time": "4:00pm"}, {"days": "Sun", "time": "Closed"}], "id": "0681000143", "name": "USPS COLLECTION BOX - BLUE BOX", "address": {"city": "DANBURY", "state": "CT", "street": "127 PADANARAM RD", "postcode": "06810"}}},
{"geometry": {"type": "Point", "coordinates": [-73.4752335518, 41.3802680307]}, "type": "Feature", "properties": {"collection_times": [{"days": "Mon-Sat", "time": "3:00pm"}, {"days": "Sun", "time": "Closed"}], "id": "0681000146", "name": "USPS COLLECTION BOX - BLUE BOX", "address": {"city": "DANBURY", "state": "CT", "street": "7 BACKUS AVE", "postcode": "06810"}}},
{"geometry": {"type": "Point", "coordinates": [-73.4709133856, 41.0744755042]}, "type": "Feature", "properties": {"collection_times": [{"days": "Mon-Fri", "time": "5:00pm"}, {"days": "Sat", "time": "3:30pm"}, {"days": "Sun", "time": "Closed"}], "id": "0682000002", "name": "USPS COLLECTION BOX - BLUE BOX", "address": {"city": "DARIEN", "state": "CT", "street": "30 CORBIN DR", "postcode": "06820"}}},
{"geometry": {"type": "Point", "coordinates": [-73.4709133856, 41.0744755042]}, "type": "Feature", "properties": {"collection_times": [{"days": "Mon-Fri", "time": "5:00pm"}, {"days": "Sat", "time": "3:30pm"}, {"days": "Sun", "time": "Closed"}], "id": "0682000003", "name": "USPS COLLECTION BOX - BLUE BOX", "address": {"city": "DARIEN", "state": "CT", "street": "30 CORBIN DR", "postcode": "06820"}}},
{"geometry": {"type": "Point", "coordinates": [-73.4842767002, 41.0765603188]}, "type": "Feature", "properties": {"collection_times": [{"days": "Mon-Fri", "time": "4:45pm"}, {"days": "Sat", "time": "3:30pm"}, {"days": "Sun", "time": "Closed"}], "id": "0682000004", "name": "USPS COLLECTION BOX - EXPRESS", "address": {"city": "DARIEN", "state": "CT", "street": "30 CORBIN DR", "postcode": "06820"}}},
{"geometry": {"type": "Point", "coordinates": [-73.4684469162, 41.0789317106]}, "type": "Feature", "properties": {"collection_times": [{"days": "Mon-Sat", "time": "3:00pm"}, {"days": "Sun", "time": "Closed"}], "id": "0682000010", "name": "USPS COLLECTION BOX - BLUE BOX", "address": {"city": "DARIEN", "state": "CT", "street": "800 POST RD", "postcode": "06820"}}},
{"geometry": {"type": "Point", "coordinates": [-73.4656906218, 41.0794522125]}, "type": "Feature", "properties": {"collection_times": [{"days": "Mon-Sat", "time": "3:00pm"}, {"days": "Sun", "time": "Closed"}], "id": "0682000011", "name": "USPS COLLECTION BOX - BLUE BOX", "address": {"city": "DARIEN", "state": "CT", "street": "25 OLD KINGS HWY N", "postcode": "06820"}}},
{"geometry": {"type": "Point", "coordinates": [-73.4714225415, 41.0760830102]}, "type": "Feature", "properties": {"collection_times": [{"days": "Mon-Sat", "time": "3:00pm"}, {"days": "Sun", "time": "Closed"}], "id": "0682000014", "name": "USPS COLLECTION BOX - BLUE BOX", "address": {"city": "DARIEN", "state": "CT", "street": "1001 POST RD", "postcode": "06820"}}},
{"geometry": {"type": "Point", "coordinates": [-73.4842766999, 41.0765516748]}, "type": "Feature", "properties": {"collection_times": [{"days": "Mon-Sat", "time": "3:00pm"}, {"days": "Sun", "time": "Closed"}], "id": "0682000015", "name": "USPS COLLECTION BOX - BLUE BOX", "address": {"city": "DARIEN", "state": "CT", "street": "950 POST RD", "postcode": "06820"}}},
{"geometry": {"type": "Point", "coordinates": [-73.4781197694, 41.068342826]}, "type": "Feature", "properties": {"collection_times": [{"days": "Mon-Sat", "time": "3:00pm"}, {"days": "Sun", "time": "Closed"}], "id": "0682000017", "name": "USPS COLLECTION BOX - BLUE BOX", "address": {"city": "DARIEN", "state": "CT", "street": "1441 POST RD", "postcode": "06820"}}},
{"geometry": {"type": "Point", "coordinates": [-73.4841675143, 41.0659327416]}, "type": "Feature", "properties": {"collection_times": [{"days": "Mon-Sat", "time": "3:00pm"}, {"days": "Sun", "time": "Closed"}], "id": "0682000018", "name": "USPS COLLECTION BOX - BLUE BOX", "address": {"city": "DARIEN", "state": "CT", "street": "2 RENSHAW RD", "postcode": "06820"}}},
{"geometry": {"type": "Point", "coordinates": [-73.496851739, 41.0693008745]}, "type": "Feature", "properties": {"collection_times": [{"days": "Mon-Sat", "time": "3:00pm"}, {"days": "Sun", "time": "Closed"}], "id": "0682000020", "name": "USPS COLLECTION BOX - BLUE BOX", "address": {"city": "DARIEN", "state": "CT", "street": "340 HEIGHTS RD", "postcode": "06820"}}},
{"geometry": {"type": "Point", "coordinates": [-73.4978852949, 41.0693995454]}, "type": "Feature", "properties": {"collection_times": [{"days": "Mon-Fri", "time": "5:00pm"}, {"days": "Sat", "time": "3:00pm"}, {"days": "Sun", "time": "Closed"}], "id": "0682000021", "name": "USPS COLLECTION BOX - BLUE BOX", "address": {"city": "DARIEN", "state": "CT", "street": "368 HEIGHTS RD", "postcode": "06820"}}},
{"geometry": {"type": "Point", "coordinates": [-73.4709133856, 41.0744755042]}, "type": "Feature", "properties": {"collection_times": [{"days": "Mon-Fri", "time": "5:00pm"}, {"days": "Sat", "time": "3:30pm"}, {"days": "Sun", "time": "Closed"}], "id": "0682000028", "name": "USPS COLLECTION BOX - PO LOBBY", "address": {"city": "DARIEN", "state": "CT", "street": "30 CORBIN DR", "postcode": "06820"}}},
{"geometry": {"type": "Point", "coordinates": [-73.2647964966, 41.1409913257]}, "type": "Feature", "properties": {"collection_times": [{"days": "Mon-Fri", "time": "2:00pm"}, {"days": "Sat-Sun", "time": "Closed"}], "id": "0682400000", "name": "USPS COLLECTION BOX - BLUE BOX", "address": {"city": "FAIRFIELD", "state": "CT", "street": "1881 POST RD", "postcode": "06824"}}},
{"geometry": {"type": "Point", "coordinates": [-73.2564109854, 41.1415268013]}, "type": "Feature", "properties": {"collection_times": [{"days": "Mon-Fri", "time": "5:00pm"}, {"days": "Sat", "time": "2:00pm"}, {"days": "Sun", "time": "Closed"}], "id": "0682400001", "name": "USPS COLLECTION BOX - BLUE BOX", "address": {"city": "FAIRFIELD", "state": "CT", "street": "1401 POST RD", "postcode": "06824"}}},
{"geometry": {"type": "Point", "coordinates": [-73.2458507107, 41.1373438584]}, "type": "Feature", "properties": {"collection_times": [{"days": "Mon-Fri", "time": "2:30pm"}, {"days": "Sat-Sun", "time": "Closed"}], "id": "0682400002", "name": "USPS COLLECTION BOX - BLUE BOX", "address": {"city": "FAIRFIELD", "state": "CT", "street": "422 PENFIELD RD", "postcode": "06824"}}},
{"geometry": {"type": "Point", "coordinates": [-73.2400104423, 41.1685053634]}, "type": "Feature", "properties": {"collection_times": [{"days": "Mon-Fri", "time": "1:30pm"}, {"days": "Sat", "time": "2:00pm"}, {"days": "Sun", "time": "Closed"}], "id": "0682400003", "name": "USPS COLLECTION BOX - BLUE BOX", "address": {"city": "FAIRFIELD", "state": "CT", "street": "558 HIGH ST", "postcode": "06824"}}},
{"geometry": {"type": "Point", "coordinates": [-73.2595434607, 41.139977125]}, "type": "Feature", "properties": {"collection_times": [{"days": "Mon-Fri", "time": "2:45pm"}, {"days": "Sat-Sun", "time": "Closed"}], "id": "0682400004", "name": "USPS COLLECTION BOX - BLUE BOX", "address": {"city": "FAIRFIELD", "state": "CT", "street": "140 SHERMAN ST", "postcode": "06824"}}},
{"geometry": {"type": "Point", "coordinates": [-73.2291317194, 41.1721878649]}, "type": "Feature", "properties": {"collection_times": [{"days": "Mon-Fri", "time": "5:00pm"}, {"days": "Sat", "time": "2:00pm"}, {"days": "Sun", "time": "Closed"}], "id": "0682400005", "name": "USPS COLLECTION BOX - BLUE BOX", "address": {"city": "FAIRFIELD", "state": "CT", "street": "501 KINGS HWY", "postcode": "06824"}}},
{"geometry": {"type": "Point", "coordinates": [-73.2234382672, 41.1797214238]}, "type": "Feature", "properties": {"collection_times": [{"days": "Mon-Sat", "time": "2:00pm"}, {"days": "Sun", "time": "Closed"}], "id": "0682400006", "name": "USPS COLLECTION BOX - BLUE BOX", "address": {"city": "FAIRFIELD", "state": "CT", "street": "7 MELVILLE", "postcode": "06824"}}},
{"geometry": {"type": "Point", "coordinates": [-73.2299816073, 41.1950356858]}, "type": "Feature", "properties": {"collection_times": [{"days": "Mon-Sat", "time": "2:00pm"}, {"days": "Sun", "time": "Closed"}], "id": "0682400007", "name": "USPS COLLECTION BOX - BLUE BOX", "address": {"city": "FAIRFIELD", "state": "CT", "street": "788 STRATFIELD", "postcode": "06824"}}},
{"geometry": {"type": "Point", "coordinates": [-73.2641456866, 41.1616007665]}, "type": "Feature", "properties": {"collection_times": [{"days": "Mon-Sat", "time": "10:30am"}, {"days": "Sun", "time": "Closed"}], "id": "0682400008", "name": "USPS COLLECTION BOX - BLUE BOX", "address": {"city": "FAIRFIELD", "state": "CT", "street": "119 JACKMAN AVE", "postcode": "06824"}}},
{"geometry": {"type": "Point", "coordinates": [-73.228199049, 41.1989453798]}, "type": "Feature", "properties": {"collection_times": [{"days": "Mon-Sat", "time": "2:00pm"}, {"days": "Sun", "time": "Closed"}], "id": "0682400009", "name": "USPS COLLECTION BOX - BLUE BOX", "address": {"city": "FAIRFIELD", "state": "CT", "street": "360 TOILSOME HL", "postcode": "06824"}}},
{"geometry": {"type": "Point", "coordinates": [-73.2395035472, 41.2032811627]}, "type": "Feature", "properties": {"collection_times": [{"days": "Mon-Sat", "time": "2:00pm"}, {"days": "Sun", "time": "Closed"}], "id": "0682400010", "name": "USPS COLLECTION BOX - BLUE BOX", "address": {"city": "FAIRFIELD", "state": "CT", "street": "13 BOND", "postcode": "06824"}}},
{"geometry": {"type": "Point", "coordinates": [-73.2365436998, 41.1977523496]}, "type": "Feature", "properties": {"collection_times": [{"days": "Mon-Fri", "time": "5:00pm"}, {"days": "Sat", "time": "2:00pm"}, {"days": "Sun", "time": "Closed"}], "id": "0682400011", "name": "USPS COLLECTION BOX - BLUE BOX", "address": {"city": "FAIRFIELD", "state": "CT", "street": "1244 STRATFIELD", "postcode": "06824"}}},
{"geometry": {"type": "Point", "coordinates": [-73.24801278, 41.1803712333]}, "type": "Feature", "properties": {"collection_times": [{"days": "Mon-Fri", "time": "5:00pm"}, {"days": "Sat", "time": "2:00pm"}, {"days": "Sun", "time": "Closed"}], "id": "0682400012", "name": "USPS COLLECTION BOX - BLUE BOX", "address": {"city": "FAIRFIELD", "state": "CT", "street": "1881 BLACK ROCK TPKE", "postcode": "06824"}}},
{"geometry": {"type": "Point", "coordinates": [-73.2417035633, 41.1772461938]}, "type": "Feature", "properties": {"collection_times": [{"days": "Mon-Fri", "time": "5:00pm"}, {"days": "Sat", "time": "2:00pm"}, {"days": "Sun", "time": "Closed"}], "id": "0682400013", "name": "USPS COLLECTION BOX - BLUE BOX", "address": {"city": "FAIRFIELD", "state": "CT", "street": "1485 BLACK ROCK", "postcode": "06824"}}},
{"geometry": {"type": "Point", "coordinates": [-73.241653608, 41.1782832331]}, "type": "Feature", "properties": {"collection_times": [{"days": "Mon-Fri", "time": "1:45pm"}, {"days": "Sat", "time": "2:00pm"}, {"days": "Sun", "time": "Closed"}], "id": "0682400014", "name": "USPS COLLECTION BOX - BLUE BOX", "address": {"city": "FAIRFIELD", "state": "CT", "street": "525 TUNXIS HILL CUTOFF", "postcode": "06824"}}},
{"geometry": {"type": "Point", "coordinates": [-73.2358265417, 41.1632657903]}, "type": "Feature", "properties": {"collection_times": [{"days": "Mon-Fri", "time": "2:45pm"}, {"days": "Sat", "time": "2:00pm"}, {"days": "Sun", "time": "Closed"}], "id": "0682400015", "name": "USPS COLLECTION BOX - BLUE BOX", "address": {"city": "FAIRFIELD", "state": "CT", "street": "1201 KINGS HWY", "postcode": "06824"}}},
{"geometry": {"type": "Point", "coordinates": [-73.264058786, 41.1617441977]}, "type": "Feature", "properties": {"collection_times": [{"days": "Mon-Fri", "time": "3:00pm"}, {"days": "Sat", "time": "2:00pm"}, {"days": "Sun", "time": "Closed"}], "id": "0682400016", "name": "USPS COLLECTION BOX - BLUE BOX", "address": {"city": "FAIRFIELD", "state": "CT", "street": "93 POST RD", "postcode": "06824"}}},
{"geometry": {"type": "Point", "coordinates": [-73.2487343718, 41.1486039316]}, "type": "Feature", "properties": {"collection_times": [{"days": "Mon-Fri", "time": "5:00pm"}, {"days": "Sat-Sun", "time": "Closed"}], "id": "0682400017", "name": "USPS COLLECTION BOX - BLUE BOX", "address": {"city": "FAIRFIELD", "state": "CT", "street": "1 ELIOT PL", "postcode": "06824"}}},
{"geometry": {"type": "Point", "coordinates": [-73.2434918905, 41.1495247868]}, "type": "Feature", "properties": {"collection_times": [{"days": "Mon-Fri", "time": "5:00pm"}, {"days": "Sat-Sun", "time": "Closed"}], "id": "0682400019", "name": "USPS COLLECTION BOX - BLUE BOX", "address": {"city": "FAIRFIELD", "state": "CT", "street": "425 POST RD", "postcode": "06824"}}},
{"geometry": {"type": "Point", "coordinates": [-73.2673699172, 41.1334034221]}, "type": "Feature", "properties": {"collection_times": [{"days": "Mon-Fri", "time": "2:30pm"}, {"days": "Sat", "time": "2:00pm"}, {"days": "Sun", "time": "Closed"}], "id": "0682400020", "name": "USPS COLLECTION BOX - BLUE BOX", "address": {"city": "FAIRFIELD", "state": "CT", "street": "978 OLDFIELD RD", "postcode": "06824"}}},
{"geometry": {"type": "Point", "coordinates": [-73.2410208635, 41.146710049]}, "type": "Feature", "properties": {"collection_times": [{"days": "Mon-Fri", "time": "3:00pm"}, {"days": "Sat", "time": "2:00pm"}, {"days": "Sun", "time": "Closed"}], "id": "0682400021", "name": "USPS COLLECTION BOX - BLUE BOX", "address": {"city": "FAIRFIELD", "state": "CT", "street": "181 TURNEY RD", "postcode": "06824"}}},
{"geometry": {"type": "Point", "coordinates": [-73.2467343811, 41.1459664463]}, "type": "Feature", "properties": {"collection_times": [{"days": "Mon-Fri", "time": "2:45pm"}, {"days": "Sat", "time": "2:00pm"}, {"days": "Sun", "time": "Closed"}], "id": "0682400022", "name": "USPS COLLECTION BOX - BLUE BOX", "address": {"city": "FAIRFIELD", "state": "CT", "street": "323 OLD POST RD", "postcode": "06824"}}},
{"geometry": {"type": "Point", "coordinates": [-73.2742696813, 41.1398138151]}, "type": "Feature", "properties": {"collection_times": [{"days": "Mon-Sat", "time": "2:00pm"}, {"days": "Sun", "time": "Closed"}], "id": "0682400024", "name": "USPS COLLECTION BOX - BLUE BOX", "address": {"city": "FAIRFIELD", "state": "CT", "street": "889 POST RD", "postcode": "06824"}}},
{"geometry": {"type": "Point", "coordinates": [-73.264058786, 41.1617441977]}, "type": "Feature", "properties": {"collection_times": [{"days": "Mon-Fri", "time": "5:00pm"}, {"days": "Sat", "time": "2:00pm"}, {"days": "Sun", "time": "Closed"}], "id": "0682400025", "name": "USPS COLLECTION BOX - BLUE BOX", "address": {"city": "FAIRFIELD", "state": "CT", "street": "1261 POST RD", "postcode": "06824"}}},
{"geometry": {"type": "Point", "coordinates": [-73.2468179154, 41.1480905286]}, "type": "Feature", "properties": {"collection_times": [{"days": "Mon-Fri", "time": "2:30pm"}, {"days": "Sat", "time": "2:00pm"}, {"days": "Sun", "time": "Closed"}], "id": "0682400027", "name": "USPS COLLECTION BOX - BLUE BOX", "address": {"city": "FAIRFIELD", "state": "CT", "street": "1160 KINGS HIGHWAY CUTOFF", "postcode": "06824"}}},
{"geometry": {"type": "Point", "coordinates": [-73.2319090826, 41.1684122442]}, "type": "Feature", "properties": {"collection_times": [{"days": "Mon-Fri", "time": "1:30pm"}, {"days": "Sat-Sun", "time": "Closed"}], "id": "0682400028", "name": "USPS COLLECTION BOX - BLUE BOX", "address": {"city": "FAIRFIELD", "state": "CT", "street": "808 KINGS HWY", "postcode": "06824"}}},
{"geometry": {"type": "Point", "coordinates": [-73.2552200646, 41.1426246983]}, "type": "Feature", "properties": {"collection_times": [{"days": "Mon-Fri", "time": "2:00pm"}, {"days": "Sat", "time": "1:00pm"}, {"days": "Sun", "time": "Closed"}], "id": "0682400029", "name": "USPS COLLECTION BOX - EXPRESS", "address": {"city": "FAIRFIELD", "state": "CT", "street": "1300 POST RD", "postcode": "06824"}}},
{"geometry": {"type": "Point", "coordinates": [-73.2481768693, 41.132075844]}, "type": "Feature", "properties": {"collection_times": [{"days": "Mon-Sat", "time": "3:00pm"}, {"days": "Sun", "time": "Closed"}], "id": "0682400030", "name": "USPS COLLECTION BOX - BLUE BOX", "address": {"city": "FAIRFIELD", "state": "CT", "street": "836 REEF RD", "postcode": "06824"}}},
{"geometry": {"type": "Point", "coordinates": [-73.2546215163, 41.136935735]}, "type": "Feature", "properties": {"collection_times": [{"days": "Mon-Fri", "time": "5:00pm"}, {"days": "Sat", "time": "2:00pm"}, {"days": "Sun", "time": "Closed"}], "id": "0682400031", "name": "USPS COLLECTION BOX - BLUE BOX", "address": {"city": "FAIRFIELD", "state": "CT", "street": "325 REEF RD", "postcode": "06824"}}},
{"geometry": {"type": "Point", "coordinates": [-73.2607843847, 41.1410228607]}, "type": "Feature", "properties": {"collection_times": [{"days": "Mon-Fri", "time": "5:00pm"}, {"days": "Sat", "time": "2:00pm"}, {"days": "Sun", "time": "Closed"}], "id": "0682400032", "name": "USPS COLLECTION BOX - BLUE BOX", "address": {"city": "FAIRFIELD", "state": "CT", "street": "1700 POST RD", "postcode": "06824"}}},
{"geometry": {"type": "Point", "coordinates": [-73.2360025773, 41.1619801618]}, "type": "Feature", "properties": {"collection_times": [{"days": "Mon-Fri", "time": "3:00pm"}, {"days": "Sat-Sun", "time": "Closed"}], "id": "0682400034", "name": "USPS COLLECTION BOX - BLUE BOX", "address": {"city": "FAIRFIELD", "state": "CT", "street": "1375 KINGS HWY", "postcode": "06824"}}},
{"geometry": {"type": "Point", "coordinates": [-73.2552200646, 41.1426246983]}, "type": "Feature", "properties": {"collection_times": [{"days": "Mon-Fri", "time": "5:00pm"}, {"days": "Sat", "time": "1:00pm"}, {"days": "Sun", "time": "Closed"}], "id": "0682400036", "name": "USPS COLLECTION BOX - BLUE BOX", "address": {"city": "FAIRFIELD", "state": "CT", "street": "1300 POST RD", "postcode": "06824"}}},
{"geometry": {"type": "Point", "coordinates": [-73.239324065, 41.1819440859]}, "type": "Feature", "properties": {"collection_times": [{"days": "Mon-Fri", "time": "1:45pm"}, {"days": "Sat", "time": "2:00pm"}, {"days": "Sun", "time": "Closed"}], "id": "0682400037", "name": "USPS COLLECTION BOX - BLUE BOX", "address": {"city": "FAIRFIELD", "state": "CT", "street": "36 BEACONVIEW", "postcode": "06824"}}},
{"geometry": {"type": "Point", "coordinates": [-73.2486646336, 41.1425951447]}, "type": "Feature", "properties": {"collection_times": [{"days": "Mon-Fri", "time": "5:00pm"}, {"days": "Sat-Sun", "time": "Closed"}], "id": "0682400038", "name": "USPS COLLECTION BOX - BLUE BOX", "address": {"city": "FAIRFIELD", "state": "CT", "street": "1 TOWN HALL GRN", "postcode": "06824"}}},
{"geometry": {"type": "Point", "coordinates": [-73.2528227717, 41.1587201917]}, "type": "Feature", "properties": {"collection_times": [{"days": "Mon-Fri", "time": "12:00pm"}, {"days": "Sat-Sun", "time": "Closed"}], "id": "0682400040", "name": "USPS COLLECTION BOX - BLUE BOX", "address": {"city": "FAIRFIELD", "state": "CT", "street": "1073 N BENSON RD", "postcode": "06824"}}},
{"geometry": {"type": "Point", "coordinates": [-73.265464568, 41.1575358687]}, "type": "Feature", "properties": {"collection_times": [{"days": "Mon-Fri", "time": "1:45pm"}, {"days": "Sat", "time": "2:00pm"}, {"days": "Sun", "time": "Closed"}], "id": "0682400041", "name": "USPS COLLECTION BOX - BLUE BOX", "address": {"city": "FAIRFIELD", "state": "CT", "street": "1245 MILL PLAIN RD", "postcode": "06824"}}},
{"geometry": {"type": "Point", "coordinates": [-73.234718553, 41.166206557]}, "type": "Feature", "properties": {"collection_times": [{"days": "Mon-Fri", "time": "1:30pm"}, {"days": "Sat-Sun", "time": "Closed"}], "id": "0682400042", "name": "USPS COLLECTION BOX - BLUE BOX", "address": {"city": "FAIRFIELD", "state": "CT", "street": "1100 KINGS HWY E", "postcode": "06824"}}},
{"geometry": {"type": "Point", "coordinates": [-73.2832536668, 41.1615464528]}, "type": "Feature", "properties": {"collection_times": [{"days": "Mon-Fri", "time": "1:30pm"}, {"days": "Sat", "time": "2:00pm"}, {"days": "Sun", "time": "Closed"}], "id": "0682400043", "name": "USPS COLLECTION BOX - BLUE BOX", "address": {"city": "FAIRFIELD", "state": "CT", "street": "75 HILLSIDE RD", "postcode": "06824"}}},
{"geometry": {"type": "Point", "coordinates": [-73.292745776, 41.1764509412]}, "type": "Feature", "properties": {"collection_times": [{"days": "Mon-Fri", "time": "1:30pm"}, {"days": "Sat", "time": "2:00pm"}, {"days": "Sun", "time": "Closed"}], "id": "0682400044", "name": "USPS COLLECTION BOX - BLUE BOX", "address": {"city": "FAIRFIELD", "state": "CT", "street": "1045 OLD ACADEMY RD", "postcode": "06824"}}},
{"geometry": {"type": "Point", "coordinates": [-73.2512378802, 41.1441549058]}, "type": "Feature", "properties": {"collection_times": [{"days": "Mon-Fri", "time": "5:00pm"}, {"days": "Sat", "time": "2:00pm"}, {"days": "Sun", "time": "Closed"}], "id": "0682400045", "name": "USPS COLLECTION BOX - BLUE BOX", "address": {"city": "FAIRFIELD", "state": "CT", "street": "52 BEACH RD", "postcode": "06824"}}},
{"geometry": {"type": "Point", "coordinates": [-73.2665359312, 41.145254305]}, "type": "Feature", "properties": {"collection_times": [{"days": "Mon-Fri", "time": "1:30pm"}, {"days": "Sat", "time": "2:00pm"}, {"days": "Sun", "time": "Closed"}], "id": "0682400046", "name": "USPS COLLECTION BOX - BLUE BOX", "address": {"city": "FAIRFIELD", "state": "CT", "street": "45 STURGES RD", "postcode": "06824"}}},
{"geometry": {"type": "Point", "coordinates": [-73.257898103, 41.143290077]}, "type": "Feature", "properties": {"collection_times": [{"days": "Mon-Fri", "time": "3:00pm"}, {"days": "Sat-Sun", "time": "Closed"}], "id": "0682400047", "name": "USPS COLLECTION BOX - BLUE BOX", "address": {"city": "FAIRFIELD", "state": "CT", "street": "195 UNQUOWA RD", "postcode": "06824"}}},
{"geometry": {"type": "Point", "coordinates": [-73.2295992204, 41.1658259614]}, "type": "Feature", "properties": {"collection_times": [{"days": "Mon-Fri", "time": "6:00pm"}, {"days": "Sat", "time": "5:00pm"}, {"days": "Sun", "time": "Closed"}], "id": "0682400048", "name": "USPS COLLECTION BOX - PO LOBBY", "address": {"city": "FAIRFIELD", "state": "CT", "street": "357 COMMERCE DR", "postcode": "06824"}}},
{"geometry": {"type": "Point", "coordinates": [-73.24801278, 41.1803712333]}, "type": "Feature", "properties": {"collection_times": [{"days": "Mon-Fri", "time": "5:00pm"}, {"days": "Sat", "time": "2:00pm"}, {"days": "Sun", "time": "Closed"}], "id": "0682400051", "name": "USPS COLLECTION BOX - BLUE BOX", "address": {"city": "FAIRFIELD", "state": "CT", "street": "1881 BLACK ROCK TPKE", "postcode": "06824"}}},
{"geometry": {"type": "Point", "coordinates": [-73.2641456866, 41.1616007665]}, "type": "Feature", "properties": {"collection_times": [{"days": "Mon-Fri", "time": "3:45pm"}, {"days": "Sat", "time": "4:00pm"}, {"days": "Sun", "time": "Closed"}], "id": "0682400052", "name": "USPS COLLECTION BOX - EXPRESS", "address": {"city": "FAIRFIELD", "state": "CT", "street": "357 COMMERCE DR", "postcode": "06824"}}},
{"geometry": {"type": "Point", "coordinates": [-73.2241814304, 41.1758839908]}, "type": "Feature", "properties": {"collection_times": [{"days": "Mon-Fri", "time": "2:45pm"}, {"days": "Sat-Sun", "time": "Closed"}], "id": "0682400054", "name": "USPS COLLECTION BOX - BLUE BOX", "address": {"city": "FAIRFIELD", "state": "CT", "street": "75 KINGS HWY", "postcode": "06824"}}},
{"geometry": {"type": "Point", "coordinates": [-73.2518317512, 41.1481738477]}, "type": "Feature", "properties": {"collection_times": [{"days": "Mon-Fri", "time": "2:30pm"}, {"days": "Sat-Sun", "time": "Closed"}], "id": "0682400055", "name": "USPS COLLECTION BOX - BLUE BOX", "address": {"city": "FAIRFIELD", "state": "CT", "street": "55 WALLS DR", "postcode": "06824"}}},
{"geometry": {"type": "Point", "coordinates": [-73.2296199587, 41.1658106299]}, "type": "Feature", "properties": {"collection_times": [{"days": "Mon-Fri", "time": "2:15pm"}, {"days": "Sat", "time": "2:00pm"}, {"days": "Sun", "time": "Closed"}], "id": "0682400057", "name": "USPS COLLECTION BOX - BLUE BOX", "address": {"city": "FAIRFIELD", "state": "CT", "street": "1975 BLACK ROCK TPKE", "postcode": "06824"}}},
{"geometry": {"type": "Point", "coordinates": [-73.2696057097, 41.1404195517]}, "type": "Feature", "properties": {"collection_times": [{"days": "Mon-Fri", "time": "2:00pm"}, {"days": "Sat-Sun", "time": "Closed"}], "id": "0682400059", "name": "USPS COLLECTION BOX - BLUE BOX", "address": {"city": "FAIRFIELD", "state": "CT", "street": "2150 POST RD", "postcode": "06824"}}},
{"geometry": {"type": "Point", "coordinates": [-73.256625101, 41.1396518113]}, "type": "Feature", "properties": {"collection_times": [{"days": "Mon-Fri", "time": "5:00pm"}, {"days": "Sat", "time": "2:00pm"}, {"days": "Sun", "time": "Closed"}], "id": "0682400060", "name": "USPS COLLECTION BOX - BLUE BOX", "address": {"city": "FAIRFIELD", "state": "CT", "street": "100 REEF RD", "postcode": "06824"}}},
{"geometry": {"type": "Point", "coordinates": [-73.2295992204, 41.1658259614]}, "type": "Feature", "properties": {"collection_times": [{"days": "Mon-Fri", "time": "5:00pm"}, {"days": "Sat", "time": "4:00pm"}, {"days": "Sun", "time": "Closed"}], "id": "0682400061", "name": "USPS COLLECTION BOX - BLUE BOX", "address": {"city": "FAIRFIELD", "state": "CT", "street": "357 COMMERCE DR", "postcode": "06824"}}},
{"geometry": {"type": "Point", "coordinates": [-73.2549121764, 41.142974743]}, "type": "Feature", "properties": {"collection_times": [{"days": "Mon-Fri", "time": "5:00pm"}, {"days": "Sat", "time": "12:00pm"}, {"days": "Sun", "time": "Closed"}], "id": "0682400064", "name": "USPS COLLECTION BOX - PO LOBBY", "address": {"city": "FAIRFIELD", "state": "CT", "street": "1300 POST RD", "postcode": "06824"}}},
{"geometry": {"type": "Point", "coordinates": [-73.2295992204, 41.1658259614]}, "type": "Feature", "properties": {"collection_times": [{"days": "Mon-Fri", "time": "6:00pm"}, {"days": "Sat", "time": "5:00pm"}, {"days": "Sun", "time": "Closed"}], "id": "0682400065", "name": "USPS COLLECTION BOX - PO LOBBY", "address": {"city": "FAIRFIELD", "state": "CT", "street": "357 COMMERCE DR", "postcode": "06824"}}},
{"geometry": {"type": "Point", "coordinates": [-73.258960262, 41.1410618984]}, "type": "Feature", "properties": {"collection_times": [{"days": "Mon-Sat", "time": "2:00pm"}, {"days": "Sun", "time": "Closed"}], "id": "0682400066", "name": "USPS COLLECTION BOX - BLUE BOX", "address": {"city": "FAIRFIELD", "state": "CT", "street": "1547 POST RD", "postcode": "06824"}}},
{"geometry": {"type": "Point", "coordinates": [-73.2295992204, 41.1658259614]}, "type": "Feature", "properties": {"collection_times": [{"days": "Mon-Fri", "time": "5:00pm"}, {"days": "Sat", "time": "3:00pm"}, {"days": "Sun", "time": "Closed"}], "id": "0682400067", "name": "USPS COLLECTION BOX - APC", "address": {"city": "FAIRFIELD", "state": "CT", "street": "357 COMMERCE DR", "postcode": "06824"}}},
{"geometry": {"type": "Point", "coordinates": [-73.4306600674, 41.2568864548]}, "type": "Feature", "properties": {"collection_times": [{"days": "Mon-Fri", "time": "5:00pm"}, {"days": "Sat", "time": "12:00pm"}, {"days": "Sun", "time": "Closed"}], "id": "0682900005", "name": "USPS COLLECTION BOX - PO LOBBY", "address": {"city": "GEORGETOWN", "state": "CT", "street": "65 REDDING RD", "postcode": "06829"}}},
{"geometry": {"type": "Point", "coordinates": [-73.6227343392, 41.0258298656]}, "type": "Feature", "properties": {"collection_times": [{"days": "Mon-Sat", "time": "11:00am"}, {"days": "Sun", "time": "Closed"}], "id": "0683000013", "name": "USPS COLLECTION BOX - BLUE BOX", "address": {"city": "GREENWICH", "state": "CT", "street": "249 MILBANK AVE", "postcode": "06830"}}},
{"geometry": {"type": "Point", "coordinates": [-73.6311745242, 41.0251619775]}, "type": "Feature", "properties": {"collection_times": [{"days": "Mon-Sat", "time": "11:00am"}, {"days": "Sun", "time": "Closed"}], "id": "0683000015", "name": "USPS COLLECTION BOX - BLUE BOX", "address": {"city": "GREENWICH", "state": "CT", "street": "30 BROOKSIDE DR", "postcode": "06830"}}},
{"geometry": {"type": "Point", "coordinates": [-73.6299125342, 41.0262569138]}, "type": "Feature", "properties": {"collection_times": [{"days": "Mon-Sat", "time": "11:00am"}, {"days": "Sun", "time": "Closed"}], "id": "0683000019", "name": "USPS COLLECTION BOX - BLUE BOX", "address": {"city": "GREENWICH", "state": "CT", "street": "20 DAYTON AVE", "postcode": "06830"}}},
{"geometry": {"type": "Point", "coordinates": [-73.6268957792, 41.0313131364]}, "type": "Feature", "properties": {"collection_times": [{"days": "Mon-Sat", "time": "11:00am"}, {"days": "Sun", "time": "Closed"}], "id": "0683000020", "name": "USPS COLLECTION BOX - BLUE BOX", "address": {"city": "GREENWICH", "state": "CT", "street": "79 E PUTNAM AVE", "postcode": "06830"}}},
{"geometry": {"type": "Point", "coordinates": [-73.6237930875, 41.0339603426]}, "type": "Feature", "properties": {"collection_times": [{"days": "Mon-Sat", "time": "11:00am"}, {"days": "Sun", "time": "Closed"}], "id": "0683000021", "name": "USPS COLLECTION BOX - BLUE BOX", "address": {"city": "GREENWICH", "state": "CT", "street": "115 E PUTNAM AVE", "postcode": "06830"}}},
{"geometry": {"type": "Point", "coordinates": [-73.6257266396, 41.0321462051]}, "type": "Feature", "properties": {"collection_times": [{"days": "Mon-Sat", "time": "11:00am"}, {"days": "Sun", "time": "Closed"}], "id": "0683000023", "name": "USPS COLLECTION BOX - BLUE BOX", "address": {"city": "GREENWICH", "state": "CT", "street": "40 E PUTNAM AVE", "postcode": "06830"}}},
{"geometry": {"type": "Point", "coordinates": [-73.668460299, 41.038653583]}, "type": "Feature", "properties": {"collection_times": [{"days": "Mon-Fri", "time": "5:00pm"}, {"days": "Sat", "time": "1:00pm"}, {"days": "Sun", "time": "Closed"}], "id": "0683000026", "name": "USPS COLLECTION BOX - BLUE BOX", "address": {"city": "GREENWICH", "state": "CT", "street": "25 GLEN RIDGE RD", "postcode": "06830"}}},
{"geometry": {"type": "Point", "coordinates": [-73.626573041, 41.0298069737]}, "type": "Feature", "properties": {"collection_times": [{"days": "Mon-Sat", "time": "11:00am"}, {"days": "Sun", "time": "Closed"}], "id": "0683000027", "name": "USPS COLLECTION BOX - BLUE BOX", "address": {"city": "GREENWICH", "state": "CT", "street": "73 GREENWICH AVE", "postcode": "06830"}}},
{"geometry": {"type": "Point", "coordinates": [-73.6263210708, 41.0288653383]}, "type": "Feature", "properties": {"collection_times": [{"days": "Mon-Sat", "time": "11:00am"}, {"days": "Sun", "time": "Closed"}], "id": "0683000028", "name": "USPS COLLECTION BOX - BLUE BOX", "address": {"city": "GREENWICH", "state": "CT", "street": "125 GREENWICH AVE", "postcode": "06830"}}},
{"geometry": {"type": "Point", "coordinates": [-73.6257449698, 41.0254797098]}, "type": "Feature", "properties": {"collection_times": [{"days": "Mon-Sat", "time": "11:00am"}, {"days": "Sun", "time": "Closed"}], "id": "0683000031", "name": "USPS COLLECTION BOX - BLUE BOX", "address": {"city": "GREENWICH", "state": "CT", "street": "289 GREENWICH AVE", "postcode": "06830"}}},
{"geometry": {"type": "Point", "coordinates": [-73.6230561759, 41.0490738601]}, "type": "Feature", "properties": {"collection_times": [{"days": "Mon-Sat", "time": "11:00am"}, {"days": "Sun", "time": "Closed"}], "id": "0683000032", "name": "USPS COLLECTION BOX - BLUE BOX", "address": {"city": "GREENWICH", "state": "CT", "street": "359 GREENWICH AVE", "postcode": "06830"}}},
{"geometry": {"type": "Point", "coordinates": [-73.6312628313, 41.0328575147]}, "type": "Feature", "properties": {"collection_times": [{"days": "Mon-Sat", "time": "11:00am"}, {"days": "Sun", "time": "Closed"}], "id": "0683000044", "name": "USPS COLLECTION BOX - BLUE BOX", "address": {"city": "GREENWICH", "state": "CT", "street": "49 LAKE AVE", "postcode": "06830"}}},
{"geometry": {"type": "Point", "coordinates": [-73.6250896105, 41.0310609102]}, "type": "Feature", "properties": {"collection_times": [{"days": "Mon-Sat", "time": "11:00am"}, {"days": "Sun", "time": "Closed"}], "id": "0683000046", "name": "USPS COLLECTION BOX - BLUE BOX", "address": {"city": "GREENWICH", "state": "CT", "street": "10 MASON ST", "postcode": "06830"}}},
{"geometry": {"type": "Point", "coordinates": [-73.6397690041, 41.0642503387]}, "type": "Feature", "properties": {"collection_times": [{"days": "Mon-Sat", "time": "11:00am"}, {"days": "Sun", "time": "Closed"}], "id": "0683000050", "name": "USPS COLLECTION BOX - BLUE BOX", "address": {"city": "GREENWICH", "state": "CT", "street": "169 MASON ST", "postcode": "06830"}}},
{"geometry": {"type": "Point", "coordinates": [-73.6578211044, 41.0038444296]}, "type": "Feature", "properties": {"collection_times": [{"days": "Mon-Sat", "time": "11:00am"}, {"days": "Sun", "time": "Closed"}], "id": "0683000052", "name": "USPS COLLECTION BOX - BLUE BOX", "address": {"city": "GREENWICH", "state": "CT", "street": "111 MILL ST", "postcode": "06830"}}},
{"geometry": {"type": "Point", "coordinates": [-73.6275175372, 41.0320613759]}, "type": "Feature", "properties": {"collection_times": [{"days": "Mon-Sat", "time": "11:00am"}, {"days": "Sun", "time": "Closed"}], "id": "0683000054", "name": "USPS COLLECTION BOX - BLUE BOX", "address": {"city": "GREENWICH", "state": "CT", "street": "1 LAFAYETTE PL", "postcode": "06830"}}},
{"geometry": {"type": "Point", "coordinates": [-73.625621942, 41.0338136557]}, "type": "Feature", "properties": {"collection_times": [{"days": "Mon-Sat", "time": "11:00am"}, {"days": "Sun", "time": "Closed"}], "id": "0683000063", "name": "USPS COLLECTION BOX - BLUE BOX", "address": {"city": "GREENWICH", "state": "CT", "street": "1 PUTNAM PARK", "postcode": "06830"}}},
{"geometry": {"type": "Point", "coordinates": [-73.619604934, 41.0285914964]}, "type": "Feature", "properties": {"collection_times": [{"days": "Mon-Sat", "time": "11:00am"}, {"days": "Sun", "time": "Closed"}], "id": "0683000064", "name": "USPS COLLECTION BOX - BLUE BOX", "address": {"city": "GREENWICH", "state": "CT", "street": "1 QUARRY KNLS", "postcode": "06830"}}},
{"geometry": {"type": "Point", "coordinates": [-73.6244603433, 41.021756067]}, "type": "Feature", "properties": {"collection_times": [{"days": "Mon-Fri", "time": "5:30pm"}, {"days": "Sat", "time": "11:00am"}, {"days": "Sun", "time": "Closed"}], "id": "0683000065", "name": "USPS COLLECTION BOX - BLUE BOX", "address": {"city": "GREENWICH", "state": "CT", "street": "4 RAILROAD AVE", "postcode": "06830"}}},
{"geometry": {"type": "Point", "coordinates": [-73.6306045652, 41.0215286268]}, "type": "Feature", "properties": {"collection_times": [{"days": "Mon-Sat", "time": "11:00am"}, {"days": "Sun", "time": "Closed"}], "id": "0683000066", "name": "USPS COLLECTION BOX - BLUE BOX", "address": {"city": "GREENWICH", "state": "CT", "street": "280 RAILROAD AVE", "postcode": "06830"}}},
{"geometry": {"type": "Point", "coordinates": [-73.6279004095, 41.0300765769]}, "type": "Feature", "properties": {"collection_times": [{"days": "Mon-Sat", "time": "11:00am"}, {"days": "Sun", "time": "Closed"}], "id": "0683000069", "name": "USPS COLLECTION BOX - BLUE BOX", "address": {"city": "GREENWICH", "state": "CT", "street": "48 W PUTNAM AVE", "postcode": "06830"}}},
{"geometry": {"type": "Point", "coordinates": [-73.6230561759, 41.0490738601]}, "type": "Feature", "properties": {"collection_times": [{"days": "Mon-Fri", "time": "5:00pm"}, {"days": "Sat", "time": "3:00pm"}, {"days": "Sun", "time": "Closed"}], "id": "0683000076", "name": "USPS COLLECTION BOX - BLUE BOX", "address": {"city": "GREENWICH", "state": "CT", "street": "29 VALLEY DR", "postcode": "06830"}}},
{"geometry": {"type": "Point", "coordinates": [-73.6453531097, 41.0203884941]}, "type": "Feature", "properties": {"collection_times": [{"days": "Mon-Fri", "time": "5:00pm"}, {"days": "Sat", "time": "2:00pm"}, {"days": "Sun", "time": "Closed"}], "id": "0683000079", "name": "USPS COLLECTION BOX - EXPRESS", "address": {"city": "GREENWICH", "state": "CT", "street": "29 VALLEY DR", "postcode": "06830"}}},
{"geometry": {"type": "Point", "coordinates": [-73.6267392945, 41.0313990387]}, "type": "Feature", "properties": {"collection_times": [{"days": "Mon-Sat", "time": "11:00am"}, {"days": "Sun", "time": "Closed"}], "id": "0683000081", "name": "USPS COLLECTION BOX - BLUE BOX", "address": {"city": "GREENWICH", "state": "CT", "street": "4 E PUTNAM AVE", "postcode": "06830"}}},
{"geometry": {"type": "Point", "coordinates": [-73.6692011393, 41.0383370975]}, "type": "Feature", "properties": {"collection_times": [{"days": "Mon-Fri", "time": "4:00pm"}, {"days": "Sat", "time": "1:00pm"}, {"days": "Sun", "time": "Closed"}], "id": "0683000092", "name": "USPS COLLECTION BOX - PO LOBBY", "address": {"city": "GREENWICH", "state": "CT", "street": "25 GLEN RIDGE RD", "postcode": "06830"}}},
{"geometry": {"type": "Point", "coordinates": [-73.6280968004, 41.029949453]}, "type": "Feature", "properties": {"collection_times": [{"days": "Mon-Fri", "time": "11:00am"}, {"days": "Sat-Sun", "time": "Closed"}], "id": "0683000096", "name": "USPS COLLECTION BOX - BLUE BOX", "address": {"city": "GREENWICH", "state": "CT", "street": "41 W PUTNAM AVE", "postcode": "06830"}}},
{"geometry": {"type": "Point", "coordinates": [-73.6298096168, 41.0250006114]}, "type": "Feature", "properties": {"collection_times": [{"days": "Mon-Sat", "time": "11:00am"}, {"days": "Sun", "time": "Closed"}], "id": "0683000097", "name": "USPS COLLECTION BOX - BLUE BOX", "address": {"city": "GREENWICH", "state": "CT", "street": "100 FIELD POINT RD", "postcode": "06830"}}},
{"geometry": {"type": "Point", "coordinates": [-73.6452562534, 41.0201953222]}, "type": "Feature", "properties": {"collection_times": [{"days": "Mon-Sat", "time": "5:00pm"}, {"days": "Sun", "time": "Closed"}], "id": "0683000099", "name": "USPS COLLECTION BOX - APC", "address": {"city": "GREENWICH", "state": "CT", "street": "29 VALLEY DR", "postcode": "06830"}}},
{"geometry": {"type": "Point", "coordinates": [-73.6232082511, 41.0495517646]}, "type": "Feature", "properties": {"collection_times": [{"days": "Mon-Fri", "time": "5:00pm"}, {"days": "Sat", "time": "12:30pm"}, {"days": "Sun", "time": "Closed"}], "id": "0683000101", "name": "USPS COLLECTION BOX - APC", "address": {"city": "GREENWICH", "state": "CT", "street": "44 AMOGERONE CROSSWAY", "postcode": "06830"}}},
{"geometry": {"type": "Point", "coordinates": [-73.6232082511, 41.0495517646]}, "type": "Feature", "properties": {"collection_times": [{"days": "Mon-Fri", "time": "5:00pm"}, {"days": "Sat", "time": "12:30pm"}, {"days": "Sun", "time": "Closed"}], "id": "0683000102", "name": "USPS COLLECTION BOX - PO LOBBY", "address": {"city": "GREENWICH", "state": "CT", "street": "44 AMOGERONE CROSSWAY", "postcode": "06830"}}},
{"geometry": {"type": "Point", "coordinates": [-73.3157339264, 41.1224334254]}, "type": "Feature", "properties": {"collection_times": [{"days": "Mon-Fri", "time": "12:15pm"}, {"days": "Sat-Sun", "time": "Closed"}], "id": "0683800000", "name": "USPS COLLECTION BOX - BLUE BOX", "address": {"city": "GREENS FARMS", "state": "CT", "street": "2 POST OFFICE LN", "postcode": "06838"}}},
{"geometry": {"type": "Point", "coordinates": [-73.3196994974, 41.1238026046]}, "type": "Feature", "properties": {"collection_times": [{"days": "Mon-Fri", "time": "5:15pm"}, {"days": "Sat", "time": "12:15pm"}, {"days": "Sun", "time": "Closed"}], "id": "0683800002", "name": "USPS COLLECTION BOX - BLUE BOX", "address": {"city": "GREENS FARMS", "state": "CT", "street": "4 POST OFFICE LN", "postcode": "06838"}}},
{"geometry": {"type": "Point", "coordinates": [-73.3157339264, 41.1224334254]}, "type": "Feature", "properties": {"collection_times": [{"days": "Mon-Fri", "time": "5:15pm"}, {"days": "Sat", "time": "12:15pm"}, {"days": "Sun", "time": "Closed"}], "id": "0683800003", "name": "USPS COLLECTION BOX - PO LOBBY", "address": {"city": "GREENS FARMS", "state": "CT", "street": "4 POST OFFICE LN", "postcode": "06838"}}},
{"geometry": {"type": "Point", "coordinates": [-73.4950957639, 41.1527934403]}, "type": "Feature", "properties": {"collection_times": [{"days": "Mon-Fri", "time": "11:30am"}, {"days": "Sat-Sun", "time": "Closed"}], "id": "0684000002", "name": "USPS COLLECTION BOX - BLUE BOX", "address": {"city": "NEW CANAAN", "state": "CT", "street": "258 ELM ST", "postcode": "06840"}}},
{"geometry": {"type": "Point", "coordinates": [-73.492161385, 41.146742094]}, "type": "Feature", "properties": {"collection_times": [{"days": "Mon-Sat", "time": "12:15pm"}, {"days": "Sun", "time": "Closed"}], "id": "0684000006", "name": "USPS COLLECTION BOX - BLUE BOX", "address": {"city": "NEW CANAAN", "state": "CT", "street": "125 MAIN ST", "postcode": "06840"}}},
{"geometry": {"type": "Point", "coordinates": [-73.492630604, 41.147950011]}, "type": "Feature", "properties": {"collection_times": [{"days": "Mon-Fri", "time": "5:00pm"}, {"days": "Sat", "time": "12:00pm"}, {"days": "Sun", "time": "Closed"}], "id": "0684000011", "name": "USPS COLLECTION BOX - BLUE BOX", "address": {"city": "NEW CANAAN", "state": "CT", "street": "90 MAIN ST", "postcode": "06840"}}},
{"geometry": {"type": "Point", "coordinates": [-73.495096939, 41.146603594]}, "type": "Feature", "properties": {"collection_times": [{"days": "Mon-Sat", "time": "10:00am"}, {"days": "Sun", "time": "Closed"}], "id": "0684000013", "name": "USPS COLLECTION BOX - BLUE BOX", "address": {"city": "NEW CANAAN", "state": "CT", "street": "150 ELM ST", "postcode": "06840"}}},
{"geometry": {"type": "Point", "coordinates": [-73.492630604, 41.147950011]}, "type": "Feature", "properties": {"collection_times": [{"days": "Mon-Fri", "time": "5:00pm"}, {"days": "Sat", "time": "1:00pm"}, {"days": "Sun", "time": "Closed"}], "id": "0684000016", "name": "USPS COLLECTION BOX - EXPRESS", "address": {"city": "NEW CANAAN", "state": "CT", "street": "90 MAIN ST", "postcode": "06840"}}},
{"geometry": {"type": "Point", "coordinates": [-73.4950957639, 41.1527934403]}, "type": "Feature", "properties": {"collection_times": [{"days": "Mon-Sat", "time": "12:00pm"}, {"days": "Sun", "time": "Closed"}], "id": "0684000017", "name": "USPS COLLECTION BOX - BLUE BOX", "address": {"city": "NEW CANAAN", "state": "CT", "street": "39 LOCUST AVE", "postcode": "06840"}}},
{"geometry": {"type": "Point", "coordinates": [-73.5422282499, 41.0518210389]}, "type": "Feature", "properties": {"collection_times": [{"days": "Mon-Sat", "time": "10:30am"}, {"days": "Sun", "time": "Closed"}], "id": "0684000028", "name": "USPS COLLECTION BOX - BLUE BOX", "address": {"city": "NEW CANAAN", "state": "CT", "street": "190 ELM ST", "postcode": "06840"}}},
{"geometry": {"type": "Point", "coordinates": [-73.495468084, 41.145652974]}, "type": "Feature", "properties": {"collection_times": [{"days": "Mon-Fri", "time": "4:30pm"}, {"days": "Sat", "time": "1:00pm"}, {"days": "Sun", "time": "Closed"}], "id": "0684000030", "name": "USPS COLLECTION BOX - BLUE BOX", "address": {"city": "NEW CANAAN", "state": "CT", "street": "3 PINE ST", "postcode": "06840"}}},
{"geometry": {"type": "Point", "coordinates": [-73.495468084, 41.145652974]}, "type": "Feature", "properties": {"collection_times": [{"days": "Mon-Fri", "time": "4:30pm"}, {"days": "Sat", "time": "1:00pm"}, {"days": "Sun", "time": "Closed"}], "id": "0684000032", "name": "USPS COLLECTION BOX - BLUE BOX", "address": {"city": "NEW CANAAN", "state": "CT", "street": "3 PINE ST", "postcode": "06840"}}},
{"geometry": {"type": "Point", "coordinates": [-73.492630604, 41.1479500113]}, "type": "Feature", "properties": {"collection_times": [{"days": "Mon-Fri", "time": "5:00pm"}, {"days": "Sat", "time": "1:00pm"}, {"days": "Sun", "time": "Closed"}], "id": "0684000033", "name": "USPS COLLECTION BOX - APC", "address": {"city": "NEW CANAAN", "state": "CT", "street": "90 MAIN ST", "postcode": "06840"}}},
{"geometry": {"type": "Point", "coordinates": [-73.495468084, 41.145652974]}, "type": "Feature", "properties": {"collection_times": [{"days": "Mon-Fri", "time": "4:30pm"}, {"days": "Sat", "time": "1:00pm"}, {"days": "Sun", "time": "Closed"}], "id": "0684000035", "name": "USPS COLLECTION BOX - BLUE BOX", "address": {"city": "NEW CANAAN", "state": "CT", "street": "3 PINE ST", "postcode": "06840"}}},
{"geometry": {"type": "Point", "coordinates": [-73.4151007017, 41.1170639683]}, "type": "Feature", "properties": {"collection_times": [{"days": "Mon-Fri", "time": "4:45pm"}, {"days": "Sat", "time": "4:00pm"}, {"days": "Sun", "time": "Closed"}], "id": "0685600001", "name": "USPS COLLECTION BOX - BLUE BOX", "address": {"city": "NORWALK", "state": "CT", "street": "2 BELDEN", "postcode": "06856"}}},
{"geometry": {"type": "Point", "coordinates": [-73.4212958455, 41.0990631023]}, "type": "Feature", "properties": {"collection_times": [{"days": "Mon-Fri", "time": "4:15pm"}, {"days": "Sat", "time": "4:00pm"}, {"days": "Sun", "time": "Closed"}], "id": "0685600004", "name": "USPS COLLECTION BOX - EXPRESS", "address": {"city": "NORWALK", "state": "CT", "street": "2 BELDEN", "postcode": "06856"}}},
{"geometry": {"type": "Point", "coordinates": [-73.4212958455, 41.0990631023]}, "type": "Feature", "properties": {"collection_times": [{"days": "Mon-Fri", "time": "4:30pm"}, {"days": "Sat", "time": "1:30pm"}, {"days": "Sun", "time": "Closed"}], "id": "0685600026", "name": "USPS COLLECTION BOX - EXPRESS", "address": {"city": "NORWALK", "state": "CT", "street": "144 ROWAYTON", "postcode": "06856"}}},
{"geometry": {"type": "Point", "coordinates": [-73.4212958455, 41.0990631023]}, "type": "Feature", "properties": {"collection_times": [{"days": "Mon-Fri", "time": "2:15pm"}, {"days": "Sat", "time": "2:00pm"}, {"days": "Sun", "time": "Closed"}], "id": "0685600027", "name": "USPS COLLECTION BOX - BLUE BOX", "address": {"city": "NORWALK", "state": "CT", "street": "1 SELLECK ST", "postcode": "06856"}}},
{"geometry": {"type": "Point", "coordinates": [-73.4212958455, 41.0990631023]}, "type": "Feature", "properties": {"collection_times": [{"days": "Mon-Fri", "time": "5:00pm"}, {"days": "Sat", "time": "4:15pm"}, {"days": "Sun", "time": "Closed"}], "id": "0685600030", "name": "USPS COLLECTION BOX - EXPRESS", "address": {"city": "NORWALK", "state": "CT", "street": "16 WASHINGTON", "postcode": "06856"}}},
{"geometry": {"type": "Point", "coordinates": [-73.4173159789, 41.1182165333]}, "type": "Feature", "properties": {"collection_times": [{"days": "Mon-Fri", "time": "2:15pm"}, {"days": "Sat", "time": "2:00pm"}, {"days": "Sun", "time": "Closed"}], "id": "0685600037", "name": "USPS COLLECTION BOX - BLUE BOX", "address": {"city": "NORWALK", "state": "CT", "street": "23 BELDEN", "postcode": "06856"}}},
{"geometry": {"type": "Point", "coordinates": [-73.4212958455, 41.0990631023]}, "type": "Feature", "properties": {"collection_times": [{"days": "Mon-Fri", "time": "2:00pm"}, {"days": "Sat", "time": "1:45pm"}, {"days": "Sun", "time": "Closed"}], "id": "0685600040", "name": "USPS COLLECTION BOX - BLUE BOX", "address": {"city": "NORWALK", "state": "CT", "street": "40 CROSS ST", "postcode": "06856"}}},
{"geometry": {"type": "Point", "coordinates": [-73.4212958455, 41.0990631023]}, "type": "Feature", "properties": {"collection_times": [{"days": "Mon-Fri", "time": "3:00pm"}, {"days": "Sat-Sun", "time": "Closed"}], "id": "0685600041", "name": "USPS COLLECTION BOX - BLUE BOX", "address": {"city": "NORWALK", "state": "CT", "street": "200 CONNECTICUT AVE", "postcode": "06856"}}},
{"geometry": {"type": "Point", "coordinates": [-73.4212958455, 41.0990631023]}, "type": "Feature", "properties": {"collection_times": [{"days": "Mon-Fri", "time": "3:00pm"}, {"days": "Sat", "time": "1:00pm"}, {"days": "Sun", "time": "Closed"}], "id": "0685600042", "name": "USPS COLLECTION BOX - BLUE BOX", "address": {"city": "NORWALK", "state": "CT", "street": "500 CONNECTICUT AVE", "postcode": "06856"}}},
{"geometry": {"type": "Point", "coordinates": [-73.4076496997, 41.1136638421]}, "type": "Feature", "properties": {"collection_times": [{"days": "Mon-Fri", "time": "3:00pm"}, {"days": "Sat", "time": "2:00pm"}, {"days": "Sun", "time": "Closed"}], "id": "0685600048", "name": "USPS COLLECTION BOX - BLUE BOX", "address": {"city": "NORWALK", "state": "CT", "street": "69 EAST AVE", "postcode": "06856"}}},
{"geometry": {"type": "Point", "coordinates": [-73.4078569307, 41.1182858743]}, "type": "Feature", "properties": {"collection_times": [{"days": "Mon-Fri", "time": "1:00pm"}, {"days": "Sat", "time": "2:00pm"}, {"days": "Sun", "time": "Closed"}], "id": "0685600049", "name": "USPS COLLECTION BOX - BLUE BOX", "address": {"city": "NORWALK", "state": "CT", "street": "83 EAST", "postcode": "06856"}}},
{"geometry": {"type": "Point", "coordinates": [-73.4041296351, 41.1033436272]}, "type": "Feature", "properties": {"collection_times": [{"days": "Mon-Fri", "time": "2:30pm"}, {"days": "Sat", "time": "2:00pm"}, {"days": "Sun", "time": "Closed"}], "id": "0685600052", "name": "USPS COLLECTION BOX - BLUE BOX", "address": {"city": "NORWALK", "state": "CT", "street": "233 EAST", "postcode": "06856"}}},
{"geometry": {"type": "Point", "coordinates": [-73.4212958455, 41.0990631023]}, "type": "Feature", "properties": {"collection_times": [{"days": "Mon-Fri", "time": "3:00pm"}, {"days": "Sat", "time": "2:00pm"}, {"days": "Sun", "time": "Closed"}], "id": "0685600053", "name": "USPS COLLECTION BOX - BLUE BOX", "address": {"city": "NORWALK", "state": "CT", "street": "125 EAST AVE", "postcode": "06856"}}},
{"geometry": {"type": "Point", "coordinates": [-73.4254706129, 41.0969768436]}, "type": "Feature", "properties": {"collection_times": [{"days": "Mon-Sat", "time": "11:30am"}, {"days": "Sun", "time": "Closed"}], "id": "0685600057", "name": "USPS COLLECTION BOX - BLUE BOX", "address": {"city": "NORWALK", "state": "CT", "street": "208 FLAXHILL", "postcode": "06856"}}},
{"geometry": {"type": "Point", "coordinates": [-73.4099856844, 41.1241259579]}, "type": "Feature", "properties": {"collection_times": [{"days": "Mon-Sat", "time": "10:30am"}, {"days": "Sun", "time": "Closed"}], "id": "0685600058", "name": "USPS COLLECTION BOX - BLUE BOX", "address": {"city": "NORWALK", "state": "CT", "street": "39 FRANCE", "postcode": "06856"}}},
{"geometry": {"type": "Point", "coordinates": [-73.4283005602, 41.1168131474]}, "type": "Feature", "properties": {"collection_times": [{"days": "Mon-Sat", "time": "10:00am"}, {"days": "Sun", "time": "Closed"}], "id": "0685600059", "name": "USPS COLLECTION BOX - BLUE BOX", "address": {"city": "NORWALK", "state": "CT", "street": "51 GRANDVIEW AVE", "postcode": "06856"}}},
{"geometry": {"type": "Point", "coordinates": [-73.4009948148, 41.0890794907]}, "type": "Feature", "properties": {"collection_times": [{"days": "Mon-Sat", "time": "12:00pm"}, {"days": "Sun", "time": "Closed"}], "id": "0685600060", "name": "USPS COLLECTION BOX - BLUE BOX", "address": {"city": "NORWALK", "state": "CT", "street": "90 GREGORY", "postcode": "06856"}}},
{"geometry": {"type": "Point", "coordinates": [-73.4367574007, 41.0896562512]}, "type": "Feature", "properties": {"collection_times": [{"days": "Mon-Sat", "time": "11:30am"}, {"days": "Sun", "time": "Closed"}], "id": "0685600061", "name": "USPS COLLECTION BOX - BLUE BOX", "address": {"city": "NORWALK", "state": "CT", "street": "382 HIGHLAND AVE", "postcode": "06856"}}},
{"geometry": {"type": "Point", "coordinates": [-73.3843728396, 41.1275998254]}, "type": "Feature", "properties": {"collection_times": [{"days": "Mon-Fri", "time": "1:30pm"}, {"days": "Sat", "time": "2:00pm"}, {"days": "Sun", "time": "Closed"}], "id": "0685600062", "name": "USPS COLLECTION BOX - BLUE BOX", "address": {"city": "NORWALK", "state": "CT", "street": "542 WESTPORT AVE", "postcode": "06856"}}},
{"geometry": {"type": "Point", "coordinates": [-73.4211744642, 41.1266229495]}, "type": "Feature", "properties": {"collection_times": [{"days": "Mon-Sat", "time": "1:00pm"}, {"days": "Sun", "time": "Closed"}], "id": "0685600065", "name": "USPS COLLECTION BOX - BLUE BOX", "address": {"city": "NORWALK", "state": "CT", "street": "184 MAIN", "postcode": "06856"}}},
{"geometry": {"type": "Point", "coordinates": [-73.4237362593, 41.1315702994]}, "type": "Feature", "properties": {"collection_times": [{"days": "Mon-Sat", "time": "2:00pm"}, {"days": "Sun", "time": "Closed"}], "id": "0685600069", "name": "USPS COLLECTION BOX - BLUE BOX", "address": {"city": "NORWALK", "state": "CT", "street": "235 MAIN", "postcode": "06856"}}},
{"geometry": {"type": "Point", "coordinates": [-73.4258792582, 41.1403610725]}, "type": "Feature", "properties": {"collection_times": [{"days": "Mon-Sat", "time": "1:00pm"}, {"days": "Sun", "time": "Closed"}], "id": "0685600071", "name": "USPS COLLECTION BOX - BLUE BOX", "address": {"city": "NORWALK", "state": "CT", "street": "380 MAIN", "postcode": "06856"}}},
{"geometry": {"type": "Point", "coordinates": [-73.4212958455, 41.0990631023]}, "type": "Feature", "properties": {"collection_times": [{"days": "Mon-Fri", "time": "1:15pm"}, {"days": "Sat", "time": "1:00pm"}, {"days": "Sun", "time": "Closed"}], "id": "0685600073", "name": "USPS COLLECTION BOX - BLUE BOX", "address": {"city": "NORWALK", "state": "CT", "street": "488 MAIN AVE", "postcode": "06856"}}},
{"geometry": {"type": "Point", "coordinates": [-73.4190522412, 41.1597550823]}, "type": "Feature", "properties": {"collection_times": [{"days": "Mon-Fri", "time": "1:30pm"}, {"days": "Sat", "time": "1:00pm"}, {"days": "Sun", "time": "Closed"}], "id": "0685600074", "name": "USPS COLLECTION BOX - BLUE BOX", "address": {"city": "NORWALK", "state": "CT", "street": "652 MAIN", "postcode": "06856"}}},
{"geometry": {"type": "Point", "coordinates": [-73.4212958455, 41.0990631023]}, "type": "Feature", "properties": {"collection_times": [{"days": "Mon-Fri", "time": "2:15pm"}, {"days": "Sat", "time": "3:00pm"}, {"days": "Sun", "time": "Closed"}], "id": "0685600081", "name": "USPS COLLECTION BOX - BLUE BOX", "address": {"city": "NORWALK", "state": "CT", "street": "10 MOTT AVE", "postcode": "06856"}}},
{"geometry": {"type": "Point", "coordinates": [-73.4202594662, 41.0965433367]}, "type": "Feature", "properties": {"collection_times": [{"days": "Mon-Sat", "time": "10:00am"}, {"days": "Sun", "time": "Closed"}], "id": "0685600082", "name": "USPS COLLECTION BOX - BLUE BOX", "address": {"city": "NORWALK", "state": "CT", "street": "20 MONROE ST", "postcode": "06856"}}},
{"geometry": {"type": "Point", "coordinates": [-73.386443888, 41.123553368]}, "type": "Feature", "properties": {"collection_times": [{"days": "Mon-Sat", "time": "10:00am"}, {"days": "Sun", "time": "Closed"}], "id": "0685600084", "name": "USPS COLLECTION BOX - BLUE BOX", "address": {"city": "NORWALK", "state": "CT", "street": "80 COUNTY ST", "postcode": "06856"}}},
{"geometry": {"type": "Point", "coordinates": [-73.4212958455, 41.0990631023]}, "type": "Feature", "properties": {"collection_times": [{"days": "Mon-Fri", "time": "3:00pm"}, {"days": "Sat", "time": "1:00pm"}, {"days": "Sun", "time": "Closed"}], "id": "0685600085", "name": "USPS COLLECTION BOX - BLUE BOX", "address": {"city": "NORWALK", "state": "CT", "street": "70 NEW CANAAN AVE", "postcode": "06856"}}},
{"geometry": {"type": "Point", "coordinates": [-73.4531581069, 41.1331414039]}, "type": "Feature", "properties": {"collection_times": [{"days": "Mon-Fri", "time": "11:00am"}, {"days": "Sat", "time": "1:00pm"}, {"days": "Sun", "time": "Closed"}], "id": "0685600086", "name": "USPS COLLECTION BOX - BLUE BOX", "address": {"city": "NORWALK", "state": "CT", "street": "99 NEW CANAAN AVE", "postcode": "06856"}}},
{"geometry": {"type": "Point", "coordinates": [-73.4212958455, 41.0990631023]}, "type": "Feature", "properties": {"collection_times": [{"days": "Mon-Sat", "time": "1:00pm"}, {"days": "Sun", "time": "Closed"}], "id": "0685600087", "name": "USPS COLLECTION BOX - BLUE BOX", "address": {"city": "NORWALK", "state": "CT", "street": "115 NEW CANAAN AVE", "postcode": "06856"}}},
{"geometry": {"type": "Point", "coordinates": [-73.3942298725, 41.1469689825]}, "type": "Feature", "properties": {"collection_times": [{"days": "Mon-Fri", "time": "2:00pm"}, {"days": "Sat", "time": "1:30pm"}, {"days": "Sun", "time": "Closed"}], "id": "0685600088", "name": "USPS COLLECTION BOX - BLUE BOX", "address": {"city": "NORWALK", "state": "CT", "street": "353 NEWTOWN", "postcode": "06856"}}},
{"geometry": {"type": "Point", "coordinates": [-73.4212958455, 41.0990631023]}, "type": "Feature", "properties": {"collection_times": [{"days": "Mon-Fri", "time": "3:00pm"}, {"days": "Sat", "time": "1:30pm"}, {"days": "Sun", "time": "Closed"}], "id": "0685600093", "name": "USPS COLLECTION BOX - BLUE BOX", "address": {"city": "NORWALK", "state": "CT", "street": "40 RICHARDS AVE", "postcode": "06856"}}},
{"geometry": {"type": "Point", "coordinates": [-73.4212958455, 41.0990631023]}, "type": "Feature", "properties": {"collection_times": [{"days": "Mon-Fri", "time": "3:00pm"}, {"days": "Sat", "time": "1:00pm"}, {"days": "Sun", "time": "Closed"}], "id": "0685600094", "name": "USPS COLLECTION BOX - BLUE BOX", "address": {"city": "NORWALK", "state": "CT", "street": "180 RICHARDS AVE", "postcode": "06856"}}},
{"geometry": {"type": "Point", "coordinates": [-73.4435503549, 41.0677529998]}, "type": "Feature", "properties": {"collection_times": [{"days": "Mon-Fri", "time": "4:30pm"}, {"days": "Sat", "time": "1:30pm"}, {"days": "Sun", "time": "Closed"}], "id": "0685600095", "name": "USPS COLLECTION BOX - BLUE BOX", "address": {"city": "NORWALK", "state": "CT", "street": "144 ROWAYTON AVE", "postcode": "06856"}}},
{"geometry": {"type": "Point", "coordinates": [-73.418811437, 41.0981688993]}, "type": "Feature", "properties": {"collection_times": [{"days": "Mon-Fri", "time": "1:45pm"}, {"days": "Sat", "time": "1:30pm"}, {"days": "Sun", "time": "Closed"}], "id": "0685600096", "name": "USPS COLLECTION BOX - BLUE BOX", "address": {"city": "NORWALK", "state": "CT", "street": "32 S MAIN", "postcode": "06856"}}},
{"geometry": {"type": "Point", "coordinates": [-73.4190153578, 41.0947620469]}, "type": "Feature", "properties": {"collection_times": [{"days": "Mon-Sat", "time": "1:00pm"}, {"days": "Sun", "time": "Closed"}], "id": "0685600097", "name": "USPS COLLECTION BOX - BLUE BOX", "address": {"city": "NORWALK", "state": "CT", "street": "98 S MAIN ST", "postcode": "06856"}}},
{"geometry": {"type": "Point", "coordinates": [-73.424672645, 41.11027032]}, "type": "Feature", "properties": {"collection_times": [{"days": "Mon-Sat", "time": "10:00am"}, {"days": "Sun", "time": "Closed"}], "id": "0685600100", "name": "USPS COLLECTION BOX - BLUE BOX", "address": {"city": "NORWALK", "state": "CT", "street": "51 STEVENS ST", "postcode": "06856"}}},
{"geometry": {"type": "Point", "coordinates": [-73.4207119133, 41.1105328728]}, "type": "Feature", "properties": {"collection_times": [{"days": "Mon-Sat", "time": "1:00pm"}, {"days": "Sun", "time": "Closed"}], "id": "0685600101", "name": "USPS COLLECTION BOX - BLUE BOX", "address": {"city": "NORWALK", "state": "CT", "street": "24 STEVENS ST", "postcode": "06856"}}},
{"geometry": {"type": "Point", "coordinates": [-73.4267491112, 41.086792002]}, "type": "Feature", "properties": {"collection_times": [{"days": "Mon-Sat", "time": "10:00am"}, {"days": "Sun", "time": "Closed"}], "id": "0685600102", "name": "USPS COLLECTION BOX - BLUE BOX", "address": {"city": "NORWALK", "state": "CT", "street": "4 TAFT ST", "postcode": "06856"}}},
{"geometry": {"type": "Point", "coordinates": [-73.4212958455, 41.0990631023]}, "type": "Feature", "properties": {"collection_times": [{"days": "Mon-Fri", "time": "3:00pm"}, {"days": "Sat-Sun", "time": "Closed"}], "id": "0685600105", "name": "USPS COLLECTION BOX - BLUE BOX", "address": {"city": "NORWALK", "state": "CT", "street": "25 VAN ZANT ST", "postcode": "06856"}}},
{"geometry": {"type": "Point", "coordinates": [-73.4221585066, 41.0994608567]}, "type": "Feature", "properties": {"collection_times": [{"days": "Mon-Fri", "time": "5:00pm"}, {"days": "Sat", "time": "4:15pm"}, {"days": "Sun", "time": "Closed"}], "id": "0685600107", "name": "USPS COLLECTION BOX - BLUE BOX", "address": {"city": "NORWALK", "state": "CT", "street": "16 WASHINGTON", "postcode": "06856"}}},
{"geometry": {"type": "Point", "coordinates": [-73.4176892696, 41.0990105684]}, "type": "Feature", "properties": {"collection_times": [{"days": "Mon-Sat", "time": "12:00pm"}, {"days": "Sun", "time": "Closed"}], "id": "0685600112", "name": "USPS COLLECTION BOX - BLUE BOX", "address": {"city": "NORWALK", "state": "CT", "street": "99 WASHINGTON ST", "postcode": "06856"}}},
{"geometry": {"type": "Point", "coordinates": [-73.4112907668, 41.1185752343]}, "type": "Feature", "properties": {"collection_times": [{"days": "Mon-Fri", "time": "1:00pm"}, {"days": "Sat", "time": "1:30pm"}, {"days": "Sun", "time": "Closed"}], "id": "0685600113", "name": "USPS COLLECTION BOX - BLUE BOX", "address": {"city": "NORWALK", "state": "CT", "street": "10 WALL", "postcode": "06856"}}},
{"geometry": {"type": "Point", "coordinates": [-73.4127429075, 41.1181628313]}, "type": "Feature", "properties": {"collection_times": [{"days": "Mon-Fri", "time": "1:00pm"}, {"days": "Sat", "time": "1:30pm"}, {"days": "Sun", "time": "Closed"}], "id": "0685600115", "name": "USPS COLLECTION BOX - BLUE BOX", "address": {"city": "NORWALK", "state": "CT", "street": "44 WALL ST", "postcode": "06856"}}},
{"geometry": {"type": "Point", "coordinates": [-73.413609684, 41.1175626275]}, "type": "Feature", "properties": {"collection_times": [{"days": "Mon-Fri", "time": "1:00pm"}, {"days": "Sat", "time": "1:30pm"}, {"days": "Sun", "time": "Closed"}], "id": "0685600116", "name": "USPS COLLECTION BOX - BLUE BOX", "address": {"city": "NORWALK", "state": "CT", "street": "69 WALL", "postcode": "06856"}}},
{"geometry": {"type": "Point", "coordinates": [-73.4160465284, 41.09774568]}, "type": "Feature", "properties": {"collection_times": [{"days": "Mon-Sat", "time": "11:30am"}, {"days": "Sun", "time": "Closed"}], "id": "0685600118", "name": "USPS COLLECTION BOX - BLUE BOX", "address": {"city": "NORWALK", "state": "CT", "street": "68 WATER ST", "postcode": "06856"}}},
{"geometry": {"type": "Point", "coordinates": [-73.4163677771, 41.1121581987]}, "type": "Feature", "properties": {"collection_times": [{"days": "Mon-Sat", "time": "10:00am"}, {"days": "Sun", "time": "Closed"}], "id": "0685600120", "name": "USPS COLLECTION BOX - BLUE BOX", "address": {"city": "NORWALK", "state": "CT", "street": "520 WEST", "postcode": "06856"}}},
{"geometry": {"type": "Point", "coordinates": [-73.4005085394, 41.1235372789]}, "type": "Feature", "properties": {"collection_times": [{"days": "Mon-Fri", "time": "1:15pm"}, {"days": "Sat", "time": "2:00pm"}, {"days": "Sun", "time": "Closed"}], "id": "0685600123", "name": "USPS COLLECTION BOX - BLUE BOX", "address": {"city": "NORWALK", "state": "CT", "street": "152 WESTPORT", "postcode": "06856"}}},
{"geometry": {"type": "Point", "coordinates": [-73.3961338629, 41.1246990836]}, "type": "Feature", "properties": {"collection_times": [{"days": "Mon-Fri", "time": "1:15pm"}, {"days": "Sat", "time": "2:00pm"}, {"days": "Sun", "time": "Closed"}], "id": "0685600124", "name": "USPS COLLECTION BOX - BLUE BOX", "address": {"city": "NORWALK", "state": "CT", "street": "250 WESTPORT", "postcode": "06856"}}},
{"geometry": {"type": "Point", "coordinates": [-73.4212958451, 41.0990631481]}, "type": "Feature", "properties": {"collection_times": [{"days": "Mon-Fri", "time": "1:15pm"}, {"days": "Sat", "time": "2:00pm"}, {"days": "Sun", "time": "Closed"}], "id": "0685600125", "name": "USPS COLLECTION BOX - BLUE BOX", "address": {"city": "NORWALK", "state": "CT", "street": "396 WESTPORT", "postcode": "06856"}}},
{"geometry": {"type": "Point", "coordinates": [-73.4177239922, 41.1006700335]}, "type": "Feature", "properties": {"collection_times": [{"days": "Mon-Sat", "time": "3:00pm"}, {"days": "Sun", "time": "Closed"}], "id": "0685600127", "name": "USPS COLLECTION BOX - BLUE BOX", "address": {"city": "NORWALK", "state": "CT", "street": "18 MARSHALL ST", "postcode": "06856"}}},
{"geometry": {"type": "Point", "coordinates": [-73.4150226659, 41.0930830177]}, "type": "Feature", "properties": {"collection_times": [{"days": "Mon-Fri", "time": "12:00pm"}, {"days": "Sat", "time": "1:30pm"}, {"days": "Sun", "time": "Closed"}], "id": "0685600129", "name": "USPS COLLECTION BOX - BLUE BOX", "address": {"city": "NORWALK", "state": "CT", "street": "164 WATER ST", "postcode": "06856"}}},
{"geometry": {"type": "Point", "coordinates": [-73.414049141, 41.085871229]}, "type": "Feature", "properties": {"collection_times": [{"days": "Mon-Sat", "time": "10:00am"}, {"days": "Sun", "time": "Closed"}], "id": "0685600130", "name": "USPS COLLECTION BOX - BLUE BOX", "address": {"city": "NORWALK", "state": "CT", "street": "140 WOODWARD AVE", "postcode": "06856"}}},
{"geometry": {"type": "Point", "coordinates": [-73.4212958455, 41.0990631023]}, "type": "Feature", "properties": {"collection_times": [{"days": "Mon-Fri", "time": "12:30pm"}, {"days": "Sat", "time": "3:00pm"}, {"days": "Sun", "time": "Closed"}], "id": "0685600132", "name": "USPS COLLECTION BOX - BLUE BOX", "address": {"city": "NORWALK", "state": "CT", "street": "11 BURNELL BLVD", "postcode": "06856"}}},
{"geometry": {"type": "Point", "coordinates": [-73.4212958455, 41.0990631023]}, "type": "Feature", "properties": {"collection_times": [{"days": "Mon-Fri", "time": "3:00pm"}, {"days": "Sat", "time": "1:00pm"}, {"days": "Sun", "time": "Closed"}], "id": "0685600133", "name": "USPS COLLECTION BOX - BLUE BOX", "address": {"city": "NORWALK", "state": "CT", "street": "360 CONNECTICUT AVE", "postcode": "06856"}}},
{"geometry": {"type": "Point", "coordinates": [-73.418865173, 41.10008792]}, "type": "Feature", "properties": {"collection_times": [{"days": "Mon-Sat", "time": "10:00am"}, {"days": "Sun", "time": "Closed"}], "id": "0685600136", "name": "USPS COLLECTION BOX - BLUE BOX", "address": {"city": "NORWALK", "state": "CT", "street": "41 N MAIN ST", "postcode": "06856"}}},
{"geometry": {"type": "Point", "coordinates": [-73.4212958455, 41.0990631023]}, "type": "Feature", "properties": {"collection_times": [{"days": "Mon-Sat", "time": "1:00pm"}, {"days": "Sun", "time": "Closed"}], "id": "0685600137", "name": "USPS COLLECTION BOX - BLUE BOX", "address": {"city": "NORWALK", "state": "CT", "street": "304 MAIN AVE", "postcode": "06856"}}},
{"geometry": {"type": "Point", "coordinates": [-73.4233749715, 41.0958630518]}, "type": "Feature", "properties": {"collection_times": [{"days": "Mon-Fri", "time": "12:00pm"}, {"days": "Sat", "time": "1:30pm"}, {"days": "Sun", "time": "Closed"}], "id": "0685600142", "name": "USPS COLLECTION BOX - BLUE BOX", "address": {"city": "NORWALK", "state": "CT", "street": "1 STATE ST", "postcode": "06856"}}},
{"geometry": {"type": "Point", "coordinates": [-73.4221585066, 41.0994608567]}, "type": "Feature", "properties": {"collection_times": [{"days": "Mon-Sat", "time": "5:00pm"}, {"days": "Sun", "time": "Closed"}], "id": "0685600144", "name": "USPS COLLECTION BOX - PO LOBBY", "address": {"city": "NORWALK", "state": "CT", "street": "16 WASHINGTON ST", "postcode": "06856"}}},
{"geometry": {"type": "Point", "coordinates": [-73.4153178632, 41.1172087138]}, "type": "Feature", "properties": {"collection_times": [{"days": "Mon-Fri", "time": "5:30pm"}, {"days": "Sat", "time": "3:30pm"}, {"days": "Sun", "time": "Closed"}], "id": "0685600145", "name": "USPS COLLECTION BOX - PO LOBBY", "address": {"city": "NORWALK", "state": "CT", "street": "2 BELDEN AVE", "postcode": "06856"}}},
{"geometry": {"type": "Point", "coordinates": [-73.4435503549, 41.0677529998]}, "type": "Feature", "properties": {"collection_times": [{"days": "Mon-Fri", "time": "4:30pm"}, {"days": "Sat", "time": "1:00pm"}, {"days": "Sun", "time": "Closed"}], "id": "0685600146", "name": "USPS COLLECTION BOX - PO LOBBY", "address": {"city": "NORWALK", "state": "CT", "street": "144 ROWAYTON", "postcode": "06856"}}},
{"geometry": {"type": "Point", "coordinates": [-73.4212958455, 41.0990631023]}, "type": "Feature", "properties": {"collection_times": [{"days": "Mon-Fri", "time": "3:00pm"}, {"days": "Sat", "time": "1:00pm"}, {"days": "Sun", "time": "Closed"}], "id": "0685600151", "name": "USPS COLLECTION BOX - BLUE BOX", "address": {"city": "NORWALK", "state": "CT", "street": "535 CONNECTICUT AVE", "postcode": "06856"}}},
{"geometry": {"type": "Point", "coordinates": [-73.4075321359, 41.1145064059]}, "type": "Feature", "properties": {"collection_times": [{"days": "Mon-Sat", "time": "10:00am"}, {"days": "Sun", "time": "Closed"}], "id": "0685600152", "name": "USPS COLLECTION BOX - BLUE BOX", "address": {"city": "NORWALK", "state": "CT", "street": "111 EAST AVE", "postcode": "06856"}}},
{"geometry": {"type": "Point", "coordinates": [-73.4212958455, 41.0990631023]}, "type": "Feature", "properties": {"collection_times": [{"days": "Mon-Fri", "time": "3:00pm"}, {"days": "Sat", "time": "1:00pm"}, {"days": "Sun", "time": "Closed"}], "id": "0685600153", "name": "USPS COLLECTION BOX - BLUE BOX", "address": {"city": "NORWALK", "state": "CT", "street": "385 CONNECTICUT AVE", "postcode": "06856"}}},
{"geometry": {"type": "Point", "coordinates": [-73.4212958455, 41.0990631023]}, "type": "Feature", "properties": {"collection_times": [{"days": "Mon-Fri", "time": "3:00pm"}, {"days": "Sat", "time": "1:30pm"}, {"days": "Sun", "time": "Closed"}], "id": "0685600154", "name": "USPS COLLECTION BOX - BLUE BOX", "address": {"city": "NORWALK", "state": "CT", "street": "383 MAIN AVE", "postcode": "06856"}}},
{"geometry": {"type": "Point", "coordinates": [-73.4199483828, 41.1034701499]}, "type": "Feature", "properties": {"collection_times": [{"days": "Mon-Sat", "time": "12:00pm"}, {"days": "Sun", "time": "Closed"}], "id": "0685600156", "name": "USPS COLLECTION BOX - BLUE BOX", "address": {"city": "NORWALK", "state": "CT", "street": "2 GARNER ST", "postcode": "06856"}}},
{"geometry": {"type": "Point", "coordinates": [-73.4055195958, 41.1069912123]}, "type": "Feature", "properties": {"collection_times": [{"days": "Mon-Fri", "time": "3:00pm"}, {"days": "Sat", "time": "2:00pm"}, {"days": "Sun", "time": "Closed"}], "id": "0685600159", "name": "USPS COLLECTION BOX - BLUE BOX", "address": {"city": "NORWALK", "state": "CT", "street": "190 EAST AVE", "postcode": "06856"}}},
{"geometry": {"type": "Point", "coordinates": [-73.4494379486, 41.0948484235]}, "type": "Feature", "properties": {"collection_times": [{"days": "Mon-Fri", "time": "3:00pm"}, {"days": "Sat", "time": "1:00pm"}, {"days": "Sun", "time": "Closed"}], "id": "0685600160", "name": "USPS COLLECTION BOX - BLUE BOX", "address": {"city": "NORWALK", "state": "CT", "street": "680 CONNECTICUT AVE", "postcode": "06856"}}},
{"geometry": {"type": "Point", "coordinates": [-73.5663871991, 41.0322676604]}, "type": "Feature", "properties": {"collection_times": [{"days": "Mon-Fri", "time": "5:30pm"}, {"days": "Sat", "time": "4:00pm"}, {"days": "Sun", "time": "Closed"}], "id": "0687000001", "name": "USPS COLLECTION BOX - BLUE BOX", "address": {"city": "OLD GREENWICH", "state": "CT", "street": "36 ARCADIA RD", "postcode": "06870"}}},
{"geometry": {"type": "Point", "coordinates": [-73.5667275246, 41.0346223257]}, "type": "Feature", "properties": {"collection_times": [{"days": "Mon-Fri", "time": "5:30pm"}, {"days": "Sat", "time": "4:00pm"}, {"days": "Sun", "time": "Closed"}], "id": "0687000005", "name": "USPS COLLECTION BOX - EXPRESS", "address": {"city": "OLD GREENWICH", "state": "CT", "street": "36 ARCADIA RD", "postcode": "06870"}}},
{"geometry": {"type": "Point", "coordinates": [-73.5622742249, 41.0277807279]}, "type": "Feature", "properties": {"collection_times": [{"days": "Mon-Sat", "time": "3:00pm"}, {"days": "Sun", "time": "Closed"}], "id": "0687000006", "name": "USPS COLLECTION BOX - BLUE BOX", "address": {"city": "OLD GREENWICH", "state": "CT", "street": "1150 E PUTNAM AVE", "postcode": "06870"}}},
{"geometry": {"type": "Point", "coordinates": [-73.5715488877, 41.0453084679]}, "type": "Feature", "properties": {"collection_times": [{"days": "Mon-Sat", "time": "3:00pm"}, {"days": "Sun", "time": "Closed"}], "id": "0687000007", "name": "USPS COLLECTION BOX - BLUE BOX", "address": {"city": "OLD GREENWICH", "state": "CT", "street": "1429 E PUTNAM AVE", "postcode": "06870"}}},
{"geometry": {"type": "Point", "coordinates": [-73.5622742249, 41.0277807279]}, "type": "Feature", "properties": {"collection_times": [{"days": "Mon-Sat", "time": "2:00pm"}, {"days": "Sun", "time": "Closed"}], "id": "0687000008", "name": "USPS COLLECTION BOX - BLUE BOX", "address": {"city": "OLD GREENWICH", "state": "CT", "street": "5 RIVERSIDE AVE", "postcode": "06870"}}},
{"geometry": {"type": "Point", "coordinates": [-73.5667275245, 41.0346223717]}, "type": "Feature", "properties": {"collection_times": [{"days": "Mon-Sat", "time": "3:00pm"}, {"days": "Sun", "time": "Closed"}], "id": "0687000009", "name": "USPS COLLECTION BOX - BLUE BOX", "address": {"city": "OLD GREENWICH", "state": "CT", "street": "146 SOUND BEACH AVE", "postcode": "06870"}}},
{"geometry": {"type": "Point", "coordinates": [-73.5680906305, 41.0322156447]}, "type": "Feature", "properties": {"collection_times": [{"days": "Mon-Sat", "time": "3:00pm"}, {"days": "Sun", "time": "Closed"}], "id": "0687000010", "name": "USPS COLLECTION BOX - BLUE BOX", "address": {"city": "OLD GREENWICH", "state": "CT", "street": "190 SOUND BEACH AVE", "postcode": "06870"}}},
{"geometry": {"type": "Point", "coordinates": [-73.5620283069, 41.0197018231]}, "type": "Feature", "properties": {"collection_times": [{"days": "Mon-Sat", "time": "3:00pm"}, {"days": "Sun", "time": "Closed"}], "id": "0687000011", "name": "USPS COLLECTION BOX - BLUE BOX", "address": {"city": "OLD GREENWICH", "state": "CT", "street": "279 SOUND BEACH AVE", "postcode": "06870"}}},
{"geometry": {"type": "Point", "coordinates": [-73.5644697803, 41.0355329354]}, "type": "Feature", "properties": {"collection_times": [{"days": "Mon-Sat", "time": "3:00pm"}, {"days": "Sun", "time": "Closed"}], "id": "0687000012", "name": "USPS COLLECTION BOX - BLUE BOX", "address": {"city": "OLD GREENWICH", "state": "CT", "street": "53 FOREST AVE", "postcode": "06870"}}},
{"geometry": {"type": "Point", "coordinates": [-73.568778296, 41.033761727]}, "type": "Feature", "properties": {"collection_times": [{"days": "Mon-Sat", "time": "3:00pm"}, {"days": "Sun", "time": "Closed"}], "id": "0687000015", "name": "USPS COLLECTION BOX - BLUE BOX", "address": {"city": "OLD GREENWICH", "state": "CT", "street": "150 SOUND BEACH AVE", "postcode": "06870"}}},
{"geometry": {"type": "Point", "coordinates": [-73.5622742249, 41.0277807279]}, "type": "Feature", "properties": {"collection_times": [{"days": "Mon-Fri", "time": "3:00pm"}, {"days": "Sat", "time": "2:00pm"}, {"days": "Sun", "time": "Closed"}], "id": "0687000016", "name": "USPS COLLECTION BOX - BLUE BOX", "address": {"city": "OLD GREENWICH", "state": "CT", "street": "10 CARRONA DR", "postcode": "06870"}}},
{"geometry": {"type": "Point", "coordinates": [-73.5680066716, 41.0319729708]}, "type": "Feature", "properties": {"collection_times": [{"days": "Mon-Fri", "time": "5:00pm"}, {"days": "Sat", "time": "4:00pm"}, {"days": "Sun", "time": "Closed"}], "id": "0687000019", "name": "USPS COLLECTION BOX - PO LOBBY", "address": {"city": "OLD GREENWICH", "state": "CT", "street": "36 ARCADIA RD", "postcode": "06870"}}},
{"geometry": {"type": "Point", "coordinates": [-73.5620283069, 41.0197018231]}, "type": "Feature", "properties": {"collection_times": [{"days": "Mon-Sat", "time": "3:00pm"}, {"days": "Sun", "time": "Closed"}], "id": "0687000021", "name": "USPS COLLECTION BOX - BLUE BOX", "address": {"city": "OLD GREENWICH", "state": "CT", "street": "90 SOUND BEACH AVE", "postcode": "06870"}}},
{"geometry": {"type": "Point", "coordinates": [-73.3818562875, 41.3061104872]}, "type": "Feature", "properties": {"collection_times": [{"days": "Mon-Fri", "time": "4:45pm"}, {"days": "Sat", "time": "11:45am"}, {"days": "Sun", "time": "Closed"}], "id": "0687500001", "name": "USPS COLLECTION BOX - BLUE BOX", "address": {"city": "REDDING", "state": "CT", "street": "10 LONETOWN", "postcode": "06875"}}},
{"geometry": {"type": "Point", "coordinates": [-73.3817230115, 41.3060042328]}, "type": "Feature", "properties": {"collection_times": [{"days": "Mon-Fri", "time": "4:45pm"}, {"days": "Sat", "time": "11:45am"}, {"days": "Sun", "time": "Closed"}], "id": "0687500003", "name": "USPS COLLECTION BOX - PO LOBBY", "address": {"city": "REDDING", "state": "CT", "street": "10 LONETOWN RD", "postcode": "06875"}}},
{"geometry": {"type": "Point", "coordinates": [-73.3458815635, 41.3014409707]}, "type": "Feature", "properties": {"collection_times": [{"days": "Mon-Fri", "time": "4:45pm"}, {"days": "Sat", "time": "11:45am"}, {"days": "Sun", "time": "Closed"}], "id": "0687600001", "name": "USPS COLLECTION BOX - BLUE BOX", "address": {"city": "REDDING RIDGE", "state": "CT", "street": "121 BLACK ROCK TPKE", "postcode": "06876"}}},
{"geometry": {"type": "Point", "coordinates": [-73.3458815635, 41.3014409707]}, "type": "Feature", "properties": {"collection_times": [{"days": "Mon-Fri", "time": "4:45pm"}, {"days": "Sat", "time": "11:45am"}, {"days": "Sun", "time": "Closed"}], "id": "0687600002", "name": "USPS COLLECTION BOX - PO LOBBY", "address": {"city": "REDDING RIDGE", "state": "CT", "street": "121 BLACK ROCK TPKE", "postcode": "06876"}}},
{"geometry": {"type": "Point", "coordinates": [-73.5003241114, 41.2814116989]}, "type": "Feature", "properties": {"collection_times": [{"days": "Mon-Fri", "time": "5:00pm"}, {"days": "Sat", "time": "3:30pm"}, {"days": "Sun", "time": "Closed"}], "id": "0687700001", "name": "USPS COLLECTION BOX - BLUE BOX", "address": {"city": "RIDGEFIELD", "state": "CT", "street": "26 CATOONAH ST", "postcode": "06877"}}},
{"geometry": {"type": "Point", "coordinates": [-73.4998796146, 41.3013101192]}, "type": "Feature", "properties": {"collection_times": [{"days": "Mon-Fri", "time": "4:45pm"}, {"days": "Sat", "time": "3:30pm"}, {"days": "Sun", "time": "Closed"}], "id": "0687700003", "name": "USPS COLLECTION BOX - EXPRESS", "address": {"city": "RIDGEFIELD", "state": "CT", "street": "26 CATOONAH ST", "postcode": "06877"}}},
{"geometry": {"type": "Point", "coordinates": [-73.4984065349, 41.2810816533]}, "type": "Feature", "properties": {"collection_times": [{"days": "Mon-Sat", "time": "2:00pm"}, {"days": "Sun", "time": "Closed"}], "id": "0687700008", "name": "USPS COLLECTION BOX - BLUE BOX", "address": {"city": "RIDGEFIELD", "state": "CT", "street": "385 MAIN ST", "postcode": "06877"}}},
{"geometry": {"type": "Point", "coordinates": [-73.4969563665, 41.2806090864]}, "type": "Feature", "properties": {"collection_times": [{"days": "Mon-Sat", "time": "2:00pm"}, {"days": "Sun", "time": "Closed"}], "id": "0687700009", "name": "USPS COLLECTION BOX - BLUE BOX", "address": {"city": "RIDGEFIELD", "state": "CT", "street": "21 GOVERNOR ST", "postcode": "06877"}}},
{"geometry": {"type": "Point", "coordinates": [-73.498285606, 41.2803800717]}, "type": "Feature", "properties": {"collection_times": [{"days": "Mon-Sat", "time": "2:00pm"}, {"days": "Sun", "time": "Closed"}], "id": "0687700010", "name": "USPS COLLECTION BOX - BLUE BOX", "address": {"city": "RIDGEFIELD", "state": "CT", "street": "368 MAIN ST", "postcode": "06877"}}},
{"geometry": {"type": "Point", "coordinates": [-73.4998330986, 41.2885726515]}, "type": "Feature", "properties": {"collection_times": [{"days": "Mon-Sat", "time": "1:00pm"}, {"days": "Sun", "time": "Closed"}], "id": "0687700012", "name": "USPS COLLECTION BOX - BLUE BOX", "address": {"city": "RIDGEFIELD", "state": "CT", "street": "622 MAIN ST", "postcode": "06877"}}},
{"geometry": {"type": "Point", "coordinates": [-73.4430192132, 41.2678561721]}, "type": "Feature", "properties": {"collection_times": [{"days": "Mon-Sat", "time": "1:00pm"}, {"days": "Sun", "time": "Closed"}], "id": "0687700018", "name": "USPS COLLECTION BOX - BLUE BOX", "address": {"city": "RIDGEFIELD", "state": "CT", "street": "720 BRANCHVILLE RD", "postcode": "06877"}}},
{"geometry": {"type": "Point", "coordinates": [-73.4769452934, 41.3206185079]}, "type": "Feature", "properties": {"collection_times": [{"days": "Mon-Sat", "time": "1:00pm"}, {"days": "Sun", "time": "Closed"}], "id": "0687700019", "name": "USPS COLLECTION BOX - BLUE BOX", "address": {"city": "RIDGEFIELD", "state": "CT", "street": "590 DANBURY RD", "postcode": "06877"}}},
{"geometry": {"type": "Point", "coordinates": [-73.5116840664, 41.3325368194]}, "type": "Feature", "properties": {"collection_times": [{"days": "Mon-Sat", "time": "1:30pm"}, {"days": "Sun", "time": "Closed"}], "id": "0687700020", "name": "USPS COLLECTION BOX - BLUE BOX", "address": {"city": "RIDGEFIELD", "state": "CT", "street": "5 FOX HILL DR", "postcode": "06877"}}},
{"geometry": {"type": "Point", "coordinates": [-73.4961589521, 41.2870713941]}, "type": "Feature", "properties": {"collection_times": [{"days": "Mon-Sat", "time": "1:30pm"}, {"days": "Sun", "time": "Closed"}], "id": "0687700021", "name": "USPS COLLECTION BOX - BLUE BOX", "address": {"city": "RIDGEFIELD", "state": "CT", "street": "130 OLCOTT WAY", "postcode": "06877"}}},
{"geometry": {"type": "Point", "coordinates": [-73.4723920843, 41.3141832111]}, "type": "Feature", "properties": {"collection_times": [{"days": "Mon-Sat", "time": "1:00pm"}, {"days": "Sun", "time": "Closed"}], "id": "0687700022", "name": "USPS COLLECTION BOX - BLUE BOX", "address": {"city": "RIDGEFIELD", "state": "CT", "street": "871 ETHAN ALLEN HWY", "postcode": "06877"}}},
{"geometry": {"type": "Point", "coordinates": [-73.4984509138, 41.2822183778]}, "type": "Feature", "properties": {"collection_times": [{"days": "Mon-Sat", "time": "2:00pm"}, {"days": "Sun", "time": "Closed"}], "id": "0687700023", "name": "USPS COLLECTION BOX - BLUE BOX", "address": {"city": "RIDGEFIELD", "state": "CT", "street": "1 BIG SHOP LN", "postcode": "06877"}}},
{"geometry": {"type": "Point", "coordinates": [-73.4944743793, 41.2868509442]}, "type": "Feature", "properties": {"collection_times": [{"days": "Mon-Sat", "time": "2:00pm"}, {"days": "Sun", "time": "Closed"}], "id": "0687700024", "name": "USPS COLLECTION BOX - BLUE BOX", "address": {"city": "RIDGEFIELD", "state": "CT", "street": "38 GROVE GRV", "postcode": "06877"}}},
{"geometry": {"type": "Point", "coordinates": [-73.49843256, 41.2814909571]}, "type": "Feature", "properties": {"collection_times": [{"days": "Mon-Sat", "time": "2:00pm"}, {"days": "Sun", "time": "Closed"}], "id": "0687700026", "name": "USPS COLLECTION BOX - BLUE BOX", "address": {"city": "RIDGEFIELD", "state": "CT", "street": "400 MAIN ST", "postcode": "06877"}}},
{"geometry": {"type": "Point", "coordinates": [-73.4998796146, 41.3013101192]}, "type": "Feature", "properties": {"collection_times": [{"days": "Mon-Fri", "time": "5:00pm"}, {"days": "Sat", "time": "3:30pm"}, {"days": "Sun", "time": "Closed"}], "id": "0687700029", "name": "USPS COLLECTION BOX - BLUE BOX", "address": {"city": "RIDGEFIELD", "state": "CT", "street": "26 CATOONAH ST", "postcode": "06877"}}},
{"geometry": {"type": "Point", "coordinates": [-73.5003241114, 41.2814116989]}, "type": "Feature", "properties": {"collection_times": [{"days": "Mon-Fri", "time": "5:00pm"}, {"days": "Sat", "time": "3:30pm"}, {"days": "Sun", "time": "Closed"}], "id": "0687700030", "name": "USPS COLLECTION BOX - PO LOBBY", "address": {"city": "RIDGEFIELD", "state": "CT", "street": "26 CATOONAH ST", "postcode": "06877"}}},
{"geometry": {"type": "Point", "coordinates": [-73.4929176053, 41.2944313452]}, "type": "Feature", "properties": {"collection_times": [{"days": "Mon-Sat", "time": "1:30pm"}, {"days": "Sun", "time": "Closed"}], "id": "0687700035", "name": "USPS COLLECTION BOX - BLUE BOX", "address": {"city": "RIDGEFIELD", "state": "CT", "street": "125 DANBURY RD", "postcode": "06877"}}},
{"geometry": {"type": "Point", "coordinates": [-73.57652447, 41.0420284389]}, "type": "Feature", "properties": {"collection_times": [{"days": "Mon-Fri", "time": "5:00pm"}, {"days": "Sat", "time": "1:00pm"}, {"days": "Sun", "time": "Closed"}], "id": "0687800002", "name": "USPS COLLECTION BOX - BLUE BOX", "address": {"city": "RIVERSIDE", "state": "CT", "street": "1273 E PUTNAM AVE", "postcode": "06878"}}},
{"geometry": {"type": "Point", "coordinates": [-73.5815874434, 41.0381113651]}, "type": "Feature", "properties": {"collection_times": [{"days": "Mon-Fri", "time": "4:45pm"}, {"days": "Sat", "time": "1:00pm"}, {"days": "Sun", "time": "Closed"}], "id": "0687800004", "name": "USPS COLLECTION BOX - EXPRESS", "address": {"city": "RIVERSIDE", "state": "CT", "street": "1273 E PUTNAM AVE", "postcode": "06878"}}},
{"geometry": {"type": "Point", "coordinates": [-73.57652447, 41.0420284389]}, "type": "Feature", "properties": {"collection_times": [{"days": "Mon-Fri", "time": "5:00pm"}, {"days": "Sat", "time": "1:00pm"}, {"days": "Sun", "time": "Closed"}], "id": "0687800005", "name": "USPS COLLECTION BOX - PO LOBBY", "address": {"city": "RIVERSIDE", "state": "CT", "street": "1273 E PUTNAM AVE", "postcode": "06878"}}},
{"geometry": {"type": "Point", "coordinates": [-73.3508893764, 41.1400712642]}, "type": "Feature", "properties": {"collection_times": [{"days": "Mon-Fri", "time": "5:00pm"}, {"days": "Sat", "time": "12:00pm"}, {"days": "Sun", "time": "Closed"}], "id": "0688000002", "name": "USPS COLLECTION BOX - BLUE BOX", "address": {"city": "WESTPORT", "state": "CT", "street": "275 POST RD E", "postcode": "06880"}}},
{"geometry": {"type": "Point", "coordinates": [-73.3605605902, 41.1447923473]}, "type": "Feature", "properties": {"collection_times": [{"days": "Mon-Fri", "time": "4:00pm"}, {"days": "Sat-Sun", "time": "Closed"}], "id": "0688000007", "name": "USPS COLLECTION BOX - BLUE BOX", "address": {"city": "WESTPORT", "state": "CT", "street": "110 MYRTLE AVE", "postcode": "06880"}}},
{"geometry": {"type": "Point", "coordinates": [-73.3508893763, 41.1400626206]}, "type": "Feature", "properties": {"collection_times": [{"days": "Mon-Fri", "time": "4:00pm"}, {"days": "Sat", "time": "1:00pm"}, {"days": "Sun", "time": "Closed"}], "id": "0688000024", "name": "USPS COLLECTION BOX - BLUE BOX", "address": {"city": "WESTPORT", "state": "CT", "street": "136 MAIN ST", "postcode": "06880"}}},
{"geometry": {"type": "Point", "coordinates": [-73.3647146344, 41.1410268161]}, "type": "Feature", "properties": {"collection_times": [{"days": "Mon-Fri", "time": "2:45pm"}, {"days": "Sat", "time": "1:00pm"}, {"days": "Sun", "time": "Closed"}], "id": "0688000028", "name": "USPS COLLECTION BOX - BLUE BOX", "address": {"city": "WESTPORT", "state": "CT", "street": "16 WILTON RD", "postcode": "06880"}}},
{"geometry": {"type": "Point", "coordinates": [-73.365388899, 41.140254613]}, "type": "Feature", "properties": {"collection_times": [{"days": "Mon-Fri", "time": "2:00pm"}, {"days": "Sat-Sun", "time": "Closed"}], "id": "0688000029", "name": "USPS COLLECTION BOX - BLUE BOX", "address": {"city": "WESTPORT", "state": "CT", "street": "10 WRIGHT ST", "postcode": "06880"}}},
{"geometry": {"type": "Point", "coordinates": [-73.3710946113, 41.1200577756]}, "type": "Feature", "properties": {"collection_times": [{"days": "Mon-Sat", "time": "1:00pm"}, {"days": "Sun", "time": "Closed"}], "id": "0688000031", "name": "USPS COLLECTION BOX - BLUE BOX", "address": {"city": "WESTPORT", "state": "CT", "street": "21 CHARLES ST", "postcode": "06880"}}},
{"geometry": {"type": "Point", "coordinates": [-73.3685213712, 41.1312239629]}, "type": "Feature", "properties": {"collection_times": [{"days": "Mon-Fri", "time": "3:00pm"}, {"days": "Sat", "time": "1:00pm"}, {"days": "Sun", "time": "Closed"}], "id": "0688000034", "name": "USPS COLLECTION BOX - BLUE BOX", "address": {"city": "WESTPORT", "state": "CT", "street": "274 RIVERSIDE AVE", "postcode": "06880"}}},
{"geometry": {"type": "Point", "coordinates": [-73.3508893764, 41.1400712642]}, "type": "Feature", "properties": {"collection_times": [{"days": "Mon-Fri", "time": "3:00pm"}, {"days": "Sat", "time": "12:00pm"}, {"days": "Sun", "time": "Closed"}], "id": "0688000035", "name": "USPS COLLECTION BOX - BLUE BOX", "address": {"city": "WESTPORT", "state": "CT", "street": "20 BAY ST", "postcode": "06880"}}},
{"geometry": {"type": "Point", "coordinates": [-73.368718374, 41.1332080004]}, "type": "Feature", "properties": {"collection_times": [{"days": "Mon-Fri", "time": "3:00pm"}, {"days": "Sat", "time": "1:00pm"}, {"days": "Sun", "time": "Closed"}], "id": "0688000036", "name": "USPS COLLECTION BOX - BLUE BOX", "address": {"city": "WESTPORT", "state": "CT", "street": "25 SYLVAN RD S", "postcode": "06880"}}},
{"geometry": {"type": "Point", "coordinates": [-73.37563746, 41.1313903716]}, "type": "Feature", "properties": {"collection_times": [{"days": "Mon-Fri", "time": "3:00pm"}, {"days": "Sat", "time": "1:00pm"}, {"days": "Sun", "time": "Closed"}], "id": "0688000038", "name": "USPS COLLECTION BOX - BLUE BOX", "address": {"city": "WESTPORT", "state": "CT", "street": "315 POST RD W", "postcode": "06880"}}},
{"geometry": {"type": "Point", "coordinates": [-73.372044255, 41.1350893144]}, "type": "Feature", "properties": {"collection_times": [{"days": "Mon-Fri", "time": "3:00pm"}, {"days": "Sat", "time": "1:00pm"}, {"days": "Sun", "time": "Closed"}], "id": "0688000039", "name": "USPS COLLECTION BOX - BLUE BOX", "address": {"city": "WESTPORT", "state": "CT", "street": "221 POST RD W", "postcode": "06880"}}},
{"geometry": {"type": "Point", "coordinates": [-73.3508893763, 41.1400626206]}, "type": "Feature", "properties": {"collection_times": [{"days": "Mon-Fri", "time": "3:00pm"}, {"days": "Sat", "time": "10:00am"}, {"days": "Sun", "time": "Closed"}], "id": "0688000043", "name": "USPS COLLECTION BOX - BLUE BOX", "address": {"city": "WESTPORT", "state": "CT", "street": "273 POST RD E", "postcode": "06880"}}},
{"geometry": {"type": "Point", "coordinates": [-73.3276535906, 41.1389373066]}, "type": "Feature", "properties": {"collection_times": [{"days": "Mon-Fri", "time": "3:00pm"}, {"days": "Sat", "time": "10:00am"}, {"days": "Sun", "time": "Closed"}], "id": "0688000044", "name": "USPS COLLECTION BOX - BLUE BOX", "address": {"city": "WESTPORT", "state": "CT", "street": "1084 POST RD E", "postcode": "06880"}}},
{"geometry": {"type": "Point", "coordinates": [-73.3416569236, 41.137564178]}, "type": "Feature", "properties": {"collection_times": [{"days": "Mon-Fri", "time": "3:00pm"}, {"days": "Sat", "time": "10:00am"}, {"days": "Sun", "time": "Closed"}], "id": "0688000047", "name": "USPS COLLECTION BOX - BLUE BOX", "address": {"city": "WESTPORT", "state": "CT", "street": "1246 POST RD E", "postcode": "06880"}}},
{"geometry": {"type": "Point", "coordinates": [-73.314115221, 41.1387254849]}, "type": "Feature", "properties": {"collection_times": [{"days": "Mon-Fri", "time": "3:00pm"}, {"days": "Sat", "time": "10:00am"}, {"days": "Sun", "time": "Closed"}], "id": "0688000050", "name": "USPS COLLECTION BOX - BLUE BOX", "address": {"city": "WESTPORT", "state": "CT", "street": "1465 POST RD E", "postcode": "06880"}}},
{"geometry": {"type": "Point", "coordinates": [-73.3367967364, 41.1377775786]}, "type": "Feature", "properties": {"collection_times": [{"days": "Mon-Fri", "time": "3:00pm"}, {"days": "Sat", "time": "10:00am"}, {"days": "Sun", "time": "Closed"}], "id": "0688000052", "name": "USPS COLLECTION BOX - BLUE BOX", "address": {"city": "WESTPORT", "state": "CT", "street": "830 POST RD E", "postcode": "06880"}}},
{"geometry": {"type": "Point", "coordinates": [-73.3416569236, 41.137564178]}, "type": "Feature", "properties": {"collection_times": [{"days": "Mon-Fri", "time": "3:00pm"}, {"days": "Sat", "time": "10:00am"}, {"days": "Sun", "time": "Closed"}], "id": "0688000053", "name": "USPS COLLECTION BOX - BLUE BOX", "address": {"city": "WESTPORT", "state": "CT", "street": "619 POST RD E", "postcode": "06880"}}},
{"geometry": {"type": "Point", "coordinates": [-73.3623250149, 41.1411060175]}, "type": "Feature", "properties": {"collection_times": [{"days": "Mon-Fri", "time": "2:45pm"}, {"days": "Sat", "time": "1:00pm"}, {"days": "Sun", "time": "Closed"}], "id": "0688000057", "name": "USPS COLLECTION BOX - BLUE BOX", "address": {"city": "WESTPORT", "state": "CT", "street": "20 JESUP RD", "postcode": "06880"}}},
{"geometry": {"type": "Point", "coordinates": [-73.3345065237, 41.1382316528]}, "type": "Feature", "properties": {"collection_times": [{"days": "Mon-Fri", "time": "3:00pm"}, {"days": "Sat", "time": "10:00am"}, {"days": "Sun", "time": "Closed"}], "id": "0688000060", "name": "USPS COLLECTION BOX - BLUE BOX", "address": {"city": "WESTPORT", "state": "CT", "street": "877 POST RD E", "postcode": "06880"}}},
{"geometry": {"type": "Point", "coordinates": [-73.3467240891, 41.1453847865]}, "type": "Feature", "properties": {"collection_times": [{"days": "Mon-Fri", "time": "1:30pm"}, {"days": "Sat-Sun", "time": "Closed"}], "id": "0688000062", "name": "USPS COLLECTION BOX - BLUE BOX", "address": {"city": "WESTPORT", "state": "CT", "street": "55 GREENFARMS RD", "postcode": "06880"}}},
{"geometry": {"type": "Point", "coordinates": [-73.369217241, 41.136718113]}, "type": "Feature", "properties": {"collection_times": [{"days": "Mon-Fri", "time": "1:30pm"}, {"days": "Sat-Sun", "time": "Closed"}], "id": "0688000063", "name": "USPS COLLECTION BOX - BLUE BOX", "address": {"city": "WESTPORT", "state": "CT", "street": "170 POST RD W", "postcode": "06880"}}},
{"geometry": {"type": "Point", "coordinates": [-73.3759921256, 41.1312585219]}, "type": "Feature", "properties": {"collection_times": [{"days": "Mon-Fri", "time": "3:00pm"}, {"days": "Sat", "time": "1:00pm"}, {"days": "Sun", "time": "Closed"}], "id": "0688000064", "name": "USPS COLLECTION BOX - BLUE BOX", "address": {"city": "WESTPORT", "state": "CT", "street": "320 POST RD W", "postcode": "06880"}}},
{"geometry": {"type": "Point", "coordinates": [-73.3244485399, 41.1389649771]}, "type": "Feature", "properties": {"collection_times": [{"days": "Mon-Fri", "time": "3:00pm"}, {"days": "Sat-Sun", "time": "Closed"}], "id": "0688000065", "name": "USPS COLLECTION BOX - BLUE BOX", "address": {"city": "WESTPORT", "state": "CT", "street": "1175 POST RD E", "postcode": "06880"}}},
{"geometry": {"type": "Point", "coordinates": [-73.3614197853, 41.1453944339]}, "type": "Feature", "properties": {"collection_times": [{"days": "Mon-Fri", "time": "4:00pm"}, {"days": "Sat", "time": "1:00pm"}, {"days": "Sun", "time": "Closed"}], "id": "0688000067", "name": "USPS COLLECTION BOX - BLUE BOX", "address": {"city": "WESTPORT", "state": "CT", "street": "225 MAIN ST", "postcode": "06880"}}},
{"geometry": {"type": "Point", "coordinates": [-73.3703555898, 41.1200405741]}, "type": "Feature", "properties": {"collection_times": [{"days": "Mon-Fri", "time": "4:00pm"}, {"days": "Sat", "time": "12:00pm"}, {"days": "Sun", "time": "Closed"}], "id": "0688000069", "name": "USPS COLLECTION BOX - BLUE BOX", "address": {"city": "WESTPORT", "state": "CT", "street": "615 RIVERSIDE AVE", "postcode": "06880"}}},
{"geometry": {"type": "Point", "coordinates": [-73.3618966074, 41.1437786335]}, "type": "Feature", "properties": {"collection_times": [{"days": "Mon-Fri", "time": "4:00pm"}, {"days": "Sat", "time": "1:00pm"}, {"days": "Sun", "time": "Closed"}], "id": "0688000073", "name": "USPS COLLECTION BOX - BLUE BOX", "address": {"city": "WESTPORT", "state": "CT", "street": "167 MAIN ST", "postcode": "06880"}}},
{"geometry": {"type": "Point", "coordinates": [-73.3644829887, 41.1788407032]}, "type": "Feature", "properties": {"collection_times": [{"days": "Mon-Fri", "time": "5:00pm"}, {"days": "Sat", "time": "1:00pm"}, {"days": "Sun", "time": "Closed"}], "id": "0688000077", "name": "USPS COLLECTION BOX - BLUE BOX", "address": {"city": "WESTPORT", "state": "CT", "street": "190 WESTON RD", "postcode": "06880"}}},
{"geometry": {"type": "Point", "coordinates": [-73.3644829887, 41.1788407032]}, "type": "Feature", "properties": {"collection_times": [{"days": "Mon-Fri", "time": "5:00pm"}, {"days": "Sat", "time": "1:00pm"}, {"days": "Sun", "time": "Closed"}], "id": "0688000078", "name": "USPS COLLECTION BOX - BLUE BOX", "address": {"city": "WESTPORT", "state": "CT", "street": "190 WESTON RD", "postcode": "06880"}}},
{"geometry": {"type": "Point", "coordinates": [-73.3644829887, 41.1788407032]}, "type": "Feature", "properties": {"collection_times": [{"days": "Mon-Fri", "time": "5:00pm"}, {"days": "Sat", "time": "1:00pm"}, {"days": "Sun", "time": "Closed"}], "id": "0688000079", "name": "USPS COLLECTION BOX - BLUE BOX", "address": {"city": "WESTPORT", "state": "CT", "street": "190 WESTON RD", "postcode": "06880"}}},
{"geometry": {"type": "Point", "coordinates": [-73.3607035243, 41.1447714504]}, "type": "Feature", "properties": {"collection_times": [{"days": "Mon-Fri", "time": "4:00pm"}, {"days": "Sat", "time": "1:00pm"}, {"days": "Sun", "time": "Closed"}], "id": "0688000081", "name": "USPS COLLECTION BOX - BLUE BOX", "address": {"city": "WESTPORT", "state": "CT", "street": "111 MYRTLE AVE", "postcode": "06880"}}},
{"geometry": {"type": "Point", "coordinates": [-73.3640114456, 41.1395516884]}, "type": "Feature", "properties": {"collection_times": [{"days": "Mon-Fri", "time": "3:00pm"}, {"days": "Sat", "time": "1:00pm"}, {"days": "Sun", "time": "Closed"}], "id": "0688000082", "name": "USPS COLLECTION BOX - BLUE BOX", "address": {"city": "WESTPORT", "state": "CT", "street": "33 RIVERSIDE AVE", "postcode": "06880"}}},
{"geometry": {"type": "Point", "coordinates": [-73.3591571729, 41.1412261759]}, "type": "Feature", "properties": {"collection_times": [{"days": "Mon-Fri", "time": "3:00pm"}, {"days": "Sat", "time": "12:00pm"}, {"days": "Sun", "time": "Closed"}], "id": "0688000086", "name": "USPS COLLECTION BOX - BLUE BOX", "address": {"city": "WESTPORT", "state": "CT", "street": "20 BAY ST", "postcode": "06880"}}},
{"geometry": {"type": "Point", "coordinates": [-73.3520558349, 41.1402710069]}, "type": "Feature", "properties": {"collection_times": [{"days": "Mon-Fri", "time": "3:00pm"}, {"days": "Sat", "time": "10:00am"}, {"days": "Sun", "time": "Closed"}], "id": "0688000095", "name": "USPS COLLECTION BOX - BLUE BOX", "address": {"city": "WESTPORT", "state": "CT", "street": "397 POST RD E", "postcode": "06880"}}},
{"geometry": {"type": "Point", "coordinates": [-73.3038598396, 41.1383384408]}, "type": "Feature", "properties": {"collection_times": [{"days": "Mon-Fri", "time": "2:30pm"}, {"days": "Sat", "time": "10:00am"}, {"days": "Sun", "time": "Closed"}], "id": "0688000096", "name": "USPS COLLECTION BOX - BLUE BOX", "address": {"city": "WESTPORT", "state": "CT", "street": "1720 POST RD E", "postcode": "06880"}}},
{"geometry": {"type": "Point", "coordinates": [-73.3702869078, 41.1223338199]}, "type": "Feature", "properties": {"collection_times": [{"days": "Mon-Sat", "time": "1:00pm"}, {"days": "Sun", "time": "Closed"}], "id": "0688000097", "name": "USPS COLLECTION BOX - BLUE BOX", "address": {"city": "WESTPORT", "state": "CT", "street": "3 BRIDGE SQ", "postcode": "06880"}}},
{"geometry": {"type": "Point", "coordinates": [-73.3467240891, 41.1453847865]}, "type": "Feature", "properties": {"collection_times": [{"days": "Mon-Fri", "time": "5:00pm"}, {"days": "Sat", "time": "3:00pm"}, {"days": "Sun", "time": "Closed"}], "id": "0688000098", "name": "USPS COLLECTION BOX - BLUE BOX", "address": {"city": "WESTPORT", "state": "CT", "street": "234 WESTPORT AVE", "postcode": "06880"}}},
{"geometry": {"type": "Point", "coordinates": [-73.2991502453, 41.138205221]}, "type": "Feature", "properties": {"collection_times": [{"days": "Mon-Fri", "time": "2:30pm"}, {"days": "Sat", "time": "10:00am"}, {"days": "Sun", "time": "Closed"}], "id": "0688000099", "name": "USPS COLLECTION BOX - BLUE BOX", "address": {"city": "WESTPORT", "state": "CT", "street": "1870 POST RD E", "postcode": "06880"}}},
{"geometry": {"type": "Point", "coordinates": [-73.3724381148, 41.12418646]}, "type": "Feature", "properties": {"collection_times": [{"days": "Mon-Fri", "time": "4:00pm"}, {"days": "Sat", "time": "1:00pm"}, {"days": "Sun", "time": "Closed"}], "id": "0688000101", "name": "USPS COLLECTION BOX - BLUE BOX", "address": {"city": "WESTPORT", "state": "CT", "street": "25 FRANKLIN ST", "postcode": "06880"}}},
{"geometry": {"type": "Point", "coordinates": [-73.3508893764, 41.1400712642]}, "type": "Feature", "properties": {"collection_times": [{"days": "Mon-Fri", "time": "5:30pm"}, {"days": "Sat", "time": "12:30pm"}, {"days": "Sun", "time": "Closed"}], "id": "0688000103", "name": "USPS COLLECTION BOX - PO LOBBY", "address": {"city": "WESTPORT", "state": "CT", "street": "275 POST RD E", "postcode": "06880"}}},
{"geometry": {"type": "Point", "coordinates": [-73.2875478862, 41.1415920161]}, "type": "Feature", "properties": {"collection_times": [{"days": "Mon-Fri", "time": "5:00pm"}, {"days": "Sat", "time": "3:00pm"}, {"days": "Sun", "time": "Closed"}], "id": "0689000000", "name": "USPS COLLECTION BOX - EXPRESS", "address": {"city": "SOUTHPORT", "state": "CT", "street": "402 PEQUOT AVE", "postcode": "06890"}}},
{"geometry": {"type": "Point", "coordinates": [-73.2848292086, 41.135711375]}, "type": "Feature", "properties": {"collection_times": [{"days": "Mon-Fri", "time": "5:00pm"}, {"days": "Sat", "time": "3:00pm"}, {"days": "Sun", "time": "Closed"}], "id": "0689000001", "name": "USPS COLLECTION BOX - BLUE BOX", "address": {"city": "SOUTHPORT", "state": "CT", "street": "402 PEQUOT AVE", "postcode": "06890"}}},
{"geometry": {"type": "Point", "coordinates": [-73.2987056939, 41.1249608999]}, "type": "Feature", "properties": {"collection_times": [{"days": "Mon-Sat", "time": "3:00pm"}, {"days": "Sun", "time": "Closed"}], "id": "0689000004", "name": "USPS COLLECTION BOX - BLUE BOX", "address": {"city": "SOUTHPORT", "state": "CT", "street": "322 PEQUOT AVE", "postcode": "06890"}}},
{"geometry": {"type": "Point", "coordinates": [-73.292818162, 41.14083471]}, "type": "Feature", "properties": {"collection_times": [{"days": "Mon-Sat", "time": "1:00pm"}, {"days": "Sun", "time": "Closed"}], "id": "0689000005", "name": "USPS COLLECTION BOX - BLUE BOX", "address": {"city": "SOUTHPORT", "state": "CT", "street": "1340 MILL HILL TER", "postcode": "06890"}}},
{"geometry": {"type": "Point", "coordinates": [-73.2848292086, 41.135711375]}, "type": "Feature", "properties": {"collection_times": [{"days": "Mon-Fri", "time": "5:00pm"}, {"days": "Sat", "time": "2:00pm"}, {"days": "Sun", "time": "Closed"}], "id": "0689000006", "name": "USPS COLLECTION BOX - PO LOBBY", "address": {"city": "SOUTHPORT", "state": "CT", "street": "402 PEQUOT AVE", "postcode": "06890"}}},
{"geometry": {"type": "Point", "coordinates": [-73.2977491552, 41.1382417264]}, "type": "Feature", "properties": {"collection_times": [{"days": "Mon-Sat", "time": "1:30pm"}, {"days": "Sun", "time": "Closed"}], "id": "0689000008", "name": "USPS COLLECTION BOX - BLUE BOX", "address": {"city": "SOUTHPORT", "state": "CT", "street": "2600 POST RD", "postcode": "06890"}}},
{"geometry": {"type": "Point", "coordinates": [-73.396285994, 41.3015143345]}, "type": "Feature", "properties": {"collection_times": [{"days": "Mon-Fri", "time": "5:00pm"}, {"days": "Sat", "time": "3:00pm"}, {"days": "Sun", "time": "Closed"}], "id": "0689600003", "name": "USPS COLLECTION BOX - BLUE BOX", "address": {"city": "WEST REDDING", "state": "CT", "street": "268 SIMPAUG TPKE", "postcode": "06896"}}},
{"geometry": {"type": "Point", "coordinates": [-73.4337057773, 41.3254769203]}, "type": "Feature", "properties": {"collection_times": [{"days": "Mon-Fri", "time": "5:00pm"}, {"days": "Sat", "time": "3:00pm"}, {"days": "Sun", "time": "Closed"}], "id": "0689600005", "name": "USPS COLLECTION BOX - PO LOBBY", "address": {"city": "WEST REDDING", "state": "CT", "street": "268 SIMPAUG TPKE", "postcode": "06896"}}},
{"geometry": {"type": "Point", "coordinates": [-73.433252704, 41.1929157217]}, "type": "Feature", "properties": {"collection_times": [{"days": "Mon-Fri", "time": "5:00pm"}, {"days": "Sat", "time": "3:00pm"}, {"days": "Sun", "time": "Closed"}], "id": "0689700002", "name": "USPS COLLECTION BOX - BLUE BOX", "address": {"city": "WILTON", "state": "CT", "street": "15 HUBBARD RD", "postcode": "06897"}}},
{"geometry": {"type": "Point", "coordinates": [-73.430428981, 41.1908952278]}, "type": "Feature", "properties": {"collection_times": [{"days": "Mon-Sat", "time": "3:00pm"}, {"days": "Sun", "time": "Closed"}], "id": "0689700007", "name": "USPS COLLECTION BOX - BLUE BOX", "address": {"city": "WILTON", "state": "CT", "street": "5 RIVER RD", "postcode": "06897"}}},
{"geometry": {"type": "Point", "coordinates": [-73.4191476169, 41.1619352306]}, "type": "Feature", "properties": {"collection_times": [{"days": "Mon-Sat", "time": "3:00pm"}, {"days": "Sun", "time": "Closed"}], "id": "0689700010", "name": "USPS COLLECTION BOX - BLUE BOX", "address": {"city": "WILTON", "state": "CT", "street": "11 DANBURY RD", "postcode": "06897"}}},
{"geometry": {"type": "Point", "coordinates": [-73.4189318028, 41.1617187278]}, "type": "Feature", "properties": {"collection_times": [{"days": "Mon-Sat", "time": "3:00pm"}, {"days": "Sun", "time": "Closed"}], "id": "0689700011", "name": "USPS COLLECTION BOX - BLUE BOX", "address": {"city": "WILTON", "state": "CT", "street": "14 DANBURY RD", "postcode": "06897"}}},
{"geometry": {"type": "Point", "coordinates": [-73.4351075837, 41.256444167]}, "type": "Feature", "properties": {"collection_times": [{"days": "Mon-Sat", "time": "3:15pm"}, {"days": "Sun", "time": "Closed"}], "id": "0689700013", "name": "USPS COLLECTION BOX - BLUE BOX", "address": {"city": "WILTON", "state": "CT", "street": "920 DANBURY RD", "postcode": "06897"}}},
{"geometry": {"type": "Point", "coordinates": [-73.4261024616, 41.189344242]}, "type": "Feature", "properties": {"collection_times": [{"days": "Mon-Fri", "time": "3:00pm"}, {"days": "Sat", "time": "1:00pm"}, {"days": "Sun", "time": "Closed"}], "id": "0689700015", "name": "USPS COLLECTION BOX - BLUE BOX", "address": {"city": "WILTON", "state": "CT", "street": "238 DANBURY RD", "postcode": "06897"}}},
{"geometry": {"type": "Point", "coordinates": [-73.4363295645, 41.2013532218]}, "type": "Feature", "properties": {"collection_times": [{"days": "Mon-Fri", "time": "4:45pm"}, {"days": "Sat", "time": "3:00pm"}, {"days": "Sun", "time": "Closed"}], "id": "0689700017", "name": "USPS COLLECTION BOX - EXPRESS", "address": {"city": "WILTON", "state": "CT", "street": "15 HUBBARD RD", "postcode": "06897"}}},
{"geometry": {"type": "Point", "coordinates": [-73.4181735261, 41.1648358247]}, "type": "Feature", "properties": {"collection_times": [{"days": "Mon-Sat", "time": "3:00pm"}, {"days": "Sun", "time": "Closed"}], "id": "0689700019", "name": "USPS COLLECTION BOX - BLUE BOX", "address": {"city": "WILTON", "state": "CT", "street": "33 DANBURY RD", "postcode": "06897"}}},
{"geometry": {"type": "Point", "coordinates": [-73.433252704, 41.1929157217]}, "type": "Feature", "properties": {"collection_times": [{"days": "Mon-Fri", "time": "5:00pm"}, {"days": "Sat", "time": "3:00pm"}, {"days": "Sun", "time": "Closed"}], "id": "0689700022", "name": "USPS COLLECTION BOX - PO LOBBY", "address": {"city": "WILTON", "state": "CT", "street": "15 HUBBARD RD", "postcode": "06897"}}},
{"geometry": {"type": "Point", "coordinates": [-73.4363165297, 41.2013402332]}, "type": "Feature", "properties": {"collection_times": [{"days": "Mon-Fri", "time": "5:00pm"}, {"days": "Sat", "time": "3:00pm"}, {"days": "Sun", "time": "Closed"}], "id": "0689700024", "name": "USPS COLLECTION BOX - PO LOBBY", "address": {"city": "WILTON", "state": "CT", "street": "15 HUBBARD RD", "postcode": "06897"}}},
{"geometry": {"type": "Point", "coordinates": [-73.433252704, 41.1929157217]}, "type": "Feature", "properties": {"collection_times": [{"days": "Mon-Fri", "time": "5:00pm"}, {"days": "Sat", "time": "3:00pm"}, {"days": "Sun", "time": "Closed"}], "id": "0689700025", "name": "USPS COLLECTION BOX - APC", "address": {"city": "WILTON", "state": "CT", "street": "15 HUBBARD RD", "postcode": "06897"}}}
]}
