{"type": "FeatureCollection", "features": [
{"geometry": {"type": "Point", "coordinates": [-73.5394271935, 41.0542341785]}, "type": "Feature", "properties": {"collection_times": [{"days": "Mon-Fri", "time": "3:00pm"}, {"days": "Sat", "time": "12:00pm"}, {"days": "Sun", "time": "Closed"}], "id": "0690100003", "name": "USPS COLLECTION BOX - BLUE BOX", "address": {"city": "STAMFORD", "state": "CT", "street": "81 ATLANTIC ST", "postcode": "06901"}}},
{"geometry": {"type": "Point", "coordinates": [-73.5381460779, 41.0552437678]}, "type": "Feature", "properties": {"collection_times": [{"days": "Mon-Fri", "time": "5:00pm"}, {"days": "Sat", "time": "2:00pm"}, {"days": "Sun", "time": "Closed"}], "id": "0690100007", "name": "USPS COLLECTION BOX - EXPRESS", "address": {"city": "STAMFORD", "state": "CT", "street": "421 ATLANTIC ST", "postcode": "06901"}}},
{"geometry": {"type": "Point", "coordinates": [-73.5381460779, 41.0552437678]}, "type": "Feature", "properties": {"collection_times": [{"days": "Mon-Fri", "time": "5:00pm"}, {"days": "Sat", "time": "2:00pm"}, {"days": "Sun", "time": "Closed"}], "id": "0690100008", "name": "USPS COLLECTION BOX - BLUE BOX", "address": {"city": "STAMFORD", "state": "CT", "street": "421 ATLANTIC ST", "postcode": "06901"}}},
{"geometry": {"type": "Point", "coordinates": [-73.5385183075, 41.0562472895]}, "type": "Feature", "properties": {"collection_times": [{"days": "Mon-Fri", "time": "3:00pm"}, {"days": "Sat", "time": "12:00pm"}, {"days": "Sun", "time": "Closed"}], "id": "0690100013", "name": "USPS COLLECTION BOX - BLUE BOX", "address": {"city": "STAMFORD", "state": "CT", "street": "135 BEDFORD ST", "postcode": "06901"}}},
{"geometry": {"type": "Point", "coordinates": [-73.5376322713, 41.0610441881]}, "type": "Feature", "properties": {"collection_times": [{"days": "Mon-Fri", "time": "3:00pm"}, {"days": "Sat", "time": "12:00pm"}, {"days": "Sun", "time": "Closed"}], "id": "0690100020", "name": "USPS COLLECTION BOX - BLUE BOX", "address": {"city": "STAMFORD", "state": "CT", "street": "900 BEDFORD ST", "postcode": "06901"}}},
{"geometry": {"type": "Point", "coordinates": [-73.5343602068, 41.0552618847]}, "type": "Feature", "properties": {"collection_times": [{"days": "Mon-Fri", "time": "2:00pm"}, {"days": "Sat", "time": "12:00pm"}, {"days": "Sun", "time": "Closed"}], "id": "0690100025", "name": "USPS COLLECTION BOX - BLUE BOX", "address": {"city": "STAMFORD", "state": "CT", "street": "201 BROAD ST", "postcode": "06901"}}},
{"geometry": {"type": "Point", "coordinates": [-73.5452304167, 41.0523021213]}, "type": "Feature", "properties": {"collection_times": [{"days": "Mon-Fri", "time": "1:00pm"}, {"days": "Sat", "time": "12:00pm"}, {"days": "Sun", "time": "Closed"}], "id": "0690100033", "name": "USPS COLLECTION BOX - BLUE BOX", "address": {"city": "STAMFORD", "state": "CT", "street": "26 MAIN ST", "postcode": "06901"}}},
{"geometry": {"type": "Point", "coordinates": [-73.5412852485, 41.0532768795]}, "type": "Feature", "properties": {"collection_times": [{"days": "Mon-Fri", "time": "2:00pm"}, {"days": "Sat", "time": "12:00pm"}, {"days": "Sun", "time": "Closed"}], "id": "0690100041", "name": "USPS COLLECTION BOX - BLUE BOX", "address": {"city": "STAMFORD", "state": "CT", "street": "84 W PARK PL", "postcode": "06901"}}},
{"geometry": {"type": "Point", "coordinates": [-73.535609262, 41.058913799]}, "type": "Feature", "properties": {"collection_times": [{"days": "Mon-Fri", "time": "3:00pm"}, {"days": "Sat", "time": "12:00pm"}, {"days": "Sun", "time": "Closed"}], "id": "0690100045", "name": "USPS COLLECTION BOX - BLUE BOX", "address": {"city": "STAMFORD", "state": "CT", "street": "100 PROSPECT ST", "postcode": "06901"}}},
{"geometry": {"type": "Point", "coordinates": [-73.5403069415, 41.0569901877]}, "type": "Feature", "properties": {"collection_times": [{"days": "Mon-Sat", "time": "1:00pm"}, {"days": "Sun", "time": "Closed"}], "id": "0690100062", "name": "USPS COLLECTION BOX - BLUE BOX", "address": {"city": "STAMFORD", "state": "CT", "street": "550 SUMMER ST", "postcode": "06901"}}},
{"geometry": {"type": "Point", "coordinates": [-73.5400502394, 41.0587173078]}, "type": "Feature", "properties": {"collection_times": [{"days": "Mon-Fri", "time": "3:00pm"}, {"days": "Sat-Sun", "time": "Closed"}], "id": "0690100068", "name": "USPS COLLECTION BOX - BLUE BOX", "address": {"city": "STAMFORD", "state": "CT", "street": "777 SUMMER ST", "postcode": "06901"}}},
{"geometry": {"type": "Point", "coordinates": [-73.5425380021, 41.0499302886]}, "type": "Feature", "properties": {"collection_times": [{"days": "Mon-Fri", "time": "2:00pm"}, {"days": "Sat", "time": "12:00pm"}, {"days": "Sun", "time": "Closed"}], "id": "0690100072", "name": "USPS COLLECTION BOX - BLUE BOX", "address": {"city": "STAMFORD", "state": "CT", "street": "750 WASHINGTON BLVD", "postcode": "06901"}}},
{"geometry": {"type": "Point", "coordinates": [-73.5421878462, 41.0524038558]}, "type": "Feature", "properties": {"collection_times": [{"days": "Mon-Fri", "time": "2:00pm"}, {"days": "Sat", "time": "12:00pm"}, {"days": "Sun", "time": "Closed"}], "id": "0690100075", "name": "USPS COLLECTION BOX - BLUE BOX", "address": {"city": "STAMFORD", "state": "CT", "street": "909 WASHINGTON BLVD", "postcode": "06901"}}},
{"geometry": {"type": "Point", "coordinates": [-73.5379173644, 41.0575651058]}, "type": "Feature", "properties": {"collection_times": [{"days": "Mon-Fri", "time": "3:00pm"}, {"days": "Sat", "time": "12:00pm"}, {"days": "Sun", "time": "Closed"}], "id": "0690100084", "name": "USPS COLLECTION BOX - BLUE BOX", "address": {"city": "STAMFORD", "state": "CT", "street": "350 BEDFORD ST", "postcode": "06901"}}},
{"geometry": {"type": "Point", "coordinates": [-73.5333960952, 41.052629801]}, "type": "Feature", "properties": {"collection_times": [{"days": "Mon-Fri", "time": "2:00pm"}, {"days": "Sat-Sun", "time": "Closed"}], "id": "0690100116", "name": "USPS COLLECTION BOX - BLUE BOX", "address": {"city": "STAMFORD", "state": "CT", "street": "301 TRESSER BLVD", "postcode": "06901"}}},
{"geometry": {"type": "Point", "coordinates": [-73.5432853796, 41.0416058224]}, "type": "Feature", "properties": {"collection_times": [{"days": "Mon-Fri", "time": "3:00pm"}, {"days": "Sat-Sun", "time": "Closed"}], "id": "0690200001", "name": "USPS COLLECTION BOX - BLUE BOX", "address": {"city": "STAMFORD", "state": "CT", "street": "2187 ATLANTIC ST", "postcode": "06902"}}},
{"geometry": {"type": "Point", "coordinates": [-73.5323728357, 41.0443479053]}, "type": "Feature", "properties": {"collection_times": [{"days": "Mon-Fri", "time": "2:00pm"}, {"days": "Sat", "time": "12:00pm"}, {"days": "Sun", "time": "Closed"}], "id": "0690200012", "name": "USPS COLLECTION BOX - BLUE BOX", "address": {"city": "STAMFORD", "state": "CT", "street": "700 CANAL ST", "postcode": "06902"}}},
{"geometry": {"type": "Point", "coordinates": [-73.5210064575, 41.0493530357]}, "type": "Feature", "properties": {"collection_times": [{"days": "Mon-Sat", "time": "12:00pm"}, {"days": "Sun", "time": "Closed"}], "id": "0690200014", "name": "USPS COLLECTION BOX - BLUE BOX", "address": {"city": "STAMFORD", "state": "CT", "street": "181 COVE RD", "postcode": "06902"}}},
{"geometry": {"type": "Point", "coordinates": [-73.5350363208, 41.0484580668]}, "type": "Feature", "properties": {"collection_times": [{"days": "Mon-Fri", "time": "3:00pm"}, {"days": "Sat", "time": "12:00pm"}, {"days": "Sun", "time": "Closed"}], "id": "0690200018", "name": "USPS COLLECTION BOX - BLUE BOX", "address": {"city": "STAMFORD", "state": "CT", "street": "1 DOCK ST", "postcode": "06902"}}},
{"geometry": {"type": "Point", "coordinates": [-73.5539665686, 41.0303913554]}, "type": "Feature", "properties": {"collection_times": [{"days": "Mon-Sat", "time": "10:30am"}, {"days": "Sun", "time": "Closed"}], "id": "0690200028", "name": "USPS COLLECTION BOX - BLUE BOX", "address": {"city": "STAMFORD", "state": "CT", "street": "700 FAIRFIELD AVE", "postcode": "06902"}}},
{"geometry": {"type": "Point", "coordinates": [-73.5474563, 41.0453848066]}, "type": "Feature", "properties": {"collection_times": [{"days": "Mon-Fri", "time": "3:00pm"}, {"days": "Sat", "time": "12:00pm"}, {"days": "Sun", "time": "Closed"}], "id": "0690200033", "name": "USPS COLLECTION BOX - BLUE BOX", "address": {"city": "STAMFORD", "state": "CT", "street": "100 FIRST STAMFORD PL", "postcode": "06902"}}},
{"geometry": {"type": "Point", "coordinates": [-73.537385702, 41.0474227579]}, "type": "Feature", "properties": {"collection_times": [{"days": "Mon-Fri", "time": "3:00pm"}, {"days": "Sat", "time": "12:00pm"}, {"days": "Sun", "time": "Closed"}], "id": "0690200043", "name": "USPS COLLECTION BOX - BLUE BOX", "address": {"city": "STAMFORD", "state": "CT", "street": "250 HARBOR DR", "postcode": "06902"}}},
{"geometry": {"type": "Point", "coordinates": [-73.560530104, 41.0465202371]}, "type": "Feature", "properties": {"collection_times": [{"days": "Mon-Fri", "time": "3:00pm"}, {"days": "Sat", "time": "12:00pm"}, {"days": "Sun", "time": "Closed"}], "id": "0690200047", "name": "USPS COLLECTION BOX - BLUE BOX", "address": {"city": "STAMFORD", "state": "CT", "street": "61 HARVARD AVE", "postcode": "06902"}}},
{"geometry": {"type": "Point", "coordinates": [-73.5138001406, 41.0581667905]}, "type": "Feature", "properties": {"collection_times": [{"days": "Mon-Sat", "time": "12:00pm"}, {"days": "Sun", "time": "Closed"}], "id": "0690200057", "name": "USPS COLLECTION BOX - BLUE BOX", "address": {"city": "STAMFORD", "state": "CT", "street": "1122 E MAIN ST", "postcode": "06902"}}},
{"geometry": {"type": "Point", "coordinates": [-73.5083635005, 41.0605686386]}, "type": "Feature", "properties": {"collection_times": [{"days": "Mon-Sat", "time": "12:00pm"}, {"days": "Sun", "time": "Closed"}], "id": "0690200061", "name": "USPS COLLECTION BOX - BLUE BOX", "address": {"city": "STAMFORD", "state": "CT", "street": "1281 E MAIN ST", "postcode": "06902"}}},
{"geometry": {"type": "Point", "coordinates": [-73.563844276, 41.0488265879]}, "type": "Feature", "properties": {"collection_times": [{"days": "Mon-Fri", "time": "3:00pm"}, {"days": "Sat", "time": "12:00pm"}, {"days": "Sun", "time": "Closed"}], "id": "0690200067", "name": "USPS COLLECTION BOX - BLUE BOX", "address": {"city": "STAMFORD", "state": "CT", "street": "2001 W MAIN ST", "postcode": "06902"}}},
{"geometry": {"type": "Point", "coordinates": [-73.5232336492, 41.0418285227]}, "type": "Feature", "properties": {"collection_times": [{"days": "Mon-Fri", "time": "12:30pm"}, {"days": "Sat-Sun", "time": "Closed"}], "id": "0690200074", "name": "USPS COLLECTION BOX - BLUE BOX", "address": {"city": "STAMFORD", "state": "CT", "street": "70 SEAVIEW AVE", "postcode": "06902"}}},
{"geometry": {"type": "Point", "coordinates": [-73.5538539547, 41.0558008262]}, "type": "Feature", "properties": {"collection_times": [{"days": "Mon-Fri", "time": "2:00pm"}, {"days": "Sat", "time": "12:00pm"}, {"days": "Sun", "time": "Closed"}], "id": "0690200076", "name": "USPS COLLECTION BOX - BLUE BOX", "address": {"city": "STAMFORD", "state": "CT", "street": "34 SHELBURNE RD", "postcode": "06902"}}},
{"geometry": {"type": "Point", "coordinates": [-73.5276611101, 41.0367793338]}, "type": "Feature", "properties": {"collection_times": [{"days": "Mon-Fri", "time": "1:00pm"}, {"days": "Sat", "time": "12:00pm"}, {"days": "Sun", "time": "Closed"}], "id": "0690200080", "name": "USPS COLLECTION BOX - BLUE BOX", "address": {"city": "STAMFORD", "state": "CT", "street": "1124 SHIPPAN AVE", "postcode": "06902"}}},
{"geometry": {"type": "Point", "coordinates": [-73.537385702, 41.0474227579]}, "type": "Feature", "properties": {"collection_times": [{"days": "Mon-Fri", "time": "3:00pm"}, {"days": "Sat", "time": "12:00pm"}, {"days": "Sun", "time": "Closed"}], "id": "0690200082", "name": "USPS COLLECTION BOX - BLUE BOX", "address": {"city": "STAMFORD", "state": "CT", "street": "62 SOUTHFIELD AVE", "postcode": "06902"}}},
{"geometry": {"type": "Point", "coordinates": [-73.5429834828, 41.0459176459]}, "type": "Feature", "properties": {"collection_times": [{"days": "Mon-Fri", "time": "3:00pm"}, {"days": "Sat", "time": "12:00pm"}, {"days": "Sun", "time": "Closed"}], "id": "0690200087", "name": "USPS COLLECTION BOX - BLUE BOX", "address": {"city": "STAMFORD", "state": "CT", "street": "1 STATION PL", "postcode": "06902"}}},
{"geometry": {"type": "Point", "coordinates": [-73.5432349791, 41.0580494095]}, "type": "Feature", "properties": {"collection_times": [{"days": "Mon-Fri", "time": "2:00pm"}, {"days": "Sat", "time": "12:00pm"}, {"days": "Sun", "time": "Closed"}], "id": "0690200105", "name": "USPS COLLECTION BOX - BLUE BOX", "address": {"city": "STAMFORD", "state": "CT", "street": "1351 WASHINGTON BLVD", "postcode": "06902"}}},
{"geometry": {"type": "Point", "coordinates": [-73.5415172527, 41.039907695]}, "type": "Feature", "properties": {"collection_times": [{"days": "Mon-Fri", "time": "2:00pm"}, {"days": "Sat", "time": "12:00pm"}, {"days": "Sun", "time": "Closed"}], "id": "0690200113", "name": "USPS COLLECTION BOX - BLUE BOX", "address": {"city": "STAMFORD", "state": "CT", "street": "2 DYKE LN", "postcode": "06902"}}},
{"geometry": {"type": "Point", "coordinates": [-73.509503873, 41.0532082679]}, "type": "Feature", "properties": {"collection_times": [{"days": "Mon-Sat", "time": "12:00pm"}, {"days": "Sun", "time": "Closed"}], "id": "0690200126", "name": "USPS COLLECTION BOX - BLUE BOX", "address": {"city": "STAMFORD", "state": "CT", "street": "172 SEASIDE AVE", "postcode": "06902"}}},
{"geometry": {"type": "Point", "coordinates": [-73.537385702, 41.0474227579]}, "type": "Feature", "properties": {"collection_times": [{"days": "Mon-Fri", "time": "4:30pm"}, {"days": "Sat", "time": "4:00pm"}, {"days": "Sun", "time": "Closed"}], "id": "0690200127", "name": "USPS COLLECTION BOX - BLUE BOX", "address": {"city": "STAMFORD", "state": "CT", "street": "317 WEST AVE", "postcode": "06902"}}},
{"geometry": {"type": "Point", "coordinates": [-73.5347729381, 41.0653613149]}, "type": "Feature", "properties": {"collection_times": [{"days": "Mon-Fri", "time": "1:00pm"}, {"days": "Sat", "time": "12:00pm"}, {"days": "Sun", "time": "Closed"}], "id": "0690200131", "name": "USPS COLLECTION BOX - BLUE BOX", "address": {"city": "STAMFORD", "state": "CT", "street": "32 STRAWBERRY HILL CT", "postcode": "06902"}}},
{"geometry": {"type": "Point", "coordinates": [-73.55884587, 41.0423078863]}, "type": "Feature", "properties": {"collection_times": [{"days": "Mon-Fri", "time": "5:00pm"}, {"days": "Sat-Sun", "time": "Closed"}], "id": "0690200135", "name": "USPS COLLECTION BOX - PO LOBBY", "address": {"city": "STAMFORD", "state": "CT", "street": "317 WEST AVE", "postcode": "06902"}}},
{"geometry": {"type": "Point", "coordinates": [-73.567918056, 41.1352613893]}, "type": "Feature", "properties": {"collection_times": [{"days": "Mon-Fri", "time": "1:00pm"}, {"days": "Sat", "time": "12:00pm"}, {"days": "Sun", "time": "Closed"}], "id": "0690300002", "name": "USPS COLLECTION BOX - BLUE BOX", "address": {"city": "STAMFORD", "state": "CT", "street": "1028 LONG RIDGE RD", "postcode": "06903"}}},
{"geometry": {"type": "Point", "coordinates": [-73.567918056, 41.1352613893]}, "type": "Feature", "properties": {"collection_times": [{"days": "Mon-Fri", "time": "1:00pm"}, {"days": "Sat", "time": "12:00pm"}, {"days": "Sun", "time": "Closed"}], "id": "0690300005", "name": "USPS COLLECTION BOX - BLUE BOX", "address": {"city": "STAMFORD", "state": "CT", "street": "105 OLD LONG RIDGE RD", "postcode": "06903"}}},
{"geometry": {"type": "Point", "coordinates": [-73.567918056, 41.1352613893]}, "type": "Feature", "properties": {"collection_times": [{"days": "Mon-Sat", "time": "12:00pm"}, {"days": "Sun", "time": "Closed"}], "id": "0690300006", "name": "USPS COLLECTION BOX - BLUE BOX", "address": {"city": "STAMFORD", "state": "CT", "street": "1530 HIGH RIDGE RD", "postcode": "06903"}}},
{"geometry": {"type": "Point", "coordinates": [-73.5374992981, 41.0604034167]}, "type": "Feature", "properties": {"collection_times": [{"days": "Mon-Fri", "time": "3:00pm"}, {"days": "Sat", "time": "4:00pm"}, {"days": "Sun", "time": "Closed"}], "id": "0690500005", "name": "USPS COLLECTION BOX - BLUE BOX", "address": {"city": "STAMFORD", "state": "CT", "street": "1642 BEDFORD ST", "postcode": "06905"}}},
{"geometry": {"type": "Point", "coordinates": [-73.5311782904, 41.0769404356]}, "type": "Feature", "properties": {"collection_times": [{"days": "Mon-Sat", "time": "12:00pm"}, {"days": "Sun", "time": "Closed"}], "id": "0690500007", "name": "USPS COLLECTION BOX - BLUE BOX", "address": {"city": "STAMFORD", "state": "CT", "street": "31 BELLTOWN RD", "postcode": "06905"}}},
{"geometry": {"type": "Point", "coordinates": [-73.5494133596, 41.0758146137]}, "type": "Feature", "properties": {"collection_times": [{"days": "Mon-Sat", "time": "12:00pm"}, {"days": "Sun", "time": "Closed"}], "id": "0690500011", "name": "USPS COLLECTION BOX - BLUE BOX", "address": {"city": "STAMFORD", "state": "CT", "street": "123 HIGH RIDGE RD", "postcode": "06905"}}},
{"geometry": {"type": "Point", "coordinates": [-73.5478670396, 41.1071010746]}, "type": "Feature", "properties": {"collection_times": [{"days": "Mon-Sat", "time": "12:00pm"}, {"days": "Sun", "time": "Closed"}], "id": "0690500022", "name": "USPS COLLECTION BOX - BLUE BOX", "address": {"city": "STAMFORD", "state": "CT", "street": "1081 HIGH RIDGE RD", "postcode": "06905"}}},
{"geometry": {"type": "Point", "coordinates": [-73.5467288911, 41.1105386744]}, "type": "Feature", "properties": {"collection_times": [{"days": "Mon-Fri", "time": "3:00pm"}, {"days": "Sat", "time": "12:00pm"}, {"days": "Sun", "time": "Closed"}], "id": "0690500027", "name": "USPS COLLECTION BOX - BLUE BOX", "address": {"city": "STAMFORD", "state": "CT", "street": "1211 HIGH RIDGE RD", "postcode": "06905"}}},
{"geometry": {"type": "Point", "coordinates": [-73.5361890613, 41.0610855916]}, "type": "Feature", "properties": {"collection_times": [{"days": "Mon-Sat", "time": "3:00pm"}, {"days": "Sun", "time": "Closed"}], "id": "0690500028", "name": "USPS COLLECTION BOX - BLUE BOX", "address": {"city": "STAMFORD", "state": "CT", "street": "115 HOYT ST", "postcode": "06905"}}},
{"geometry": {"type": "Point", "coordinates": [-73.5338225731, 41.0800877249]}, "type": "Feature", "properties": {"collection_times": [{"days": "Mon-Fri", "time": "3:00pm"}, {"days": "Sat", "time": "12:00pm"}, {"days": "Sun", "time": "Closed"}], "id": "0690500030", "name": "USPS COLLECTION BOX - BLUE BOX", "address": {"city": "STAMFORD", "state": "CT", "street": "591 NEWFIELD AVE", "postcode": "06905"}}},
{"geometry": {"type": "Point", "coordinates": [-73.5371070375, 41.0643363629]}, "type": "Feature", "properties": {"collection_times": [{"days": "Mon-Sat", "time": "12:00pm"}, {"days": "Sun", "time": "Closed"}], "id": "0690500032", "name": "USPS COLLECTION BOX - BLUE BOX", "address": {"city": "STAMFORD", "state": "CT", "street": "90 MORGAN ST", "postcode": "06905"}}},
{"geometry": {"type": "Point", "coordinates": [-73.549247892, 41.0716825978]}, "type": "Feature", "properties": {"collection_times": [{"days": "Mon-Fri", "time": "5:00pm"}, {"days": "Sat", "time": "2:00pm"}, {"days": "Sun", "time": "Closed"}], "id": "0690500034", "name": "USPS COLLECTION BOX - BLUE BOX", "address": {"city": "STAMFORD", "state": "CT", "street": "19 HIGH RIDGE RD", "postcode": "06905"}}},
{"geometry": {"type": "Point", "coordinates": [-73.5405664716, 41.0600118286]}, "type": "Feature", "properties": {"collection_times": [{"days": "Mon-Fri", "time": "3:00pm"}, {"days": "Sat", "time": "12:00pm"}, {"days": "Sun", "time": "Closed"}], "id": "0690500038", "name": "USPS COLLECTION BOX - BLUE BOX", "address": {"city": "STAMFORD", "state": "CT", "street": "999 SUMMER ST", "postcode": "06905"}}},
{"geometry": {"type": "Point", "coordinates": [-73.541287677, 41.061152301]}, "type": "Feature", "properties": {"collection_times": [{"days": "Mon-Fri", "time": "2:00pm"}, {"days": "Sat", "time": "12:00pm"}, {"days": "Sun", "time": "Closed"}], "id": "0690500043", "name": "USPS COLLECTION BOX - BLUE BOX", "address": {"city": "STAMFORD", "state": "CT", "street": "1200 SUMMER ST", "postcode": "06905"}}},
{"geometry": {"type": "Point", "coordinates": [-73.54315587, 41.079232543]}, "type": "Feature", "properties": {"collection_times": [{"days": "Mon-Fri", "time": "3:00pm"}, {"days": "Sat", "time": "4:00pm"}, {"days": "Sun", "time": "Closed"}], "id": "0690500060", "name": "USPS COLLECTION BOX - BLUE BOX", "address": {"city": "STAMFORD", "state": "CT", "street": "2080 SUMMER ST", "postcode": "06905"}}},
{"geometry": {"type": "Point", "coordinates": [-73.5494748735, 41.0700228466]}, "type": "Feature", "properties": {"collection_times": [{"days": "Mon-Fri", "time": "1:00pm"}, {"days": "Sat", "time": "12:00pm"}, {"days": "Sun", "time": "Closed"}], "id": "0690500064", "name": "USPS COLLECTION BOX - BLUE BOX", "address": {"city": "STAMFORD", "state": "CT", "street": "2777 SUMMER ST", "postcode": "06905"}}},
{"geometry": {"type": "Point", "coordinates": [-73.549247892, 41.0716825978]}, "type": "Feature", "properties": {"collection_times": [{"days": "Mon-Fri", "time": "4:30pm"}, {"days": "Sat", "time": "2:00pm"}, {"days": "Sun", "time": "Closed"}], "id": "0690500073", "name": "USPS COLLECTION BOX - EXPRESS", "address": {"city": "STAMFORD", "state": "CT", "street": "19 HIGH RIDGE RD", "postcode": "06905"}}},
{"geometry": {"type": "Point", "coordinates": [-73.549247892, 41.0716825978]}, "type": "Feature", "properties": {"collection_times": [{"days": "Mon-Fri", "time": "5:00pm"}, {"days": "Sat", "time": "2:00pm"}, {"days": "Sun", "time": "Closed"}], "id": "0690500075", "name": "USPS COLLECTION BOX - PO LOBBY", "address": {"city": "STAMFORD", "state": "CT", "street": "19 HIGH RIDGE RD", "postcode": "06905"}}},
{"geometry": {"type": "Point", "coordinates": [-73.5374992981, 41.0604034167]}, "type": "Feature", "properties": {"collection_times": [{"days": "Mon-Fri", "time": "3:00pm"}, {"days": "Sat", "time": "12:00pm"}, {"days": "Sun", "time": "Closed"}], "id": "0690500076", "name": "USPS COLLECTION BOX - BLUE BOX", "address": {"city": "STAMFORD", "state": "CT", "street": "1642 BEDFORD ST", "postcode": "06905"}}},
{"geometry": {"type": "Point", "coordinates": [-73.5548892766, 41.0679680469]}, "type": "Feature", "properties": {"collection_times": [{"days": "Mon-Sat", "time": "12:30pm"}, {"days": "Sun", "time": "Closed"}], "id": "0690500077", "name": "USPS COLLECTION BOX - BLUE BOX", "address": {"city": "STAMFORD", "state": "CT", "street": "154 COLD SPRING RD", "postcode": "06905"}}},
{"geometry": {"type": "Point", "coordinates": [-73.5172136918, 41.0703178685]}, "type": "Feature", "properties": {"collection_times": [{"days": "Mon-Fri", "time": "1:30pm"}, {"days": "Sat", "time": "12:00pm"}, {"days": "Sun", "time": "Closed"}], "id": "0690600003", "name": "USPS COLLECTION BOX - BLUE BOX", "address": {"city": "STAMFORD", "state": "CT", "street": "61 CRESCENT ST", "postcode": "06906"}}},
{"geometry": {"type": "Point", "coordinates": [-73.5239146752, 41.0723465873]}, "type": "Feature", "properties": {"collection_times": [{"days": "Mon-Fri", "time": "5:00pm"}, {"days": "Sat", "time": "4:00pm"}, {"days": "Sun", "time": "Closed"}], "id": "0690600013", "name": "USPS COLLECTION BOX - BLUE BOX", "address": {"city": "STAMFORD", "state": "CT", "street": "370 HOPE ST", "postcode": "06906"}}},
{"geometry": {"type": "Point", "coordinates": [-73.5239146752, 41.0723465873]}, "type": "Feature", "properties": {"collection_times": [{"days": "Mon-Fri", "time": "5:00pm"}, {"days": "Sat-Sun", "time": "Closed"}], "id": "0690600020", "name": "USPS COLLECTION BOX - PO LOBBY", "address": {"city": "STAMFORD", "state": "CT", "street": "370 HOPE ST", "postcode": "06906"}}},
{"geometry": {"type": "Point", "coordinates": [-73.518371974, 41.095407932]}, "type": "Feature", "properties": {"collection_times": [{"days": "Mon-Fri", "time": "4:30pm"}, {"days": "Sat", "time": "4:00pm"}, {"days": "Sun", "time": "Closed"}], "id": "0690700017", "name": "USPS COLLECTION BOX - EXPRESS", "address": {"city": "STAMFORD", "state": "CT", "street": "24 CAMP AVE", "postcode": "06907"}}},
{"geometry": {"type": "Point", "coordinates": [-73.518371974, 41.095407932]}, "type": "Feature", "properties": {"collection_times": [{"days": "Mon-Fri", "time": "5:00pm"}, {"days": "Sat", "time": "4:00pm"}, {"days": "Sun", "time": "Closed"}], "id": "0690700018", "name": "USPS COLLECTION BOX - PO LOBBY", "address": {"city": "STAMFORD", "state": "CT", "street": "24 CAMP AVE", "postcode": "06907"}}},
{"geometry": {"type": "Point", "coordinates": [-73.518371974, 41.095407932]}, "type": "Feature", "properties": {"collection_times": [{"days": "Mon-Fri", "time": "4:30pm"}, {"days": "Sat", "time": "4:00pm"}, {"days": "Sun", "time": "Closed"}], "id": "0690700020", "name": "USPS COLLECTION BOX - BLUE BOX", "address": {"city": "STAMFORD", "state": "CT", "street": "24 CAMP AVE", "postcode": "06907"}}},
{"geometry": {"type": "Point", "coordinates": [-73.5164076215, 41.0859880608]}, "type": "Feature", "properties": {"collection_times": [{"days": "Mon-Fri", "time": "1:30pm"}, {"days": "Sat-Sun", "time": "Closed"}], "id": "0690700021", "name": "USPS COLLECTION BOX - BLUE BOX", "address": {"city": "STAMFORD", "state": "CT", "street": "2 OMEGA DR", "postcode": "06907"}}},
{"geometry": {"type": "Point", "coordinates": [-73.518371974, 41.095407932]}, "type": "Feature", "properties": {"collection_times": [{"days": "Mon-Fri", "time": "5:00pm"}, {"days": "Sat", "time": "4:00pm"}, {"days": "Sun", "time": "Closed"}], "id": "0690700023", "name": "USPS COLLECTION BOX - APC", "address": {"city": "STAMFORD", "state": "CT", "street": "24 CAMP AVE", "postcode": "06907"}}}
]}
