{"type": "FeatureCollection", "features": [
{"geometry": {"type": "Point", "coordinates": [-80.434182772, 36.005940717]}, "type": "Feature", "properties": {"collection_times": [{"days": "Mon-Sat", "time": "12:00pm"}, {"days": "Sun", "time": "Closed"}], "id": "2700600004", "name": "USPS COLLECTION BOX - BLUE BOX", "address": {"city": "ADVANCE", "state": "NC", "street": "5396 US HIGHWAY 158", "postcode": "27006"}}},
{"geometry": {"type": "Point", "coordinates": [-80.413054814, 35.946108064]}, "type": "Feature", "properties": {"collection_times": [{"days": "Mon-Fri", "time": "5:00pm"}, {"days": "Sat", "time": "12:00pm"}, {"days": "Sun", "time": "Closed"}], "id": "2700600005", "name": "USPS COLLECTION BOX - PO LOBBY", "address": {"city": "ADVANCE", "state": "NC", "street": "1860 NC HIGHWAY 801 S", "postcode": "27006"}}},
{"geometry": {"type": "Point", "coordinates": [-80.413054814, 35.946108064]}, "type": "Feature", "properties": {"collection_times": [{"days": "Mon-Fri", "time": "5:00pm"}, {"days": "Sat", "time": "12:00pm"}, {"days": "Sun", "time": "Closed"}], "id": "2700600006", "name": "USPS COLLECTION BOX - BLUE BOX", "address": {"city": "ADVANCE", "state": "NC", "street": "1860 NC HIGHWAY 801 S", "postcode": "27006"}}},
{"geometry": {"type": "Point", "coordinates": [-80.421444229, 36.004290841]}, "type": "Feature", "properties": {"collection_times": [{"days": "Mon-Sat", "time": "12:00pm"}, {"days": "Sun", "time": "Closed"}], "id": "2700600012", "name": "USPS COLLECTION BOX - BLUE BOX", "address": {"city": "ADVANCE", "state": "NC", "street": "324 BERMUDA RUN DR", "postcode": "27006"}}},
{"geometry": {"type": "Point", "coordinates": [-80.446565225, 36.010514301]}, "type": "Feature", "properties": {"collection_times": [{"days": "Mon-Sat", "time": "12:00pm"}, {"days": "Sun", "time": "Closed"}], "id": "2700600015", "name": "USPS COLLECTION BOX - BLUE BOX", "address": {"city": "ADVANCE", "state": "NC", "street": "329 NC HIGHWAY 801 N", "postcode": "27006"}}},
{"geometry": {"type": "Point", "coordinates": [-80.557226187, 36.403795096]}, "type": "Feature", "properties": {"collection_times": [{"days": "Mon-Fri", "time": "4:15pm"}, {"days": "Sat", "time": "10:30am"}, {"days": "Sun", "time": "Closed"}], "id": "2700700001", "name": "USPS COLLECTION BOX - BLUE BOX", "address": {"city": "ARARAT", "state": "NC", "street": "1354 ARARAT RD", "postcode": "27007"}}},
{"geometry": {"type": "Point", "coordinates": [-80.068930259, 36.243912507]}, "type": "Feature", "properties": {"collection_times": [{"days": "Mon-Fri", "time": "4:30pm"}, {"days": "Sat", "time": "11:00am"}, {"days": "Sun", "time": "Closed"}], "id": "2700900002", "name": "USPS COLLECTION BOX - BLUE BOX", "address": {"city": "BELEWS CREEK", "state": "NC", "street": "8540 BELEWS CREEK RD", "postcode": "27009"}}},
{"geometry": {"type": "Point", "coordinates": [-80.068930259, 36.243912507]}, "type": "Feature", "properties": {"collection_times": [{"days": "Mon-Fri", "time": "4:30pm"}, {"days": "Sat", "time": "11:00am"}, {"days": "Sun", "time": "Closed"}], "id": "2700900004", "name": "USPS COLLECTION BOX - PO LOBBY", "address": {"city": "BELEWS CREEK", "state": "NC", "street": "8540 BELEWS CREEK RD", "postcode": "27009"}}},
{"geometry": {"type": "Point", "coordinates": [-80.336860088, 36.185613714]}, "type": "Feature", "properties": {"collection_times": [{"days": "Mon-Fri", "time": "4:00pm"}, {"days": "Sat", "time": "11:00am"}, {"days": "Sun", "time": "Closed"}], "id": "2701000002", "name": "USPS COLLECTION BOX - BLUE BOX", "address": {"city": "BETHANIA", "state": "NC", "street": "5670 MAIN ST", "postcode": "27010"}}},
{"geometry": {"type": "Point", "coordinates": [-80.336860088, 36.185613714]}, "type": "Feature", "properties": {"collection_times": [{"days": "Mon-Fri", "time": "4:00pm"}, {"days": "Sat", "time": "11:00am"}, {"days": "Sun", "time": "Closed"}], "id": "2701000004", "name": "USPS COLLECTION BOX - PO LOBBY", "address": {"city": "BETHANIA", "state": "NC", "street": "5670 MAIN ST", "postcode": "27010"}}},
{"geometry": {"type": "Point", "coordinates": [-80.708572774, 36.231269476]}, "type": "Feature", "properties": {"collection_times": [{"days": "Mon-Fri", "time": "4:30pm"}, {"days": "Sat", "time": "10:30am"}, {"days": "Sun", "time": "Closed"}], "id": "2701100002", "name": "USPS COLLECTION BOX - BLUE BOX", "address": {"city": "BOONVILLE", "state": "NC", "street": "202 S CAROLINA AVE", "postcode": "27011"}}},
{"geometry": {"type": "Point", "coordinates": [-80.708572774, 36.231269476]}, "type": "Feature", "properties": {"collection_times": [{"days": "Mon-Fri", "time": "4:30pm"}, {"days": "Sat", "time": "10:30am"}, {"days": "Sun", "time": "Closed"}], "id": "2701100003", "name": "USPS COLLECTION BOX - PO LOBBY", "address": {"city": "BOONVILLE", "state": "NC", "street": "202 S CAROLINA AVE", "postcode": "27011"}}},
{"geometry": {"type": "Point", "coordinates": [-80.386936667, 36.042564199]}, "type": "Feature", "properties": {"collection_times": [{"days": "Mon-Sat", "time": "10:00am"}, {"days": "Sun", "time": "Closed"}], "id": "2701200001", "name": "USPS COLLECTION BOX - BLUE BOX", "address": {"city": "CLEMMONS", "state": "NC", "street": "2255 LEWISVILLE CLEMMONS RD", "postcode": "27012"}}},
{"geometry": {"type": "Point", "coordinates": [-80.380507656, 36.02183775]}, "type": "Feature", "properties": {"collection_times": [{"days": "Mon-Fri", "time": "5:00pm"}, {"days": "Sat", "time": "11:30am"}, {"days": "Sun", "time": "Closed"}], "id": "2701200003", "name": "USPS COLLECTION BOX - BLUE BOX", "address": {"city": "CLEMMONS", "state": "NC", "street": "3630 CLEMMONS RD", "postcode": "27012"}}},
{"geometry": {"type": "Point", "coordinates": [-80.380507656, 36.02183775]}, "type": "Feature", "properties": {"collection_times": [{"days": "Mon-Fri", "time": "5:00pm"}, {"days": "Sat", "time": "11:30am"}, {"days": "Sun", "time": "Closed"}], "id": "2701200004", "name": "USPS COLLECTION BOX - BLUE BOX", "address": {"city": "CLEMMONS", "state": "NC", "street": "3630 CLEMMONS RD", "postcode": "27012"}}},
{"geometry": {"type": "Point", "coordinates": [-80.380920391, 36.034032761]}, "type": "Feature", "properties": {"collection_times": [{"days": "Mon-Sat", "time": "10:00am"}, {"days": "Sun", "time": "Closed"}], "id": "2701200005", "name": "USPS COLLECTION BOX - BLUE BOX", "address": {"city": "CLEMMONS", "state": "NC", "street": "6000 MEADOWBROOK MALL CT", "postcode": "27012"}}},
{"geometry": {"type": "Point", "coordinates": [-80.382623848, 36.030488052]}, "type": "Feature", "properties": {"collection_times": [{"days": "Mon-Sat", "time": "10:00am"}, {"days": "Sun", "time": "Closed"}], "id": "2701200006", "name": "USPS COLLECTION BOX - BLUE BOX", "address": {"city": "CLEMMONS", "state": "NC", "street": "2501 LEWISVILLE CLEMMONS RD", "postcode": "27012"}}},
{"geometry": {"type": "Point", "coordinates": [-80.382513518, 36.02974231]}, "type": "Feature", "properties": {"collection_times": [{"days": "Mon-Sat", "time": "10:00am"}, {"days": "Sun", "time": "Closed"}], "id": "2701200010", "name": "USPS COLLECTION BOX - BLUE BOX", "address": {"city": "CLEMMONS", "state": "NC", "street": "2520 LEWISVILLE CLEMMONS RD", "postcode": "27012"}}},
{"geometry": {"type": "Point", "coordinates": [-80.380507656, 36.02183775]}, "type": "Feature", "properties": {"collection_times": [{"days": "Mon-Fri", "time": "5:00pm"}, {"days": "Sat", "time": "11:30am"}, {"days": "Sun", "time": "Closed"}], "id": "2701200013", "name": "USPS COLLECTION BOX - PO LOBBY", "address": {"city": "CLEMMONS", "state": "NC", "street": "3630 CLEMMONS RD", "postcode": "27012"}}},
{"geometry": {"type": "Point", "coordinates": [-80.677354043, 35.733563767]}, "type": "Feature", "properties": {"collection_times": [{"days": "Mon-Fri", "time": "4:30pm"}, {"days": "Sat", "time": "10:30am"}, {"days": "Sun", "time": "Closed"}], "id": "2701300001", "name": "USPS COLLECTION BOX - BLUE BOX", "address": {"city": "CLEVELAND", "state": "NC", "street": "105 W MAIN ST", "postcode": "27013"}}},
{"geometry": {"type": "Point", "coordinates": [-80.692737746, 35.729983288]}, "type": "Feature", "properties": {"collection_times": [{"days": "Mon-Fri", "time": "12:00pm"}, {"days": "Sat", "time": "10:30am"}, {"days": "Sun", "time": "Closed"}], "id": "2701300004", "name": "USPS COLLECTION BOX - BLUE BOX", "address": {"city": "CLEVELAND", "state": "NC", "street": "11713 STATESVILLE BLVD", "postcode": "27013"}}},
{"geometry": {"type": "Point", "coordinates": [-80.677354043, 35.733563767]}, "type": "Feature", "properties": {"collection_times": [{"days": "Mon-Fri", "time": "4:30pm"}, {"days": "Sat", "time": "10:30am"}, {"days": "Sun", "time": "Closed"}], "id": "2701300006", "name": "USPS COLLECTION BOX - PO LOBBY", "address": {"city": "CLEVELAND", "state": "NC", "street": "105 W MAIN ST", "postcode": "27013"}}},
{"geometry": {"type": "Point", "coordinates": [-80.552034322, 35.812989919]}, "type": "Feature", "properties": {"collection_times": [{"days": "Mon-Fri", "time": "4:30pm"}, {"days": "Sat", "time": "10:30am"}, {"days": "Sun", "time": "Closed"}], "id": "2701400003", "name": "USPS COLLECTION BOX - BLUE BOX", "address": {"city": "COOLEEMEE", "state": "NC", "street": "7814 NC HWY 801 S", "postcode": "27014"}}},
{"geometry": {"type": "Point", "coordinates": [-80.552034322, 35.812989919]}, "type": "Feature", "properties": {"collection_times": [{"days": "Mon-Fri", "time": "4:30pm"}, {"days": "Sat", "time": "10:30am"}, {"days": "Sun", "time": "Closed"}], "id": "2701400004", "name": "USPS COLLECTION BOX - PO LOBBY", "address": {"city": "COOLEEMEE", "state": "NC", "street": "7814 NC HWY 801 S", "postcode": "27014"}}},
{"geometry": {"type": "Point", "coordinates": [-80.203372753, 36.409284734]}, "type": "Feature", "properties": {"collection_times": [{"days": "Mon-Fri", "time": "4:30pm"}, {"days": "Sat", "time": "10:30am"}, {"days": "Sun", "time": "Closed"}], "id": "2701600001", "name": "USPS COLLECTION BOX - BLUE BOX", "address": {"city": "DANBURY", "state": "NC", "street": "303 N MAIN ST", "postcode": "27016"}}},
{"geometry": {"type": "Point", "coordinates": [-80.203372753, 36.409284734]}, "type": "Feature", "properties": {"collection_times": [{"days": "Mon-Fri", "time": "4:30pm"}, {"days": "Sat", "time": "10:30am"}, {"days": "Sun", "time": "Closed"}], "id": "2701600004", "name": "USPS COLLECTION BOX - PO LOBBY", "address": {"city": "DANBURY", "state": "NC", "street": "303 N MAIN ST", "postcode": "27016"}}},
{"geometry": {"type": "Point", "coordinates": [-80.724829184, 36.396007089]}, "type": "Feature", "properties": {"collection_times": [{"days": "Mon-Fri", "time": "4:45pm"}, {"days": "Sat", "time": "11:00am"}, {"days": "Sun", "time": "Closed"}], "id": "2701700001", "name": "USPS COLLECTION BOX - BLUE BOX", "address": {"city": "DOBSON", "state": "NC", "street": "214 W KAPP ST", "postcode": "27017"}}},
{"geometry": {"type": "Point", "coordinates": [-80.724829184, 36.396007089]}, "type": "Feature", "properties": {"collection_times": [{"days": "Mon-Fri", "time": "4:45pm"}, {"days": "Sat", "time": "11:00am"}, {"days": "Sun", "time": "Closed"}], "id": "2701700002", "name": "USPS COLLECTION BOX - PO LOBBY", "address": {"city": "DOBSON", "state": "NC", "street": "214 W KAPP ST", "postcode": "27017"}}},
{"geometry": {"type": "Point", "coordinates": [-80.496164575, 36.217133511]}, "type": "Feature", "properties": {"collection_times": [{"days": "Mon-Fri", "time": "4:15pm"}, {"days": "Sat", "time": "10:30am"}, {"days": "Sun", "time": "Closed"}], "id": "2701800001", "name": "USPS COLLECTION BOX - BLUE BOX", "address": {"city": "EAST BEND", "state": "NC", "street": "448 E MAIN ST", "postcode": "27018"}}},
{"geometry": {"type": "Point", "coordinates": [-80.496164575, 36.217133511]}, "type": "Feature", "properties": {"collection_times": [{"days": "Mon-Fri", "time": "4:15pm"}, {"days": "Sat", "time": "10:30am"}, {"days": "Sun", "time": "Closed"}], "id": "2701800002", "name": "USPS COLLECTION BOX - PO LOBBY", "address": {"city": "EAST BEND", "state": "NC", "street": "448 E MAIN ST", "postcode": "27018"}}},
{"geometry": {"type": "Point", "coordinates": [-80.22007028, 36.265668111]}, "type": "Feature", "properties": {"collection_times": [{"days": "Mon-Fri", "time": "4:30pm"}, {"days": "Sat", "time": "11:00am"}, {"days": "Sun", "time": "Closed"}], "id": "2701900001", "name": "USPS COLLECTION BOX - BLUE BOX", "address": {"city": "GERMANTON", "state": "NC", "street": "3188 NC 65 HWY W", "postcode": "27019"}}},
{"geometry": {"type": "Point", "coordinates": [-80.22007028, 36.265668111]}, "type": "Feature", "properties": {"collection_times": [{"days": "Mon-Fri", "time": "4:30pm"}, {"days": "Sat", "time": "11:00am"}, {"days": "Sun", "time": "Closed"}], "id": "2701900002", "name": "USPS COLLECTION BOX - PO LOBBY", "address": {"city": "GERMANTON", "state": "NC", "street": "3188 NC 65 HWY W", "postcode": "27019"}}},
{"geometry": {"type": "Point", "coordinates": [-80.795166008, 36.117777561]}, "type": "Feature", "properties": {"collection_times": [{"days": "Mon-Fri", "time": "4:00pm"}, {"days": "Sat", "time": "11:00am"}, {"days": "Sun", "time": "Closed"}], "id": "2702000001", "name": "USPS COLLECTION BOX - BLUE BOX", "address": {"city": "HAMPTONVILLE", "state": "NC", "street": "2943 ROCKY BRANCH RD", "postcode": "27020"}}},
{"geometry": {"type": "Point", "coordinates": [-80.795166008, 36.117777561]}, "type": "Feature", "properties": {"collection_times": [{"days": "Mon-Fri", "time": "4:00pm"}, {"days": "Sat", "time": "11:00am"}, {"days": "Sun", "time": "Closed"}], "id": "2702000002", "name": "USPS COLLECTION BOX - PO LOBBY", "address": {"city": "HAMPTONVILLE", "state": "NC", "street": "2943 ROCKY BRANCH RD", "postcode": "27020"}}},
{"geometry": {"type": "Point", "coordinates": [-80.360588913, 36.266601692]}, "type": "Feature", "properties": {"collection_times": [{"days": "Mon-Fri", "time": "4:30pm"}, {"days": "Sat", "time": "12:00pm"}, {"days": "Sun", "time": "Closed"}], "id": "2702100002", "name": "USPS COLLECTION BOX - BLUE BOX", "address": {"city": "KING", "state": "NC", "street": "603 S MAIN ST", "postcode": "27021"}}},
{"geometry": {"type": "Point", "coordinates": [-80.359645109, 36.280029129]}, "type": "Feature", "properties": {"collection_times": [{"days": "Mon-Sat", "time": "12:00pm"}, {"days": "Sun", "time": "Closed"}], "id": "2702100004", "name": "USPS COLLECTION BOX - BLUE BOX", "address": {"city": "KING", "state": "NC", "street": "214 S MAIN ST", "postcode": "27021"}}},
{"geometry": {"type": "Point", "coordinates": [-80.36367316, 36.261970728]}, "type": "Feature", "properties": {"collection_times": [{"days": "Mon-Sat", "time": "11:30am"}, {"days": "Sun", "time": "Closed"}], "id": "2702100007", "name": "USPS COLLECTION BOX - BLUE BOX", "address": {"city": "KING", "state": "NC", "street": "735J S MAIN ST", "postcode": "27021"}}},
{"geometry": {"type": "Point", "coordinates": [-80.360588913, 36.266601692]}, "type": "Feature", "properties": {"collection_times": [{"days": "Mon-Fri", "time": "4:30pm"}, {"days": "Sat", "time": "12:00pm"}, {"days": "Sun", "time": "Closed"}], "id": "2702100009", "name": "USPS COLLECTION BOX - BLUE BOX", "address": {"city": "KING", "state": "NC", "street": "603 S MAIN ST", "postcode": "27021"}}},
{"geometry": {"type": "Point", "coordinates": [-80.329250401, 36.300742115]}, "type": "Feature", "properties": {"collection_times": [{"days": "Mon-Sat", "time": "12:00pm"}, {"days": "Sun", "time": "Closed"}], "id": "2702100010", "name": "USPS COLLECTION BOX - BLUE BOX", "address": {"city": "KING", "state": "NC", "street": "525 MOUNTAINVIEW RD", "postcode": "27021"}}},
{"geometry": {"type": "Point", "coordinates": [-80.360588913, 36.266601692]}, "type": "Feature", "properties": {"collection_times": [{"days": "Mon-Fri", "time": "4:30pm"}, {"days": "Sat", "time": "12:00pm"}, {"days": "Sun", "time": "Closed"}], "id": "2702100011", "name": "USPS COLLECTION BOX - BLUE BOX", "address": {"city": "KING", "state": "NC", "street": "603 S MAIN ST", "postcode": "27021"}}},
{"geometry": {"type": "Point", "coordinates": [-80.360588913, 36.266601692]}, "type": "Feature", "properties": {"collection_times": [{"days": "Mon-Fri", "time": "4:30pm"}, {"days": "Sat", "time": "12:00pm"}, {"days": "Sun", "time": "Closed"}], "id": "2702100012", "name": "USPS COLLECTION BOX - PO LOBBY", "address": {"city": "KING", "state": "NC", "street": "603 S MAIN ST", "postcode": "27021"}}},
{"geometry": {"type": "Point", "coordinates": [-80.233119446, 36.489506299]}, "type": "Feature", "properties": {"collection_times": [{"days": "Mon-Fri", "time": "4:00pm"}, {"days": "Sat", "time": "10:45am"}, {"days": "Sun", "time": "Closed"}], "id": "2702200002", "name": "USPS COLLECTION BOX - BLUE BOX", "address": {"city": "LAWSONVILLE", "state": "NC", "street": "3471 PINEY GROVE CHURCH RD", "postcode": "27022"}}},
{"geometry": {"type": "Point", "coordinates": [-80.233119446, 36.489506299]}, "type": "Feature", "properties": {"collection_times": [{"days": "Mon-Fri", "time": "4:00pm"}, {"days": "Sat", "time": "10:45am"}, {"days": "Sun", "time": "Closed"}], "id": "2702200004", "name": "USPS COLLECTION BOX - PO LOBBY", "address": {"city": "LAWSONVILLE", "state": "NC", "street": "3471 PINEY GROVE CHURCH RD", "postcode": "27022"}}},
{"geometry": {"type": "Point", "coordinates": [-80.42137896, 36.096305178]}, "type": "Feature", "properties": {"collection_times": [{"days": "Mon-Fri", "time": "5:00pm"}, {"days": "Sat", "time": "12:00pm"}, {"days": "Sun", "time": "Closed"}], "id": "2702300002", "name": "USPS COLLECTION BOX - BLUE BOX", "address": {"city": "LEWISVILLE", "state": "NC", "street": "6524 SHALLOWFORD RD", "postcode": "27023"}}},
{"geometry": {"type": "Point", "coordinates": [-80.42137896, 36.096305178]}, "type": "Feature", "properties": {"collection_times": [{"days": "Mon-Fri", "time": "5:00pm"}, {"days": "Sat", "time": "12:00pm"}, {"days": "Sun", "time": "Closed"}], "id": "2702300004", "name": "USPS COLLECTION BOX - PO LOBBY", "address": {"city": "LEWISVILLE", "state": "NC", "street": "6524 SHALLOWFORD RD", "postcode": "27023"}}},
{"geometry": {"type": "Point", "coordinates": [-80.86679656, 36.523042983]}, "type": "Feature", "properties": {"collection_times": [{"days": "Mon-Fri", "time": "4:45pm"}, {"days": "Sat", "time": "11:45am"}, {"days": "Sun", "time": "Closed"}], "id": "2702400001", "name": "USPS COLLECTION BOX - BLUE BOX", "address": {"city": "LOWGAP", "state": "NC", "street": "8855 W PINE ST", "postcode": "27024"}}},
{"geometry": {"type": "Point", "coordinates": [-80.86679656, 36.523042983]}, "type": "Feature", "properties": {"collection_times": [{"days": "Mon-Fri", "time": "4:45pm"}, {"days": "Sat", "time": "11:45am"}, {"days": "Sun", "time": "Closed"}], "id": "2702400002", "name": "USPS COLLECTION BOX - PO LOBBY", "address": {"city": "LOWGAP", "state": "NC", "street": "8855 W PINE ST", "postcode": "27024"}}},
{"geometry": {"type": "Point", "coordinates": [-79.959654564, 36.387339114]}, "type": "Feature", "properties": {"collection_times": [{"days": "Mon-Fri", "time": "3:00pm"}, {"days": "Sat", "time": "12:00pm"}, {"days": "Sun", "time": "Closed"}], "id": "2702500003", "name": "USPS COLLECTION BOX - BLUE BOX", "address": {"city": "MADISON", "state": "NC", "street": "100 S MARKET ST", "postcode": "27025"}}},
{"geometry": {"type": "Point", "coordinates": [-79.967831856, 36.390066432]}, "type": "Feature", "properties": {"collection_times": [{"days": "Mon-Fri", "time": "5:00pm"}, {"days": "Sat", "time": "12:00pm"}, {"days": "Sun", "time": "Closed"}], "id": "2702500010", "name": "USPS COLLECTION BOX - BLUE BOX", "address": {"city": "MADISON", "state": "NC", "street": "302 HIGHWAY ST", "postcode": "27025"}}},
{"geometry": {"type": "Point", "coordinates": [-79.968657, 36.396669335]}, "type": "Feature", "properties": {"collection_times": [{"days": "Mon-Sat", "time": "10:30am"}, {"days": "Sun", "time": "Closed"}], "id": "2702500011", "name": "USPS COLLECTION BOX - BLUE BOX", "address": {"city": "MADISON", "state": "NC", "street": "118 NEW MARKET", "postcode": "27025"}}},
{"geometry": {"type": "Point", "coordinates": [-79.967831856, 36.390066432]}, "type": "Feature", "properties": {"collection_times": [{"days": "Mon-Fri", "time": "5:00pm"}, {"days": "Sat", "time": "12:00pm"}, {"days": "Sun", "time": "Closed"}], "id": "2702500014", "name": "USPS COLLECTION BOX - PO LOBBY", "address": {"city": "MADISON", "state": "NC", "street": "302 HIGHWAY ST", "postcode": "27025"}}},
{"geometry": {"type": "Point", "coordinates": [-79.976673493, 36.415047029]}, "type": "Feature", "properties": {"collection_times": [{"days": "Mon-Fri", "time": "5:00pm"}, {"days": "Sat", "time": "12:00pm"}, {"days": "Sun", "time": "Closed"}], "id": "2702700002", "name": "USPS COLLECTION BOX - BLUE BOX", "address": {"city": "MAYODAN", "state": "NC", "street": "1000 W MAIN ST", "postcode": "27027"}}},
{"geometry": {"type": "Point", "coordinates": [-79.976673493, 36.415047029]}, "type": "Feature", "properties": {"collection_times": [{"days": "Mon-Fri", "time": "4:30pm"}, {"days": "Sat", "time": "12:00pm"}, {"days": "Sun", "time": "Closed"}], "id": "2702700007", "name": "USPS COLLECTION BOX - PO LOBBY", "address": {"city": "MAYODAN", "state": "NC", "street": "1000 W MAIN ST", "postcode": "27027"}}},
{"geometry": {"type": "Point", "coordinates": [-80.561817173, 35.893587384]}, "type": "Feature", "properties": {"collection_times": [{"days": "Mon-Sat", "time": "2:00pm"}, {"days": "Sun", "time": "Closed"}], "id": "2702800005", "name": "USPS COLLECTION BOX - BLUE BOX", "address": {"city": "MOCKSVILLE", "state": "NC", "street": "140 S MAIN ST", "postcode": "27028"}}},
{"geometry": {"type": "Point", "coordinates": [-80.580463167, 35.912286993]}, "type": "Feature", "properties": {"collection_times": [{"days": "Mon-Fri", "time": "5:00pm"}, {"days": "Sat", "time": "3:00pm"}, {"days": "Sun", "time": "Closed"}], "id": "2702800007", "name": "USPS COLLECTION BOX - BLUE BOX", "address": {"city": "MOCKSVILLE", "state": "NC", "street": "1119 YADKINVILLE RD", "postcode": "27028"}}},
{"geometry": {"type": "Point", "coordinates": [-80.580463167, 35.912286993]}, "type": "Feature", "properties": {"collection_times": [{"days": "Mon-Fri", "time": "5:00pm"}, {"days": "Sat", "time": "3:00pm"}, {"days": "Sun", "time": "Closed"}], "id": "2702800008", "name": "USPS COLLECTION BOX - BLUE BOX", "address": {"city": "MOCKSVILLE", "state": "NC", "street": "1119 YADKINVILLE RD", "postcode": "27028"}}},
{"geometry": {"type": "Point", "coordinates": [-80.570914059, 35.899206358]}, "type": "Feature", "properties": {"collection_times": [{"days": "Mon-Sat", "time": "2:00pm"}, {"days": "Sun", "time": "Closed"}], "id": "2702800014", "name": "USPS COLLECTION BOX - BLUE BOX", "address": {"city": "MOCKSVILLE", "state": "NC", "street": "210 HOSPITAL ST", "postcode": "27028"}}},
{"geometry": {"type": "Point", "coordinates": [-80.580463167, 35.912286993]}, "type": "Feature", "properties": {"collection_times": [{"days": "Mon-Fri", "time": "5:00pm"}, {"days": "Sat", "time": "3:00pm"}, {"days": "Sun", "time": "Closed"}], "id": "2702800017", "name": "USPS COLLECTION BOX - PO LOBBY", "address": {"city": "MOCKSVILLE", "state": "NC", "street": "1119 YADKINVILLE RD", "postcode": "27028"}}},
{"geometry": {"type": "Point", "coordinates": [-80.561817173, 35.893587384]}, "type": "Feature", "properties": {"collection_times": [{"days": "Mon-Sat", "time": "2:00pm"}, {"days": "Sun", "time": "Closed"}], "id": "2702800018", "name": "USPS COLLECTION BOX - BLUE BOX", "address": {"city": "MOCKSVILLE", "state": "NC", "street": "140 S MAIN ST", "postcode": "27028"}}},
{"geometry": {"type": "Point", "coordinates": [-80.587520394, 35.925858312]}, "type": "Feature", "properties": {"collection_times": [{"days": "Mon-Sat", "time": "11:00am"}, {"days": "Sun", "time": "Closed"}], "id": "2702800019", "name": "USPS COLLECTION BOX - BLUE BOX", "address": {"city": "MOCKSVILLE", "state": "NC", "street": "261 COOPER CREEK DR", "postcode": "27028"}}},
{"geometry": {"type": "Point", "coordinates": [-80.563271742, 35.893023272]}, "type": "Feature", "properties": {"collection_times": [{"days": "Mon-Sat", "time": "2:00pm"}, {"days": "Sun", "time": "Closed"}], "id": "2702800020", "name": "USPS COLLECTION BOX - BLUE BOX", "address": {"city": "MOCKSVILLE", "state": "NC", "street": "254 W WATER ST", "postcode": "27028"}}},
{"geometry": {"type": "Point", "coordinates": [-80.606861038, 36.499084546]}, "type": "Feature", "properties": {"collection_times": [{"days": "Mon-Fri", "time": "5:00pm"}, {"days": "Sat", "time": "3:00pm"}, {"days": "Sun", "time": "Closed"}], "id": "2703000001", "name": "USPS COLLECTION BOX - BLUE BOX", "address": {"city": "MOUNT AIRY", "state": "NC", "street": "111 S MAIN ST", "postcode": "27030"}}},
{"geometry": {"type": "Point", "coordinates": [-80.607933317, 36.501016979]}, "type": "Feature", "properties": {"collection_times": [{"days": "Mon-Sat", "time": "1:00pm"}, {"days": "Sun", "time": "Closed"}], "id": "2703000004", "name": "USPS COLLECTION BOX - BLUE BOX", "address": {"city": "MOUNT AIRY", "state": "NC", "street": "200 N MAIN ST", "postcode": "27030"}}},
{"geometry": {"type": "Point", "coordinates": [-80.608792306, 36.502820038]}, "type": "Feature", "properties": {"collection_times": [{"days": "Mon-Sat", "time": "12:00pm"}, {"days": "Sun", "time": "Closed"}], "id": "2703000010", "name": "USPS COLLECTION BOX - BLUE BOX", "address": {"city": "MOUNT AIRY", "state": "NC", "street": "457 N MAIN ST", "postcode": "27030"}}},
{"geometry": {"type": "Point", "coordinates": [-80.612503002, 36.511610825]}, "type": "Feature", "properties": {"collection_times": [{"days": "Mon-Sat", "time": "1:00pm"}, {"days": "Sun", "time": "Closed"}], "id": "2703000017", "name": "USPS COLLECTION BOX - BLUE BOX", "address": {"city": "MOUNT AIRY", "state": "NC", "street": "70 MAYBERRY MALL", "postcode": "27030"}}},
{"geometry": {"type": "Point", "coordinates": [-80.611194443, 36.488456166]}, "type": "Feature", "properties": {"collection_times": [{"days": "Mon-Fri", "time": "3:00pm"}, {"days": "Sat", "time": "2:00pm"}, {"days": "Sun", "time": "Closed"}], "id": "2703000020", "name": "USPS COLLECTION BOX - BLUE BOX", "address": {"city": "MOUNT AIRY", "state": "NC", "street": "830 ROCKFORD ST", "postcode": "27030"}}},
{"geometry": {"type": "Point", "coordinates": [-80.611194443, 36.488456166]}, "type": "Feature", "properties": {"collection_times": [{"days": "Mon-Fri", "time": "3:00pm"}, {"days": "Sat", "time": "2:00pm"}, {"days": "Sun", "time": "Closed"}], "id": "2703000021", "name": "USPS COLLECTION BOX - BLUE BOX", "address": {"city": "MOUNT AIRY", "state": "NC", "street": "830 ROCKFORD ST", "postcode": "27030"}}},
{"geometry": {"type": "Point", "coordinates": [-80.613815699, 36.48282204]}, "type": "Feature", "properties": {"collection_times": [{"days": "Mon-Fri", "time": "1:30pm"}, {"days": "Sat", "time": "12:30pm"}, {"days": "Sun", "time": "Closed"}], "id": "2703000023", "name": "USPS COLLECTION BOX - BLUE BOX", "address": {"city": "MOUNT AIRY", "state": "NC", "street": "1949 ROCKFORD ST", "postcode": "27030"}}},
{"geometry": {"type": "Point", "coordinates": [-80.618055862, 36.477221715]}, "type": "Feature", "properties": {"collection_times": [{"days": "Mon-Fri", "time": "1:00pm"}, {"days": "Sat", "time": "12:30pm"}, {"days": "Sun", "time": "Closed"}], "id": "2703000026", "name": "USPS COLLECTION BOX - BLUE BOX", "address": {"city": "MOUNT AIRY", "state": "NC", "street": "2133 ROCKFORD ST", "postcode": "27030"}}},
{"geometry": {"type": "Point", "coordinates": [-80.591274534, 36.486714878]}, "type": "Feature", "properties": {"collection_times": [{"days": "Mon-Sat", "time": "2:00pm"}, {"days": "Sun", "time": "Closed"}], "id": "2703000027", "name": "USPS COLLECTION BOX - BLUE BOX", "address": {"city": "MOUNT AIRY", "state": "NC", "street": "1645 S MAIN ST", "postcode": "27030"}}},
{"geometry": {"type": "Point", "coordinates": [-80.606861038, 36.499084546]}, "type": "Feature", "properties": {"collection_times": [{"days": "Mon-Fri", "time": "5:00pm"}, {"days": "Sat-Sun", "time": "Closed"}], "id": "2703000035", "name": "USPS COLLECTION BOX - PO LOBBY", "address": {"city": "MOUNT AIRY", "state": "NC", "street": "111 S MAIN ST", "postcode": "27030"}}},
{"geometry": {"type": "Point", "coordinates": [-80.603767747, 36.523208487]}, "type": "Feature", "properties": {"collection_times": [{"days": "Mon-Sat", "time": "2:00pm"}, {"days": "Sun", "time": "Closed"}], "id": "2703000036", "name": "USPS COLLECTION BOX - BLUE BOX", "address": {"city": "MOUNT AIRY", "state": "NC", "street": "1910 N MAIN ST", "postcode": "27030"}}},
{"geometry": {"type": "Point", "coordinates": [-80.615398475, 36.486337249]}, "type": "Feature", "properties": {"collection_times": [{"days": "Mon-Sat", "time": "2:00pm"}, {"days": "Sun", "time": "Closed"}], "id": "2703000037", "name": "USPS COLLECTION BOX - BLUE BOX", "address": {"city": "MOUNT AIRY", "state": "NC", "street": "692 S ANDY GRIFFITH PKWY", "postcode": "27030"}}},
{"geometry": {"type": "Point", "coordinates": [-80.361444406, 36.152807275]}, "type": "Feature", "properties": {"collection_times": [{"days": "Mon-Fri", "time": "4:30pm"}, {"days": "Sat", "time": "12:00pm"}, {"days": "Sun", "time": "Closed"}], "id": "2704000001", "name": "USPS COLLECTION BOX - BLUE BOX", "address": {"city": "PFAFFTOWN", "state": "NC", "street": "4715 YADKINVILLE RD", "postcode": "27040"}}},
{"geometry": {"type": "Point", "coordinates": [-80.361444406, 36.152807275]}, "type": "Feature", "properties": {"collection_times": [{"days": "Mon-Fri", "time": "4:30pm"}, {"days": "Sat", "time": "12:00pm"}, {"days": "Sun", "time": "Closed"}], "id": "2704000002", "name": "USPS COLLECTION BOX - PO LOBBY", "address": {"city": "PFAFFTOWN", "state": "NC", "street": "4715 YADKINVILLE RD", "postcode": "27040"}}},
{"geometry": {"type": "Point", "coordinates": [-80.479062684, 36.379102204]}, "type": "Feature", "properties": {"collection_times": [{"days": "Mon-Fri", "time": "4:30pm"}, {"days": "Sat", "time": "12:00pm"}, {"days": "Sun", "time": "Closed"}], "id": "2704100003", "name": "USPS COLLECTION BOX - BLUE BOX", "address": {"city": "PILOT MOUNTAIN", "state": "NC", "street": "647K S KEY ST", "postcode": "27041"}}},
{"geometry": {"type": "Point", "coordinates": [-80.468281831, 36.385554702]}, "type": "Feature", "properties": {"collection_times": [{"days": "Mon-Fri", "time": "2:30pm"}, {"days": "Sat", "time": "2:00pm"}, {"days": "Sun", "time": "Closed"}], "id": "2704100005", "name": "USPS COLLECTION BOX - BLUE BOX", "address": {"city": "PILOT MOUNTAIN", "state": "NC", "street": "124 W MAIN ST", "postcode": "27041"}}},
{"geometry": {"type": "Point", "coordinates": [-80.479062684, 36.379102204]}, "type": "Feature", "properties": {"collection_times": [{"days": "Mon-Fri", "time": "4:30pm"}, {"days": "Sat", "time": "12:00pm"}, {"days": "Sun", "time": "Closed"}], "id": "2704100006", "name": "USPS COLLECTION BOX - PO LOBBY", "address": {"city": "PILOT MOUNTAIN", "state": "NC", "street": "647K S KEY ST", "postcode": "27041"}}},
{"geometry": {"type": "Point", "coordinates": [-80.050750472, 36.320843845]}, "type": "Feature", "properties": {"collection_times": [{"days": "Mon-Fri", "time": "4:30pm"}, {"days": "Sat", "time": "11:30am"}, {"days": "Sun", "time": "Closed"}], "id": "2704200001", "name": "USPS COLLECTION BOX - BLUE BOX", "address": {"city": "PINE HALL", "state": "NC", "street": "1716 PINE HALL RD", "postcode": "27042"}}},
{"geometry": {"type": "Point", "coordinates": [-80.050750472, 36.320843845]}, "type": "Feature", "properties": {"collection_times": [{"days": "Mon-Fri", "time": "4:30pm"}, {"days": "Sat", "time": "11:30am"}, {"days": "Sun", "time": "Closed"}], "id": "2704200002", "name": "USPS COLLECTION BOX - PO LOBBY", "address": {"city": "PINE HALL", "state": "NC", "street": "1716 PINE HALL RD", "postcode": "27042"}}},
{"geometry": {"type": "Point", "coordinates": [-80.434956107, 36.331240287]}, "type": "Feature", "properties": {"collection_times": [{"days": "Mon-Fri", "time": "4:15pm"}, {"days": "Sat", "time": "11:30am"}, {"days": "Sun", "time": "Closed"}], "id": "2704300001", "name": "USPS COLLECTION BOX - BLUE BOX", "address": {"city": "PINNACLE", "state": "NC", "street": "2870 N OLD 52 RD", "postcode": "27043"}}},
{"geometry": {"type": "Point", "coordinates": [-80.434956107, 36.331240287]}, "type": "Feature", "properties": {"collection_times": [{"days": "Mon-Fri", "time": "4:15pm"}, {"days": "Sat", "time": "11:30am"}, {"days": "Sun", "time": "Closed"}], "id": "2704300003", "name": "USPS COLLECTION BOX - PO LOBBY", "address": {"city": "PINNACLE", "state": "NC", "street": "2870 N OLD 52 RD", "postcode": "27043"}}},
{"geometry": {"type": "Point", "coordinates": [-80.296783666, 36.243744672]}, "type": "Feature", "properties": {"collection_times": [{"days": "Mon-Fri", "time": "4:30pm"}, {"days": "Sat", "time": "12:00pm"}, {"days": "Sun", "time": "Closed"}], "id": "2704500002", "name": "USPS COLLECTION BOX - BLUE BOX", "address": {"city": "RURAL HALL", "state": "NC", "street": "8201 BROAD ST", "postcode": "27045"}}},
{"geometry": {"type": "Point", "coordinates": [-80.301342016, 36.213942316]}, "type": "Feature", "properties": {"collection_times": [{"days": "Mon-Sat", "time": "10:00am"}, {"days": "Sun", "time": "Closed"}], "id": "2704500003", "name": "USPS COLLECTION BOX - BLUE BOX", "address": {"city": "RURAL HALL", "state": "NC", "street": "1050 BETHANIA RURAL HALL RD", "postcode": "27045"}}},
{"geometry": {"type": "Point", "coordinates": [-80.296783666, 36.243744672]}, "type": "Feature", "properties": {"collection_times": [{"days": "Mon-Fri", "time": "4:30pm"}, {"days": "Sat", "time": "12:00pm"}, {"days": "Sun", "time": "Closed"}], "id": "2704500004", "name": "USPS COLLECTION BOX - PO LOBBY", "address": {"city": "RURAL HALL", "state": "NC", "street": "8201 BROAD ST", "postcode": "27045"}}},
{"geometry": {"type": "Point", "coordinates": [-80.104080023, 36.499085711]}, "type": "Feature", "properties": {"collection_times": [{"days": "Mon-Fri", "time": "3:45pm"}, {"days": "Sat", "time": "10:30am"}, {"days": "Sun", "time": "Closed"}], "id": "2704600001", "name": "USPS COLLECTION BOX - BLUE BOX", "address": {"city": "SANDY RIDGE", "state": "NC", "street": "4918 NC 704 HWY E", "postcode": "27046"}}},
{"geometry": {"type": "Point", "coordinates": [-80.104080023, 36.499085711]}, "type": "Feature", "properties": {"collection_times": [{"days": "Mon-Fri", "time": "3:45pm"}, {"days": "Sat", "time": "10:30am"}, {"days": "Sun", "time": "Closed"}], "id": "2704600002", "name": "USPS COLLECTION BOX - PO LOBBY", "address": {"city": "SANDY RIDGE", "state": "NC", "street": "4918 NC 704 HWY E", "postcode": "27046"}}},
{"geometry": {"type": "Point", "coordinates": [-80.562509491, 36.286400387]}, "type": "Feature", "properties": {"collection_times": [{"days": "Mon-Fri", "time": "4:00pm"}, {"days": "Sat", "time": "10:00am"}, {"days": "Sun", "time": "Closed"}], "id": "2704700001", "name": "USPS COLLECTION BOX - BLUE BOX", "address": {"city": "SILOAM", "state": "NC", "street": "7051 SILOAM RD", "postcode": "27047"}}},
{"geometry": {"type": "Point", "coordinates": [-80.562509491, 36.286400387]}, "type": "Feature", "properties": {"collection_times": [{"days": "Mon-Fri", "time": "4:00pm"}, {"days": "Sat", "time": "10:00am"}, {"days": "Sun", "time": "Closed"}], "id": "2704700002", "name": "USPS COLLECTION BOX - PO LOBBY", "address": {"city": "SILOAM", "state": "NC", "street": "7051 SILOAM RD", "postcode": "27047"}}},
{"geometry": {"type": "Point", "coordinates": [-79.905869295, 36.466433658]}, "type": "Feature", "properties": {"collection_times": [{"days": "Mon-Fri", "time": "4:45pm"}, {"days": "Sat", "time": "12:00pm"}, {"days": "Sun", "time": "Closed"}], "id": "2704800001", "name": "USPS COLLECTION BOX - BLUE BOX", "address": {"city": "STONEVILLE", "state": "NC", "street": "106 E MAIN ST", "postcode": "27048"}}},
{"geometry": {"type": "Point", "coordinates": [-79.905869295, 36.466433658]}, "type": "Feature", "properties": {"collection_times": [{"days": "Mon-Fri", "time": "5:00pm"}, {"days": "Sat", "time": "12:00pm"}, {"days": "Sun", "time": "Closed"}], "id": "2704800005", "name": "USPS COLLECTION BOX - PO LOBBY", "address": {"city": "STONEVILLE", "state": "NC", "street": "106 E MAIN ST", "postcode": "27048"}}},
{"geometry": {"type": "Point", "coordinates": [-80.626586411, 36.500204175]}, "type": "Feature", "properties": {"collection_times": [{"days": "Mon-Fri", "time": "4:00pm"}, {"days": "Sat", "time": "10:00am"}, {"days": "Sun", "time": "Closed"}], "id": "2704900002", "name": "USPS COLLECTION BOX - BLUE BOX", "address": {"city": "TOAST", "state": "NC", "street": "1110 W PINE ST", "postcode": "27049"}}},
{"geometry": {"type": "Point", "coordinates": [-80.626586411, 36.500204175]}, "type": "Feature", "properties": {"collection_times": [{"days": "Mon-Fri", "time": "4:00pm"}, {"days": "Sat", "time": "10:00am"}, {"days": "Sun", "time": "Closed"}], "id": "2704900003", "name": "USPS COLLECTION BOX - PO LOBBY", "address": {"city": "TOAST", "state": "NC", "street": "1110 W PINE ST", "postcode": "27049"}}},
{"geometry": {"type": "Point", "coordinates": [-80.371378135, 36.238474188]}, "type": "Feature", "properties": {"collection_times": [{"days": "Mon-Fri", "time": "4:30pm"}, {"days": "Sat", "time": "12:00pm"}, {"days": "Sun", "time": "Closed"}], "id": "2705000004", "name": "USPS COLLECTION BOX - BLUE BOX", "address": {"city": "TOBACCOVILLE", "state": "NC", "street": "6900 DORAL DR", "postcode": "27050"}}},
{"geometry": {"type": "Point", "coordinates": [-80.371378135, 36.238474188]}, "type": "Feature", "properties": {"collection_times": [{"days": "Mon-Fri", "time": "4:30pm"}, {"days": "Sat", "time": "12:00pm"}, {"days": "Sun", "time": "Closed"}], "id": "2705000006", "name": "USPS COLLECTION BOX - PO LOBBY", "address": {"city": "TOBACCOVILLE", "state": "NC", "street": "6900 DORAL DR", "postcode": "27050"}}},
{"geometry": {"type": "Point", "coordinates": [-80.152982343, 36.175021018]}, "type": "Feature", "properties": {"collection_times": [{"days": "Mon-Fri", "time": "5:00pm"}, {"days": "Sat", "time": "12:00pm"}, {"days": "Sun", "time": "Closed"}], "id": "2705100004", "name": "USPS COLLECTION BOX - BLUE BOX", "address": {"city": "WALKERTOWN", "state": "NC", "street": "4970 US HIGHWAY 311 N", "postcode": "27051"}}},
{"geometry": {"type": "Point", "coordinates": [-80.152982343, 36.175021018]}, "type": "Feature", "properties": {"collection_times": [{"days": "Mon-Fri", "time": "5:00pm"}, {"days": "Sat", "time": "12:00pm"}, {"days": "Sun", "time": "Closed"}], "id": "2705100006", "name": "USPS COLLECTION BOX - PO LOBBY", "address": {"city": "WALKERTOWN", "state": "NC", "street": "4970 US HIGHWAY 311 N", "postcode": "27051"}}},
{"geometry": {"type": "Point", "coordinates": [-80.141764793, 36.294891203]}, "type": "Feature", "properties": {"collection_times": [{"days": "Mon-Fri", "time": "4:30pm"}, {"days": "Sat", "time": "12:00pm"}, {"days": "Sun", "time": "Closed"}], "id": "2705200002", "name": "USPS COLLECTION BOX - BLUE BOX", "address": {"city": "WALNUT COVE", "state": "NC", "street": "217 N MAIN ST", "postcode": "27052"}}},
{"geometry": {"type": "Point", "coordinates": [-80.141764793, 36.294891203]}, "type": "Feature", "properties": {"collection_times": [{"days": "Mon-Fri", "time": "4:30pm"}, {"days": "Sat", "time": "12:00pm"}, {"days": "Sun", "time": "Closed"}], "id": "2705200005", "name": "USPS COLLECTION BOX - PO LOBBY", "address": {"city": "WALNUT COVE", "state": "NC", "street": "217 N MAIN ST", "postcode": "27052"}}},
{"geometry": {"type": "Point", "coordinates": [-80.447585686, 36.476882548]}, "type": "Feature", "properties": {"collection_times": [{"days": "Mon-Fri", "time": "4:30pm"}, {"days": "Sat", "time": "11:00am"}, {"days": "Sun", "time": "Closed"}], "id": "2705300003", "name": "USPS COLLECTION BOX - PO LOBBY", "address": {"city": "WESTFIELD", "state": "NC", "street": "6648 WESTFIELD RD", "postcode": "27053"}}},
{"geometry": {"type": "Point", "coordinates": [-80.447585686, 36.476882548]}, "type": "Feature", "properties": {"collection_times": [{"days": "Mon-Fri", "time": "4:30pm"}, {"days": "Sat", "time": "11:00am"}, {"days": "Sun", "time": "Closed"}], "id": "2705300004", "name": "USPS COLLECTION BOX - BLUE BOX", "address": {"city": "WESTFIELD", "state": "NC", "street": "6648 WESTFIELD RD", "postcode": "27053"}}},
{"geometry": {"type": "Point", "coordinates": [-80.586108948, 35.772458347]}, "type": "Feature", "properties": {"collection_times": [{"days": "Mon-Fri", "time": "4:30pm"}, {"days": "Sat", "time": "11:00am"}, {"days": "Sun", "time": "Closed"}], "id": "2705400001", "name": "USPS COLLECTION BOX - BLUE BOX", "address": {"city": "WOODLEAF", "state": "NC", "street": "4220 POTNECK RD", "postcode": "27054"}}},
{"geometry": {"type": "Point", "coordinates": [-80.586108948, 35.772458347]}, "type": "Feature", "properties": {"collection_times": [{"days": "Mon-Fri", "time": "4:30pm"}, {"days": "Sat", "time": "11:00am"}, {"days": "Sun", "time": "Closed"}], "id": "2705400003", "name": "USPS COLLECTION BOX - PO LOBBY", "address": {"city": "WOODLEAF", "state": "NC", "street": "4220 POTNECK RD", "postcode": "27054"}}},
{"geometry": {"type": "Point", "coordinates": [-80.659978109, 36.116472037]}, "type": "Feature", "properties": {"collection_times": [{"days": "Mon-Fri", "time": "10:00am"}, {"days": "Sat", "time": "12:00pm"}, {"days": "Sun", "time": "Closed"}], "id": "2705500002", "name": "USPS COLLECTION BOX - BLUE BOX", "address": {"city": "YADKINVILLE", "state": "NC", "street": "940 S STATE ST", "postcode": "27055"}}},
{"geometry": {"type": "Point", "coordinates": [-80.658380536, 36.134432847]}, "type": "Feature", "properties": {"collection_times": [{"days": "Mon-Sat", "time": "12:00pm"}, {"days": "Sun", "time": "Closed"}], "id": "2705500006", "name": "USPS COLLECTION BOX - BLUE BOX", "address": {"city": "YADKINVILLE", "state": "NC", "street": "212 E MAIN ST", "postcode": "27055"}}},
{"geometry": {"type": "Point", "coordinates": [-80.663634864, 36.134239874]}, "type": "Feature", "properties": {"collection_times": [{"days": "Mon-Fri", "time": "4:30pm"}, {"days": "Sat", "time": "12:00pm"}, {"days": "Sun", "time": "Closed"}], "id": "2705500007", "name": "USPS COLLECTION BOX - BLUE BOX", "address": {"city": "YADKINVILLE", "state": "NC", "street": "305 W MAIN ST", "postcode": "27055"}}},
{"geometry": {"type": "Point", "coordinates": [-80.663634864, 36.134239874]}, "type": "Feature", "properties": {"collection_times": [{"days": "Mon-Fri", "time": "4:30pm"}, {"days": "Sat", "time": "12:00pm"}, {"days": "Sun", "time": "Closed"}], "id": "2705500009", "name": "USPS COLLECTION BOX - PO LOBBY", "address": {"city": "YADKINVILLE", "state": "NC", "street": "305 W MAIN ST", "postcode": "27055"}}}
]}
