{"type": "FeatureCollection", "features": [
{"geometry": {"type": "Point", "coordinates": [-80.245993784, 36.096355296]}, "type": "Feature", "properties": {"collection_times": [{"days": "Mon-Fri", "time": "5:00pm"}, {"days": "Sat", "time": "10:00am"}, {"days": "Sun", "time": "Closed"}], "id": "2710100001", "name": "USPS COLLECTION BOX - BLUE BOX", "address": {"city": "WINSTON SALEM", "state": "NC", "street": "200 TOWN RUN LN", "postcode": "27101"}}},
{"geometry": {"type": "Point", "coordinates": [-80.249118544, 36.097913596]}, "type": "Feature", "properties": {"collection_times": [{"days": "Mon-Fri", "time": "2:45pm"}, {"days": "Sat", "time": "10:00am"}, {"days": "Sun", "time": "Closed"}], "id": "2710100008", "name": "USPS COLLECTION BOX - BLUE BOX", "address": {"city": "WINSTON SALEM", "state": "NC", "street": "500 W 4TH ST", "postcode": "27101"}}},
{"geometry": {"type": "Point", "coordinates": [-80.250873818, 36.097778396]}, "type": "Feature", "properties": {"collection_times": [{"days": "Mon-Fri", "time": "2:45pm"}, {"days": "Sat", "time": "10:00am"}, {"days": "Sun", "time": "Closed"}], "id": "2710100010", "name": "USPS COLLECTION BOX - BLUE BOX", "address": {"city": "WINSTON SALEM", "state": "NC", "street": "633 W 4TH ST", "postcode": "27101"}}},
{"geometry": {"type": "Point", "coordinates": [-80.24207669, 36.086567109]}, "type": "Feature", "properties": {"collection_times": [{"days": "Mon-Fri", "time": "5:00pm"}, {"days": "Sat", "time": "10:00am"}, {"days": "Sun", "time": "Closed"}], "id": "2710100011", "name": "USPS COLLECTION BOX - BLUE BOX", "address": {"city": "WINSTON SALEM", "state": "NC", "street": "100 WEST ST", "postcode": "27101"}}},
{"geometry": {"type": "Point", "coordinates": [-80.246012684, 36.096027853]}, "type": "Feature", "properties": {"collection_times": [{"days": "Mon-Fri", "time": "4:00pm"}, {"days": "Sat", "time": "10:00am"}, {"days": "Sun", "time": "Closed"}], "id": "2710100015", "name": "USPS COLLECTION BOX - BLUE BOX", "address": {"city": "WINSTON SALEM", "state": "NC", "street": "201 W 2ND ST", "postcode": "27101"}}},
{"geometry": {"type": "Point", "coordinates": [-80.226726228, 36.088685535]}, "type": "Feature", "properties": {"collection_times": [{"days": "Mon-Fri", "time": "5:00pm"}, {"days": "Sat-Sun", "time": "Closed"}], "id": "2710100017", "name": "USPS COLLECTION BOX - BLUE BOX", "address": {"city": "WINSTON SALEM", "state": "NC", "street": "601 S MARTIN LUTHER KING JR DR", "postcode": "27101"}}},
{"geometry": {"type": "Point", "coordinates": [-80.243794447, 36.096875117]}, "type": "Feature", "properties": {"collection_times": [{"days": "Mon-Fri", "time": "1:00pm"}, {"days": "Sat-Sun", "time": "Closed"}], "id": "2710100028", "name": "USPS COLLECTION BOX - BLUE BOX", "address": {"city": "WINSTON SALEM", "state": "NC", "street": "200 N MAIN ST", "postcode": "27101"}}},
{"geometry": {"type": "Point", "coordinates": [-80.256774847, 36.098488198]}, "type": "Feature", "properties": {"collection_times": [{"days": "Mon-Fri", "time": "2:15pm"}, {"days": "Sat", "time": "10:00am"}, {"days": "Sun", "time": "Closed"}], "id": "2710100029", "name": "USPS COLLECTION BOX - BLUE BOX", "address": {"city": "WINSTON SALEM", "state": "NC", "street": "875 W 5TH ST", "postcode": "27101"}}},
{"geometry": {"type": "Point", "coordinates": [-80.257271359, 36.096904256]}, "type": "Feature", "properties": {"collection_times": [{"days": "Mon-Fri", "time": "2:30pm"}, {"days": "Sat", "time": "10:00am"}, {"days": "Sun", "time": "Closed"}], "id": "2710100038", "name": "USPS COLLECTION BOX - BLUE BOX", "address": {"city": "WINSTON SALEM", "state": "NC", "street": "916 W 4TH ST", "postcode": "27101"}}},
{"geometry": {"type": "Point", "coordinates": [-80.257528939, 36.095129168]}, "type": "Feature", "properties": {"collection_times": [{"days": "Mon-Fri", "time": "2:15pm"}, {"days": "Sat", "time": "10:00am"}, {"days": "Sun", "time": "Closed"}], "id": "2710100041", "name": "USPS COLLECTION BOX - BLUE BOX", "address": {"city": "WINSTON SALEM", "state": "NC", "street": "1001 BURKE ST", "postcode": "27101"}}},
{"geometry": {"type": "Point", "coordinates": [-80.244158089, 36.097723616]}, "type": "Feature", "properties": {"collection_times": [{"days": "Mon-Fri", "time": "2:00pm"}, {"days": "Sat", "time": "10:00am"}, {"days": "Sun", "time": "Closed"}], "id": "2710100044", "name": "USPS COLLECTION BOX - BLUE BOX", "address": {"city": "WINSTON SALEM", "state": "NC", "street": "8 W 3RD ST", "postcode": "27101"}}},
{"geometry": {"type": "Point", "coordinates": [-80.246334116, 36.099807567]}, "type": "Feature", "properties": {"collection_times": [{"days": "Mon-Fri", "time": "2:15pm"}, {"days": "Sat", "time": "10:00am"}, {"days": "Sun", "time": "Closed"}], "id": "2710100053", "name": "USPS COLLECTION BOX - BLUE BOX", "address": {"city": "WINSTON SALEM", "state": "NC", "street": "201 W 5TH ST", "postcode": "27101"}}},
{"geometry": {"type": "Point", "coordinates": [-80.246897062, 36.09812339]}, "type": "Feature", "properties": {"collection_times": [{"days": "Mon-Fri", "time": "12:30pm"}, {"days": "Sat", "time": "10:00am"}, {"days": "Sun", "time": "Closed"}], "id": "2710100056", "name": "USPS COLLECTION BOX - BLUE BOX", "address": {"city": "WINSTON SALEM", "state": "NC", "street": "216 W 4TH ST", "postcode": "27101"}}},
{"geometry": {"type": "Point", "coordinates": [-80.24945771, 36.088113901]}, "type": "Feature", "properties": {"collection_times": [{"days": "Mon-Fri", "time": "3:45pm"}, {"days": "Sat", "time": "10:00am"}, {"days": "Sun", "time": "Closed"}], "id": "2710100067", "name": "USPS COLLECTION BOX - BLUE BOX", "address": {"city": "WINSTON SALEM", "state": "NC", "street": "432 S BROAD ST", "postcode": "27101"}}},
{"geometry": {"type": "Point", "coordinates": [-80.233233646, 36.102973192]}, "type": "Feature", "properties": {"collection_times": [{"days": "Mon-Fri", "time": "1:45pm"}, {"days": "Sat", "time": "10:00am"}, {"days": "Sun", "time": "Closed"}], "id": "2710100068", "name": "USPS COLLECTION BOX - BLUE BOX", "address": {"city": "WINSTON SALEM", "state": "NC", "street": "741 HIGHLAND AVE", "postcode": "27101"}}},
{"geometry": {"type": "Point", "coordinates": [-80.2520292, 36.084290928]}, "type": "Feature", "properties": {"collection_times": [{"days": "Mon-Fri", "time": "3:30pm"}, {"days": "Sat", "time": "10:00am"}, {"days": "Sun", "time": "Closed"}], "id": "2710100072", "name": "USPS COLLECTION BOX - BLUE BOX", "address": {"city": "WINSTON SALEM", "state": "NC", "street": "650 GRANVILLE DR", "postcode": "27101"}}},
{"geometry": {"type": "Point", "coordinates": [-80.2494682, 36.099372828]}, "type": "Feature", "properties": {"collection_times": [{"days": "Mon-Fri", "time": "2:30pm"}, {"days": "Sat", "time": "10:00am"}, {"days": "Sun", "time": "Closed"}], "id": "2710100076", "name": "USPS COLLECTION BOX - BLUE BOX", "address": {"city": "WINSTON SALEM", "state": "NC", "street": "500 W 5TH ST", "postcode": "27101"}}},
{"geometry": {"type": "Point", "coordinates": [-80.24410331, 36.091058006]}, "type": "Feature", "properties": {"collection_times": [{"days": "Mon-Fri", "time": "2:45pm"}, {"days": "Sat", "time": "10:00am"}, {"days": "Sun", "time": "Closed"}], "id": "2710100078", "name": "USPS COLLECTION BOX - BLUE BOX", "address": {"city": "WINSTON SALEM", "state": "NC", "street": "119 BROOKSTOWN AVE", "postcode": "27101"}}},
{"geometry": {"type": "Point", "coordinates": [-80.245993784, 36.096355296]}, "type": "Feature", "properties": {"collection_times": [{"days": "Mon-Fri", "time": "5:00pm"}, {"days": "Sat-Sun", "time": "Closed"}], "id": "2710100084", "name": "USPS COLLECTION BOX - PO LOBBY", "address": {"city": "WINSTON SALEM", "state": "NC", "street": "200 TOWN RUN LN", "postcode": "27101"}}},
{"geometry": {"type": "Point", "coordinates": [-80.295699732, 36.078197654]}, "type": "Feature", "properties": {"collection_times": [{"days": "Mon-Fri", "time": "3:15pm"}, {"days": "Sat", "time": "10:00am"}, {"days": "Sun", "time": "Closed"}], "id": "2710300001", "name": "USPS COLLECTION BOX - BLUE BOX", "address": {"city": "WINSTON SALEM", "state": "NC", "street": "1950 S HAWTHORNE RD", "postcode": "27103"}}},
{"geometry": {"type": "Point", "coordinates": [-80.329108208, 36.03953268]}, "type": "Feature", "properties": {"collection_times": [{"days": "Mon-Fri", "time": "2:00pm"}, {"days": "Sat", "time": "10:00am"}, {"days": "Sun", "time": "Closed"}], "id": "2710300005", "name": "USPS COLLECTION BOX - BLUE BOX", "address": {"city": "WINSTON SALEM", "state": "NC", "street": "3900 WESTPOINT BLVD", "postcode": "27103"}}},
{"geometry": {"type": "Point", "coordinates": [-80.295039804, 36.071834519]}, "type": "Feature", "properties": {"collection_times": [{"days": "Mon-Fri", "time": "2:00pm"}, {"days": "Sat", "time": "10:00am"}, {"days": "Sun", "time": "Closed"}], "id": "2710300007", "name": "USPS COLLECTION BOX - BLUE BOX", "address": {"city": "WINSTON SALEM", "state": "NC", "street": "3224 SILAS CREEK PKWY", "postcode": "27103"}}},
{"geometry": {"type": "Point", "coordinates": [-80.323098066, 36.046327294]}, "type": "Feature", "properties": {"collection_times": [{"days": "Mon-Fri", "time": "2:00pm"}, {"days": "Sat", "time": "10:00am"}, {"days": "Sun", "time": "Closed"}], "id": "2710300009", "name": "USPS COLLECTION BOX - BLUE BOX", "address": {"city": "WINSTON SALEM", "state": "NC", "street": "3801 KIMWELL DR", "postcode": "27103"}}},
{"geometry": {"type": "Point", "coordinates": [-80.26967133, 36.069832714]}, "type": "Feature", "properties": {"collection_times": [{"days": "Mon-Fri", "time": "3:30pm"}, {"days": "Sat", "time": "10:00am"}, {"days": "Sun", "time": "Closed"}], "id": "2710300012", "name": "USPS COLLECTION BOX - BLUE BOX", "address": {"city": "WINSTON SALEM", "state": "NC", "street": "2100 SILAS CREEK PKWY", "postcode": "27103"}}},
{"geometry": {"type": "Point", "coordinates": [-80.286634314, 36.090458928]}, "type": "Feature", "properties": {"collection_times": [{"days": "Mon-Fri", "time": "3:00pm"}, {"days": "Sat-Sun", "time": "Closed"}], "id": "2710300013", "name": "USPS COLLECTION BOX - BLUE BOX", "address": {"city": "WINSTON SALEM", "state": "NC", "street": "380 KNOLLWOOD ST", "postcode": "27103"}}},
{"geometry": {"type": "Point", "coordinates": [-80.27443298, 36.090196502]}, "type": "Feature", "properties": {"collection_times": [{"days": "Mon-Fri", "time": "12:30pm"}, {"days": "Sat", "time": "10:00am"}, {"days": "Sun", "time": "Closed"}], "id": "2710300017", "name": "USPS COLLECTION BOX - BLUE BOX", "address": {"city": "WINSTON SALEM", "state": "NC", "street": "2209 CLOVERDALE AVE", "postcode": "27103"}}},
{"geometry": {"type": "Point", "coordinates": [-80.281524673, 36.091626779]}, "type": "Feature", "properties": {"collection_times": [{"days": "Mon-Fri", "time": "3:00pm"}, {"days": "Sat", "time": "10:00am"}, {"days": "Sun", "time": "Closed"}], "id": "2710300022", "name": "USPS COLLECTION BOX - BLUE BOX", "address": {"city": "WINSTON SALEM", "state": "NC", "street": "285 S STRATFORD RD", "postcode": "27103"}}},
{"geometry": {"type": "Point", "coordinates": [-80.303111644, 36.084557893]}, "type": "Feature", "properties": {"collection_times": [{"days": "Mon-Fri", "time": "3:30pm"}, {"days": "Sat", "time": "10:00am"}, {"days": "Sun", "time": "Closed"}], "id": "2710300024", "name": "USPS COLLECTION BOX - BLUE BOX", "address": {"city": "WINSTON SALEM", "state": "NC", "street": "180 CHARLOIS BLVD", "postcode": "27103"}}},
{"geometry": {"type": "Point", "coordinates": [-80.300953898, 36.081053178]}, "type": "Feature", "properties": {"collection_times": [{"days": "Mon-Fri", "time": "3:30pm"}, {"days": "Sat", "time": "10:00am"}, {"days": "Sun", "time": "Closed"}], "id": "2710300030", "name": "USPS COLLECTION BOX - BLUE BOX", "address": {"city": "WINSTON SALEM", "state": "NC", "street": "290 CHARLOIS BLVD", "postcode": "27103"}}},
{"geometry": {"type": "Point", "coordinates": [-80.294167072, 36.082947149]}, "type": "Feature", "properties": {"collection_times": [{"days": "Mon-Fri", "time": "3:15pm"}, {"days": "Sat", "time": "10:00am"}, {"days": "Sun", "time": "Closed"}], "id": "2710300035", "name": "USPS COLLECTION BOX - BLUE BOX", "address": {"city": "WINSTON SALEM", "state": "NC", "street": "3000 BETHESDA PL", "postcode": "27103"}}},
{"geometry": {"type": "Point", "coordinates": [-80.258319255, 36.073840198]}, "type": "Feature", "properties": {"collection_times": [{"days": "Mon-Fri", "time": "1:00pm"}, {"days": "Sat", "time": "10:00am"}, {"days": "Sun", "time": "Closed"}], "id": "2710300041", "name": "USPS COLLECTION BOX - BLUE BOX", "address": {"city": "WINSTON SALEM", "state": "NC", "street": "1425 PETERS CREEK PKWY", "postcode": "27103"}}},
{"geometry": {"type": "Point", "coordinates": [-80.310838676, 36.075856123]}, "type": "Feature", "properties": {"collection_times": [{"days": "Mon-Fri", "time": "5:00pm"}, {"days": "Sat", "time": "10:00am"}, {"days": "Sun", "time": "Closed"}], "id": "2710300060", "name": "USPS COLLECTION BOX - BLUE BOX", "address": {"city": "WINSTON SALEM", "state": "NC", "street": "3331 HEALY DR", "postcode": "27103"}}},
{"geometry": {"type": "Point", "coordinates": [-80.282359871, 36.091234198]}, "type": "Feature", "properties": {"collection_times": [{"days": "Mon-Fri", "time": "3:00pm"}, {"days": "Sat", "time": "10:00am"}, {"days": "Sun", "time": "Closed"}], "id": "2710300066", "name": "USPS COLLECTION BOX - BLUE BOX", "address": {"city": "WINSTON SALEM", "state": "NC", "street": "300 S STRATFORD RD", "postcode": "27103"}}},
{"geometry": {"type": "Point", "coordinates": [-80.301463887, 36.063231198]}, "type": "Feature", "properties": {"collection_times": [{"days": "Mon-Fri", "time": "12:00pm"}, {"days": "Sat", "time": "10:00am"}, {"days": "Sun", "time": "Closed"}], "id": "2710300072", "name": "USPS COLLECTION BOX - BLUE BOX", "address": {"city": "WINSTON SALEM", "state": "NC", "street": "520 HANES MALL BLVD", "postcode": "27103"}}},
{"geometry": {"type": "Point", "coordinates": [-80.29843987, 36.073487785]}, "type": "Feature", "properties": {"collection_times": [{"days": "Mon-Fri", "time": "3:45pm"}, {"days": "Sat", "time": "10:00am"}, {"days": "Sun", "time": "Closed"}], "id": "2710300078", "name": "USPS COLLECTION BOX - BLUE BOX", "address": {"city": "WINSTON SALEM", "state": "NC", "street": "3320 SILAS CREEK PKWY STE 3320 STE 3320", "postcode": "27103"}}},
{"geometry": {"type": "Point", "coordinates": [-80.297204649, 36.078601493]}, "type": "Feature", "properties": {"collection_times": [{"days": "Mon-Fri", "time": "3:15pm"}, {"days": "Sat", "time": "10:00am"}, {"days": "Sun", "time": "Closed"}], "id": "2710300080", "name": "USPS COLLECTION BOX - BLUE BOX", "address": {"city": "WINSTON SALEM", "state": "NC", "street": "3190 MAPLEWOOD AVE", "postcode": "27103"}}},
{"geometry": {"type": "Point", "coordinates": [-80.312264107, 36.073529744]}, "type": "Feature", "properties": {"collection_times": [{"days": "Mon-Fri", "time": "4:30pm"}, {"days": "Sat", "time": "10:00am"}, {"days": "Sun", "time": "Closed"}], "id": "2710300082", "name": "USPS COLLECTION BOX - BLUE BOX", "address": {"city": "WINSTON SALEM", "state": "NC", "street": "1336 WESTGATE CENTER DR", "postcode": "27103"}}},
{"geometry": {"type": "Point", "coordinates": [-80.310838676, 36.075856123]}, "type": "Feature", "properties": {"collection_times": [{"days": "Mon-Fri", "time": "5:00pm"}, {"days": "Sat", "time": "10:00am"}, {"days": "Sun", "time": "Closed"}], "id": "2710300084", "name": "USPS COLLECTION BOX - BLUE BOX", "address": {"city": "WINSTON SALEM", "state": "NC", "street": "3331 HEALY DR", "postcode": "27103"}}},
{"geometry": {"type": "Point", "coordinates": [-80.303181207, 36.057746267]}, "type": "Feature", "properties": {"collection_times": [{"days": "Mon-Fri", "time": "2:45pm"}, {"days": "Sat", "time": "10:00am"}, {"days": "Sun", "time": "Closed"}], "id": "2710300087", "name": "USPS COLLECTION BOX - BLUE BOX", "address": {"city": "WINSTON SALEM", "state": "NC", "street": "190 KIMEL PARK DR", "postcode": "27103"}}},
{"geometry": {"type": "Point", "coordinates": [-80.310838676, 36.075856123]}, "type": "Feature", "properties": {"collection_times": [{"days": "Mon-Fri", "time": "5:00pm"}, {"days": "Sat", "time": "10:00am"}, {"days": "Sun", "time": "Closed"}], "id": "2710300089", "name": "USPS COLLECTION BOX - PO LOBBY", "address": {"city": "WINSTON SALEM", "state": "NC", "street": "3331 HEALY DR", "postcode": "27103"}}},
{"geometry": {"type": "Point", "coordinates": [-80.29843987, 36.073487785]}, "type": "Feature", "properties": {"collection_times": [{"days": "Mon-Fri", "time": "3:45pm"}, {"days": "Sat-Sun", "time": "Closed"}], "id": "2710300091", "name": "USPS COLLECTION BOX - PO LOBBY", "address": {"city": "WINSTON SALEM", "state": "NC", "street": "3320 SILAS CREEK PKWY STE 3320 STE 3320", "postcode": "27103"}}},
{"geometry": {"type": "Point", "coordinates": [-80.273586439, 36.096442227]}, "type": "Feature", "properties": {"collection_times": [{"days": "Mon-Fri", "time": "3:15pm"}, {"days": "Sat", "time": "10:00am"}, {"days": "Sun", "time": "Closed"}], "id": "2710400005", "name": "USPS COLLECTION BOX - BLUE BOX", "address": {"city": "WINSTON SALEM", "state": "NC", "street": "1950 W 1ST ST", "postcode": "27104"}}},
{"geometry": {"type": "Point", "coordinates": [-80.277088702, 36.095829646]}, "type": "Feature", "properties": {"collection_times": [{"days": "Mon-Fri", "time": "3:15pm"}, {"days": "Sat", "time": "10:00am"}, {"days": "Sun", "time": "Closed"}], "id": "2710400009", "name": "USPS COLLECTION BOX - BLUE BOX", "address": {"city": "WINSTON SALEM", "state": "NC", "street": "101 S STRATFORD RD", "postcode": "27104"}}},
{"geometry": {"type": "Point", "coordinates": [-80.309626451, 36.092542957]}, "type": "Feature", "properties": {"collection_times": [{"days": "Mon-Fri", "time": "3:15pm"}, {"days": "Sat", "time": "10:00am"}, {"days": "Sun", "time": "Closed"}], "id": "2710400011", "name": "USPS COLLECTION BOX - BLUE BOX", "address": {"city": "WINSTON SALEM", "state": "NC", "street": "4400 SILAS CREEK PKWY", "postcode": "27104"}}},
{"geometry": {"type": "Point", "coordinates": [-80.278261216, 36.094742215]}, "type": "Feature", "properties": {"collection_times": [{"days": "Mon-Fri", "time": "3:30pm"}, {"days": "Sat", "time": "10:00am"}, {"days": "Sun", "time": "Closed"}], "id": "2710400013", "name": "USPS COLLECTION BOX - BLUE BOX", "address": {"city": "WINSTON SALEM", "state": "NC", "street": "150 S STRATFORD RD", "postcode": "27104"}}},
{"geometry": {"type": "Point", "coordinates": [-80.328178123, 36.080611447]}, "type": "Feature", "properties": {"collection_times": [{"days": "Mon-Fri", "time": "12:45pm"}, {"days": "Sat", "time": "10:00am"}, {"days": "Sun", "time": "Closed"}], "id": "2710400016", "name": "USPS COLLECTION BOX - BLUE BOX", "address": {"city": "WINSTON SALEM", "state": "NC", "street": "100 CLUB OAKS CT", "postcode": "27104"}}},
{"geometry": {"type": "Point", "coordinates": [-80.267828392, 36.119353302]}, "type": "Feature", "properties": {"collection_times": [{"days": "Mon-Fri", "time": "3:30pm"}, {"days": "Sat", "time": "10:00am"}, {"days": "Sun", "time": "Closed"}], "id": "2710400019", "name": "USPS COLLECTION BOX - BLUE BOX", "address": {"city": "WINSTON SALEM", "state": "NC", "street": "1240 ARBOR RD", "postcode": "27104"}}},
{"geometry": {"type": "Point", "coordinates": [-80.277481483, 36.095512625]}, "type": "Feature", "properties": {"collection_times": [{"days": "Mon-Fri", "time": "3:30pm"}, {"days": "Sat", "time": "10:00am"}, {"days": "Sun", "time": "Closed"}], "id": "2710400020", "name": "USPS COLLECTION BOX - BLUE BOX", "address": {"city": "WINSTON SALEM", "state": "NC", "street": "134 S STRATFORD RD", "postcode": "27104"}}},
{"geometry": {"type": "Point", "coordinates": [-80.336899025, 36.074751279]}, "type": "Feature", "properties": {"collection_times": [{"days": "Mon-Fri", "time": "12:00pm"}, {"days": "Sat", "time": "10:00am"}, {"days": "Sun", "time": "Closed"}], "id": "2710400023", "name": "USPS COLLECTION BOX - BLUE BOX", "address": {"city": "WINSTON SALEM", "state": "NC", "street": "420 JONESTOWN RD", "postcode": "27104"}}},
{"geometry": {"type": "Point", "coordinates": [-80.34086456, 36.081654164]}, "type": "Feature", "properties": {"collection_times": [{"days": "Mon-Fri", "time": "3:15pm"}, {"days": "Sat", "time": "10:00am"}, {"days": "Sun", "time": "Closed"}], "id": "2710400027", "name": "USPS COLLECTION BOX - BLUE BOX", "address": {"city": "WINSTON SALEM", "state": "NC", "street": "4840 COUNTRY CLUB RD", "postcode": "27104"}}},
{"geometry": {"type": "Point", "coordinates": [-80.335554701, 36.080828233]}, "type": "Feature", "properties": {"collection_times": [{"days": "Mon-Fri", "time": "3:15pm"}, {"days": "Sat", "time": "10:00am"}, {"days": "Sun", "time": "Closed"}], "id": "2710400034", "name": "USPS COLLECTION BOX - BLUE BOX", "address": {"city": "WINSTON SALEM", "state": "NC", "street": "104 CAMBRIDGE PLAZA DR", "postcode": "27104"}}},
{"geometry": {"type": "Point", "coordinates": [-80.241903973, 36.113212217]}, "type": "Feature", "properties": {"collection_times": [{"days": "Mon-Fri", "time": "5:00pm"}, {"days": "Sat", "time": "10:00am"}, {"days": "Sun", "time": "Closed"}], "id": "2710500004", "name": "USPS COLLECTION BOX - BLUE BOX", "address": {"city": "WINSTON SALEM", "state": "NC", "street": "1500 N PATTERSON AVE", "postcode": "27105"}}},
{"geometry": {"type": "Point", "coordinates": [-80.276020181, 36.178186189]}, "type": "Feature", "properties": {"collection_times": [{"days": "Mon-Fri", "time": "10:30am"}, {"days": "Sat", "time": "10:00am"}, {"days": "Sun", "time": "Closed"}], "id": "2710500013", "name": "USPS COLLECTION BOX - BLUE BOX", "address": {"city": "WINSTON SALEM", "state": "NC", "street": "5710 UNIVERSITY PKWY", "postcode": "27105"}}},
{"geometry": {"type": "Point", "coordinates": [-80.258379769, 36.124721731]}, "type": "Feature", "properties": {"collection_times": [{"days": "Mon-Fri", "time": "3:45pm"}, {"days": "Sat", "time": "10:00am"}, {"days": "Sun", "time": "Closed"}], "id": "2710500021", "name": "USPS COLLECTION BOX - BLUE BOX", "address": {"city": "WINSTON SALEM", "state": "NC", "street": "2701 UNIVERSITY PKWY", "postcode": "27105"}}},
{"geometry": {"type": "Point", "coordinates": [-80.265130692, 36.148383021]}, "type": "Feature", "properties": {"collection_times": [{"days": "Mon-Fri", "time": "3:15pm"}, {"days": "Sat", "time": "10:00am"}, {"days": "Sun", "time": "Closed"}], "id": "2710500023", "name": "USPS COLLECTION BOX - BLUE BOX", "address": {"city": "WINSTON SALEM", "state": "NC", "street": "4431 CHERRY ST", "postcode": "27105"}}},
{"geometry": {"type": "Point", "coordinates": [-80.273857879, 36.187346306]}, "type": "Feature", "properties": {"collection_times": [{"days": "Mon-Fri", "time": "12:45pm"}, {"days": "Sat", "time": "10:00am"}, {"days": "Sun", "time": "Closed"}], "id": "2710500043", "name": "USPS COLLECTION BOX - BLUE BOX", "address": {"city": "WINSTON SALEM", "state": "NC", "street": "200 SUMMIT SQUARE BLVD", "postcode": "27105"}}},
{"geometry": {"type": "Point", "coordinates": [-80.241903973, 36.113212217]}, "type": "Feature", "properties": {"collection_times": [{"days": "Mon-Fri", "time": "5:00pm"}, {"days": "Sat", "time": "10:00am"}, {"days": "Sun", "time": "Closed"}], "id": "2710500046", "name": "USPS COLLECTION BOX - PO LOBBY", "address": {"city": "WINSTON SALEM", "state": "NC", "street": "1500 N PATTERSON AVE", "postcode": "27105"}}},
{"geometry": {"type": "Point", "coordinates": [-80.310678176, 36.11479683]}, "type": "Feature", "properties": {"collection_times": [{"days": "Mon-Fri", "time": "3:30pm"}, {"days": "Sat", "time": "10:00am"}, {"days": "Sun", "time": "Closed"}], "id": "2710600006", "name": "USPS COLLECTION BOX - BLUE BOX", "address": {"city": "WINSTON SALEM", "state": "NC", "street": "3300 ROBINHOOD RD", "postcode": "27106"}}},
{"geometry": {"type": "Point", "coordinates": [-80.271649218, 36.151993742]}, "type": "Feature", "properties": {"collection_times": [{"days": "Mon-Fri", "time": "4:00pm"}, {"days": "Sat", "time": "10:00am"}, {"days": "Sun", "time": "Closed"}], "id": "2710600025", "name": "USPS COLLECTION BOX - BLUE BOX", "address": {"city": "WINSTON SALEM", "state": "NC", "street": "4305 ENTERPRISE DR", "postcode": "27106"}}},
{"geometry": {"type": "Point", "coordinates": [-80.268686466, 36.14841676]}, "type": "Feature", "properties": {"collection_times": [{"days": "Mon-Fri", "time": "3:45pm"}, {"days": "Sat", "time": "10:00am"}, {"days": "Sun", "time": "Closed"}], "id": "2710600030", "name": "USPS COLLECTION BOX - BLUE BOX", "address": {"city": "WINSTON SALEM", "state": "NC", "street": "8025 N POINT BLVD", "postcode": "27106"}}},
{"geometry": {"type": "Point", "coordinates": [-80.273825659, 36.136912284]}, "type": "Feature", "properties": {"collection_times": [{"days": "Mon-Fri", "time": "3:30pm"}, {"days": "Sat", "time": "10:00am"}, {"days": "Sun", "time": "Closed"}], "id": "2710600032", "name": "USPS COLLECTION BOX - BLUE BOX", "address": {"city": "WINSTON SALEM", "state": "NC", "street": "1834 WAKE FOREST RD", "postcode": "27106"}}},
{"geometry": {"type": "Point", "coordinates": [-80.313705856, 36.154766515]}, "type": "Feature", "properties": {"collection_times": [{"days": "Mon-Fri", "time": "2:30pm"}, {"days": "Sat", "time": "10:00am"}, {"days": "Sun", "time": "Closed"}], "id": "2710600034", "name": "USPS COLLECTION BOX - BLUE BOX", "address": {"city": "WINSTON SALEM", "state": "NC", "street": "3600 REYNOLDA RD", "postcode": "27106"}}},
{"geometry": {"type": "Point", "coordinates": [-80.284833818, 36.126363708]}, "type": "Feature", "properties": {"collection_times": [{"days": "Mon-Fri", "time": "2:45pm"}, {"days": "Sat", "time": "10:00am"}, {"days": "Sun", "time": "Closed"}], "id": "2710600038", "name": "USPS COLLECTION BOX - BLUE BOX", "address": {"city": "WINSTON SALEM", "state": "NC", "street": "114 REYNOLDA VLG", "postcode": "27106"}}},
{"geometry": {"type": "Point", "coordinates": [-80.263132835, 36.123964013]}, "type": "Feature", "properties": {"collection_times": [{"days": "Mon-Fri", "time": "3:30pm"}, {"days": "Sat", "time": "10:00am"}, {"days": "Sun", "time": "Closed"}], "id": "2710600040", "name": "USPS COLLECTION BOX - BLUE BOX", "address": {"city": "WINSTON SALEM", "state": "NC", "street": "723 COLISEUM DR", "postcode": "27106"}}},
{"geometry": {"type": "Point", "coordinates": [-80.26307422, 36.123775898]}, "type": "Feature", "properties": {"collection_times": [{"days": "Mon-Fri", "time": "3:45pm"}, {"days": "Sat", "time": "10:00am"}, {"days": "Sun", "time": "Closed"}], "id": "2710600044", "name": "USPS COLLECTION BOX - BLUE BOX", "address": {"city": "WINSTON SALEM", "state": "NC", "street": "710 COLISEUM DR", "postcode": "27106"}}},
{"geometry": {"type": "Point", "coordinates": [-80.31641398, 36.11787861]}, "type": "Feature", "properties": {"collection_times": [{"days": "Mon-Fri", "time": "5:00pm"}, {"days": "Sat", "time": "10:00am"}, {"days": "Sun", "time": "Closed"}], "id": "2710600064", "name": "USPS COLLECTION BOX - BLUE BOX", "address": {"city": "WINSTON SALEM", "state": "NC", "street": "3450 ROBINHOOD RD", "postcode": "27106"}}},
{"geometry": {"type": "Point", "coordinates": [-80.299206782, 36.143726706]}, "type": "Feature", "properties": {"collection_times": [{"days": "Mon-Fri", "time": "2:30pm"}, {"days": "Sat", "time": "10:00am"}, {"days": "Sun", "time": "Closed"}], "id": "2710600066", "name": "USPS COLLECTION BOX - BLUE BOX", "address": {"city": "WINSTON SALEM", "state": "NC", "street": "2808 REYNOLDA RD", "postcode": "27106"}}},
{"geometry": {"type": "Point", "coordinates": [-80.275849754, 36.150658055]}, "type": "Feature", "properties": {"collection_times": [{"days": "Mon-Fri", "time": "5:00pm"}, {"days": "Sat", "time": "10:00am"}, {"days": "Sun", "time": "Closed"}], "id": "2710600068", "name": "USPS COLLECTION BOX - BLUE BOX", "address": {"city": "WINSTON SALEM", "state": "NC", "street": "7840 N POINT BLVD", "postcode": "27106"}}},
{"geometry": {"type": "Point", "coordinates": [-80.275849754, 36.150658055]}, "type": "Feature", "properties": {"collection_times": [{"days": "Mon-Fri", "time": "5:00pm"}, {"days": "Sat", "time": "10:00am"}, {"days": "Sun", "time": "Closed"}], "id": "2710600069", "name": "USPS COLLECTION BOX - BLUE BOX", "address": {"city": "WINSTON SALEM", "state": "NC", "street": "7840 N POINT BLVD", "postcode": "27106"}}},
{"geometry": {"type": "Point", "coordinates": [-80.275849754, 36.150658055]}, "type": "Feature", "properties": {"collection_times": [{"days": "Mon-Fri", "time": "5:00pm"}, {"days": "Sat", "time": "10:00am"}, {"days": "Sun", "time": "Closed"}], "id": "2710600071", "name": "USPS COLLECTION BOX - PO LOBBY", "address": {"city": "WINSTON SALEM", "state": "NC", "street": "7840 N POINT BLVD", "postcode": "27106"}}},
{"geometry": {"type": "Point", "coordinates": [-80.275849754, 36.150658055]}, "type": "Feature", "properties": {"collection_times": [{"days": "Mon-Fri", "time": "5:00pm"}, {"days": "Sat", "time": "10:00am"}, {"days": "Sun", "time": "Closed"}], "id": "2710600072", "name": "USPS COLLECTION BOX - APC", "address": {"city": "WINSTON SALEM", "state": "NC", "street": "7840 N POINT BLVD", "postcode": "27106"}}},
{"geometry": {"type": "Point", "coordinates": [-80.2066879785, 36.0699579167]}, "type": "Feature", "properties": {"collection_times": [{"days": "Mon-Fri", "time": "5:00pm"}, {"days": "Sat", "time": "10:00am"}, {"days": "Sun", "time": "Closed"}], "id": "2710700011", "name": "USPS COLLECTION BOX - BLUE BOX", "address": {"city": "WINSTON SALEM", "state": "NC", "street": "1995 PLEASANT ST", "postcode": "27107"}}},
{"geometry": {"type": "Point", "coordinates": [-80.178473206, 36.077109957]}, "type": "Feature", "properties": {"collection_times": [{"days": "Mon-Fri", "time": "2:30pm"}, {"days": "Sat", "time": "10:00am"}, {"days": "Sun", "time": "Closed"}], "id": "2710700017", "name": "USPS COLLECTION BOX - BLUE BOX", "address": {"city": "WINSTON SALEM", "state": "NC", "street": "3039 WAUGHTOWN ST", "postcode": "27107"}}},
{"geometry": {"type": "Point", "coordinates": [-80.253671763, 36.065967981]}, "type": "Feature", "properties": {"collection_times": [{"days": "Mon-Fri", "time": "3:15pm"}, {"days": "Sat", "time": "10:00am"}, {"days": "Sun", "time": "Closed"}], "id": "2710700021", "name": "USPS COLLECTION BOX - BLUE BOX", "address": {"city": "WINSTON SALEM", "state": "NC", "street": "1101 SILAS CREEK PKWY", "postcode": "27107"}}},
{"geometry": {"type": "Point", "coordinates": [-80.253671763, 36.065967981]}, "type": "Feature", "properties": {"collection_times": [{"days": "Mon-Fri", "time": "3:15pm"}, {"days": "Sat", "time": "10:00am"}, {"days": "Sun", "time": "Closed"}], "id": "2710700022", "name": "USPS COLLECTION BOX - BLUE BOX", "address": {"city": "WINSTON SALEM", "state": "NC", "street": "1101 SILAS CREEK PKWY", "postcode": "27107"}}},
{"geometry": {"type": "Point", "coordinates": [-80.259787054, 36.049621671]}, "type": "Feature", "properties": {"collection_times": [{"days": "Mon-Fri", "time": "2:00pm"}, {"days": "Sat", "time": "10:00am"}, {"days": "Sun", "time": "Closed"}], "id": "2710700027", "name": "USPS COLLECTION BOX - BLUE BOX", "address": {"city": "WINSTON SALEM", "state": "NC", "street": "3100 PETERS CREEK PKWY", "postcode": "27107"}}},
{"geometry": {"type": "Point", "coordinates": [-80.269105282, 35.993253979]}, "type": "Feature", "properties": {"collection_times": [{"days": "Mon-Fri", "time": "2:00pm"}, {"days": "Sat-Sun", "time": "Closed"}], "id": "2710700029", "name": "USPS COLLECTION BOX - BLUE BOX", "address": {"city": "WINSTON SALEM", "state": "NC", "street": "12201 N NC HIGHWAY 150", "postcode": "27107"}}},
{"geometry": {"type": "Point", "coordinates": [-80.225503936, 36.054436189]}, "type": "Feature", "properties": {"collection_times": [{"days": "Mon-Fri", "time": "2:00pm"}, {"days": "Sat", "time": "10:00am"}, {"days": "Sun", "time": "Closed"}], "id": "2710700037", "name": "USPS COLLECTION BOX - BLUE BOX", "address": {"city": "WINSTON SALEM", "state": "NC", "street": "3300 OLD LEXINGTON RD", "postcode": "27107"}}},
{"geometry": {"type": "Point", "coordinates": [-80.206706423, 36.0698129]}, "type": "Feature", "properties": {"collection_times": [{"days": "Mon-Fri", "time": "5:00pm"}, {"days": "Sat", "time": "10:00am"}, {"days": "Sun", "time": "Closed"}], "id": "2710700038", "name": "USPS COLLECTION BOX - PO LOBBY", "address": {"city": "WINSTON SALEM", "state": "NC", "street": "1995 PLEASANT ST", "postcode": "27107"}}}
]}
