{"type": "FeatureCollection", "features": [
{"geometry": {"type": "Point", "coordinates": [-79.487256545, 36.032711796]}, "type": "Feature", "properties": {"collection_times": [{"days": "Mon-Fri", "time": "4:30pm"}, {"days": "Sat", "time": "11:30am"}, {"days": "Sun", "time": "Closed"}], "id": "2720100003", "name": "USPS COLLECTION BOX - BLUE BOX", "address": {"city": "ALAMANCE", "state": "NC", "street": "4205 S NC HIGHWAY 62", "postcode": "27201"}}},
{"geometry": {"type": "Point", "coordinates": [-79.487256545, 36.032711796]}, "type": "Feature", "properties": {"collection_times": [{"days": "Mon-Fri", "time": "4:30pm"}, {"days": "Sat", "time": "11:30am"}, {"days": "Sun", "time": "Closed"}], "id": "2720100004", "name": "USPS COLLECTION BOX - BLUE BOX", "address": {"city": "ALAMANCE", "state": "NC", "street": "4205 S NC HIGHWAY 62", "postcode": "27201"}}},
{"geometry": {"type": "Point", "coordinates": [-79.487256545, 36.032711796]}, "type": "Feature", "properties": {"collection_times": [{"days": "Mon-Fri", "time": "4:30pm"}, {"days": "Sat", "time": "11:30am"}, {"days": "Sun", "time": "Closed"}], "id": "2720100005", "name": "USPS COLLECTION BOX - PO LOBBY", "address": {"city": "ALAMANCE", "state": "NC", "street": "4205 S NC HIGHWAY 62", "postcode": "27201"}}},
{"geometry": {"type": "Point", "coordinates": [-79.507386892, 36.184100689]}, "type": "Feature", "properties": {"collection_times": [{"days": "Mon-Fri", "time": "4:30pm"}, {"days": "Sat", "time": "11:30am"}, {"days": "Sun", "time": "Closed"}], "id": "2720200001", "name": "USPS COLLECTION BOX - BLUE BOX", "address": {"city": "ALTAMAHAW", "state": "NC", "street": "3788 ALTMAHAW CHURCH ST", "postcode": "27202"}}},
{"geometry": {"type": "Point", "coordinates": [-79.507386892, 36.184100689]}, "type": "Feature", "properties": {"collection_times": [{"days": "Mon-Fri", "time": "4:30pm"}, {"days": "Sat", "time": "11:30am"}, {"days": "Sun", "time": "Closed"}], "id": "2720200002", "name": "USPS COLLECTION BOX - PO LOBBY", "address": {"city": "ALTAMAHAW", "state": "NC", "street": "3788 ALTMAHAW CHURCH ST", "postcode": "27202"}}},
{"geometry": {"type": "Point", "coordinates": [-79.814773219, 35.702135424]}, "type": "Feature", "properties": {"collection_times": [{"days": "Mon-Sat", "time": "10:30am"}, {"days": "Sun", "time": "Closed"}], "id": "2720300002", "name": "USPS COLLECTION BOX - BLUE BOX", "address": {"city": "ASHEBORO", "state": "NC", "street": "104 W WAINMAN AVE", "postcode": "27203"}}},
{"geometry": {"type": "Point", "coordinates": [-79.816966897, 35.70523696]}, "type": "Feature", "properties": {"collection_times": [{"days": "Mon-Sat", "time": "9:00am"}, {"days": "Sun", "time": "Closed"}], "id": "2720300003", "name": "USPS COLLECTION BOX - BLUE BOX", "address": {"city": "ASHEBORO", "state": "NC", "street": "125 S CHURCH ST", "postcode": "27203"}}},
{"geometry": {"type": "Point", "coordinates": [-79.811947001, 35.703257905]}, "type": "Feature", "properties": {"collection_times": [{"days": "Mon-Sat", "time": "10:00am"}, {"days": "Sun", "time": "Closed"}], "id": "2720300004", "name": "USPS COLLECTION BOX - BLUE BOX", "address": {"city": "ASHEBORO", "state": "NC", "street": "205 E ACADEMY ST", "postcode": "27203"}}},
{"geometry": {"type": "Point", "coordinates": [-79.786171518, 35.699602834]}, "type": "Feature", "properties": {"collection_times": [{"days": "Mon-Sat", "time": "9:30am"}, {"days": "Sun", "time": "Closed"}], "id": "2720300008", "name": "USPS COLLECTION BOX - BLUE BOX", "address": {"city": "ASHEBORO", "state": "NC", "street": "1421 E DIXIE DR", "postcode": "27203"}}},
{"geometry": {"type": "Point", "coordinates": [-79.811657952, 35.707548186]}, "type": "Feature", "properties": {"collection_times": [{"days": "Mon-Sat", "time": "10:45am"}, {"days": "Sun", "time": "Closed"}], "id": "2720300009", "name": "USPS COLLECTION BOX - BLUE BOX", "address": {"city": "ASHEBORO", "state": "NC", "street": "179 E SALISBURY ST", "postcode": "27203"}}},
{"geometry": {"type": "Point", "coordinates": [-79.81068008, 35.709839599]}, "type": "Feature", "properties": {"collection_times": [{"days": "Mon-Sat", "time": "9:45am"}, {"days": "Sun", "time": "Closed"}], "id": "2720300010", "name": "USPS COLLECTION BOX - BLUE BOX", "address": {"city": "ASHEBORO", "state": "NC", "street": "350 N COX ST", "postcode": "27203"}}},
{"geometry": {"type": "Point", "coordinates": [-79.808353702, 35.734866819]}, "type": "Feature", "properties": {"collection_times": [{"days": "Mon-Sat", "time": "9:15am"}, {"days": "Sun", "time": "Closed"}], "id": "2720300011", "name": "USPS COLLECTION BOX - BLUE BOX", "address": {"city": "ASHEBORO", "state": "NC", "street": "1453 N FAYETTEVILLE ST", "postcode": "27203"}}},
{"geometry": {"type": "Point", "coordinates": [-79.81500183, 35.712086723]}, "type": "Feature", "properties": {"collection_times": [{"days": "Mon-Sat", "time": "9:45am"}, {"days": "Sun", "time": "Closed"}], "id": "2720300014", "name": "USPS COLLECTION BOX - BLUE BOX", "address": {"city": "ASHEBORO", "state": "NC", "street": "200 FOUST ST", "postcode": "27203"}}},
{"geometry": {"type": "Point", "coordinates": [-79.812244209, 35.707563338]}, "type": "Feature", "properties": {"collection_times": [{"days": "Mon-Sat", "time": "9:00am"}, {"days": "Sun", "time": "Closed"}], "id": "2720300018", "name": "USPS COLLECTION BOX - BLUE BOX", "address": {"city": "ASHEBORO", "state": "NC", "street": "176 E SALISBURY ST", "postcode": "27203"}}},
{"geometry": {"type": "Point", "coordinates": [-79.811842104, 35.713871134]}, "type": "Feature", "properties": {"collection_times": [{"days": "Mon-Sat", "time": "9:45am"}, {"days": "Sun", "time": "Closed"}], "id": "2720300019", "name": "USPS COLLECTION BOX - BLUE BOX", "address": {"city": "ASHEBORO", "state": "NC", "street": "531 N FAYETTEVILLE ST", "postcode": "27203"}}},
{"geometry": {"type": "Point", "coordinates": [-79.812929535, 35.710260352]}, "type": "Feature", "properties": {"collection_times": [{"days": "Mon-Sat", "time": "11:00am"}, {"days": "Sun", "time": "Closed"}], "id": "2720300020", "name": "USPS COLLECTION BOX - BLUE BOX", "address": {"city": "ASHEBORO", "state": "NC", "street": "340 N FAYETTEVILLE ST", "postcode": "27203"}}},
{"geometry": {"type": "Point", "coordinates": [-79.813991369, 35.706073986]}, "type": "Feature", "properties": {"collection_times": [{"days": "Mon-Sat", "time": "9:30am"}, {"days": "Sun", "time": "Closed"}], "id": "2720300021", "name": "USPS COLLECTION BOX - BLUE BOX", "address": {"city": "ASHEBORO", "state": "NC", "street": "100 WORTH ST", "postcode": "27203"}}},
{"geometry": {"type": "Point", "coordinates": [-79.814682478, 35.705692678]}, "type": "Feature", "properties": {"collection_times": [{"days": "Mon-Sat", "time": "9:15am"}, {"days": "Sun", "time": "Closed"}], "id": "2720300022", "name": "USPS COLLECTION BOX - BLUE BOX", "address": {"city": "ASHEBORO", "state": "NC", "street": "117 SUNSET AVE", "postcode": "27203"}}},
{"geometry": {"type": "Point", "coordinates": [-79.790286971, 35.696285763]}, "type": "Feature", "properties": {"collection_times": [{"days": "Mon-Sat", "time": "9:15am"}, {"days": "Sun", "time": "Closed"}], "id": "2720300024", "name": "USPS COLLECTION BOX - BLUE BOX", "address": {"city": "ASHEBORO", "state": "NC", "street": "1222 E DIXIE DR", "postcode": "27203"}}},
{"geometry": {"type": "Point", "coordinates": [-79.818914482, 35.706330218]}, "type": "Feature", "properties": {"collection_times": [{"days": "Mon-Sat", "time": "9:00am"}, {"days": "Sun", "time": "Closed"}], "id": "2720300026", "name": "USPS COLLECTION BOX - BLUE BOX", "address": {"city": "ASHEBORO", "state": "NC", "street": "123 DAVIS ST", "postcode": "27203"}}},
{"geometry": {"type": "Point", "coordinates": [-79.805147356, 35.752594384]}, "type": "Feature", "properties": {"collection_times": [{"days": "Mon-Sat", "time": "10:00am"}, {"days": "Sun", "time": "Closed"}], "id": "2720300032", "name": "USPS COLLECTION BOX - BLUE BOX", "address": {"city": "ASHEBORO", "state": "NC", "street": "1952 N FAYETTEVILLE ST", "postcode": "27203"}}},
{"geometry": {"type": "Point", "coordinates": [-79.785830021, 35.699818455]}, "type": "Feature", "properties": {"collection_times": [{"days": "Mon-Sat", "time": "9:30am"}, {"days": "Sun", "time": "Closed"}], "id": "2720300033", "name": "USPS COLLECTION BOX - BLUE BOX", "address": {"city": "ASHEBORO", "state": "NC", "street": "1422 E DIXIE DR", "postcode": "27203"}}},
{"geometry": {"type": "Point", "coordinates": [-79.804909218, 35.7545738]}, "type": "Feature", "properties": {"collection_times": [{"days": "Mon-Sat", "time": "10:15am"}, {"days": "Sun", "time": "Closed"}], "id": "2720300034", "name": "USPS COLLECTION BOX - BLUE BOX", "address": {"city": "ASHEBORO", "state": "NC", "street": "2013 S FAYETTEVILLE ST", "postcode": "27203"}}},
{"geometry": {"type": "Point", "coordinates": [-79.8128631, 35.688528059]}, "type": "Feature", "properties": {"collection_times": [{"days": "Mon-Sat", "time": "9:00am"}, {"days": "Sun", "time": "Closed"}], "id": "2720300037", "name": "USPS COLLECTION BOX - BLUE BOX", "address": {"city": "ASHEBORO", "state": "NC", "street": "317 E DIXIE DR", "postcode": "27203"}}},
{"geometry": {"type": "Point", "coordinates": [-79.801301138, 35.691616688]}, "type": "Feature", "properties": {"collection_times": [{"days": "Mon-Sat", "time": "9:00am"}, {"days": "Sun", "time": "Closed"}], "id": "2720300038", "name": "USPS COLLECTION BOX - BLUE BOX", "address": {"city": "ASHEBORO", "state": "NC", "street": "839 E DIXIE DR", "postcode": "27203"}}},
{"geometry": {"type": "Point", "coordinates": [-79.806380027, 35.763041901]}, "type": "Feature", "properties": {"collection_times": [{"days": "Mon-Sat", "time": "9:45am"}, {"days": "Sun", "time": "Closed"}], "id": "2720300039", "name": "USPS COLLECTION BOX - BLUE BOX", "address": {"city": "ASHEBORO", "state": "NC", "street": "2222 S FAYETTEVILLE ST", "postcode": "27203"}}},
{"geometry": {"type": "Point", "coordinates": [-79.814364291, 35.704435081]}, "type": "Feature", "properties": {"collection_times": [{"days": "Mon-Sat", "time": "9:15am"}, {"days": "Sun", "time": "Closed"}], "id": "2720300044", "name": "USPS COLLECTION BOX - BLUE BOX", "address": {"city": "ASHEBORO", "state": "NC", "street": "156 S FAYETTEVILLE ST", "postcode": "27203"}}},
{"geometry": {"type": "Point", "coordinates": [-79.789682065, 35.699424509]}, "type": "Feature", "properties": {"collection_times": [{"days": "Mon-Sat", "time": "10:30am"}, {"days": "Sun", "time": "Closed"}], "id": "2720300049", "name": "USPS COLLECTION BOX - BLUE BOX", "address": {"city": "ASHEBORO", "state": "NC", "street": "177 NC HIGHWAY 42 N", "postcode": "27203"}}},
{"geometry": {"type": "Point", "coordinates": [-79.817884162, 35.692340477]}, "type": "Feature", "properties": {"collection_times": [{"days": "Mon-Fri", "time": "4:30pm"}, {"days": "Sat", "time": "12:00pm"}, {"days": "Sun", "time": "Closed"}], "id": "2720300050", "name": "USPS COLLECTION BOX - PO LOBBY", "address": {"city": "ASHEBORO", "state": "NC", "street": "1030 S CHURCH ST", "postcode": "27203"}}},
{"geometry": {"type": "Point", "coordinates": [-79.817884162, 35.692340477]}, "type": "Feature", "properties": {"collection_times": [{"days": "Mon-Fri", "time": "5:00pm"}, {"days": "Sat", "time": "3:15pm"}, {"days": "Sun", "time": "Closed"}], "id": "2720300051", "name": "USPS COLLECTION BOX - BLUE BOX", "address": {"city": "ASHEBORO", "state": "NC", "street": "1030 S CHURCH ST", "postcode": "27203"}}},
{"geometry": {"type": "Point", "coordinates": [-79.817884162, 35.692340477]}, "type": "Feature", "properties": {"collection_times": [{"days": "Mon-Fri", "time": "5:00pm"}, {"days": "Sat", "time": "3:15pm"}, {"days": "Sun", "time": "Closed"}], "id": "2720300052", "name": "USPS COLLECTION BOX - BLUE BOX", "address": {"city": "ASHEBORO", "state": "NC", "street": "1030 S CHURCH ST", "postcode": "27203"}}},
{"geometry": {"type": "Point", "coordinates": [-79.843278579, 35.683001998]}, "type": "Feature", "properties": {"collection_times": [{"days": "Mon-Fri", "time": "12:30pm"}, {"days": "Sat", "time": "12:00pm"}, {"days": "Sun", "time": "Closed"}], "id": "2720300053", "name": "USPS COLLECTION BOX - BLUE BOX", "address": {"city": "ASHEBORO", "state": "NC", "street": "425 NC HIGHWAY 49 S", "postcode": "27203"}}},
{"geometry": {"type": "Point", "coordinates": [-79.817257112, 35.708267313]}, "type": "Feature", "properties": {"collection_times": [{"days": "Mon-Sat", "time": "9:30am"}, {"days": "Sun", "time": "Closed"}], "id": "2720300054", "name": "USPS COLLECTION BOX - BLUE BOX", "address": {"city": "ASHEBORO", "state": "NC", "street": "310 W SALISBURY ST", "postcode": "27203"}}},
{"geometry": {"type": "Point", "coordinates": [-79.817884162, 35.692340477]}, "type": "Feature", "properties": {"collection_times": [{"days": "Mon-Fri", "time": "4:30pm"}, {"days": "Sat", "time": "12:00pm"}, {"days": "Sun", "time": "Closed"}], "id": "2720300055", "name": "USPS COLLECTION BOX - PO LOBBY", "address": {"city": "ASHEBORO", "state": "NC", "street": "1030 S CHURCH ST", "postcode": "27203"}}},
{"geometry": {"type": "Point", "coordinates": [-79.383983485, 35.617628169]}, "type": "Feature", "properties": {"collection_times": [{"days": "Mon-Fri", "time": "4:45pm"}, {"days": "Sat", "time": "12:00pm"}, {"days": "Sun", "time": "Closed"}], "id": "2720700001", "name": "USPS COLLECTION BOX - BLUE BOX", "address": {"city": "BEAR CREEK", "state": "NC", "street": "14525 NC 902 HWY", "postcode": "27207"}}},
{"geometry": {"type": "Point", "coordinates": [-79.383983485, 35.617628169]}, "type": "Feature", "properties": {"collection_times": [{"days": "Mon-Fri", "time": "4:45pm"}, {"days": "Sat", "time": "12:00pm"}, {"days": "Sun", "time": "Closed"}], "id": "2720700003", "name": "USPS COLLECTION BOX - PO LOBBY", "address": {"city": "BEAR CREEK", "state": "NC", "street": "14525 NC 902 HWY", "postcode": "27207"}}},
{"geometry": {"type": "Point", "coordinates": [-79.543707148, 35.564050483]}, "type": "Feature", "properties": {"collection_times": [{"days": "Mon-Fri", "time": "4:15pm"}, {"days": "Sat", "time": "11:00am"}, {"days": "Sun", "time": "Closed"}], "id": "2720800001", "name": "USPS COLLECTION BOX - BLUE BOX", "address": {"city": "BENNETT", "state": "NC", "street": "3859 CHATHAM ST", "postcode": "27208"}}},
{"geometry": {"type": "Point", "coordinates": [-79.543707148, 35.564050483]}, "type": "Feature", "properties": {"collection_times": [{"days": "Mon-Fri", "time": "4:15pm"}, {"days": "Sat", "time": "11:00am"}, {"days": "Sun", "time": "Closed"}], "id": "2720800002", "name": "USPS COLLECTION BOX - PO LOBBY", "address": {"city": "BENNETT", "state": "NC", "street": "3859 CHATHAM ST", "postcode": "27208"}}},
{"geometry": {"type": "Point", "coordinates": [-79.779913943, 35.3569415]}, "type": "Feature", "properties": {"collection_times": [{"days": "Mon-Fri", "time": "4:30pm"}, {"days": "Sat", "time": "12:00pm"}, {"days": "Sun", "time": "Closed"}], "id": "2720900001", "name": "USPS COLLECTION BOX - BLUE BOX", "address": {"city": "BISCOE", "state": "NC", "street": "303 S MAIN ST", "postcode": "27209"}}},
{"geometry": {"type": "Point", "coordinates": [-79.779913943, 35.3569415]}, "type": "Feature", "properties": {"collection_times": [{"days": "Mon-Fri", "time": "4:30pm"}, {"days": "Sat", "time": "12:00pm"}, {"days": "Sun", "time": "Closed"}], "id": "2720900002", "name": "USPS COLLECTION BOX - PO LOBBY", "address": {"city": "BISCOE", "state": "NC", "street": "303 S MAIN ST", "postcode": "27209"}}},
{"geometry": {"type": "Point", "coordinates": [-79.414699238, 35.645793628]}, "type": "Feature", "properties": {"collection_times": [{"days": "Mon-Fri", "time": "4:30pm"}, {"days": "Sat", "time": "12:00pm"}, {"days": "Sun", "time": "Closed"}], "id": "2721300002", "name": "USPS COLLECTION BOX - BLUE BOX", "address": {"city": "BONLEE", "state": "NC", "street": "1010 ELMER MOORE RD", "postcode": "27213"}}},
{"geometry": {"type": "Point", "coordinates": [-79.414699238, 35.645793628]}, "type": "Feature", "properties": {"collection_times": [{"days": "Mon-Fri", "time": "4:30pm"}, {"days": "Sat", "time": "12:00pm"}, {"days": "Sun", "time": "Closed"}], "id": "2721300003", "name": "USPS COLLECTION BOX - PO LOBBY", "address": {"city": "BONLEE", "state": "NC", "street": "1010 ELMER MOORE RD", "postcode": "27213"}}},
{"geometry": {"type": "Point", "coordinates": [-79.714183152, 36.211896828]}, "type": "Feature", "properties": {"collection_times": [{"days": "Mon-Fri", "time": "4:30pm"}, {"days": "Sat", "time": "10:00am"}, {"days": "Sun", "time": "Closed"}], "id": "2721400001", "name": "USPS COLLECTION BOX - BLUE BOX", "address": {"city": "BROWNS SUMMIT", "state": "NC", "street": "7222 BROWNS SUMMIT RD", "postcode": "27214"}}},
{"geometry": {"type": "Point", "coordinates": [-79.714183152, 36.211896828]}, "type": "Feature", "properties": {"collection_times": [{"days": "Mon-Fri", "time": "4:30pm"}, {"days": "Sat", "time": "10:00am"}, {"days": "Sun", "time": "Closed"}], "id": "2721400002", "name": "USPS COLLECTION BOX - PO LOBBY", "address": {"city": "BROWNS SUMMIT", "state": "NC", "street": "7222 BROWNS SUMMIT RD", "postcode": "27214"}}},
{"geometry": {"type": "Point", "coordinates": [-79.436652935, 36.088609247]}, "type": "Feature", "properties": {"collection_times": [{"days": "Mon-Fri", "time": "5:00pm"}, {"days": "Sat", "time": "12:00pm"}, {"days": "Sun", "time": "Closed"}], "id": "2721500002", "name": "USPS COLLECTION BOX - BLUE BOX", "address": {"city": "BURLINGTON", "state": "NC", "street": "409 E MOREHEAD ST", "postcode": "27215"}}},
{"geometry": {"type": "Point", "coordinates": [-79.438057961, 36.091924141]}, "type": "Feature", "properties": {"collection_times": [{"days": "Mon-Fri", "time": "1:30pm"}, {"days": "Sat", "time": "12:00pm"}, {"days": "Sun", "time": "Closed"}], "id": "2721500004", "name": "USPS COLLECTION BOX - BLUE BOX", "address": {"city": "BURLINGTON", "state": "NC", "street": "200 MAPLE AVE", "postcode": "27215"}}},
{"geometry": {"type": "Point", "coordinates": [-79.438777418, 36.09247597]}, "type": "Feature", "properties": {"collection_times": [{"days": "Mon-Fri", "time": "4:00pm"}, {"days": "Sat", "time": "12:00pm"}, {"days": "Sun", "time": "Closed"}], "id": "2721500005", "name": "USPS COLLECTION BOX - BLUE BOX", "address": {"city": "BURLINGTON", "state": "NC", "street": "500 S MAIN ST", "postcode": "27215"}}},
{"geometry": {"type": "Point", "coordinates": [-79.463590617, 36.108864471]}, "type": "Feature", "properties": {"collection_times": [{"days": "Mon-Fri", "time": "4:30pm"}, {"days": "Sat", "time": "10:00am"}, {"days": "Sun", "time": "Closed"}], "id": "2721500008", "name": "USPS COLLECTION BOX - BLUE BOX", "address": {"city": "BURLINGTON", "state": "NC", "street": "1910 W WEBB AVE", "postcode": "27215"}}},
{"geometry": {"type": "Point", "coordinates": [-79.46274459, 36.093515877]}, "type": "Feature", "properties": {"collection_times": [{"days": "Mon-Fri", "time": "12:15pm"}, {"days": "Sat", "time": "10:00am"}, {"days": "Sun", "time": "Closed"}], "id": "2721500014", "name": "USPS COLLECTION BOX - BLUE BOX", "address": {"city": "BURLINGTON", "state": "NC", "street": "1820 BROOKWOOD AVE", "postcode": "27215"}}},
{"geometry": {"type": "Point", "coordinates": [-79.438452498, 36.095609362]}, "type": "Feature", "properties": {"collection_times": [{"days": "Mon-Sat", "time": "10:00am"}, {"days": "Sun", "time": "Closed"}], "id": "2721500019", "name": "USPS COLLECTION BOX - BLUE BOX", "address": {"city": "BURLINGTON", "state": "NC", "street": "310 W FRONT ST", "postcode": "27215"}}},
{"geometry": {"type": "Point", "coordinates": [-79.430993168, 36.087110388]}, "type": "Feature", "properties": {"collection_times": [{"days": "Mon-Fri", "time": "1:30pm"}, {"days": "Sat", "time": "10:00am"}, {"days": "Sun", "time": "Closed"}], "id": "2721500024", "name": "USPS COLLECTION BOX - BLUE BOX", "address": {"city": "BURLINGTON", "state": "NC", "street": "703 E DAVIS ST", "postcode": "27215"}}},
{"geometry": {"type": "Point", "coordinates": [-79.434530605, 36.070119727]}, "type": "Feature", "properties": {"collection_times": [{"days": "Mon-Fri", "time": "3:00pm"}, {"days": "Sat", "time": "10:00am"}, {"days": "Sun", "time": "Closed"}], "id": "2721500030", "name": "USPS COLLECTION BOX - BLUE BOX", "address": {"city": "BURLINGTON", "state": "NC", "street": "1250 CHAPEL HILL RD", "postcode": "27215"}}},
{"geometry": {"type": "Point", "coordinates": [-79.436382534, 36.065259212]}, "type": "Feature", "properties": {"collection_times": [{"days": "Mon-Fri", "time": "11:30am"}, {"days": "Sat", "time": "10:00am"}, {"days": "Sun", "time": "Closed"}], "id": "2721500031", "name": "USPS COLLECTION BOX - BLUE BOX", "address": {"city": "BURLINGTON", "state": "NC", "street": "2485 CORPORATION PKWY", "postcode": "27215"}}},
{"geometry": {"type": "Point", "coordinates": [-79.472999689, 36.064803494]}, "type": "Feature", "properties": {"collection_times": [{"days": "Mon-Fri", "time": "2:15pm"}, {"days": "Sat", "time": "10:00am"}, {"days": "Sun", "time": "Closed"}], "id": "2721500033", "name": "USPS COLLECTION BOX - BLUE BOX", "address": {"city": "BURLINGTON", "state": "NC", "street": "2602 ERIC LN", "postcode": "27215"}}},
{"geometry": {"type": "Point", "coordinates": [-79.471430282, 36.066473225]}, "type": "Feature", "properties": {"collection_times": [{"days": "Mon-Fri", "time": "4:00pm"}, {"days": "Sat", "time": "10:00am"}, {"days": "Sun", "time": "Closed"}], "id": "2721500034", "name": "USPS COLLECTION BOX - BLUE BOX", "address": {"city": "BURLINGTON", "state": "NC", "street": "2654 RAMADA RD", "postcode": "27215"}}},
{"geometry": {"type": "Point", "coordinates": [-79.46523266, 36.075730247]}, "type": "Feature", "properties": {"collection_times": [{"days": "Mon-Fri", "time": "4:00pm"}, {"days": "Sat", "time": "10:00am"}, {"days": "Sun", "time": "Closed"}], "id": "2721500036", "name": "USPS COLLECTION BOX - BLUE BOX", "address": {"city": "BURLINGTON", "state": "NC", "street": "420 ALAMANCE RD", "postcode": "27215"}}},
{"geometry": {"type": "Point", "coordinates": [-79.471616216, 36.081782795]}, "type": "Feature", "properties": {"collection_times": [{"days": "Mon-Fri", "time": "4:00pm"}, {"days": "Sat", "time": "10:00am"}, {"days": "Sun", "time": "Closed"}], "id": "2721500037", "name": "USPS COLLECTION BOX - BLUE BOX", "address": {"city": "BURLINGTON", "state": "NC", "street": "2260 S CHURCH ST", "postcode": "27215"}}},
{"geometry": {"type": "Point", "coordinates": [-79.504317221, 36.062281307]}, "type": "Feature", "properties": {"collection_times": [{"days": "Mon-Fri", "time": "1:30pm"}, {"days": "Sat", "time": "10:00am"}, {"days": "Sun", "time": "Closed"}], "id": "2721500038", "name": "USPS COLLECTION BOX - BLUE BOX", "address": {"city": "BURLINGTON", "state": "NC", "street": "1240 HUFFMAN MILL RD", "postcode": "27215"}}},
{"geometry": {"type": "Point", "coordinates": [-79.48531604, 36.076657861]}, "type": "Feature", "properties": {"collection_times": [{"days": "Mon-Fri", "time": "2:00pm"}, {"days": "Sat", "time": "10:00am"}, {"days": "Sun", "time": "Closed"}], "id": "2721500039", "name": "USPS COLLECTION BOX - BLUE BOX", "address": {"city": "BURLINGTON", "state": "NC", "street": "351 HOLLY HILL LN", "postcode": "27215"}}},
{"geometry": {"type": "Point", "coordinates": [-79.487193489, 36.076929782]}, "type": "Feature", "properties": {"collection_times": [{"days": "Mon-Fri", "time": "4:00pm"}, {"days": "Sat", "time": "12:00pm"}, {"days": "Sun", "time": "Closed"}], "id": "2721500042", "name": "USPS COLLECTION BOX - BLUE BOX", "address": {"city": "BURLINGTON", "state": "NC", "street": "300 HUFFMAN MILL RD", "postcode": "27215"}}},
{"geometry": {"type": "Point", "coordinates": [-79.491270385, 36.080572984]}, "type": "Feature", "properties": {"collection_times": [{"days": "Mon-Fri", "time": "4:00pm"}, {"days": "Sat", "time": "12:00pm"}, {"days": "Sun", "time": "Closed"}], "id": "2721500045", "name": "USPS COLLECTION BOX - BLUE BOX", "address": {"city": "BURLINGTON", "state": "NC", "street": "2950 S CHURCH ST", "postcode": "27215"}}},
{"geometry": {"type": "Point", "coordinates": [-79.492824025, 36.080477412]}, "type": "Feature", "properties": {"collection_times": [{"days": "Mon-Fri", "time": "4:00pm"}, {"days": "Sat", "time": "12:00pm"}, {"days": "Sun", "time": "Closed"}], "id": "2721500046", "name": "USPS COLLECTION BOX - BLUE BOX", "address": {"city": "BURLINGTON", "state": "NC", "street": "3035 S CHURCH ST", "postcode": "27215"}}},
{"geometry": {"type": "Point", "coordinates": [-79.485219728, 36.080768283]}, "type": "Feature", "properties": {"collection_times": [{"days": "Mon-Fri", "time": "12:30pm"}, {"days": "Sat", "time": "12:00pm"}, {"days": "Sun", "time": "Closed"}], "id": "2721500050", "name": "USPS COLLECTION BOX - BLUE BOX", "address": {"city": "BURLINGTON", "state": "NC", "street": "2729 S CHURCH ST", "postcode": "27215"}}},
{"geometry": {"type": "Point", "coordinates": [-79.451959715, 36.086712946]}, "type": "Feature", "properties": {"collection_times": [{"days": "Mon-Fri", "time": "4:00pm"}, {"days": "Sat", "time": "10:00am"}, {"days": "Sun", "time": "Closed"}], "id": "2721500052", "name": "USPS COLLECTION BOX - BLUE BOX", "address": {"city": "BURLINGTON", "state": "NC", "street": "1307 S CHURCH ST", "postcode": "27215"}}},
{"geometry": {"type": "Point", "coordinates": [-79.450357124, 36.087764245]}, "type": "Feature", "properties": {"collection_times": [{"days": "Mon-Fri", "time": "4:00pm"}, {"days": "Sat", "time": "11:00am"}, {"days": "Sun", "time": "Closed"}], "id": "2721500053", "name": "USPS COLLECTION BOX - BLUE BOX", "address": {"city": "BURLINGTON", "state": "NC", "street": "1233 S CHURCH ST", "postcode": "27215"}}},
{"geometry": {"type": "Point", "coordinates": [-79.43871241, 36.09425969]}, "type": "Feature", "properties": {"collection_times": [{"days": "Mon-Sat", "time": "11:30am"}, {"days": "Sun", "time": "Closed"}], "id": "2721500055", "name": "USPS COLLECTION BOX - BLUE BOX", "address": {"city": "BURLINGTON", "state": "NC", "street": "244 W DAVIS ST", "postcode": "27215"}}},
{"geometry": {"type": "Point", "coordinates": [-79.436882543, 36.093940337]}, "type": "Feature", "properties": {"collection_times": [{"days": "Mon-Sat", "time": "12:00pm"}, {"days": "Sun", "time": "Closed"}], "id": "2721500057", "name": "USPS COLLECTION BOX - BLUE BOX", "address": {"city": "BURLINGTON", "state": "NC", "street": "110 W FRONT ST", "postcode": "27215"}}},
{"geometry": {"type": "Point", "coordinates": [-79.43530722, 36.091088098]}, "type": "Feature", "properties": {"collection_times": [{"days": "Mon-Fri", "time": "1:30pm"}, {"days": "Sat", "time": "10:00am"}, {"days": "Sun", "time": "Closed"}], "id": "2721500058", "name": "USPS COLLECTION BOX - BLUE BOX", "address": {"city": "BURLINGTON", "state": "NC", "street": "335 E DAVIS ST", "postcode": "27215"}}},
{"geometry": {"type": "Point", "coordinates": [-79.435763868, 36.089795465]}, "type": "Feature", "properties": {"collection_times": [{"days": "Mon-Fri", "time": "5:00pm"}, {"days": "Sat", "time": "12:00pm"}, {"days": "Sun", "time": "Closed"}], "id": "2721500067", "name": "USPS COLLECTION BOX - BLUE BOX", "address": {"city": "BURLINGTON", "state": "NC", "street": "500 S BROAD ST", "postcode": "27215"}}},
{"geometry": {"type": "Point", "coordinates": [-79.44341645, 36.089695512]}, "type": "Feature", "properties": {"collection_times": [{"days": "Mon-Fri", "time": "4:00pm"}, {"days": "Sat", "time": "10:00am"}, {"days": "Sun", "time": "Closed"}], "id": "2721500069", "name": "USPS COLLECTION BOX - BLUE BOX", "address": {"city": "BURLINGTON", "state": "NC", "street": "917 S MAIN ST", "postcode": "27215"}}},
{"geometry": {"type": "Point", "coordinates": [-79.502032801, 36.064097188]}, "type": "Feature", "properties": {"collection_times": [{"days": "Mon-Fri", "time": "1:30pm"}, {"days": "Sat", "time": "10:00am"}, {"days": "Sun", "time": "Closed"}], "id": "2721500071", "name": "USPS COLLECTION BOX - BLUE BOX", "address": {"city": "BURLINGTON", "state": "NC", "street": "1234 HUFFMAN MILL RD", "postcode": "27215"}}},
{"geometry": {"type": "Point", "coordinates": [-79.50977885, 36.080572984]}, "type": "Feature", "properties": {"collection_times": [{"days": "Mon-Fri", "time": "3:00pm"}, {"days": "Sat", "time": "12:00pm"}, {"days": "Sun", "time": "Closed"}], "id": "2721500072", "name": "USPS COLLECTION BOX - BLUE BOX", "address": {"city": "BURLINGTON", "state": "NC", "street": "3356 S CHURCH ST", "postcode": "27215"}}},
{"geometry": {"type": "Point", "coordinates": [-79.418038711, 36.078216969]}, "type": "Feature", "properties": {"collection_times": [{"days": "Mon-Fri", "time": "3:00pm"}, {"days": "Sat", "time": "12:00pm"}, {"days": "Sun", "time": "Closed"}], "id": "2721500073", "name": "USPS COLLECTION BOX - BLUE BOX", "address": {"city": "BURLINGTON", "state": "NC", "street": "1046 WILLIAMSON AVE", "postcode": "27215"}}},
{"geometry": {"type": "Point", "coordinates": [-79.438526647, 36.061873106]}, "type": "Feature", "properties": {"collection_times": [{"days": "Mon-Fri", "time": "1:00pm"}, {"days": "Sat", "time": "10:00am"}, {"days": "Sun", "time": "Closed"}], "id": "2721500074", "name": "USPS COLLECTION BOX - BLUE BOX", "address": {"city": "BURLINGTON", "state": "NC", "street": "2323 W HANFORD RD", "postcode": "27215"}}},
{"geometry": {"type": "Point", "coordinates": [-79.480912406, 36.080907488]}, "type": "Feature", "properties": {"collection_times": [{"days": "Mon-Fri", "time": "12:30pm"}, {"days": "Sat", "time": "10:00am"}, {"days": "Sun", "time": "Closed"}], "id": "2721500075", "name": "USPS COLLECTION BOX - BLUE BOX", "address": {"city": "BURLINGTON", "state": "NC", "street": "2535 S CHURCH ST", "postcode": "27215"}}},
{"geometry": {"type": "Point", "coordinates": [-79.435462939, 36.089569636]}, "type": "Feature", "properties": {"collection_times": [{"days": "Mon-Fri", "time": "5:00pm"}, {"days": "Sat", "time": "12:00pm"}, {"days": "Sun", "time": "Closed"}], "id": "2721500080", "name": "USPS COLLECTION BOX - PO LOBBY", "address": {"city": "BURLINGTON", "state": "NC", "street": "405 MAPLE AVE", "postcode": "27215"}}},
{"geometry": {"type": "Point", "coordinates": [-79.435462939, 36.089569636]}, "type": "Feature", "properties": {"collection_times": [{"days": "Mon-Fri", "time": "5:00pm"}, {"days": "Sat", "time": "12:00pm"}, {"days": "Sun", "time": "Closed"}], "id": "2721500081", "name": "USPS COLLECTION BOX - APC", "address": {"city": "BURLINGTON", "state": "NC", "street": "405 MAPLE AVE", "postcode": "27215"}}},
{"geometry": {"type": "Point", "coordinates": [-79.398336447, 36.093700287]}, "type": "Feature", "properties": {"collection_times": [{"days": "Mon-Fri", "time": "4:30pm"}, {"days": "Sat", "time": "12:00pm"}, {"days": "Sun", "time": "Closed"}], "id": "2721700008", "name": "USPS COLLECTION BOX - BLUE BOX", "address": {"city": "BURLINGTON", "state": "NC", "street": "2212 N CHURCH ST", "postcode": "27217"}}},
{"geometry": {"type": "Point", "coordinates": [-79.398336447, 36.093700287]}, "type": "Feature", "properties": {"collection_times": [{"days": "Mon-Fri", "time": "4:30pm"}, {"days": "Sat", "time": "12:00pm"}, {"days": "Sun", "time": "Closed"}], "id": "2721700009", "name": "USPS COLLECTION BOX - BLUE BOX", "address": {"city": "BURLINGTON", "state": "NC", "street": "2212 N CHURCH ST", "postcode": "27217"}}},
{"geometry": {"type": "Point", "coordinates": [-79.434312959, 36.103667495]}, "type": "Feature", "properties": {"collection_times": [{"days": "Mon-Fri", "time": "12:45pm"}, {"days": "Sat", "time": "10:00am"}, {"days": "Sun", "time": "Closed"}], "id": "2721700026", "name": "USPS COLLECTION BOX - BLUE BOX", "address": {"city": "BURLINGTON", "state": "NC", "street": "600 RAUHUT ST", "postcode": "27217"}}},
{"geometry": {"type": "Point", "coordinates": [-79.398336447, 36.093700287]}, "type": "Feature", "properties": {"collection_times": [{"days": "Mon-Fri", "time": "4:30pm"}, {"days": "Sat-Sun", "time": "Closed"}], "id": "2721700031", "name": "USPS COLLECTION BOX - PO LOBBY", "address": {"city": "BURLINGTON", "state": "NC", "street": "2212 N CHURCH ST", "postcode": "27217"}}},
{"geometry": {"type": "Point", "coordinates": [-79.745733789, 35.29930719]}, "type": "Feature", "properties": {"collection_times": [{"days": "Mon-Fri", "time": "4:30pm"}, {"days": "Sat", "time": "12:00pm"}, {"days": "Sun", "time": "Closed"}], "id": "2722900001", "name": "USPS COLLECTION BOX - BLUE BOX", "address": {"city": "CANDOR", "state": "NC", "street": "405 N MAIN ST", "postcode": "27229"}}},
{"geometry": {"type": "Point", "coordinates": [-79.745733789, 35.29930719]}, "type": "Feature", "properties": {"collection_times": [{"days": "Mon-Fri", "time": "4:30pm"}, {"days": "Sat", "time": "12:00pm"}, {"days": "Sun", "time": "Closed"}], "id": "2722900002", "name": "USPS COLLECTION BOX - PO LOBBY", "address": {"city": "CANDOR", "state": "NC", "street": "405 N MAIN ST", "postcode": "27229"}}},
{"geometry": {"type": "Point", "coordinates": [-79.731597859, 35.751903005]}, "type": "Feature", "properties": {"collection_times": [{"days": "Mon-Fri", "time": "4:30pm"}, {"days": "Sat", "time": "11:00am"}, {"days": "Sun", "time": "Closed"}], "id": "2723000001", "name": "USPS COLLECTION BOX - BLUE BOX", "address": {"city": "CEDAR FALLS", "state": "NC", "street": "370 LOFLIN POND RD", "postcode": "27230"}}},
{"geometry": {"type": "Point", "coordinates": [-79.731597859, 35.751903005]}, "type": "Feature", "properties": {"collection_times": [{"days": "Mon-Fri", "time": "4:30pm"}, {"days": "Sat", "time": "11:00am"}, {"days": "Sun", "time": "Closed"}], "id": "2723000002", "name": "USPS COLLECTION BOX - PO LOBBY", "address": {"city": "CEDAR FALLS", "state": "NC", "street": "370 LOFLIN POND RD", "postcode": "27230"}}},
{"geometry": {"type": "Point", "coordinates": [-79.167634514, 36.168102399]}, "type": "Feature", "properties": {"collection_times": [{"days": "Mon-Fri", "time": "4:15pm"}, {"days": "Sat", "time": "11:00am"}, {"days": "Sun", "time": "Closed"}], "id": "2723100001", "name": "USPS COLLECTION BOX - BLUE BOX", "address": {"city": "CEDAR GROVE", "state": "NC", "street": "5206 EFLAND CEDAR GROVE RD", "postcode": "27231"}}},
{"geometry": {"type": "Point", "coordinates": [-79.167634514, 36.168102399]}, "type": "Feature", "properties": {"collection_times": [{"days": "Mon-Fri", "time": "4:15pm"}, {"days": "Sat", "time": "11:00am"}, {"days": "Sun", "time": "Closed"}], "id": "2723100002", "name": "USPS COLLECTION BOX - PO LOBBY", "address": {"city": "CEDAR GROVE", "state": "NC", "street": "5206 EFLAND CEDAR GROVE RD", "postcode": "27231"}}},
{"geometry": {"type": "Point", "coordinates": [-79.708620123, 35.913118009]}, "type": "Feature", "properties": {"collection_times": [{"days": "Mon-Fri", "time": "4:45pm"}, {"days": "Sat", "time": "10:45am"}, {"days": "Sun", "time": "Closed"}], "id": "2723300002", "name": "USPS COLLECTION BOX - BLUE BOX", "address": {"city": "CLIMAX", "state": "NC", "street": "1319 NC HIGHWAY 62 E", "postcode": "27233"}}},
{"geometry": {"type": "Point", "coordinates": [-79.708620123, 35.913118009]}, "type": "Feature", "properties": {"collection_times": [{"days": "Mon-Fri", "time": "4:45pm"}, {"days": "Sat", "time": "10:45am"}, {"days": "Sun", "time": "Closed"}], "id": "2723300003", "name": "USPS COLLECTION BOX - PO LOBBY", "address": {"city": "CLIMAX", "state": "NC", "street": "1319 NC HIGHWAY 62 E", "postcode": "27233"}}},
{"geometry": {"type": "Point", "coordinates": [-80.0020314, 36.103908911]}, "type": "Feature", "properties": {"collection_times": [{"days": "Mon-Fri", "time": "4:30pm"}, {"days": "Sat", "time": "10:00am"}, {"days": "Sun", "time": "Closed"}], "id": "2723500001", "name": "USPS COLLECTION BOX - BLUE BOX", "address": {"city": "COLFAX", "state": "NC", "street": "9052 W MARKET ST", "postcode": "27235"}}},
{"geometry": {"type": "Point", "coordinates": [-80.0020314, 36.103908911]}, "type": "Feature", "properties": {"collection_times": [{"days": "Mon-Fri", "time": "4:30pm"}, {"days": "Sat", "time": "10:00am"}, {"days": "Sun", "time": "Closed"}], "id": "2723500004", "name": "USPS COLLECTION BOX - PO LOBBY", "address": {"city": "COLFAX", "state": "NC", "street": "9052 W MARKET ST", "postcode": "27235"}}},
{"geometry": {"type": "Point", "coordinates": [-80.0020314, 36.103908911]}, "type": "Feature", "properties": {"collection_times": [{"days": "Mon-Fri", "time": "4:30pm"}, {"days": "Sat", "time": "10:00am"}, {"days": "Sun", "time": "Closed"}], "id": "2723500005", "name": "USPS COLLECTION BOX - PO LOBBY", "address": {"city": "COLFAX", "state": "NC", "street": "9052 W MARKET ST", "postcode": "27235"}}},
{"geometry": {"type": "Point", "coordinates": [-80.115388278, 35.633495788]}, "type": "Feature", "properties": {"collection_times": [{"days": "Mon-Fri", "time": "4:45pm"}, {"days": "Sat", "time": "12:00pm"}, {"days": "Sun", "time": "Closed"}], "id": "2723900001", "name": "USPS COLLECTION BOX - BLUE BOX", "address": {"city": "DENTON", "state": "NC", "street": "110 W SALISBURY ST", "postcode": "27239"}}},
{"geometry": {"type": "Point", "coordinates": [-80.115388278, 35.633495788]}, "type": "Feature", "properties": {"collection_times": [{"days": "Mon-Fri", "time": "4:45pm"}, {"days": "Sat", "time": "12:00pm"}, {"days": "Sun", "time": "Closed"}], "id": "2723900003", "name": "USPS COLLECTION BOX - PO LOBBY", "address": {"city": "DENTON", "state": "NC", "street": "110 W SALISBURY ST", "postcode": "27239"}}},
{"geometry": {"type": "Point", "coordinates": [-79.651574894, 35.292633421]}, "type": "Feature", "properties": {"collection_times": [{"days": "Mon-Fri", "time": "4:30pm"}, {"days": "Sat", "time": "10:45am"}, {"days": "Sun", "time": "Closed"}], "id": "2724200002", "name": "USPS COLLECTION BOX - BLUE BOX", "address": {"city": "EAGLE SPRINGS", "state": "NC", "street": "1984 NC HIGHWAY 211", "postcode": "27242"}}},
{"geometry": {"type": "Point", "coordinates": [-79.651574894, 35.292633421]}, "type": "Feature", "properties": {"collection_times": [{"days": "Mon-Fri", "time": "4:30pm"}, {"days": "Sat", "time": "10:45am"}, {"days": "Sun", "time": "Closed"}], "id": "2724200003", "name": "USPS COLLECTION BOX - PO LOBBY", "address": {"city": "EAGLE SPRINGS", "state": "NC", "street": "1984 NC HIGHWAY 211", "postcode": "27242"}}},
{"geometry": {"type": "Point", "coordinates": [-79.170810557, 36.081173227]}, "type": "Feature", "properties": {"collection_times": [{"days": "Mon-Fri", "time": "4:30pm"}, {"days": "Sat", "time": "10:15am"}, {"days": "Sun", "time": "Closed"}], "id": "2724300001", "name": "USPS COLLECTION BOX - BLUE BOX", "address": {"city": "EFLAND", "state": "NC", "street": "3522 US HIGHWAY 70 W", "postcode": "27243"}}},
{"geometry": {"type": "Point", "coordinates": [-79.170810557, 36.081173227]}, "type": "Feature", "properties": {"collection_times": [{"days": "Mon-Fri", "time": "4:30pm"}, {"days": "Sat", "time": "10:15am"}, {"days": "Sun", "time": "Closed"}], "id": "2724300003", "name": "USPS COLLECTION BOX - PO LOBBY", "address": {"city": "EFLAND", "state": "NC", "street": "3522 US HIGHWAY 70 W", "postcode": "27243"}}},
{"geometry": {"type": "Point", "coordinates": [-79.506596979, 36.100131582]}, "type": "Feature", "properties": {"collection_times": [{"days": "Mon-Fri", "time": "4:30pm"}, {"days": "Sat", "time": "12:00pm"}, {"days": "Sun", "time": "Closed"}], "id": "2724400001", "name": "USPS COLLECTION BOX - BLUE BOX", "address": {"city": "ELON", "state": "NC", "street": "105 S WILLIAMSON AVE", "postcode": "27244"}}},
{"geometry": {"type": "Point", "coordinates": [-79.506596979, 36.100131582]}, "type": "Feature", "properties": {"collection_times": [{"days": "Mon-Fri", "time": "4:30pm"}, {"days": "Sat", "time": "12:00pm"}, {"days": "Sun", "time": "Closed"}], "id": "2724400002", "name": "USPS COLLECTION BOX - PO LOBBY", "address": {"city": "ELON", "state": "NC", "street": "105 S WILLIAMSON AVE", "postcode": "27244"}}},
{"geometry": {"type": "Point", "coordinates": [-79.78409856, 35.439701333]}, "type": "Feature", "properties": {"collection_times": [{"days": "Mon-Fri", "time": "5:00pm"}, {"days": "Sat", "time": "11:45am"}, {"days": "Sun", "time": "Closed"}], "id": "2724700001", "name": "USPS COLLECTION BOX - BLUE BOX", "address": {"city": "ETHER", "state": "NC", "street": "105 HOGAN FARM RD", "postcode": "27247"}}},
{"geometry": {"type": "Point", "coordinates": [-79.78409856, 35.439701333]}, "type": "Feature", "properties": {"collection_times": [{"days": "Mon-Fri", "time": "5:00pm"}, {"days": "Sat", "time": "11:45am"}, {"days": "Sun", "time": "Closed"}], "id": "2724700002", "name": "USPS COLLECTION BOX - PO LOBBY", "address": {"city": "ETHER", "state": "NC", "street": "105 HOGAN FARM RD", "postcode": "27247"}}},
{"geometry": {"type": "Point", "coordinates": [-79.694563765, 35.747012157]}, "type": "Feature", "properties": {"collection_times": [{"days": "Mon-Fri", "time": "4:30pm"}, {"days": "Sat", "time": "11:30am"}, {"days": "Sun", "time": "Closed"}], "id": "2724800001", "name": "USPS COLLECTION BOX - BLUE BOX", "address": {"city": "FRANKLINVILLE", "state": "NC", "street": "221 PINE ST", "postcode": "27248"}}},
{"geometry": {"type": "Point", "coordinates": [-79.694563765, 35.747012157]}, "type": "Feature", "properties": {"collection_times": [{"days": "Mon-Fri", "time": "4:30pm"}, {"days": "Sat", "time": "11:30am"}, {"days": "Sun", "time": "Closed"}], "id": "2724800003", "name": "USPS COLLECTION BOX - PO LOBBY", "address": {"city": "FRANKLINVILLE", "state": "NC", "street": "221 PINE ST", "postcode": "27248"}}},
{"geometry": {"type": "Point", "coordinates": [-79.540469332, 36.105236561]}, "type": "Feature", "properties": {"collection_times": [{"days": "Mon-Fri", "time": "5:00pm"}, {"days": "Sat", "time": "12:00pm"}, {"days": "Sun", "time": "Closed"}], "id": "2724900003", "name": "USPS COLLECTION BOX - BLUE BOX", "address": {"city": "GIBSONVILLE", "state": "NC", "street": "221 E MAIN ST", "postcode": "27249"}}},
{"geometry": {"type": "Point", "coordinates": [-79.540469332, 36.105236561]}, "type": "Feature", "properties": {"collection_times": [{"days": "Mon-Fri", "time": "5:00pm"}, {"days": "Sat", "time": "12:00pm"}, {"days": "Sun", "time": "Closed"}], "id": "2724900004", "name": "USPS COLLECTION BOX - BLUE BOX", "address": {"city": "GIBSONVILLE", "state": "NC", "street": "221 E MAIN ST", "postcode": "27249"}}},
{"geometry": {"type": "Point", "coordinates": [-79.549029382, 36.10114996]}, "type": "Feature", "properties": {"collection_times": [{"days": "Mon-Sat", "time": "10:00am"}, {"days": "Sun", "time": "Closed"}], "id": "2724900009", "name": "USPS COLLECTION BOX - BLUE BOX", "address": {"city": "GIBSONVILLE", "state": "NC", "street": "400 W STEELE ST", "postcode": "27249"}}},
{"geometry": {"type": "Point", "coordinates": [-79.540469332, 36.105236561]}, "type": "Feature", "properties": {"collection_times": [{"days": "Mon-Fri", "time": "4:30pm"}, {"days": "Sat", "time": "12:00pm"}, {"days": "Sun", "time": "Closed"}], "id": "2724900010", "name": "USPS COLLECTION BOX - PO LOBBY", "address": {"city": "GIBSONVILLE", "state": "NC", "street": "221 E MAIN ST", "postcode": "27249"}}},
{"geometry": {"type": "Point", "coordinates": [-79.326595177, 35.591983344]}, "type": "Feature", "properties": {"collection_times": [{"days": "Mon-Fri", "time": "4:30pm"}, {"days": "Sat", "time": "12:00pm"}, {"days": "Sun", "time": "Closed"}], "id": "2725200001", "name": "USPS COLLECTION BOX - BLUE BOX", "address": {"city": "GOLDSTON", "state": "NC", "street": "50 E GOLDBAR AVE", "postcode": "27252"}}},
{"geometry": {"type": "Point", "coordinates": [-79.326595177, 35.591983344]}, "type": "Feature", "properties": {"collection_times": [{"days": "Mon-Fri", "time": "4:30pm"}, {"days": "Sat", "time": "12:00pm"}, {"days": "Sun", "time": "Closed"}], "id": "2725200003", "name": "USPS COLLECTION BOX - PO LOBBY", "address": {"city": "GOLDSTON", "state": "NC", "street": "50 E GOLDBAR AVE", "postcode": "27252"}}},
{"geometry": {"type": "Point", "coordinates": [-79.398567226, 36.068272082]}, "type": "Feature", "properties": {"collection_times": [{"days": "Mon-Fri", "time": "5:00pm"}, {"days": "Sat", "time": "12:00pm"}, {"days": "Sun", "time": "Closed"}], "id": "2725300002", "name": "USPS COLLECTION BOX - BLUE BOX", "address": {"city": "GRAHAM", "state": "NC", "street": "112 S MARSHALL ST", "postcode": "27253"}}},
{"geometry": {"type": "Point", "coordinates": [-79.398567226, 36.068272082]}, "type": "Feature", "properties": {"collection_times": [{"days": "Mon-Fri", "time": "5:00pm"}, {"days": "Sat", "time": "12:00pm"}, {"days": "Sun", "time": "Closed"}], "id": "2725300003", "name": "USPS COLLECTION BOX - BLUE BOX", "address": {"city": "GRAHAM", "state": "NC", "street": "112 S MARSHALL ST", "postcode": "27253"}}},
{"geometry": {"type": "Point", "coordinates": [-79.398567226, 36.068272082]}, "type": "Feature", "properties": {"collection_times": [{"days": "Mon-Fri", "time": "5:00pm"}, {"days": "Sat", "time": "12:00pm"}, {"days": "Sun", "time": "Closed"}], "id": "2725300004", "name": "USPS COLLECTION BOX - BLUE BOX", "address": {"city": "GRAHAM", "state": "NC", "street": "112 S MARSHALL ST", "postcode": "27253"}}},
{"geometry": {"type": "Point", "coordinates": [-79.401601075, 36.067943406]}, "type": "Feature", "properties": {"collection_times": [{"days": "Mon-Fri", "time": "1:00pm"}, {"days": "Sat", "time": "12:00pm"}, {"days": "Sun", "time": "Closed"}], "id": "2725300007", "name": "USPS COLLECTION BOX - BLUE BOX", "address": {"city": "GRAHAM", "state": "NC", "street": "116 W PINE ST", "postcode": "27253"}}},
{"geometry": {"type": "Point", "coordinates": [-79.400316671, 36.069790755]}, "type": "Feature", "properties": {"collection_times": [{"days": "Mon-Sat", "time": "2:00pm"}, {"days": "Sun", "time": "Closed"}], "id": "2725300011", "name": "USPS COLLECTION BOX - BLUE BOX", "address": {"city": "GRAHAM", "state": "NC", "street": "101 N MAIN ST", "postcode": "27253"}}},
{"geometry": {"type": "Point", "coordinates": [-79.398567226, 36.068272082]}, "type": "Feature", "properties": {"collection_times": [{"days": "Mon-Fri", "time": "5:00pm"}, {"days": "Sat", "time": "12:00pm"}, {"days": "Sun", "time": "Closed"}], "id": "2725300013", "name": "USPS COLLECTION BOX - PO LOBBY", "address": {"city": "GRAHAM", "state": "NC", "street": "112 S MARSHALL ST", "postcode": "27253"}}},
{"geometry": {"type": "Point", "coordinates": [-79.398567226, 36.068272082]}, "type": "Feature", "properties": {"collection_times": [{"days": "Mon-Fri", "time": "5:00pm"}, {"days": "Sat", "time": "12:00pm"}, {"days": "Sun", "time": "Closed"}], "id": "2725300014", "name": "USPS COLLECTION BOX - PO LOBBY", "address": {"city": "GRAHAM", "state": "NC", "street": "112 S MARSHALL ST", "postcode": "27253"}}},
{"geometry": {"type": "Point", "coordinates": [-79.281889803, 35.560201367]}, "type": "Feature", "properties": {"collection_times": [{"days": "Mon-Fri", "time": "4:30pm"}, {"days": "Sat", "time": "11:45am"}, {"days": "Sun", "time": "Closed"}], "id": "2725600002", "name": "USPS COLLECTION BOX - BLUE BOX", "address": {"city": "GULF", "state": "NC", "street": "833 THRIFT RD", "postcode": "27256"}}},
{"geometry": {"type": "Point", "coordinates": [-79.281889803, 35.560201367]}, "type": "Feature", "properties": {"collection_times": [{"days": "Mon-Fri", "time": "4:30pm"}, {"days": "Sat", "time": "11:45am"}, {"days": "Sun", "time": "Closed"}], "id": "2725600004", "name": "USPS COLLECTION BOX - PO LOBBY", "address": {"city": "GULF", "state": "NC", "street": "833 THRIFT RD", "postcode": "27256"}}},
{"geometry": {"type": "Point", "coordinates": [-79.355524558, 36.095535935]}, "type": "Feature", "properties": {"collection_times": [{"days": "Mon-Fri", "time": "4:30pm"}, {"days": "Sat", "time": "11:00am"}, {"days": "Sun", "time": "Closed"}], "id": "2725800002", "name": "USPS COLLECTION BOX - BLUE BOX", "address": {"city": "HAW RIVER", "state": "NC", "street": "105 ROXBORO ST", "postcode": "27258"}}},
{"geometry": {"type": "Point", "coordinates": [-79.355524558, 36.095535935]}, "type": "Feature", "properties": {"collection_times": [{"days": "Mon-Fri", "time": "4:30pm"}, {"days": "Sat", "time": "11:00am"}, {"days": "Sun", "time": "Closed"}], "id": "2725800004", "name": "USPS COLLECTION BOX - PO LOBBY", "address": {"city": "HAW RIVER", "state": "NC", "street": "105 ROXBORO ST", "postcode": "27258"}}},
{"geometry": {"type": "Point", "coordinates": [-79.521686304, 35.483750998]}, "type": "Feature", "properties": {"collection_times": [{"days": "Mon-Fri", "time": "4:30pm"}, {"days": "Sat", "time": "12:00pm"}, {"days": "Sun", "time": "Closed"}], "id": "2725900002", "name": "USPS COLLECTION BOX - BLUE BOX", "address": {"city": "HIGHFALLS", "state": "NC", "street": "1368 NC HIGHWAY 22", "postcode": "27259"}}},
{"geometry": {"type": "Point", "coordinates": [-79.521686304, 35.483750998]}, "type": "Feature", "properties": {"collection_times": [{"days": "Mon-Fri", "time": "4:30pm"}, {"days": "Sat", "time": "12:00pm"}, {"days": "Sun", "time": "Closed"}], "id": "2725900003", "name": "USPS COLLECTION BOX - PO LOBBY", "address": {"city": "HIGHFALLS", "state": "NC", "street": "1368 NC HIGHWAY 22", "postcode": "27259"}}},
{"geometry": {"type": "Point", "coordinates": [-80.005313825, 35.955743421]}, "type": "Feature", "properties": {"collection_times": [{"days": "Mon-Sat", "time": "12:00pm"}, {"days": "Sun", "time": "Closed"}], "id": "2726000004", "name": "USPS COLLECTION BOX - BLUE BOX", "address": {"city": "HIGH POINT", "state": "NC", "street": "164 S MAIN ST", "postcode": "27260"}}},
{"geometry": {"type": "Point", "coordinates": [-80.01627671, 35.931363065]}, "type": "Feature", "properties": {"collection_times": [{"days": "Mon-Sat", "time": "12:30pm"}, {"days": "Sun", "time": "Closed"}], "id": "2726000035", "name": "USPS COLLECTION BOX - BLUE BOX", "address": {"city": "HIGH POINT", "state": "NC", "street": "1107 W MARKET CENTER DR", "postcode": "27260"}}},
{"geometry": {"type": "Point", "coordinates": [-80.008346509, 35.955975358]}, "type": "Feature", "properties": {"collection_times": [{"days": "Mon-Sat", "time": "11:00am"}, {"days": "Sun", "time": "Closed"}], "id": "2726000043", "name": "USPS COLLECTION BOX - BLUE BOX", "address": {"city": "HIGH POINT", "state": "NC", "street": "305 W HIGH AVE", "postcode": "27260"}}},
{"geometry": {"type": "Point", "coordinates": [-80.033445991, 35.925571594]}, "type": "Feature", "properties": {"collection_times": [{"days": "Mon-Sat", "time": "12:30pm"}, {"days": "Sun", "time": "Closed"}], "id": "2726000046", "name": "USPS COLLECTION BOX - BLUE BOX", "address": {"city": "HIGH POINT", "state": "NC", "street": "600 SOUTHWEST ST", "postcode": "27260"}}},
{"geometry": {"type": "Point", "coordinates": [-80.000840558, 35.954267871]}, "type": "Feature", "properties": {"collection_times": [{"days": "Mon-Sat", "time": "5:00pm"}, {"days": "Sun", "time": "Closed"}], "id": "2726000048", "name": "USPS COLLECTION BOX - BLUE BOX", "address": {"city": "HIGH POINT", "state": "NC", "street": "315 E GREEN DR", "postcode": "27260"}}},
{"geometry": {"type": "Point", "coordinates": [-80.000840558, 35.954267871]}, "type": "Feature", "properties": {"collection_times": [{"days": "Mon-Sat", "time": "5:00pm"}, {"days": "Sun", "time": "Closed"}], "id": "2726000052", "name": "USPS COLLECTION BOX - BLUE BOX", "address": {"city": "HIGH POINT", "state": "NC", "street": "315 E GREEN DR", "postcode": "27260"}}},
{"geometry": {"type": "Point", "coordinates": [-80.006844154, 35.957680515]}, "type": "Feature", "properties": {"collection_times": [{"days": "Mon-Sat", "time": "11:00am"}, {"days": "Sun", "time": "Closed"}], "id": "2726000056", "name": "USPS COLLECTION BOX - BLUE BOX", "address": {"city": "HIGH POINT", "state": "NC", "street": "111 HAYDEN PL", "postcode": "27260"}}},
{"geometry": {"type": "Point", "coordinates": [-80.018835027, 35.961467291]}, "type": "Feature", "properties": {"collection_times": [{"days": "Mon-Sat", "time": "12:30pm"}, {"days": "Sun", "time": "Closed"}], "id": "2726200008", "name": "USPS COLLECTION BOX - BLUE BOX", "address": {"city": "HIGH POINT", "state": "NC", "street": "624 QUAKER LN", "postcode": "27262"}}},
{"geometry": {"type": "Point", "coordinates": [-80.012425831, 35.963411379]}, "type": "Feature", "properties": {"collection_times": [{"days": "Mon-Sat", "time": "12:30pm"}, {"days": "Sun", "time": "Closed"}], "id": "2726200010", "name": "USPS COLLECTION BOX - BLUE BOX", "address": {"city": "HIGH POINT", "state": "NC", "street": "601 N ELM ST", "postcode": "27262"}}},
{"geometry": {"type": "Point", "coordinates": [-80.019844368, 35.974917397]}, "type": "Feature", "properties": {"collection_times": [{"days": "Mon-Fri", "time": "5:00pm"}, {"days": "Sat", "time": "3:45pm"}, {"days": "Sun", "time": "Closed"}], "id": "2726200020", "name": "USPS COLLECTION BOX - BLUE BOX", "address": {"city": "HIGH POINT", "state": "NC", "street": "116 ROCKSPRING RD", "postcode": "27262"}}},
{"geometry": {"type": "Point", "coordinates": [-80.019844368, 35.974917397]}, "type": "Feature", "properties": {"collection_times": [{"days": "Mon-Fri", "time": "5:00pm"}, {"days": "Sat", "time": "3:45pm"}, {"days": "Sun", "time": "Closed"}], "id": "2726200021", "name": "USPS COLLECTION BOX - BLUE BOX", "address": {"city": "HIGH POINT", "state": "NC", "street": "116 ROCKSPRING RD", "postcode": "27262"}}},
{"geometry": {"type": "Point", "coordinates": [-80.019844368, 35.974917397]}, "type": "Feature", "properties": {"collection_times": [{"days": "Mon-Fri", "time": "5:00pm"}, {"days": "Sat", "time": "3:45pm"}, {"days": "Sun", "time": "Closed"}], "id": "2726200022", "name": "USPS COLLECTION BOX - BLUE BOX", "address": {"city": "HIGH POINT", "state": "NC", "street": "116 ROCKSPRING RD", "postcode": "27262"}}},
{"geometry": {"type": "Point", "coordinates": [-80.019844368, 35.974917397]}, "type": "Feature", "properties": {"collection_times": [{"days": "Mon-Fri", "time": "5:00pm"}, {"days": "Sat", "time": "3:45pm"}, {"days": "Sun", "time": "Closed"}], "id": "2726200025", "name": "USPS COLLECTION BOX - BLUE BOX", "address": {"city": "HIGH POINT", "state": "NC", "street": "116 ROCKSPRING RD", "postcode": "27262"}}},
{"geometry": {"type": "Point", "coordinates": [-80.033536902, 35.950007894]}, "type": "Feature", "properties": {"collection_times": [{"days": "Mon-Sat", "time": "12:00pm"}, {"days": "Sun", "time": "Closed"}], "id": "2726200028", "name": "USPS COLLECTION BOX - BLUE BOX", "address": {"city": "HIGH POINT", "state": "NC", "street": "1677 WESTCHESTER DR", "postcode": "27262"}}},
{"geometry": {"type": "Point", "coordinates": [-80.034524098, 35.938827058]}, "type": "Feature", "properties": {"collection_times": [{"days": "Mon-Sat", "time": "12:30pm"}, {"days": "Sun", "time": "Closed"}], "id": "2726200029", "name": "USPS COLLECTION BOX - BLUE BOX", "address": {"city": "HIGH POINT", "state": "NC", "street": "2200 WESTCHESTER DR", "postcode": "27262"}}},
{"geometry": {"type": "Point", "coordinates": [-80.001321918, 35.977474548]}, "type": "Feature", "properties": {"collection_times": [{"days": "Mon-Sat", "time": "11:30am"}, {"days": "Sun", "time": "Closed"}], "id": "2726200031", "name": "USPS COLLECTION BOX - BLUE BOX", "address": {"city": "HIGH POINT", "state": "NC", "street": "1100 E LEXINGTON AVE", "postcode": "27262"}}},
{"geometry": {"type": "Point", "coordinates": [-80.01701565, 35.983383737]}, "type": "Feature", "properties": {"collection_times": [{"days": "Mon-Sat", "time": "12:00pm"}, {"days": "Sun", "time": "Closed"}], "id": "2726200039", "name": "USPS COLLECTION BOX - BLUE BOX", "address": {"city": "HIGH POINT", "state": "NC", "street": "274 EASTCHESTER DR", "postcode": "27262"}}},
{"geometry": {"type": "Point", "coordinates": [-80.033637136, 35.948368008]}, "type": "Feature", "properties": {"collection_times": [{"days": "Mon-Sat", "time": "12:00pm"}, {"days": "Sun", "time": "Closed"}], "id": "2726200041", "name": "USPS COLLECTION BOX - BLUE BOX", "address": {"city": "HIGH POINT", "state": "NC", "street": "1701 WESTCHESTER DR", "postcode": "27262"}}},
{"geometry": {"type": "Point", "coordinates": [-80.021281454, 35.98793859]}, "type": "Feature", "properties": {"collection_times": [{"days": "Mon-Sat", "time": "12:00pm"}, {"days": "Sun", "time": "Closed"}], "id": "2726200044", "name": "USPS COLLECTION BOX - BLUE BOX", "address": {"city": "HIGH POINT", "state": "NC", "street": "175 NORTHPOINT AVE", "postcode": "27262"}}},
{"geometry": {"type": "Point", "coordinates": [-80.018835027, 35.961467291]}, "type": "Feature", "properties": {"collection_times": [{"days": "Mon-Sat", "time": "12:30pm"}, {"days": "Sun", "time": "Closed"}], "id": "2726200046", "name": "USPS COLLECTION BOX - BLUE BOX", "address": {"city": "HIGH POINT", "state": "NC", "street": "624 QUAKER LN", "postcode": "27262"}}},
{"geometry": {"type": "Point", "coordinates": [-80.012282472, 35.95768984]}, "type": "Feature", "properties": {"collection_times": [{"days": "Mon-Sat", "time": "1:00pm"}, {"days": "Sun", "time": "Closed"}], "id": "2726200048", "name": "USPS COLLECTION BOX - BLUE BOX", "address": {"city": "HIGH POINT", "state": "NC", "street": "213 LINDSAY ST", "postcode": "27262"}}},
{"geometry": {"type": "Point", "coordinates": [-80.019844368, 35.974917397]}, "type": "Feature", "properties": {"collection_times": [{"days": "Mon-Fri", "time": "5:00pm"}, {"days": "Sat", "time": "3:00pm"}, {"days": "Sun", "time": "Closed"}], "id": "2726200053", "name": "USPS COLLECTION BOX - APC", "address": {"city": "HIGH POINT", "state": "NC", "street": "116 ROCKSPRING RD", "postcode": "27262"}}},
{"geometry": {"type": "Point", "coordinates": [-79.9588725, 35.90607477]}, "type": "Feature", "properties": {"collection_times": [{"days": "Mon-Fri", "time": "5:00pm"}, {"days": "Sat", "time": "4:30pm"}, {"days": "Sun", "time": "Closed"}], "id": "2726300009", "name": "USPS COLLECTION BOX - BLUE BOX", "address": {"city": "HIGH POINT", "state": "NC", "street": "10193 N MAIN ST", "postcode": "27263"}}},
{"geometry": {"type": "Point", "coordinates": [-79.9588725, 35.90607477]}, "type": "Feature", "properties": {"collection_times": [{"days": "Mon-Fri", "time": "5:00pm"}, {"days": "Sat", "time": "4:30pm"}, {"days": "Sun", "time": "Closed"}], "id": "2726300010", "name": "USPS COLLECTION BOX - BLUE BOX", "address": {"city": "HIGH POINT", "state": "NC", "street": "10193 N MAIN ST", "postcode": "27263"}}},
{"geometry": {"type": "Point", "coordinates": [-79.9588725, 35.90607477]}, "type": "Feature", "properties": {"collection_times": [{"days": "Mon-Fri", "time": "5:00pm"}, {"days": "Sat", "time": "4:30pm"}, {"days": "Sun", "time": "Closed"}], "id": "2726300012", "name": "USPS COLLECTION BOX - BLUE BOX", "address": {"city": "HIGH POINT", "state": "NC", "street": "10193 N MAIN ST", "postcode": "27263"}}},
{"geometry": {"type": "Point", "coordinates": [-79.947428256, 35.900467451]}, "type": "Feature", "properties": {"collection_times": [{"days": "Mon-Sat", "time": "12:30pm"}, {"days": "Sun", "time": "Closed"}], "id": "2726300013", "name": "USPS COLLECTION BOX - BLUE BOX", "address": {"city": "HIGH POINT", "state": "NC", "street": "10106 S MAIN ST", "postcode": "27263"}}},
{"geometry": {"type": "Point", "coordinates": [-79.962345751, 35.899773966]}, "type": "Feature", "properties": {"collection_times": [{"days": "Mon-Sat", "time": "12:30pm"}, {"days": "Sun", "time": "Closed"}], "id": "2726300014", "name": "USPS COLLECTION BOX - BLUE BOX", "address": {"city": "HIGH POINT", "state": "NC", "street": "307 BALFOUR DR", "postcode": "27263"}}},
{"geometry": {"type": "Point", "coordinates": [-79.960180214, 36.052013073]}, "type": "Feature", "properties": {"collection_times": [{"days": "Mon-Fri", "time": "3:30pm"}, {"days": "Sat", "time": "3:00pm"}, {"days": "Sun", "time": "Closed"}], "id": "2726500007", "name": "USPS COLLECTION BOX - BLUE BOX", "address": {"city": "HIGH POINT", "state": "NC", "street": "4000 PIEDMONT PKWY", "postcode": "27265"}}},
{"geometry": {"type": "Point", "coordinates": [-80.030574148, 35.993450336]}, "type": "Feature", "properties": {"collection_times": [{"days": "Mon-Sat", "time": "11:30am"}, {"days": "Sun", "time": "Closed"}], "id": "2726500011", "name": "USPS COLLECTION BOX - BLUE BOX", "address": {"city": "HIGH POINT", "state": "NC", "street": "2705 N MAIN ST", "postcode": "27265"}}},
{"geometry": {"type": "Point", "coordinates": [-79.983287821, 36.011649937]}, "type": "Feature", "properties": {"collection_times": [{"days": "Mon-Sat", "time": "1:00pm"}, {"days": "Sun", "time": "Closed"}], "id": "2726500012", "name": "USPS COLLECTION BOX - BLUE BOX", "address": {"city": "HIGH POINT", "state": "NC", "street": "1912 EASTCHESTER DR", "postcode": "27265"}}},
{"geometry": {"type": "Point", "coordinates": [-79.998578393, 35.992512463]}, "type": "Feature", "properties": {"collection_times": [{"days": "Mon-Sat", "time": "12:30pm"}, {"days": "Sun", "time": "Closed"}], "id": "2726500014", "name": "USPS COLLECTION BOX - BLUE BOX", "address": {"city": "HIGH POINT", "state": "NC", "street": "1150 EASTCHESTER DR", "postcode": "27265"}}},
{"geometry": {"type": "Point", "coordinates": [-79.996666829, 35.994541263]}, "type": "Feature", "properties": {"collection_times": [{"days": "Mon-Sat", "time": "12:30pm"}, {"days": "Sun", "time": "Closed"}], "id": "2726500016", "name": "USPS COLLECTION BOX - BLUE BOX", "address": {"city": "HIGH POINT", "state": "NC", "street": "1208 EASTCHESTER DR", "postcode": "27265"}}},
{"geometry": {"type": "Point", "coordinates": [-79.985993087, 36.008801952]}, "type": "Feature", "properties": {"collection_times": [{"days": "Mon-Sat", "time": "10:30am"}, {"days": "Sun", "time": "Closed"}], "id": "2726500018", "name": "USPS COLLECTION BOX - BLUE BOX", "address": {"city": "HIGH POINT", "state": "NC", "street": "1840 EASTCHESTER DR", "postcode": "27265"}}},
{"geometry": {"type": "Point", "coordinates": [-79.971363075, 36.024336346]}, "type": "Feature", "properties": {"collection_times": [{"days": "Mon-Fri", "time": "4:45pm"}, {"days": "Sat", "time": "4:00pm"}, {"days": "Sun", "time": "Closed"}], "id": "2726500019", "name": "USPS COLLECTION BOX - BLUE BOX", "address": {"city": "HIGH POINT", "state": "NC", "street": "2402 HICKSWOOD RD", "postcode": "27265"}}},
{"geometry": {"type": "Point", "coordinates": [-79.955507643, 36.050565496]}, "type": "Feature", "properties": {"collection_times": [{"days": "Mon-Sat", "time": "3:30pm"}, {"days": "Sun", "time": "Closed"}], "id": "2726500020", "name": "USPS COLLECTION BOX - BLUE BOX", "address": {"city": "HIGH POINT", "state": "NC", "street": "4194 MENDENHALL OAKS PKWY", "postcode": "27265"}}},
{"geometry": {"type": "Point", "coordinates": [-79.955507643, 36.050565496]}, "type": "Feature", "properties": {"collection_times": [{"days": "Mon-Sat", "time": "3:30pm"}, {"days": "Sun", "time": "Closed"}], "id": "2726500021", "name": "USPS COLLECTION BOX - BLUE BOX", "address": {"city": "HIGH POINT", "state": "NC", "street": "4194 MENDENHALL OAKS PKWY", "postcode": "27265"}}},
{"geometry": {"type": "Point", "coordinates": [-79.971363075, 36.024336346]}, "type": "Feature", "properties": {"collection_times": [{"days": "Mon-Fri", "time": "4:45pm"}, {"days": "Sat", "time": "4:00pm"}, {"days": "Sun", "time": "Closed"}], "id": "2726500022", "name": "USPS COLLECTION BOX - BLUE BOX", "address": {"city": "HIGH POINT", "state": "NC", "street": "2402 HICKSWOOD RD", "postcode": "27265"}}},
{"geometry": {"type": "Point", "coordinates": [-79.966025405, 36.039000779]}, "type": "Feature", "properties": {"collection_times": [{"days": "Mon-Fri", "time": "3:30pm"}, {"days": "Sat", "time": "12:00pm"}, {"days": "Sun", "time": "Closed"}], "id": "2726500024", "name": "USPS COLLECTION BOX - BLUE BOX", "address": {"city": "HIGH POINT", "state": "NC", "street": "2490 PENNY RD", "postcode": "27265"}}},
{"geometry": {"type": "Point", "coordinates": [-79.097380442, 36.075423716]}, "type": "Feature", "properties": {"collection_times": [{"days": "Mon-Fri", "time": "4:30pm"}, {"days": "Sat", "time": "12:00pm"}, {"days": "Sun", "time": "Closed"}], "id": "2727800003", "name": "USPS COLLECTION BOX - BLUE BOX", "address": {"city": "HILLSBOROUGH", "state": "NC", "street": "144 E KING ST", "postcode": "27278"}}},
{"geometry": {"type": "Point", "coordinates": [-79.097380442, 36.075423716]}, "type": "Feature", "properties": {"collection_times": [{"days": "Mon-Fri", "time": "4:30pm"}, {"days": "Sat", "time": "12:00pm"}, {"days": "Sun", "time": "Closed"}], "id": "2727800004", "name": "USPS COLLECTION BOX - BLUE BOX", "address": {"city": "HILLSBOROUGH", "state": "NC", "street": "144 E KING ST", "postcode": "27278"}}},
{"geometry": {"type": "Point", "coordinates": [-79.099700994, 36.075417888]}, "type": "Feature", "properties": {"collection_times": [{"days": "Mon-Fri", "time": "2:00pm"}, {"days": "Sat", "time": "12:00pm"}, {"days": "Sun", "time": "Closed"}], "id": "2727800005", "name": "USPS COLLECTION BOX - BLUE BOX", "address": {"city": "HILLSBOROUGH", "state": "NC", "street": "102 W KING ST", "postcode": "27278"}}},
{"geometry": {"type": "Point", "coordinates": [-79.10437473, 36.054858108]}, "type": "Feature", "properties": {"collection_times": [{"days": "Mon-Fri", "time": "12:00pm"}, {"days": "Sat", "time": "11:00am"}, {"days": "Sun", "time": "Closed"}], "id": "2727800008", "name": "USPS COLLECTION BOX - BLUE BOX", "address": {"city": "HILLSBOROUGH", "state": "NC", "street": "500 S CHURTON ST", "postcode": "27278"}}},
{"geometry": {"type": "Point", "coordinates": [-79.097380442, 36.075423716]}, "type": "Feature", "properties": {"collection_times": [{"days": "Mon-Fri", "time": "4:30pm"}, {"days": "Sat", "time": "12:00pm"}, {"days": "Sun", "time": "Closed"}], "id": "2727800012", "name": "USPS COLLECTION BOX - PO LOBBY", "address": {"city": "HILLSBOROUGH", "state": "NC", "street": "144 E KING ST", "postcode": "27278"}}},
{"geometry": {"type": "Point", "coordinates": [-79.626235315, 35.206813824]}, "type": "Feature", "properties": {"collection_times": [{"days": "Mon-Fri", "time": "4:30pm"}, {"days": "Sat", "time": "11:00am"}, {"days": "Sun", "time": "Closed"}], "id": "2728100002", "name": "USPS COLLECTION BOX - BLUE BOX", "address": {"city": "JACKSON SPRINGS", "state": "NC", "street": "2411 JACKSON SPRINGS RD", "postcode": "27281"}}},
{"geometry": {"type": "Point", "coordinates": [-79.626235315, 35.206813824]}, "type": "Feature", "properties": {"collection_times": [{"days": "Mon-Fri", "time": "4:30pm"}, {"days": "Sat", "time": "11:00am"}, {"days": "Sun", "time": "Closed"}], "id": "2728100004", "name": "USPS COLLECTION BOX - PO LOBBY", "address": {"city": "JACKSON SPRINGS", "state": "NC", "street": "2411 JACKSON SPRINGS RD", "postcode": "27281"}}},
{"geometry": {"type": "Point", "coordinates": [-79.571813671, 35.178359975]}, "type": "Feature", "properties": {"collection_times": [{"days": "Mon-Fri", "time": "12:00pm"}, {"days": "Sat-Sun", "time": "Closed"}], "id": "2728100005", "name": "USPS COLLECTION BOX - BLUE BOX", "address": {"city": "JACKSON SPRINGS", "state": "NC", "street": "1960 HOFFMAN RD", "postcode": "27281"}}},
{"geometry": {"type": "Point", "coordinates": [-79.935414071, 35.995831494]}, "type": "Feature", "properties": {"collection_times": [{"days": "Mon-Fri", "time": "5:00pm"}, {"days": "Sat", "time": "12:00pm"}, {"days": "Sun", "time": "Closed"}], "id": "2728200003", "name": "USPS COLLECTION BOX - BLUE BOX", "address": {"city": "JAMESTOWN", "state": "NC", "street": "203 E MAIN ST", "postcode": "27282"}}},
{"geometry": {"type": "Point", "coordinates": [-79.935414071, 35.995831494]}, "type": "Feature", "properties": {"collection_times": [{"days": "Mon-Fri", "time": "5:00pm"}, {"days": "Sat", "time": "12:00pm"}, {"days": "Sun", "time": "Closed"}], "id": "2728200004", "name": "USPS COLLECTION BOX - BLUE BOX", "address": {"city": "JAMESTOWN", "state": "NC", "street": "203 E MAIN ST", "postcode": "27282"}}},
{"geometry": {"type": "Point", "coordinates": [-79.919672553, 36.040139917]}, "type": "Feature", "properties": {"collection_times": [{"days": "Mon-Sat", "time": "10:00am"}, {"days": "Sun", "time": "Closed"}], "id": "2728200008", "name": "USPS COLLECTION BOX - BLUE BOX", "address": {"city": "JAMESTOWN", "state": "NC", "street": "1236 GUILFORD COLLEGE RD", "postcode": "27282"}}},
{"geometry": {"type": "Point", "coordinates": [-79.924339297, 36.046404589]}, "type": "Feature", "properties": {"collection_times": [{"days": "Mon-Sat", "time": "10:00am"}, {"days": "Sun", "time": "Closed"}], "id": "2728200012", "name": "USPS COLLECTION BOX - BLUE BOX", "address": {"city": "JAMESTOWN", "state": "NC", "street": "4835 W WENDOVER AVE", "postcode": "27282"}}},
{"geometry": {"type": "Point", "coordinates": [-79.935414071, 35.995831494]}, "type": "Feature", "properties": {"collection_times": [{"days": "Mon-Fri", "time": "5:00pm"}, {"days": "Sat", "time": "12:00pm"}, {"days": "Sun", "time": "Closed"}], "id": "2728200017", "name": "USPS COLLECTION BOX - PO LOBBY", "address": {"city": "JAMESTOWN", "state": "NC", "street": "203 E MAIN ST", "postcode": "27282"}}},
{"geometry": {"type": "Point", "coordinates": [-79.951580693, 35.993069726]}, "type": "Feature", "properties": {"collection_times": [{"days": "Mon-Sat", "time": "9:00am"}, {"days": "Sun", "time": "Closed"}], "id": "2728200018", "name": "USPS COLLECTION BOX - BLUE BOX", "address": {"city": "JAMESTOWN", "state": "NC", "street": "705 W MAIN ST STE D", "postcode": "27282"}}},
{"geometry": {"type": "Point", "coordinates": [-79.657998076, 35.908476906]}, "type": "Feature", "properties": {"collection_times": [{"days": "Mon-Fri", "time": "4:00pm"}, {"days": "Sat", "time": "10:00am"}, {"days": "Sun", "time": "Closed"}], "id": "2728300001", "name": "USPS COLLECTION BOX - BLUE BOX", "address": {"city": "JULIAN", "state": "NC", "street": "6600 LIBERTY RD", "postcode": "27283"}}},
{"geometry": {"type": "Point", "coordinates": [-79.657998076, 35.908476906]}, "type": "Feature", "properties": {"collection_times": [{"days": "Mon-Fri", "time": "4:00pm"}, {"days": "Sat", "time": "10:00am"}, {"days": "Sun", "time": "Closed"}], "id": "2728300003", "name": "USPS COLLECTION BOX - PO LOBBY", "address": {"city": "JULIAN", "state": "NC", "street": "6600 LIBERTY RD", "postcode": "27283"}}},
{"geometry": {"type": "Point", "coordinates": [-80.071009547, 36.118994363]}, "type": "Feature", "properties": {"collection_times": [{"days": "Mon-Fri", "time": "2:00pm"}, {"days": "Sat", "time": "12:00pm"}, {"days": "Sun", "time": "Closed"}], "id": "2728400001", "name": "USPS COLLECTION BOX - BLUE BOX", "address": {"city": "KERNERSVILLE", "state": "NC", "street": "214 E MOUNTAIN ST", "postcode": "27284"}}},
{"geometry": {"type": "Point", "coordinates": [-80.073361567, 36.119682021]}, "type": "Feature", "properties": {"collection_times": [{"days": "Mon-Fri", "time": "2:00pm"}, {"days": "Sat", "time": "12:00pm"}, {"days": "Sun", "time": "Closed"}], "id": "2728400006", "name": "USPS COLLECTION BOX - BLUE BOX", "address": {"city": "KERNERSVILLE", "state": "NC", "street": "100 S MAIN ST", "postcode": "27284"}}},
{"geometry": {"type": "Point", "coordinates": [-80.075278848, 36.119793911]}, "type": "Feature", "properties": {"collection_times": [{"days": "Mon-Fri", "time": "3:00pm"}, {"days": "Sat", "time": "9:30am"}, {"days": "Sun", "time": "Closed"}], "id": "2728400007", "name": "USPS COLLECTION BOX - BLUE BOX", "address": {"city": "KERNERSVILLE", "state": "NC", "street": "120 S CHERRY ST", "postcode": "27284"}}},
{"geometry": {"type": "Point", "coordinates": [-80.07897821, 36.117053772]}, "type": "Feature", "properties": {"collection_times": [{"days": "Mon-Fri", "time": "3:00pm"}, {"days": "Sat", "time": "11:00am"}, {"days": "Sun", "time": "Closed"}], "id": "2728400009", "name": "USPS COLLECTION BOX - BLUE BOX", "address": {"city": "KERNERSVILLE", "state": "NC", "street": "334 S CHERRY ST", "postcode": "27284"}}},
{"geometry": {"type": "Point", "coordinates": [-80.060659726, 36.134076197]}, "type": "Feature", "properties": {"collection_times": [{"days": "Mon-Sat", "time": "10:45am"}, {"days": "Sun", "time": "Closed"}], "id": "2728400013", "name": "USPS COLLECTION BOX - BLUE BOX", "address": {"city": "KERNERSVILLE", "state": "NC", "street": "300 WINDSOR MANOR WAY", "postcode": "27284"}}},
{"geometry": {"type": "Point", "coordinates": [-80.071539744, 36.131577976]}, "type": "Feature", "properties": {"collection_times": [{"days": "Mon-Sat", "time": "10:00am"}, {"days": "Sun", "time": "Closed"}], "id": "2728400015", "name": "USPS COLLECTION BOX - BLUE BOX", "address": {"city": "KERNERSVILLE", "state": "NC", "street": "127 FARMWOOD DR", "postcode": "27284"}}},
{"geometry": {"type": "Point", "coordinates": [-80.075506637, 36.113796869]}, "type": "Feature", "properties": {"collection_times": [{"days": "Mon-Fri", "time": "1:00pm"}, {"days": "Sat", "time": "12:00pm"}, {"days": "Sun", "time": "Closed"}], "id": "2728400016", "name": "USPS COLLECTION BOX - BLUE BOX", "address": {"city": "KERNERSVILLE", "state": "NC", "street": "100 WOODBINE ST", "postcode": "27284"}}},
{"geometry": {"type": "Point", "coordinates": [-80.076642144, 36.106530523]}, "type": "Feature", "properties": {"collection_times": [{"days": "Mon-Fri", "time": "12:30pm"}, {"days": "Sat", "time": "12:00pm"}, {"days": "Sun", "time": "Closed"}], "id": "2728400017", "name": "USPS COLLECTION BOX - BLUE BOX", "address": {"city": "KERNERSVILLE", "state": "NC", "street": "1050 DUGGINS ST", "postcode": "27284"}}},
{"geometry": {"type": "Point", "coordinates": [-80.072979981, 36.109246657]}, "type": "Feature", "properties": {"collection_times": [{"days": "Mon-Fri", "time": "1:00pm"}, {"days": "Sat", "time": "12:00pm"}, {"days": "Sun", "time": "Closed"}], "id": "2728400018", "name": "USPS COLLECTION BOX - BLUE BOX", "address": {"city": "KERNERSVILLE", "state": "NC", "street": "472 LINDSAY ST", "postcode": "27284"}}},
{"geometry": {"type": "Point", "coordinates": [-80.087118539, 36.111799015]}, "type": "Feature", "properties": {"collection_times": [{"days": "Mon-Fri", "time": "3:00pm"}, {"days": "Sat", "time": "10:00am"}, {"days": "Sun", "time": "Closed"}], "id": "2728400019", "name": "USPS COLLECTION BOX - BLUE BOX", "address": {"city": "KERNERSVILLE", "state": "NC", "street": "821 S MAIN ST", "postcode": "27284"}}},
{"geometry": {"type": "Point", "coordinates": [-80.09471245, 36.109060268]}, "type": "Feature", "properties": {"collection_times": [{"days": "Mon-Fri", "time": "3:00pm"}, {"days": "Sat", "time": "1:00pm"}, {"days": "Sun", "time": "Closed"}], "id": "2728400020", "name": "USPS COLLECTION BOX - BLUE BOX", "address": {"city": "KERNERSVILLE", "state": "NC", "street": "930 S MAIN ST", "postcode": "27284"}}},
{"geometry": {"type": "Point", "coordinates": [-80.093254669, 36.108518666]}, "type": "Feature", "properties": {"collection_times": [{"days": "Mon-Fri", "time": "3:00pm"}, {"days": "Sat", "time": "10:00am"}, {"days": "Sun", "time": "Closed"}], "id": "2728400021", "name": "USPS COLLECTION BOX - BLUE BOX", "address": {"city": "KERNERSVILLE", "state": "NC", "street": "209 CENTURY BLVD", "postcode": "27284"}}},
{"geometry": {"type": "Point", "coordinates": [-80.063022823, 36.110587043]}, "type": "Feature", "properties": {"collection_times": [{"days": "Mon-Fri", "time": "3:00pm"}, {"days": "Sat", "time": "12:00pm"}, {"days": "Sun", "time": "Closed"}], "id": "2728400023", "name": "USPS COLLECTION BOX - BLUE BOX", "address": {"city": "KERNERSVILLE", "state": "NC", "street": "719 NC HIGHWAY 66 S", "postcode": "27284"}}},
{"geometry": {"type": "Point", "coordinates": [-80.054247033, 36.11227747]}, "type": "Feature", "properties": {"collection_times": [{"days": "Mon-Fri", "time": "3:00pm"}, {"days": "Sat", "time": "10:00am"}, {"days": "Sun", "time": "Closed"}], "id": "2728400025", "name": "USPS COLLECTION BOX - BLUE BOX", "address": {"city": "KERNERSVILLE", "state": "NC", "street": "935 E MOUNTAIN ST", "postcode": "27284"}}},
{"geometry": {"type": "Point", "coordinates": [-80.064123653, 36.104044233]}, "type": "Feature", "properties": {"collection_times": [{"days": "Mon-Fri", "time": "12:00pm"}, {"days": "Sat", "time": "11:30am"}, {"days": "Sun", "time": "Closed"}], "id": "2728400027", "name": "USPS COLLECTION BOX - BLUE BOX", "address": {"city": "KERNERSVILLE", "state": "NC", "street": "1386 S PARK DR", "postcode": "27284"}}},
{"geometry": {"type": "Point", "coordinates": [-80.063897509, 36.135422815]}, "type": "Feature", "properties": {"collection_times": [{"days": "Mon-Sat", "time": "10:30am"}, {"days": "Sun", "time": "Closed"}], "id": "2728400028", "name": "USPS COLLECTION BOX - BLUE BOX", "address": {"city": "KERNERSVILLE", "state": "NC", "street": "561 VILLA DR", "postcode": "27284"}}},
{"geometry": {"type": "Point", "coordinates": [-80.07756793, 36.12357719]}, "type": "Feature", "properties": {"collection_times": [{"days": "Mon-Fri", "time": "5:00pm"}, {"days": "Sat", "time": "12:00pm"}, {"days": "Sun", "time": "Closed"}], "id": "2728400032", "name": "USPS COLLECTION BOX - BLUE BOX", "address": {"city": "KERNERSVILLE", "state": "NC", "street": "325 W MOUNTAIN ST", "postcode": "27284"}}},
{"geometry": {"type": "Point", "coordinates": [-80.07756793, 36.12357719]}, "type": "Feature", "properties": {"collection_times": [{"days": "Mon-Fri", "time": "5:00pm"}, {"days": "Sat", "time": "12:00pm"}, {"days": "Sun", "time": "Closed"}], "id": "2728400034", "name": "USPS COLLECTION BOX - PO LOBBY", "address": {"city": "KERNERSVILLE", "state": "NC", "street": "325 W MOUNTAIN ST", "postcode": "27284"}}},
{"geometry": {"type": "Point", "coordinates": [-80.07756793, 36.12357719]}, "type": "Feature", "properties": {"collection_times": [{"days": "Mon-Fri", "time": "5:00pm"}, {"days": "Sat", "time": "12:00pm"}, {"days": "Sun", "time": "Closed"}], "id": "2728400035", "name": "USPS COLLECTION BOX - PO LOBBY", "address": {"city": "KERNERSVILLE", "state": "NC", "street": "325 W MOUNTAIN ST", "postcode": "27284"}}},
{"geometry": {"type": "Point", "coordinates": [-80.108008356, 36.078216423]}, "type": "Feature", "properties": {"collection_times": [{"days": "Mon-Fri", "time": "2:00pm"}, {"days": "Sat", "time": "12:00pm"}, {"days": "Sun", "time": "Closed"}], "id": "2728400036", "name": "USPS COLLECTION BOX - BLUE BOX", "address": {"city": "KERNERSVILLE", "state": "NC", "street": "1523 UNION CROSS RD", "postcode": "27284"}}},
{"geometry": {"type": "Point", "coordinates": [-80.07756793, 36.12357719]}, "type": "Feature", "properties": {"collection_times": [{"days": "Mon-Fri", "time": "5:00pm"}, {"days": "Sat", "time": "12:00pm"}, {"days": "Sun", "time": "Closed"}], "id": "2728400037", "name": "USPS COLLECTION BOX - APC", "address": {"city": "KERNERSVILLE", "state": "NC", "street": "325 W MOUNTAIN ST", "postcode": "27284"}}},
{"geometry": {"type": "Point", "coordinates": [-80.07756793, 36.12357719]}, "type": "Feature", "properties": {"collection_times": [{"days": "Mon-Fri", "time": "5:00pm"}, {"days": "Sat", "time": "12:00pm"}, {"days": "Sun", "time": "Closed"}], "id": "2728400038", "name": "USPS COLLECTION BOX - BLUE BOX", "address": {"city": "KERNERSVILLE", "state": "NC", "street": "325 W MOUNTAIN ST", "postcode": "27284"}}},
{"geometry": {"type": "Point", "coordinates": [-80.07756793, 36.12357719]}, "type": "Feature", "properties": {"collection_times": [{"days": "Mon-Fri", "time": "5:00pm"}, {"days": "Sat", "time": "12:00pm"}, {"days": "Sun", "time": "Closed"}], "id": "2728400039", "name": "USPS COLLECTION BOX - BLUE BOX", "address": {"city": "KERNERSVILLE", "state": "NC", "street": "325 W MOUNTAIN ST", "postcode": "27284"}}},
{"geometry": {"type": "Point", "coordinates": [-80.07756793, 36.12357719]}, "type": "Feature", "properties": {"collection_times": [{"days": "Mon-Fri", "time": "5:00pm"}, {"days": "Sat", "time": "12:00pm"}, {"days": "Sun", "time": "Closed"}], "id": "2728400040", "name": "USPS COLLECTION BOX - BLUE BOX", "address": {"city": "KERNERSVILLE", "state": "NC", "street": "325 W MOUNTAIN ST", "postcode": "27284"}}},
{"geometry": {"type": "Point", "coordinates": [-80.07756793, 36.12357719]}, "type": "Feature", "properties": {"collection_times": [{"days": "Mon-Fri", "time": "5:00pm"}, {"days": "Sat", "time": "12:00pm"}, {"days": "Sun", "time": "Closed"}], "id": "2728400041", "name": "USPS COLLECTION BOX - BLUE BOX", "address": {"city": "KERNERSVILLE", "state": "NC", "street": "325 W MOUNTAIN ST", "postcode": "27284"}}},
{"geometry": {"type": "Point", "coordinates": [-79.738879363, 36.510561425]}, "type": "Feature", "properties": {"collection_times": [{"days": "Mon-Fri", "time": "5:00pm"}, {"days": "Sat", "time": "12:00pm"}, {"days": "Sun", "time": "Closed"}], "id": "2728800003", "name": "USPS COLLECTION BOX - BLUE BOX", "address": {"city": "EDEN", "state": "NC", "street": "332 N PIERCE ST", "postcode": "27288"}}},
{"geometry": {"type": "Point", "coordinates": [-79.738879363, 36.510561425]}, "type": "Feature", "properties": {"collection_times": [{"days": "Mon-Fri", "time": "5:00pm"}, {"days": "Sat", "time": "12:00pm"}, {"days": "Sun", "time": "Closed"}], "id": "2728800004", "name": "USPS COLLECTION BOX - BLUE BOX", "address": {"city": "EDEN", "state": "NC", "street": "332 N PIERCE ST", "postcode": "27288"}}},
{"geometry": {"type": "Point", "coordinates": [-79.737599621, 36.491709133]}, "type": "Feature", "properties": {"collection_times": [{"days": "Mon-Sat", "time": "2:00pm"}, {"days": "Sun", "time": "Closed"}], "id": "2728800012", "name": "USPS COLLECTION BOX - BLUE BOX", "address": {"city": "EDEN", "state": "NC", "street": "698 S LINDEN DR", "postcode": "27288"}}},
{"geometry": {"type": "Point", "coordinates": [-79.760596505, 36.515868039]}, "type": "Feature", "properties": {"collection_times": [{"days": "Mon-Sat", "time": "11:00am"}, {"days": "Sun", "time": "Closed"}], "id": "2728800014", "name": "USPS COLLECTION BOX - BLUE BOX", "address": {"city": "EDEN", "state": "NC", "street": "544 MORGAN RD", "postcode": "27288"}}},
{"geometry": {"type": "Point", "coordinates": [-79.74377688, 36.492633391]}, "type": "Feature", "properties": {"collection_times": [{"days": "Mon-Sat", "time": "10:00am"}, {"days": "Sun", "time": "Closed"}], "id": "2728800015", "name": "USPS COLLECTION BOX - BLUE BOX", "address": {"city": "EDEN", "state": "NC", "street": "220 W KINGS HWY", "postcode": "27288"}}},
{"geometry": {"type": "Point", "coordinates": [-79.769682901, 36.496839754]}, "type": "Feature", "properties": {"collection_times": [{"days": "Mon-Sat", "time": "1:00pm"}, {"days": "Sun", "time": "Closed"}], "id": "2728800022", "name": "USPS COLLECTION BOX - BLUE BOX", "address": {"city": "EDEN", "state": "NC", "street": "403 MONROE ST", "postcode": "27288"}}},
{"geometry": {"type": "Point", "coordinates": [-79.777996558, 36.487960819]}, "type": "Feature", "properties": {"collection_times": [{"days": "Mon-Sat", "time": "9:30am"}, {"days": "Sun", "time": "Closed"}], "id": "2728800028", "name": "USPS COLLECTION BOX - BLUE BOX", "address": {"city": "EDEN", "state": "NC", "street": "630 ELM ST", "postcode": "27288"}}},
{"geometry": {"type": "Point", "coordinates": [-79.693220102, 36.517026567]}, "type": "Feature", "properties": {"collection_times": [{"days": "Mon-Sat", "time": "11:30am"}, {"days": "Sun", "time": "Closed"}], "id": "2728800031", "name": "USPS COLLECTION BOX - BLUE BOX", "address": {"city": "EDEN", "state": "NC", "street": "129 N FIELDCREST RD", "postcode": "27288"}}},
{"geometry": {"type": "Point", "coordinates": [-79.740094108, 36.493276464]}, "type": "Feature", "properties": {"collection_times": [{"days": "Mon-Sat", "time": "2:30pm"}, {"days": "Sun", "time": "Closed"}], "id": "2728800034", "name": "USPS COLLECTION BOX - BLUE BOX", "address": {"city": "EDEN", "state": "NC", "street": "117 E KINGS HWY", "postcode": "27288"}}},
{"geometry": {"type": "Point", "coordinates": [-79.764725943, 36.490026122]}, "type": "Feature", "properties": {"collection_times": [{"days": "Mon-Sat", "time": "3:00pm"}, {"days": "Sun", "time": "Closed"}], "id": "2728800038", "name": "USPS COLLECTION BOX - BLUE BOX", "address": {"city": "EDEN", "state": "NC", "street": "702 WASHINGTON ST", "postcode": "27288"}}},
{"geometry": {"type": "Point", "coordinates": [-79.738879363, 36.510561425]}, "type": "Feature", "properties": {"collection_times": [{"days": "Mon-Fri", "time": "4:30pm"}, {"days": "Sat", "time": "12:00pm"}, {"days": "Sun", "time": "Closed"}], "id": "2728800040", "name": "USPS COLLECTION BOX - PO LOBBY", "address": {"city": "EDEN", "state": "NC", "street": "332 N PIERCE ST", "postcode": "27288"}}},
{"geometry": {"type": "Point", "coordinates": [-79.738879363, 36.510561425]}, "type": "Feature", "properties": {"collection_times": [{"days": "Mon-Fri", "time": "4:30pm"}, {"days": "Sat", "time": "12:00pm"}, {"days": "Sun", "time": "Closed"}], "id": "2728800041", "name": "USPS COLLECTION BOX - PO LOBBY", "address": {"city": "EDEN", "state": "NC", "street": "332 N PIERCE ST", "postcode": "27288"}}},
{"geometry": {"type": "Point", "coordinates": [-79.740168429, 36.492511011]}, "type": "Feature", "properties": {"collection_times": [{"days": "Mon-Sat", "time": "2:30pm"}, {"days": "Sun", "time": "Closed"}], "id": "2728800042", "name": "USPS COLLECTION BOX - BLUE BOX", "address": {"city": "EDEN", "state": "NC", "street": "640 S VAN BUREN RD", "postcode": "27288"}}},
{"geometry": {"type": "Point", "coordinates": [-79.158623989, 36.394193191]}, "type": "Feature", "properties": {"collection_times": [{"days": "Mon-Fri", "time": "4:00pm"}, {"days": "Sat", "time": "10:30am"}, {"days": "Sun", "time": "Closed"}], "id": "2729100001", "name": "USPS COLLECTION BOX - BLUE BOX", "address": {"city": "LEASBURG", "state": "NC", "street": "7330 US HIGHWAY 158 E", "postcode": "27291"}}},
{"geometry": {"type": "Point", "coordinates": [-79.158623989, 36.394193191]}, "type": "Feature", "properties": {"collection_times": [{"days": "Mon-Fri", "time": "4:00pm"}, {"days": "Sat", "time": "10:30am"}, {"days": "Sun", "time": "Closed"}], "id": "2729100003", "name": "USPS COLLECTION BOX - PO LOBBY", "address": {"city": "LEASBURG", "state": "NC", "street": "7330 US HIGHWAY 158 E", "postcode": "27291"}}},
{"geometry": {"type": "Point", "coordinates": [-80.248416427, 35.81953406]}, "type": "Feature", "properties": {"collection_times": [{"days": "Mon-Fri", "time": "4:00pm"}, {"days": "Sat", "time": "1:00pm"}, {"days": "Sun", "time": "Closed"}], "id": "2729200002", "name": "USPS COLLECTION BOX - BLUE BOX", "address": {"city": "LEXINGTON", "state": "NC", "street": "407 E CENTER ST", "postcode": "27292"}}},
{"geometry": {"type": "Point", "coordinates": [-80.259989352, 35.791507612]}, "type": "Feature", "properties": {"collection_times": [{"days": "Mon-Sat", "time": "10:00am"}, {"days": "Sun", "time": "Closed"}], "id": "2729200003", "name": "USPS COLLECTION BOX - BLUE BOX", "address": {"city": "LEXINGTON", "state": "NC", "street": "160 LOWES BLVD", "postcode": "27292"}}},
{"geometry": {"type": "Point", "coordinates": [-80.27713644, 35.836899144]}, "type": "Feature", "properties": {"collection_times": [{"days": "Mon-Sat", "time": "12:00pm"}, {"days": "Sun", "time": "Closed"}], "id": "2729200004", "name": "USPS COLLECTION BOX - BLUE BOX", "address": {"city": "LEXINGTON", "state": "NC", "street": "140 FOREST HILL RD", "postcode": "27292"}}},
{"geometry": {"type": "Point", "coordinates": [-80.248975115, 35.814225729]}, "type": "Feature", "properties": {"collection_times": [{"days": "Mon-Fri", "time": "4:00pm"}, {"days": "Sat", "time": "10:00am"}, {"days": "Sun", "time": "Closed"}], "id": "2729200006", "name": "USPS COLLECTION BOX - BLUE BOX", "address": {"city": "LEXINGTON", "state": "NC", "street": "31 S TALBERT BLVD", "postcode": "27292"}}},
{"geometry": {"type": "Point", "coordinates": [-80.253248542, 35.824105735]}, "type": "Feature", "properties": {"collection_times": [{"days": "Mon-Fri", "time": "4:00pm"}, {"days": "Sat", "time": "10:00am"}, {"days": "Sun", "time": "Closed"}], "id": "2729200007", "name": "USPS COLLECTION BOX - BLUE BOX", "address": {"city": "LEXINGTON", "state": "NC", "street": "2 N MAIN ST", "postcode": "27292"}}},
{"geometry": {"type": "Point", "coordinates": [-80.255957817, 35.822307654]}, "type": "Feature", "properties": {"collection_times": [{"days": "Mon-Fri", "time": "4:00pm"}, {"days": "Sat", "time": "10:30am"}, {"days": "Sun", "time": "Closed"}], "id": "2729200009", "name": "USPS COLLECTION BOX - BLUE BOX", "address": {"city": "LEXINGTON", "state": "NC", "street": "15 W 3RD AVE", "postcode": "27292"}}},
{"geometry": {"type": "Point", "coordinates": [-80.252599953, 35.823447533]}, "type": "Feature", "properties": {"collection_times": [{"days": "Mon-Fri", "time": "4:00pm"}, {"days": "Sat", "time": "11:00am"}, {"days": "Sun", "time": "Closed"}], "id": "2729200010", "name": "USPS COLLECTION BOX - BLUE BOX", "address": {"city": "LEXINGTON", "state": "NC", "street": "15 E CENTER ST", "postcode": "27292"}}},
{"geometry": {"type": "Point", "coordinates": [-80.259891449, 35.830524573]}, "type": "Feature", "properties": {"collection_times": [{"days": "Mon-Sat", "time": "11:00am"}, {"days": "Sun", "time": "Closed"}], "id": "2729200015", "name": "USPS COLLECTION BOX - BLUE BOX", "address": {"city": "LEXINGTON", "state": "NC", "street": "6 WESTOVER DR", "postcode": "27292"}}},
{"geometry": {"type": "Point", "coordinates": [-80.255451982, 35.824643357]}, "type": "Feature", "properties": {"collection_times": [{"days": "Mon-Fri", "time": "4:00pm"}, {"days": "Sat", "time": "10:00am"}, {"days": "Sun", "time": "Closed"}], "id": "2729200018", "name": "USPS COLLECTION BOX - BLUE BOX", "address": {"city": "LEXINGTON", "state": "NC", "street": "102 W 1ST AVE", "postcode": "27292"}}},
{"geometry": {"type": "Point", "coordinates": [-80.254694143, 35.825203803]}, "type": "Feature", "properties": {"collection_times": [{"days": "Mon-Fri", "time": "4:00pm"}, {"days": "Sat", "time": "10:00am"}, {"days": "Sun", "time": "Closed"}], "id": "2729200019", "name": "USPS COLLECTION BOX - BLUE BOX", "address": {"city": "LEXINGTON", "state": "NC", "street": "112 W CENTER ST", "postcode": "27292"}}},
{"geometry": {"type": "Point", "coordinates": [-80.261829911, 35.823298076]}, "type": "Feature", "properties": {"collection_times": [{"days": "Mon-Sat", "time": "10:00am"}, {"days": "Sun", "time": "Closed"}], "id": "2729200023", "name": "USPS COLLECTION BOX - BLUE BOX", "address": {"city": "LEXINGTON", "state": "NC", "street": "315 W 5TH AVE", "postcode": "27292"}}},
{"geometry": {"type": "Point", "coordinates": [-80.26547686, 35.813215082]}, "type": "Feature", "properties": {"collection_times": [{"days": "Mon-Sat", "time": "10:00am"}, {"days": "Sun", "time": "Closed"}], "id": "2729200025", "name": "USPS COLLECTION BOX - BLUE BOX", "address": {"city": "LEXINGTON", "state": "NC", "street": "1104 S MAIN ST", "postcode": "27292"}}},
{"geometry": {"type": "Point", "coordinates": [-80.269335661, 35.80984591]}, "type": "Feature", "properties": {"collection_times": [{"days": "Mon-Sat", "time": "10:30am"}, {"days": "Sun", "time": "Closed"}], "id": "2729200027", "name": "USPS COLLECTION BOX - BLUE BOX", "address": {"city": "LEXINGTON", "state": "NC", "street": "1309 S MAIN ST", "postcode": "27292"}}},
{"geometry": {"type": "Point", "coordinates": [-80.24061957, 35.819179398]}, "type": "Feature", "properties": {"collection_times": [{"days": "Mon-Fri", "time": "4:00pm"}, {"days": "Sat", "time": "11:00am"}, {"days": "Sun", "time": "Closed"}], "id": "2729200028", "name": "USPS COLLECTION BOX - BLUE BOX", "address": {"city": "LEXINGTON", "state": "NC", "street": "288 N TALBERT BLVD", "postcode": "27292"}}},
{"geometry": {"type": "Point", "coordinates": [-80.246521861, 35.830878593]}, "type": "Feature", "properties": {"collection_times": [{"days": "Mon-Fri", "time": "4:00pm"}, {"days": "Sat", "time": "10:00am"}, {"days": "Sun", "time": "Closed"}], "id": "2729200029", "name": "USPS COLLECTION BOX - BLUE BOX", "address": {"city": "LEXINGTON", "state": "NC", "street": "100 W HEMSTEAD ST", "postcode": "27292"}}},
{"geometry": {"type": "Point", "coordinates": [-80.261499867, 35.81669917]}, "type": "Feature", "properties": {"collection_times": [{"days": "Mon-Fri", "time": "4:00pm"}, {"days": "Sat", "time": "10:00am"}, {"days": "Sun", "time": "Closed"}], "id": "2729200032", "name": "USPS COLLECTION BOX - BLUE BOX", "address": {"city": "LEXINGTON", "state": "NC", "street": "825 S MAIN ST", "postcode": "27292"}}},
{"geometry": {"type": "Point", "coordinates": [-80.276652337, 35.83316854]}, "type": "Feature", "properties": {"collection_times": [{"days": "Mon-Sat", "time": "12:00pm"}, {"days": "Sun", "time": "Closed"}], "id": "2729200033", "name": "USPS COLLECTION BOX - BLUE BOX", "address": {"city": "LEXINGTON", "state": "NC", "street": "60 W US HIGHWAY 64", "postcode": "27292"}}},
{"geometry": {"type": "Point", "coordinates": [-80.262156527, 35.796012954]}, "type": "Feature", "properties": {"collection_times": [{"days": "Mon-Sat", "time": "9:15am"}, {"days": "Sun", "time": "Closed"}], "id": "2729200034", "name": "USPS COLLECTION BOX - BLUE BOX", "address": {"city": "LEXINGTON", "state": "NC", "street": "100 FEDERAL ST", "postcode": "27292"}}},
{"geometry": {"type": "Point", "coordinates": [-80.262604014, 35.837848379]}, "type": "Feature", "properties": {"collection_times": [{"days": "Mon-Sat", "time": "9:30am"}, {"days": "Sun", "time": "Closed"}], "id": "2729200043", "name": "USPS COLLECTION BOX - BLUE BOX", "address": {"city": "LEXINGTON", "state": "NC", "street": "202 MOUNT MORIAH DR", "postcode": "27292"}}},
{"geometry": {"type": "Point", "coordinates": [-80.259412312, 35.773321124]}, "type": "Feature", "properties": {"collection_times": [{"days": "Mon-Sat", "time": "10:30am"}, {"days": "Sun", "time": "Closed"}], "id": "2729200047", "name": "USPS COLLECTION BOX - BLUE BOX", "address": {"city": "LEXINGTON", "state": "NC", "street": "1907 COTTON GROVE RD", "postcode": "27292"}}},
{"geometry": {"type": "Point", "coordinates": [-80.252820237, 35.825728457]}, "type": "Feature", "properties": {"collection_times": [{"days": "Mon-Fri", "time": "5:00pm"}, {"days": "Sat", "time": "12:00pm"}, {"days": "Sun", "time": "Closed"}], "id": "2729200050", "name": "USPS COLLECTION BOX - BLUE BOX", "address": {"city": "LEXINGTON", "state": "NC", "street": "21 W 2ND ST", "postcode": "27292"}}},
{"geometry": {"type": "Point", "coordinates": [-80.252820237, 35.825728457]}, "type": "Feature", "properties": {"collection_times": [{"days": "Mon-Fri", "time": "5:00pm"}, {"days": "Sat", "time": "12:00pm"}, {"days": "Sun", "time": "Closed"}], "id": "2729200052", "name": "USPS COLLECTION BOX - BLUE BOX", "address": {"city": "LEXINGTON", "state": "NC", "street": "21 W 2ND ST", "postcode": "27292"}}},
{"geometry": {"type": "Point", "coordinates": [-80.252820237, 35.825728457]}, "type": "Feature", "properties": {"collection_times": [{"days": "Mon-Fri", "time": "5:00pm"}, {"days": "Sat", "time": "12:00pm"}, {"days": "Sun", "time": "Closed"}], "id": "2729200053", "name": "USPS COLLECTION BOX - BLUE BOX", "address": {"city": "LEXINGTON", "state": "NC", "street": "21 W 2ND ST", "postcode": "27292"}}},
{"geometry": {"type": "Point", "coordinates": [-80.253598085, 35.837271083]}, "type": "Feature", "properties": {"collection_times": [{"days": "Mon-Sat", "time": "10:00am"}, {"days": "Sun", "time": "Closed"}], "id": "2729200056", "name": "USPS COLLECTION BOX - BLUE BOX", "address": {"city": "LEXINGTON", "state": "NC", "street": "848 WINSTON RD", "postcode": "27292"}}},
{"geometry": {"type": "Point", "coordinates": [-80.258125811, 35.783205942]}, "type": "Feature", "properties": {"collection_times": [{"days": "Mon-Sat", "time": "10:00am"}, {"days": "Sun", "time": "Closed"}], "id": "2729200057", "name": "USPS COLLECTION BOX - BLUE BOX", "address": {"city": "LEXINGTON", "state": "NC", "street": "15 PLAZA PKWY", "postcode": "27292"}}},
{"geometry": {"type": "Point", "coordinates": [-80.249719132, 35.828227453]}, "type": "Feature", "properties": {"collection_times": [{"days": "Mon-Fri", "time": "4:00pm"}, {"days": "Sat", "time": "10:00am"}, {"days": "Sun", "time": "Closed"}], "id": "2729200058", "name": "USPS COLLECTION BOX - BLUE BOX", "address": {"city": "LEXINGTON", "state": "NC", "street": "915 N GREENSBORO ST", "postcode": "27292"}}},
{"geometry": {"type": "Point", "coordinates": [-80.262048666, 35.837665299]}, "type": "Feature", "properties": {"collection_times": [{"days": "Mon-Sat", "time": "9:30am"}, {"days": "Sun", "time": "Closed"}], "id": "2729200059", "name": "USPS COLLECTION BOX - BLUE BOX", "address": {"city": "LEXINGTON", "state": "NC", "street": "500 SWING DAIRY RD", "postcode": "27292"}}},
{"geometry": {"type": "Point", "coordinates": [-80.253601135, 35.825822864]}, "type": "Feature", "properties": {"collection_times": [{"days": "Mon-Fri", "time": "5:00pm"}, {"days": "Sat", "time": "12:00pm"}, {"days": "Sun", "time": "Closed"}], "id": "2729200060", "name": "USPS COLLECTION BOX - PO LOBBY", "address": {"city": "LEXINGTON", "state": "NC", "street": "110 N STATE ST", "postcode": "27292"}}},
{"geometry": {"type": "Point", "coordinates": [-80.253601135, 35.825822864]}, "type": "Feature", "properties": {"collection_times": [{"days": "Mon-Fri", "time": "5:00pm"}, {"days": "Sat", "time": "12:00pm"}, {"days": "Sun", "time": "Closed"}], "id": "2729200061", "name": "USPS COLLECTION BOX - PO LOBBY", "address": {"city": "LEXINGTON", "state": "NC", "street": "110 N STATE ST", "postcode": "27292"}}},
{"geometry": {"type": "Point", "coordinates": [-80.252467455, 35.804311644]}, "type": "Feature", "properties": {"collection_times": [{"days": "Mon-Sat", "time": "10:00am"}, {"days": "Sun", "time": "Closed"}], "id": "2729200062", "name": "USPS COLLECTION BOX - BLUE BOX", "address": {"city": "LEXINGTON", "state": "NC", "street": "812 FAIRVIEW DR", "postcode": "27292"}}},
{"geometry": {"type": "Point", "coordinates": [-80.288007297, 35.803075402]}, "type": "Feature", "properties": {"collection_times": [{"days": "Mon-Sat", "time": "12:00pm"}, {"days": "Sun", "time": "Closed"}], "id": "2729200064", "name": "USPS COLLECTION BOX - BLUE BOX", "address": {"city": "LEXINGTON", "state": "NC", "street": "102 W MEDICAL PARK DR", "postcode": "27292"}}},
{"geometry": {"type": "Point", "coordinates": [-80.253601135, 35.825822864]}, "type": "Feature", "properties": {"collection_times": [{"days": "Mon-Fri", "time": "5:00pm"}, {"days": "Sat", "time": "12:00pm"}, {"days": "Sun", "time": "Closed"}], "id": "2729200068", "name": "USPS COLLECTION BOX - PO LOBBY", "address": {"city": "LEXINGTON", "state": "NC", "street": "110 N STATE ST", "postcode": "27292"}}},
{"geometry": {"type": "Point", "coordinates": [-79.57766575, 35.852568059]}, "type": "Feature", "properties": {"collection_times": [{"days": "Mon-Fri", "time": "5:00pm"}, {"days": "Sat", "time": "12:00pm"}, {"days": "Sun", "time": "Closed"}], "id": "2729800004", "name": "USPS COLLECTION BOX - BLUE BOX", "address": {"city": "LIBERTY", "state": "NC", "street": "416 W SWANNANOA AVE", "postcode": "27298"}}},
{"geometry": {"type": "Point", "coordinates": [-79.57766575, 35.852568059]}, "type": "Feature", "properties": {"collection_times": [{"days": "Mon-Fri", "time": "5:00pm"}, {"days": "Sat", "time": "12:00pm"}, {"days": "Sun", "time": "Closed"}], "id": "2729800005", "name": "USPS COLLECTION BOX - BLUE BOX", "address": {"city": "LIBERTY", "state": "NC", "street": "416 W SWANNANOA AVE", "postcode": "27298"}}},
{"geometry": {"type": "Point", "coordinates": [-79.57766575, 35.852568059]}, "type": "Feature", "properties": {"collection_times": [{"days": "Mon-Fri", "time": "5:00pm"}, {"days": "Sat", "time": "12:00pm"}, {"days": "Sun", "time": "Closed"}], "id": "2729800007", "name": "USPS COLLECTION BOX - PO LOBBY", "address": {"city": "LIBERTY", "state": "NC", "street": "416 W SWANNANOA AVE", "postcode": "27298"}}},
{"geometry": {"type": "Point", "coordinates": [-80.315027129, 35.755151101]}, "type": "Feature", "properties": {"collection_times": [{"days": "Mon-Fri", "time": "4:30pm"}, {"days": "Sat", "time": "11:30am"}, {"days": "Sun", "time": "Closed"}], "id": "2729900001", "name": "USPS COLLECTION BOX - BLUE BOX", "address": {"city": "LINWOOD", "state": "NC", "street": "4276 OLD LINWOOD RD", "postcode": "27299"}}},
{"geometry": {"type": "Point", "coordinates": [-80.315027129, 35.755151101]}, "type": "Feature", "properties": {"collection_times": [{"days": "Mon-Fri", "time": "4:30pm"}, {"days": "Sat", "time": "11:30am"}, {"days": "Sun", "time": "Closed"}], "id": "2729900003", "name": "USPS COLLECTION BOX - PO LOBBY", "address": {"city": "LINWOOD", "state": "NC", "street": "4276 OLD LINWOOD RD", "postcode": "27299"}}}
]}
