{"type": "FeatureCollection", "features": [
{"geometry": {"type": "Point", "coordinates": [-79.658643774, 36.109417282]}, "type": "Feature", "properties": {"collection_times": [{"days": "Mon-Fri", "time": "4:30pm"}, {"days": "Sat", "time": "11:30am"}, {"days": "Sun", "time": "Closed"}], "id": "2730100001", "name": "USPS COLLECTION BOX - BLUE BOX", "address": {"city": "MCLEANSVILLE", "state": "NC", "street": "5711 MCLEANSVILLE RD", "postcode": "27301"}}},
{"geometry": {"type": "Point", "coordinates": [-79.658643774, 36.109417282]}, "type": "Feature", "properties": {"collection_times": [{"days": "Mon-Fri", "time": "4:30pm"}, {"days": "Sat", "time": "11:30am"}, {"days": "Sun", "time": "Closed"}], "id": "2730100004", "name": "USPS COLLECTION BOX - PO LOBBY", "address": {"city": "MCLEANSVILLE", "state": "NC", "street": "5711 MCLEANSVILLE RD", "postcode": "27301"}}},
{"geometry": {"type": "Point", "coordinates": [-79.266477545, 36.095995457]}, "type": "Feature", "properties": {"collection_times": [{"days": "Mon-Fri", "time": "11:00am"}, {"days": "Sat-Sun", "time": "Closed"}], "id": "2730200003", "name": "USPS COLLECTION BOX - BLUE BOX", "address": {"city": "MEBANE", "state": "NC", "street": "100 N FIFTH ST", "postcode": "27302"}}},
{"geometry": {"type": "Point", "coordinates": [-79.269896217, 36.096369136]}, "type": "Feature", "properties": {"collection_times": [{"days": "Mon-Fri", "time": "11:00am"}, {"days": "Sat-Sun", "time": "Closed"}], "id": "2730200004", "name": "USPS COLLECTION BOX - BLUE BOX", "address": {"city": "MEBANE", "state": "NC", "street": "100 S THIRD ST", "postcode": "27302"}}},
{"geometry": {"type": "Point", "coordinates": [-79.266837558, 36.095326636]}, "type": "Feature", "properties": {"collection_times": [{"days": "Mon-Fri", "time": "11:00am"}, {"days": "Sat-Sun", "time": "Closed"}], "id": "2730200006", "name": "USPS COLLECTION BOX - BLUE BOX", "address": {"city": "MEBANE", "state": "NC", "street": "100 S FIFTH ST", "postcode": "27302"}}},
{"geometry": {"type": "Point", "coordinates": [-79.269441681, 36.09758791]}, "type": "Feature", "properties": {"collection_times": [{"days": "Mon-Fri", "time": "11:00am"}, {"days": "Sat-Sun", "time": "Closed"}], "id": "2730200009", "name": "USPS COLLECTION BOX - BLUE BOX", "address": {"city": "MEBANE", "state": "NC", "street": "200 W CLAY ST", "postcode": "27302"}}},
{"geometry": {"type": "Point", "coordinates": [-79.273869585, 36.07519022]}, "type": "Feature", "properties": {"collection_times": [{"days": "Mon-Sat", "time": "11:00am"}, {"days": "Sun", "time": "Closed"}], "id": "2730200016", "name": "USPS COLLECTION BOX - BLUE BOX", "address": {"city": "MEBANE", "state": "NC", "street": "1024 MEBANE OAKS RD", "postcode": "27302"}}},
{"geometry": {"type": "Point", "coordinates": [-79.290563154, 36.077814737]}, "type": "Feature", "properties": {"collection_times": [{"days": "Mon-Fri", "time": "5:00pm"}, {"days": "Sat", "time": "11:30am"}, {"days": "Sun", "time": "Closed"}], "id": "2730200017", "name": "USPS COLLECTION BOX - BLUE BOX", "address": {"city": "MEBANE", "state": "NC", "street": "100 VILLAGE DR", "postcode": "27302"}}},
{"geometry": {"type": "Point", "coordinates": [-79.290563154, 36.077814737]}, "type": "Feature", "properties": {"collection_times": [{"days": "Mon-Fri", "time": "5:00pm"}, {"days": "Sat", "time": "11:30am"}, {"days": "Sun", "time": "Closed"}], "id": "2730200018", "name": "USPS COLLECTION BOX - PO LOBBY", "address": {"city": "MEBANE", "state": "NC", "street": "100 VILLAGE DR", "postcode": "27302"}}},
{"geometry": {"type": "Point", "coordinates": [-79.204532281, 36.538536291]}, "type": "Feature", "properties": {"collection_times": [{"days": "Mon-Fri", "time": "4:15pm"}, {"days": "Sat", "time": "11:00am"}, {"days": "Sun", "time": "Closed"}], "id": "2730500002", "name": "USPS COLLECTION BOX - BLUE BOX", "address": {"city": "MILTON", "state": "NC", "street": "238 BROAD ST", "postcode": "27305"}}},
{"geometry": {"type": "Point", "coordinates": [-79.204532281, 36.538536291]}, "type": "Feature", "properties": {"collection_times": [{"days": "Mon-Fri", "time": "4:15pm"}, {"days": "Sat", "time": "11:00am"}, {"days": "Sun", "time": "Closed"}], "id": "2730500004", "name": "USPS COLLECTION BOX - PO LOBBY", "address": {"city": "MILTON", "state": "NC", "street": "238 BROAD ST", "postcode": "27305"}}},
{"geometry": {"type": "Point", "coordinates": [-80.003861587, 35.215464316]}, "type": "Feature", "properties": {"collection_times": [{"days": "Mon-Fri", "time": "4:30pm"}, {"days": "Sat", "time": "12:00pm"}, {"days": "Sun", "time": "Closed"}], "id": "2730600004", "name": "USPS COLLECTION BOX - BLUE BOX", "address": {"city": "MOUNT GILEAD", "state": "NC", "street": "106 N SCHOOL ST", "postcode": "27306"}}},
{"geometry": {"type": "Point", "coordinates": [-80.003861587, 35.215464316]}, "type": "Feature", "properties": {"collection_times": [{"days": "Mon-Fri", "time": "4:30pm"}, {"days": "Sat", "time": "12:00pm"}, {"days": "Sun", "time": "Closed"}], "id": "2730600006", "name": "USPS COLLECTION BOX - PO LOBBY", "address": {"city": "MOUNT GILEAD", "state": "NC", "street": "106 N SCHOOL ST", "postcode": "27306"}}},
{"geometry": {"type": "Point", "coordinates": [-79.998741456, 36.171914816]}, "type": "Feature", "properties": {"collection_times": [{"days": "Mon-Fri", "time": "4:30pm"}, {"days": "Sat", "time": "11:30am"}, {"days": "Sun", "time": "Closed"}], "id": "2731000003", "name": "USPS COLLECTION BOX - BLUE BOX", "address": {"city": "OAK RIDGE", "state": "NC", "street": "8323 LINVILLE RD", "postcode": "27310"}}},
{"geometry": {"type": "Point", "coordinates": [-79.998741456, 36.171914816]}, "type": "Feature", "properties": {"collection_times": [{"days": "Mon-Fri", "time": "4:30pm"}, {"days": "Sat", "time": "11:30am"}, {"days": "Sun", "time": "Closed"}], "id": "2731000004", "name": "USPS COLLECTION BOX - PO LOBBY", "address": {"city": "OAK RIDGE", "state": "NC", "street": "8323 LINVILLE RD", "postcode": "27310"}}},
{"geometry": {"type": "Point", "coordinates": [-79.487521984, 36.483262173]}, "type": "Feature", "properties": {"collection_times": [{"days": "Mon-Fri", "time": "4:30pm"}, {"days": "Sat", "time": "12:00pm"}, {"days": "Sun", "time": "Closed"}], "id": "2731100001", "name": "USPS COLLECTION BOX - BLUE BOX", "address": {"city": "PELHAM", "state": "NC", "street": "6331 OLD US HIGHWAY 29", "postcode": "27311"}}},
{"geometry": {"type": "Point", "coordinates": [-79.487521984, 36.483262173]}, "type": "Feature", "properties": {"collection_times": [{"days": "Mon-Fri", "time": "4:30pm"}, {"days": "Sat", "time": "12:00pm"}, {"days": "Sun", "time": "Closed"}], "id": "2731100002", "name": "USPS COLLECTION BOX - PO LOBBY", "address": {"city": "PELHAM", "state": "NC", "street": "6331 OLD US HIGHWAY 29", "postcode": "27311"}}},
{"geometry": {"type": "Point", "coordinates": [-79.16123231, 35.719683585]}, "type": "Feature", "properties": {"collection_times": [{"days": "Mon-Fri", "time": "4:30pm"}, {"days": "Sat", "time": "12:00pm"}, {"days": "Sun", "time": "Closed"}], "id": "2731200002", "name": "USPS COLLECTION BOX - BLUE BOX", "address": {"city": "PITTSBORO", "state": "NC", "street": "916 EAST ST", "postcode": "27312"}}},
{"geometry": {"type": "Point", "coordinates": [-79.16123231, 35.719683585]}, "type": "Feature", "properties": {"collection_times": [{"days": "Mon-Fri", "time": "4:30pm"}, {"days": "Sat", "time": "12:00pm"}, {"days": "Sun", "time": "Closed"}], "id": "2731200004", "name": "USPS COLLECTION BOX - BLUE BOX", "address": {"city": "PITTSBORO", "state": "NC", "street": "916 EAST ST", "postcode": "27312"}}},
{"geometry": {"type": "Point", "coordinates": [-79.091996261, 35.801120613]}, "type": "Feature", "properties": {"collection_times": [{"days": "Mon-Sat", "time": "10:00am"}, {"days": "Sun", "time": "Closed"}], "id": "2731200006", "name": "USPS COLLECTION BOX - BLUE BOX", "address": {"city": "PITTSBORO", "state": "NC", "street": "30 FEARRINGTON POST", "postcode": "27312"}}},
{"geometry": {"type": "Point", "coordinates": [-79.086491465, 35.807591529]}, "type": "Feature", "properties": {"collection_times": [{"days": "Mon-Sat", "time": "10:30am"}, {"days": "Sun", "time": "Closed"}], "id": "2731200008", "name": "USPS COLLECTION BOX - BLUE BOX", "address": {"city": "PITTSBORO", "state": "NC", "street": "1 CREEKWOOD", "postcode": "27312"}}},
{"geometry": {"type": "Point", "coordinates": [-79.177995406, 35.721708856]}, "type": "Feature", "properties": {"collection_times": [{"days": "Mon-Sat", "time": "11:00am"}, {"days": "Sun", "time": "Closed"}], "id": "2731200009", "name": "USPS COLLECTION BOX - BLUE BOX", "address": {"city": "PITTSBORO", "state": "NC", "street": "50 SALISBURY ST", "postcode": "27312"}}},
{"geometry": {"type": "Point", "coordinates": [-79.16123231, 35.719683585]}, "type": "Feature", "properties": {"collection_times": [{"days": "Mon-Fri", "time": "4:30pm"}, {"days": "Sat", "time": "12:00pm"}, {"days": "Sun", "time": "Closed"}], "id": "2731200010", "name": "USPS COLLECTION BOX - PO LOBBY", "address": {"city": "PITTSBORO", "state": "NC", "street": "916 EAST ST", "postcode": "27312"}}},
{"geometry": {"type": "Point", "coordinates": [-79.16123231, 35.719683585]}, "type": "Feature", "properties": {"collection_times": [{"days": "Mon-Fri", "time": "4:30pm"}, {"days": "Sat", "time": "12:00pm"}, {"days": "Sun", "time": "Closed"}], "id": "2731200011", "name": "USPS COLLECTION BOX - PO LOBBY", "address": {"city": "PITTSBORO", "state": "NC", "street": "916 EAST ST", "postcode": "27312"}}},
{"geometry": {"type": "Point", "coordinates": [-79.764481184, 35.96872382]}, "type": "Feature", "properties": {"collection_times": [{"days": "Mon-Fri", "time": "4:00pm"}, {"days": "Sat", "time": "10:30am"}, {"days": "Sun", "time": "Closed"}], "id": "2731300002", "name": "USPS COLLECTION BOX - BLUE BOX", "address": {"city": "PLEASANT GARDEN", "state": "NC", "street": "4621 PLEASANT GARDEN RD", "postcode": "27313"}}},
{"geometry": {"type": "Point", "coordinates": [-79.764481184, 35.96872382]}, "type": "Feature", "properties": {"collection_times": [{"days": "Mon-Fri", "time": "4:00pm"}, {"days": "Sat", "time": "10:30am"}, {"days": "Sun", "time": "Closed"}], "id": "2731300004", "name": "USPS COLLECTION BOX - PO LOBBY", "address": {"city": "PLEASANT GARDEN", "state": "NC", "street": "4621 PLEASANT GARDEN RD", "postcode": "27313"}}},
{"geometry": {"type": "Point", "coordinates": [-79.190219075, 36.249466277]}, "type": "Feature", "properties": {"collection_times": [{"days": "Mon-Fri", "time": "4:00pm"}, {"days": "Sat", "time": "10:00am"}, {"days": "Sun", "time": "Closed"}], "id": "2731400002", "name": "USPS COLLECTION BOX - BLUE BOX", "address": {"city": "PROSPECT HILL", "state": "NC", "street": "17 MAIN ST", "postcode": "27314"}}},
{"geometry": {"type": "Point", "coordinates": [-79.190219075, 36.249466277]}, "type": "Feature", "properties": {"collection_times": [{"days": "Mon-Fri", "time": "4:00pm"}, {"days": "Sat", "time": "10:00am"}, {"days": "Sun", "time": "Closed"}], "id": "2731400003", "name": "USPS COLLECTION BOX - PO LOBBY", "address": {"city": "PROSPECT HILL", "state": "NC", "street": "17 MAIN ST", "postcode": "27314"}}},
{"geometry": {"type": "Point", "coordinates": [-79.371507286, 36.501693174]}, "type": "Feature", "properties": {"collection_times": [{"days": "Mon-Fri", "time": "4:00pm"}, {"days": "Sat", "time": "11:30am"}, {"days": "Sun", "time": "Closed"}], "id": "2731500002", "name": "USPS COLLECTION BOX - BLUE BOX", "address": {"city": "PROVIDENCE", "state": "NC", "street": "48 PARK SPRINGS RD", "postcode": "27315"}}},
{"geometry": {"type": "Point", "coordinates": [-79.371507286, 36.501693174]}, "type": "Feature", "properties": {"collection_times": [{"days": "Mon-Fri", "time": "4:00pm"}, {"days": "Sat", "time": "11:30am"}, {"days": "Sun", "time": "Closed"}], "id": "2731500003", "name": "USPS COLLECTION BOX - PO LOBBY", "address": {"city": "PROVIDENCE", "state": "NC", "street": "48 PARK SPRINGS RD", "postcode": "27315"}}},
{"geometry": {"type": "Point", "coordinates": [-79.654531819, 35.7330894]}, "type": "Feature", "properties": {"collection_times": [{"days": "Mon-Fri", "time": "4:30pm"}, {"days": "Sat", "time": "11:00am"}, {"days": "Sun", "time": "Closed"}], "id": "2731600002", "name": "USPS COLLECTION BOX - BLUE BOX", "address": {"city": "RAMSEUR", "state": "NC", "street": "1514 MAIN ST", "postcode": "27316"}}},
{"geometry": {"type": "Point", "coordinates": [-79.654531819, 35.7330894]}, "type": "Feature", "properties": {"collection_times": [{"days": "Mon-Fri", "time": "4:30pm"}, {"days": "Sat", "time": "11:00am"}, {"days": "Sun", "time": "Closed"}], "id": "2731600005", "name": "USPS COLLECTION BOX - PO LOBBY", "address": {"city": "RAMSEUR", "state": "NC", "street": "1514 MAIN ST", "postcode": "27316"}}},
{"geometry": {"type": "Point", "coordinates": [-79.816937759, 35.820646787]}, "type": "Feature", "properties": {"collection_times": [{"days": "Mon-Fri", "time": "5:00pm"}, {"days": "Sat", "time": "12:00pm"}, {"days": "Sun", "time": "Closed"}], "id": "2731700003", "name": "USPS COLLECTION BOX - BLUE BOX", "address": {"city": "RANDLEMAN", "state": "NC", "street": "611 W ACADEMY ST", "postcode": "27317"}}},
{"geometry": {"type": "Point", "coordinates": [-79.803293012, 35.822358937]}, "type": "Feature", "properties": {"collection_times": [{"days": "Mon-Sat", "time": "9:00am"}, {"days": "Sun", "time": "Closed"}], "id": "2731700009", "name": "USPS COLLECTION BOX - BLUE BOX", "address": {"city": "RANDLEMAN", "state": "NC", "street": "411 N MAIN ST", "postcode": "27317"}}},
{"geometry": {"type": "Point", "coordinates": [-79.811037747, 35.800323466]}, "type": "Feature", "properties": {"collection_times": [{"days": "Mon-Sat", "time": "9:00am"}, {"days": "Sun", "time": "Closed"}], "id": "2731700011", "name": "USPS COLLECTION BOX - BLUE BOX", "address": {"city": "RANDLEMAN", "state": "NC", "street": "113 POINTE SOUTH DR", "postcode": "27317"}}},
{"geometry": {"type": "Point", "coordinates": [-79.816937759, 35.820646787]}, "type": "Feature", "properties": {"collection_times": [{"days": "Mon-Fri", "time": "5:00pm"}, {"days": "Sat", "time": "12:00pm"}, {"days": "Sun", "time": "Closed"}], "id": "2731700014", "name": "USPS COLLECTION BOX - PO LOBBY", "address": {"city": "RANDLEMAN", "state": "NC", "street": "611 W ACADEMY ST", "postcode": "27317"}}},
{"geometry": {"type": "Point", "coordinates": [-79.663040117, 36.35624303]}, "type": "Feature", "properties": {"collection_times": [{"days": "Mon-Fri", "time": "5:00pm"}, {"days": "Sat", "time": "3:00pm"}, {"days": "Sun", "time": "Closed"}], "id": "2732000001", "name": "USPS COLLECTION BOX - BLUE BOX", "address": {"city": "REIDSVILLE", "state": "NC", "street": "201 PIEDMONT ST", "postcode": "27320"}}},
{"geometry": {"type": "Point", "coordinates": [-79.665590276, 36.361533327]}, "type": "Feature", "properties": {"collection_times": [{"days": "Mon-Sat", "time": "3:00pm"}, {"days": "Sun", "time": "Closed"}], "id": "2732000009", "name": "USPS COLLECTION BOX - BLUE BOX", "address": {"city": "REIDSVILLE", "state": "NC", "street": "227 W MOREHEAD ST", "postcode": "27320"}}},
{"geometry": {"type": "Point", "coordinates": [-79.666254623, 36.354342067]}, "type": "Feature", "properties": {"collection_times": [{"days": "Mon-Sat", "time": "3:00pm"}, {"days": "Sun", "time": "Closed"}], "id": "2732000015", "name": "USPS COLLECTION BOX - BLUE BOX", "address": {"city": "REIDSVILLE", "state": "NC", "street": "618 S MAIN ST", "postcode": "27320"}}},
{"geometry": {"type": "Point", "coordinates": [-79.685784082, 36.323888185]}, "type": "Feature", "properties": {"collection_times": [{"days": "Mon-Sat", "time": "11:00am"}, {"days": "Sun", "time": "Closed"}], "id": "2732000018", "name": "USPS COLLECTION BOX - BLUE BOX", "address": {"city": "REIDSVILLE", "state": "NC", "street": "1130 FREEWAY DR", "postcode": "27320"}}},
{"geometry": {"type": "Point", "coordinates": [-79.689896038, 36.329753083]}, "type": "Feature", "properties": {"collection_times": [{"days": "Mon-Sat", "time": "10:00am"}, {"days": "Sun", "time": "Closed"}], "id": "2732000025", "name": "USPS COLLECTION BOX - BLUE BOX", "address": {"city": "REIDSVILLE", "state": "NC", "street": "1419 FREEWAY DR", "postcode": "27320"}}},
{"geometry": {"type": "Point", "coordinates": [-79.663040117, 36.35624303]}, "type": "Feature", "properties": {"collection_times": [{"days": "Mon-Fri", "time": "5:00pm"}, {"days": "Sat", "time": "3:00pm"}, {"days": "Sun", "time": "Closed"}], "id": "2732000028", "name": "USPS COLLECTION BOX - PO LOBBY", "address": {"city": "REIDSVILLE", "state": "NC", "street": "201 PIEDMONT ST", "postcode": "27320"}}},
{"geometry": {"type": "Point", "coordinates": [-79.663040117, 36.35624303]}, "type": "Feature", "properties": {"collection_times": [{"days": "Mon-Fri", "time": "5:00pm"}, {"days": "Sat", "time": "3:00pm"}, {"days": "Sun", "time": "Closed"}], "id": "2732000030", "name": "USPS COLLECTION BOX - PO LOBBY", "address": {"city": "REIDSVILLE", "state": "NC", "street": "201 PIEDMONT ST", "postcode": "27320"}}},
{"geometry": {"type": "Point", "coordinates": [-79.586439787, 35.435574006]}, "type": "Feature", "properties": {"collection_times": [{"days": "Mon-Fri", "time": "5:00pm"}, {"days": "Sat", "time": "12:00pm"}, {"days": "Sun", "time": "Closed"}], "id": "2732500002", "name": "USPS COLLECTION BOX - PO LOBBY", "address": {"city": "ROBBINS", "state": "NC", "street": "181 N MIDDLETON ST", "postcode": "27325"}}},
{"geometry": {"type": "Point", "coordinates": [-79.586439787, 35.435574006]}, "type": "Feature", "properties": {"collection_times": [{"days": "Mon-Fri", "time": "5:00pm"}, {"days": "Sat", "time": "12:00pm"}, {"days": "Sun", "time": "Closed"}], "id": "2732500003", "name": "USPS COLLECTION BOX - BLUE BOX", "address": {"city": "ROBBINS", "state": "NC", "street": "181 N MIDDLETON ST", "postcode": "27325"}}},
{"geometry": {"type": "Point", "coordinates": [-79.543198981, 36.450136186]}, "type": "Feature", "properties": {"collection_times": [{"days": "Mon-Fri", "time": "5:00pm"}, {"days": "Sat", "time": "12:00pm"}, {"days": "Sun", "time": "Closed"}], "id": "2732600003", "name": "USPS COLLECTION BOX - BLUE BOX", "address": {"city": "RUFFIN", "state": "NC", "street": "9682 US HIGHWAY 29 BUSINESS", "postcode": "27326"}}},
{"geometry": {"type": "Point", "coordinates": [-79.543198981, 36.450136186]}, "type": "Feature", "properties": {"collection_times": [{"days": "Mon-Fri", "time": "5:00pm"}, {"days": "Sat", "time": "12:00pm"}, {"days": "Sun", "time": "Closed"}], "id": "2732600005", "name": "USPS COLLECTION BOX - PO LOBBY", "address": {"city": "RUFFIN", "state": "NC", "street": "9682 US HIGHWAY 29 BUSINESS", "postcode": "27326"}}},
{"geometry": {"type": "Point", "coordinates": [-79.162619969, 35.467701309]}, "type": "Feature", "properties": {"collection_times": [{"days": "Mon-Sat", "time": "11:45am"}, {"days": "Sun", "time": "Closed"}], "id": "2733000001", "name": "USPS COLLECTION BOX - BLUE BOX", "address": {"city": "SANFORD", "state": "NC", "street": "210 COURTLAND DR", "postcode": "27330"}}},
{"geometry": {"type": "Point", "coordinates": [-79.151334449, 35.45536014]}, "type": "Feature", "properties": {"collection_times": [{"days": "Mon-Fri", "time": "2:00pm"}, {"days": "Sat", "time": "12:00pm"}, {"days": "Sun", "time": "Closed"}], "id": "2733000002", "name": "USPS COLLECTION BOX - BLUE BOX", "address": {"city": "SANFORD", "state": "NC", "street": "2600 LEE AVE", "postcode": "27330"}}},
{"geometry": {"type": "Point", "coordinates": [-79.150116463, 35.457762417]}, "type": "Feature", "properties": {"collection_times": [{"days": "Mon-Sat", "time": "9:30am"}, {"days": "Sun", "time": "Closed"}], "id": "2733000003", "name": "USPS COLLECTION BOX - BLUE BOX", "address": {"city": "SANFORD", "state": "NC", "street": "124 E MAIN ST", "postcode": "27330"}}},
{"geometry": {"type": "Point", "coordinates": [-79.172712425, 35.485446696]}, "type": "Feature", "properties": {"collection_times": [{"days": "Mon-Sat", "time": "10:00am"}, {"days": "Sun", "time": "Closed"}], "id": "2733000011", "name": "USPS COLLECTION BOX - BLUE BOX", "address": {"city": "SANFORD", "state": "NC", "street": "300 N 3RD ST", "postcode": "27330"}}},
{"geometry": {"type": "Point", "coordinates": [-79.175121817, 35.482510677]}, "type": "Feature", "properties": {"collection_times": [{"days": "Mon-Sat", "time": "11:00am"}, {"days": "Sun", "time": "Closed"}], "id": "2733000012", "name": "USPS COLLECTION BOX - BLUE BOX", "address": {"city": "SANFORD", "state": "NC", "street": "103 N 1ST ST", "postcode": "27330"}}},
{"geometry": {"type": "Point", "coordinates": [-79.179561284, 35.486159921]}, "type": "Feature", "properties": {"collection_times": [{"days": "Mon-Sat", "time": "12:00pm"}, {"days": "Sun", "time": "Closed"}], "id": "2733000014", "name": "USPS COLLECTION BOX - BLUE BOX", "address": {"city": "SANFORD", "state": "NC", "street": "405 HAWKINS AVE", "postcode": "27330"}}},
{"geometry": {"type": "Point", "coordinates": [-79.178050666, 35.479412305]}, "type": "Feature", "properties": {"collection_times": [{"days": "Mon-Sat", "time": "9:30am"}, {"days": "Sun", "time": "Closed"}], "id": "2733000016", "name": "USPS COLLECTION BOX - BLUE BOX", "address": {"city": "SANFORD", "state": "NC", "street": "201 S STEELE ST", "postcode": "27330"}}},
{"geometry": {"type": "Point", "coordinates": [-79.180204651, 35.481881296]}, "type": "Feature", "properties": {"collection_times": [{"days": "Mon-Sat", "time": "10:30am"}, {"days": "Sun", "time": "Closed"}], "id": "2733000017", "name": "USPS COLLECTION BOX - BLUE BOX", "address": {"city": "SANFORD", "state": "NC", "street": "153 N STEELE ST", "postcode": "27330"}}},
{"geometry": {"type": "Point", "coordinates": [-79.180075279, 35.480305512]}, "type": "Feature", "properties": {"collection_times": [{"days": "Mon-Sat", "time": "11:30am"}, {"days": "Sun", "time": "Closed"}], "id": "2733000018", "name": "USPS COLLECTION BOX - BLUE BOX", "address": {"city": "SANFORD", "state": "NC", "street": "226 CARTHAGE ST", "postcode": "27330"}}},
{"geometry": {"type": "Point", "coordinates": [-79.179957561, 35.479360275]}, "type": "Feature", "properties": {"collection_times": [{"days": "Mon-Sat", "time": "10:00am"}, {"days": "Sun", "time": "Closed"}], "id": "2733000019", "name": "USPS COLLECTION BOX - BLUE BOX", "address": {"city": "SANFORD", "state": "NC", "street": "131 S HORNER BLVD", "postcode": "27330"}}},
{"geometry": {"type": "Point", "coordinates": [-79.199693318, 35.487573697]}, "type": "Feature", "properties": {"collection_times": [{"days": "Mon-Fri", "time": "1:45pm"}, {"days": "Sat", "time": "12:00pm"}, {"days": "Sun", "time": "Closed"}], "id": "2733000021", "name": "USPS COLLECTION BOX - BLUE BOX", "address": {"city": "SANFORD", "state": "NC", "street": "1007 SPRING LN", "postcode": "27330"}}},
{"geometry": {"type": "Point", "coordinates": [-79.199693318, 35.487573697]}, "type": "Feature", "properties": {"collection_times": [{"days": "Mon-Fri", "time": "1:45pm"}, {"days": "Sat", "time": "12:00pm"}, {"days": "Sun", "time": "Closed"}], "id": "2733000022", "name": "USPS COLLECTION BOX - BLUE BOX", "address": {"city": "SANFORD", "state": "NC", "street": "1007 SPRING LN", "postcode": "27330"}}},
{"geometry": {"type": "Point", "coordinates": [-79.185434342, 35.477305463]}, "type": "Feature", "properties": {"collection_times": [{"days": "Mon-Fri", "time": "2:15pm"}, {"days": "Sat", "time": "12:00pm"}, {"days": "Sun", "time": "Closed"}], "id": "2733000025", "name": "USPS COLLECTION BOX - BLUE BOX", "address": {"city": "SANFORD", "state": "NC", "street": "530 CARTHAGE ST", "postcode": "27330"}}},
{"geometry": {"type": "Point", "coordinates": [-79.186956511, 35.474455766]}, "type": "Feature", "properties": {"collection_times": [{"days": "Mon-Sat", "time": "10:30am"}, {"days": "Sun", "time": "Closed"}], "id": "2733000027", "name": "USPS COLLECTION BOX - BLUE BOX", "address": {"city": "SANFORD", "state": "NC", "street": "805 WICKER ST", "postcode": "27330"}}},
{"geometry": {"type": "Point", "coordinates": [-79.137719231, 35.453573501]}, "type": "Feature", "properties": {"collection_times": [{"days": "Mon-Sat", "time": "10:00am"}, {"days": "Sun", "time": "Closed"}], "id": "2733000030", "name": "USPS COLLECTION BOX - BLUE BOX", "address": {"city": "SANFORD", "state": "NC", "street": "2904 S HORNER BLVD", "postcode": "27330"}}},
{"geometry": {"type": "Point", "coordinates": [-79.165813971, 35.469575731]}, "type": "Feature", "properties": {"collection_times": [{"days": "Mon-Fri", "time": "5:00pm"}, {"days": "Sat", "time": "12:00pm"}, {"days": "Sun", "time": "Closed"}], "id": "2733000033", "name": "USPS COLLECTION BOX - BLUE BOX", "address": {"city": "SANFORD", "state": "NC", "street": "1200 S HORNER BLVD", "postcode": "27330"}}},
{"geometry": {"type": "Point", "coordinates": [-79.165813971, 35.469575731]}, "type": "Feature", "properties": {"collection_times": [{"days": "Mon-Fri", "time": "5:00pm"}, {"days": "Sat", "time": "12:00pm"}, {"days": "Sun", "time": "Closed"}], "id": "2733000034", "name": "USPS COLLECTION BOX - BLUE BOX", "address": {"city": "SANFORD", "state": "NC", "street": "1200 S HORNER BLVD", "postcode": "27330"}}},
{"geometry": {"type": "Point", "coordinates": [-79.110042022, 35.403496207]}, "type": "Feature", "properties": {"collection_times": [{"days": "Mon-Fri", "time": "1:00pm"}, {"days": "Sat", "time": "12:00pm"}, {"days": "Sun", "time": "Closed"}], "id": "2733000041", "name": "USPS COLLECTION BOX - BLUE BOX", "address": {"city": "SANFORD", "state": "NC", "street": "1 TRACEWAY", "postcode": "27330"}}},
{"geometry": {"type": "Point", "coordinates": [-79.192073489, 35.472216573]}, "type": "Feature", "properties": {"collection_times": [{"days": "Mon-Sat", "time": "12:00pm"}, {"days": "Sun", "time": "Closed"}], "id": "2733000050", "name": "USPS COLLECTION BOX - BLUE BOX", "address": {"city": "SANFORD", "state": "NC", "street": "101 TIMBERWOOD PL", "postcode": "27330"}}},
{"geometry": {"type": "Point", "coordinates": [-79.165813971, 35.469575731]}, "type": "Feature", "properties": {"collection_times": [{"days": "Mon-Fri", "time": "5:00pm"}, {"days": "Sat", "time": "12:00pm"}, {"days": "Sun", "time": "Closed"}], "id": "2733000051", "name": "USPS COLLECTION BOX - BLUE BOX", "address": {"city": "SANFORD", "state": "NC", "street": "1200 S HORNER BLVD", "postcode": "27330"}}},
{"geometry": {"type": "Point", "coordinates": [-79.165813971, 35.469575731]}, "type": "Feature", "properties": {"collection_times": [{"days": "Mon-Fri", "time": "5:00pm"}, {"days": "Sat", "time": "12:00pm"}, {"days": "Sun", "time": "Closed"}], "id": "2733000052", "name": "USPS COLLECTION BOX - BLUE BOX", "address": {"city": "SANFORD", "state": "NC", "street": "1200 S HORNER BLVD", "postcode": "27330"}}},
{"geometry": {"type": "Point", "coordinates": [-79.188837661, 35.468773853]}, "type": "Feature", "properties": {"collection_times": [{"days": "Mon-Sat", "time": "10:15am"}, {"days": "Sun", "time": "Closed"}], "id": "2733000053", "name": "USPS COLLECTION BOX - BLUE BOX", "address": {"city": "SANFORD", "state": "NC", "street": "1135 CARTHAGE ST", "postcode": "27330"}}},
{"geometry": {"type": "Point", "coordinates": [-79.165813971, 35.469575731]}, "type": "Feature", "properties": {"collection_times": [{"days": "Mon-Fri", "time": "5:00pm"}, {"days": "Sat", "time": "12:00pm"}, {"days": "Sun", "time": "Closed"}], "id": "2733000054", "name": "USPS COLLECTION BOX - PO LOBBY", "address": {"city": "SANFORD", "state": "NC", "street": "1200 S HORNER BLVD", "postcode": "27330"}}},
{"geometry": {"type": "Point", "coordinates": [-79.165813971, 35.469575731]}, "type": "Feature", "properties": {"collection_times": [{"days": "Mon-Fri", "time": "5:00pm"}, {"days": "Sat", "time": "12:00pm"}, {"days": "Sun", "time": "Closed"}], "id": "2733000055", "name": "USPS COLLECTION BOX - PO LOBBY", "address": {"city": "SANFORD", "state": "NC", "street": "1200 S HORNER BLVD", "postcode": "27330"}}},
{"geometry": {"type": "Point", "coordinates": [-79.217312916, 35.439334713]}, "type": "Feature", "properties": {"collection_times": [{"days": "Mon-Sat", "time": "12:00pm"}, {"days": "Sun", "time": "Closed"}], "id": "2733000056", "name": "USPS COLLECTION BOX - BLUE BOX", "address": {"city": "SANFORD", "state": "NC", "street": "2219 JEFFERSON DAVIS HWY", "postcode": "27330"}}},
{"geometry": {"type": "Point", "coordinates": [-79.165813971, 35.469575731]}, "type": "Feature", "properties": {"collection_times": [{"days": "Mon-Fri", "time": "5:00pm"}, {"days": "Sat", "time": "12:00pm"}, {"days": "Sun", "time": "Closed"}], "id": "2733000057", "name": "USPS COLLECTION BOX - APC", "address": {"city": "SANFORD", "state": "NC", "street": "1200 S HORNER BLVD", "postcode": "27330"}}},
{"geometry": {"type": "Point", "coordinates": [-79.321285967, 35.947562942]}, "type": "Feature", "properties": {"collection_times": [{"days": "Mon-Fri", "time": "4:30pm"}, {"days": "Sat", "time": "11:30am"}, {"days": "Sun", "time": "Closed"}], "id": "2734000001", "name": "USPS COLLECTION BOX - BLUE BOX", "address": {"city": "SAXAPAHAW", "state": "NC", "street": "1612 JORDAN DR", "postcode": "27340"}}},
{"geometry": {"type": "Point", "coordinates": [-79.321285967, 35.947562942]}, "type": "Feature", "properties": {"collection_times": [{"days": "Mon-Fri", "time": "4:30pm"}, {"days": "Sat", "time": "11:30am"}, {"days": "Sun", "time": "Closed"}], "id": "2734000002", "name": "USPS COLLECTION BOX - PO LOBBY", "address": {"city": "SAXAPAHAW", "state": "NC", "street": "1612 JORDAN DR", "postcode": "27340"}}},
{"geometry": {"type": "Point", "coordinates": [-79.779946473, 35.542853163]}, "type": "Feature", "properties": {"collection_times": [{"days": "Mon-Fri", "time": "4:30pm"}, {"days": "Sat", "time": "12:00pm"}, {"days": "Sun", "time": "Closed"}], "id": "2734100003", "name": "USPS COLLECTION BOX - BLUE BOX", "address": {"city": "SEAGROVE", "state": "NC", "street": "231 N BROAD ST", "postcode": "27341"}}},
{"geometry": {"type": "Point", "coordinates": [-79.779946473, 35.542853163]}, "type": "Feature", "properties": {"collection_times": [{"days": "Mon-Fri", "time": "4:30pm"}, {"days": "Sat", "time": "12:00pm"}, {"days": "Sun", "time": "Closed"}], "id": "2734100005", "name": "USPS COLLECTION BOX - PO LOBBY", "address": {"city": "SEAGROVE", "state": "NC", "street": "231 N BROAD ST", "postcode": "27341"}}},
{"geometry": {"type": "Point", "coordinates": [-79.620597764, 36.067442404]}, "type": "Feature", "properties": {"collection_times": [{"days": "Mon-Fri", "time": "5:00pm"}, {"days": "Sat", "time": "11:30am"}, {"days": "Sun", "time": "Closed"}], "id": "2734200002", "name": "USPS COLLECTION BOX - BLUE BOX", "address": {"city": "SEDALIA", "state": "NC", "street": "6151 BURLINGTON RD", "postcode": "27342"}}},
{"geometry": {"type": "Point", "coordinates": [-79.148219827, 36.500527147]}, "type": "Feature", "properties": {"collection_times": [{"days": "Mon-Fri", "time": "4:15pm"}, {"days": "Sat", "time": "11:30am"}, {"days": "Sun", "time": "Closed"}], "id": "2734300002", "name": "USPS COLLECTION BOX - BLUE BOX", "address": {"city": "SEMORA", "state": "NC", "street": "14757 NC HIGHWAY 119 N", "postcode": "27343"}}},
{"geometry": {"type": "Point", "coordinates": [-79.148219827, 36.500527147]}, "type": "Feature", "properties": {"collection_times": [{"days": "Mon-Fri", "time": "4:15pm"}, {"days": "Sat", "time": "11:30am"}, {"days": "Sun", "time": "Closed"}], "id": "2734300003", "name": "USPS COLLECTION BOX - PO LOBBY", "address": {"city": "SEMORA", "state": "NC", "street": "14757 NC HIGHWAY 119 N", "postcode": "27343"}}},
{"geometry": {"type": "Point", "coordinates": [-79.46268017, 35.723174318]}, "type": "Feature", "properties": {"collection_times": [{"days": "Mon-Fri", "time": "5:00pm"}, {"days": "Sat", "time": "12:00pm"}, {"days": "Sun", "time": "Closed"}], "id": "2734400001", "name": "USPS COLLECTION BOX - BLUE BOX", "address": {"city": "SILER CITY", "state": "NC", "street": "116 E RALEIGH ST", "postcode": "27344"}}},
{"geometry": {"type": "Point", "coordinates": [-79.46268017, 35.723174318]}, "type": "Feature", "properties": {"collection_times": [{"days": "Mon-Fri", "time": "4:30pm"}, {"days": "Sat", "time": "12:00pm"}, {"days": "Sun", "time": "Closed"}], "id": "2734400010", "name": "USPS COLLECTION BOX - PO LOBBY", "address": {"city": "SILER CITY", "state": "NC", "street": "116 E RALEIGH ST", "postcode": "27344"}}},
{"geometry": {"type": "Point", "coordinates": [-79.431311355, 35.893763377]}, "type": "Feature", "properties": {"collection_times": [{"days": "Mon-Fri", "time": "4:30pm"}, {"days": "Sat", "time": "10:30am"}, {"days": "Sun", "time": "Closed"}], "id": "2734900001", "name": "USPS COLLECTION BOX - BLUE BOX", "address": {"city": "SNOW CAMP", "state": "NC", "street": "130 W GREENSBORO CHAPEL HILL RD", "postcode": "27349"}}},
{"geometry": {"type": "Point", "coordinates": [-79.431311355, 35.893763377]}, "type": "Feature", "properties": {"collection_times": [{"days": "Mon-Fri", "time": "4:30pm"}, {"days": "Sat", "time": "10:30am"}, {"days": "Sun", "time": "Closed"}], "id": "2734900003", "name": "USPS COLLECTION BOX - PO LOBBY", "address": {"city": "SNOW CAMP", "state": "NC", "street": "130 W GREENSBORO CHAPEL HILL RD", "postcode": "27349"}}},
{"geometry": {"type": "Point", "coordinates": [-79.862950173, 35.826142216]}, "type": "Feature", "properties": {"collection_times": [{"days": "Mon-Fri", "time": "5:00pm"}, {"days": "Sat", "time": "12:00pm"}, {"days": "Sun", "time": "Closed"}], "id": "2735000002", "name": "USPS COLLECTION BOX - BLUE BOX", "address": {"city": "SOPHIA", "state": "NC", "street": "5814 US HIGHWAY 311", "postcode": "27350"}}},
{"geometry": {"type": "Point", "coordinates": [-79.862950173, 35.826142216]}, "type": "Feature", "properties": {"collection_times": [{"days": "Mon-Fri", "time": "5:00pm"}, {"days": "Sat", "time": "12:00pm"}, {"days": "Sun", "time": "Closed"}], "id": "2735000003", "name": "USPS COLLECTION BOX - PO LOBBY", "address": {"city": "SOPHIA", "state": "NC", "street": "5814 US HIGHWAY 311", "postcode": "27350"}}},
{"geometry": {"type": "Point", "coordinates": [-80.267189292, 35.667692455]}, "type": "Feature", "properties": {"collection_times": [{"days": "Mon-Fri", "time": "4:15pm"}, {"days": "Sat", "time": "11:00am"}, {"days": "Sun", "time": "Closed"}], "id": "2735100001", "name": "USPS COLLECTION BOX - BLUE BOX", "address": {"city": "SOUTHMONT", "state": "NC", "street": "10584 NC HIGHWAY 8 S", "postcode": "27351"}}},
{"geometry": {"type": "Point", "coordinates": [-80.267189292, 35.667692455]}, "type": "Feature", "properties": {"collection_times": [{"days": "Mon-Fri", "time": "4:15pm"}, {"days": "Sat", "time": "11:00am"}, {"days": "Sun", "time": "Closed"}], "id": "2735100003", "name": "USPS COLLECTION BOX - PO LOBBY", "address": {"city": "SOUTHMONT", "state": "NC", "street": "10584 NC HIGHWAY 8 S", "postcode": "27351"}}},
{"geometry": {"type": "Point", "coordinates": [-79.552925248, 35.79553332]}, "type": "Feature", "properties": {"collection_times": [{"days": "Mon-Fri", "time": "4:30pm"}, {"days": "Sat", "time": "11:00am"}, {"days": "Sun", "time": "Closed"}], "id": "2735500002", "name": "USPS COLLECTION BOX - BLUE BOX", "address": {"city": "STALEY", "state": "NC", "street": "229 W FRANKLINVILLE ST", "postcode": "27355"}}},
{"geometry": {"type": "Point", "coordinates": [-79.552925248, 35.79553332]}, "type": "Feature", "properties": {"collection_times": [{"days": "Mon-Fri", "time": "4:30pm"}, {"days": "Sat", "time": "11:00am"}, {"days": "Sun", "time": "Closed"}], "id": "2735500003", "name": "USPS COLLECTION BOX - PO LOBBY", "address": {"city": "STALEY", "state": "NC", "street": "229 W FRANKLINVILLE ST", "postcode": "27355"}}},
{"geometry": {"type": "Point", "coordinates": [-79.784096891, 35.39863983]}, "type": "Feature", "properties": {"collection_times": [{"days": "Mon-Fri", "time": "5:00pm"}, {"days": "Sat", "time": "12:00pm"}, {"days": "Sun", "time": "Closed"}], "id": "2735600002", "name": "USPS COLLECTION BOX - BLUE BOX", "address": {"city": "STAR", "state": "NC", "street": "202 S MAIN ST", "postcode": "27356"}}},
{"geometry": {"type": "Point", "coordinates": [-79.784096891, 35.39863983]}, "type": "Feature", "properties": {"collection_times": [{"days": "Mon-Fri", "time": "5:00pm"}, {"days": "Sat", "time": "12:00pm"}, {"days": "Sun", "time": "Closed"}], "id": "2735600003", "name": "USPS COLLECTION BOX - PO LOBBY", "address": {"city": "STAR", "state": "NC", "street": "202 S MAIN ST", "postcode": "27356"}}},
{"geometry": {"type": "Point", "coordinates": [-79.981260981, 36.238912424]}, "type": "Feature", "properties": {"collection_times": [{"days": "Mon-Fri", "time": "4:30pm"}, {"days": "Sat", "time": "12:00pm"}, {"days": "Sun", "time": "Closed"}], "id": "2735700001", "name": "USPS COLLECTION BOX - BLUE BOX", "address": {"city": "STOKESDALE", "state": "NC", "street": "8210 US HIGHWAY 158", "postcode": "27357"}}},
{"geometry": {"type": "Point", "coordinates": [-79.981260981, 36.238912424]}, "type": "Feature", "properties": {"collection_times": [{"days": "Mon-Fri", "time": "4:30pm"}, {"days": "Sat", "time": "12:00pm"}, {"days": "Sun", "time": "Closed"}], "id": "2735700002", "name": "USPS COLLECTION BOX - PO LOBBY", "address": {"city": "STOKESDALE", "state": "NC", "street": "8210 US HIGHWAY 158", "postcode": "27357"}}},
{"geometry": {"type": "Point", "coordinates": [-79.902436838, 36.198790551]}, "type": "Feature", "properties": {"collection_times": [{"days": "Mon-Fri", "time": "4:30pm"}, {"days": "Sat", "time": "12:00pm"}, {"days": "Sun", "time": "Closed"}], "id": "2735800001", "name": "USPS COLLECTION BOX - BLUE BOX", "address": {"city": "SUMMERFIELD", "state": "NC", "street": "7412 SUMMERFIELD RD", "postcode": "27358"}}},
{"geometry": {"type": "Point", "coordinates": [-79.902436838, 36.198790551]}, "type": "Feature", "properties": {"collection_times": [{"days": "Mon-Fri", "time": "4:30pm"}, {"days": "Sat", "time": "12:00pm"}, {"days": "Sun", "time": "Closed"}], "id": "2735800002", "name": "USPS COLLECTION BOX - PO LOBBY", "address": {"city": "SUMMERFIELD", "state": "NC", "street": "7412 SUMMERFIELD RD", "postcode": "27358"}}},
{"geometry": {"type": "Point", "coordinates": [-80.084914205, 35.881673435]}, "type": "Feature", "properties": {"collection_times": [{"days": "Mon-Fri", "time": "5:00pm"}, {"days": "Sat", "time": "12:00pm"}, {"days": "Sun", "time": "Closed"}], "id": "2736000004", "name": "USPS COLLECTION BOX - BLUE BOX", "address": {"city": "THOMASVILLE", "state": "NC", "street": "101 W MAIN ST", "postcode": "27360"}}},
{"geometry": {"type": "Point", "coordinates": [-80.084914205, 35.881673435]}, "type": "Feature", "properties": {"collection_times": [{"days": "Mon-Fri", "time": "5:00pm"}, {"days": "Sat", "time": "12:00pm"}, {"days": "Sun", "time": "Closed"}], "id": "2736000005", "name": "USPS COLLECTION BOX - BLUE BOX", "address": {"city": "THOMASVILLE", "state": "NC", "street": "101 W MAIN ST", "postcode": "27360"}}},
{"geometry": {"type": "Point", "coordinates": [-80.110175694, 35.881653621]}, "type": "Feature", "properties": {"collection_times": [{"days": "Mon-Sat", "time": "10:00am"}, {"days": "Sun", "time": "Closed"}], "id": "2736000007", "name": "USPS COLLECTION BOX - BLUE BOX", "address": {"city": "THOMASVILLE", "state": "NC", "street": "207 OLD LEXINGTON RD", "postcode": "27360"}}},
{"geometry": {"type": "Point", "coordinates": [-80.082468943, 35.884215434]}, "type": "Feature", "properties": {"collection_times": [{"days": "Mon-Sat", "time": "10:00am"}, {"days": "Sun", "time": "Closed"}], "id": "2736000009", "name": "USPS COLLECTION BOX - BLUE BOX", "address": {"city": "THOMASVILLE", "state": "NC", "street": "34 SALEM ST", "postcode": "27360"}}},
{"geometry": {"type": "Point", "coordinates": [-80.072782864, 35.858517533]}, "type": "Feature", "properties": {"collection_times": [{"days": "Mon-Sat", "time": "12:00pm"}, {"days": "Sun", "time": "Closed"}], "id": "2736000011", "name": "USPS COLLECTION BOX - BLUE BOX", "address": {"city": "THOMASVILLE", "state": "NC", "street": "1120 RANDOLPH ST", "postcode": "27360"}}},
{"geometry": {"type": "Point", "coordinates": [-80.072743842, 35.858943456]}, "type": "Feature", "properties": {"collection_times": [{"days": "Mon-Sat", "time": "12:00pm"}, {"days": "Sun", "time": "Closed"}], "id": "2736000012", "name": "USPS COLLECTION BOX - BLUE BOX", "address": {"city": "THOMASVILLE", "state": "NC", "street": "1122 RANDOLPH ST", "postcode": "27360"}}},
{"geometry": {"type": "Point", "coordinates": [-80.07224733, 35.864276877]}, "type": "Feature", "properties": {"collection_times": [{"days": "Mon-Sat", "time": "12:00pm"}, {"days": "Sun", "time": "Closed"}], "id": "2736000013", "name": "USPS COLLECTION BOX - BLUE BOX", "address": {"city": "THOMASVILLE", "state": "NC", "street": "1025 RANDOLPH ST", "postcode": "27360"}}},
{"geometry": {"type": "Point", "coordinates": [-80.074181485, 35.869933849]}, "type": "Feature", "properties": {"collection_times": [{"days": "Mon-Sat", "time": "10:00am"}, {"days": "Sun", "time": "Closed"}], "id": "2736000014", "name": "USPS COLLECTION BOX - BLUE BOX", "address": {"city": "THOMASVILLE", "state": "NC", "street": "911 RANDOLPH ST", "postcode": "27360"}}},
{"geometry": {"type": "Point", "coordinates": [-80.071156403, 35.871811967]}, "type": "Feature", "properties": {"collection_times": [{"days": "Mon-Sat", "time": "12:00pm"}, {"days": "Sun", "time": "Closed"}], "id": "2736000015", "name": "USPS COLLECTION BOX - BLUE BOX", "address": {"city": "THOMASVILLE", "state": "NC", "street": "801 JULIAN AVE", "postcode": "27360"}}},
{"geometry": {"type": "Point", "coordinates": [-80.066623694, 35.900193553]}, "type": "Feature", "properties": {"collection_times": [{"days": "Mon-Sat", "time": "10:00am"}, {"days": "Sun", "time": "Closed"}], "id": "2736000018", "name": "USPS COLLECTION BOX - BLUE BOX", "address": {"city": "THOMASVILLE", "state": "NC", "street": "801 NATIONAL HWY", "postcode": "27360"}}},
{"geometry": {"type": "Point", "coordinates": [-80.057317014, 35.917991049]}, "type": "Feature", "properties": {"collection_times": [{"days": "Mon-Sat", "time": "12:00pm"}, {"days": "Sun", "time": "Closed"}], "id": "2736000021", "name": "USPS COLLECTION BOX - BLUE BOX", "address": {"city": "THOMASVILLE", "state": "NC", "street": "1401 NATIONAL HWY", "postcode": "27360"}}},
{"geometry": {"type": "Point", "coordinates": [-80.084914205, 35.881673435]}, "type": "Feature", "properties": {"collection_times": [{"days": "Mon-Fri", "time": "5:00pm"}, {"days": "Sat", "time": "12:00pm"}, {"days": "Sun", "time": "Closed"}], "id": "2736000035", "name": "USPS COLLECTION BOX - PO LOBBY", "address": {"city": "THOMASVILLE", "state": "NC", "street": "101 W MAIN ST", "postcode": "27360"}}},
{"geometry": {"type": "Point", "coordinates": [-80.084914205, 35.881673435]}, "type": "Feature", "properties": {"collection_times": [{"days": "Mon-Fri", "time": "5:00pm"}, {"days": "Sat", "time": "12:00pm"}, {"days": "Sun", "time": "Closed"}], "id": "2736000036", "name": "USPS COLLECTION BOX - PO LOBBY", "address": {"city": "THOMASVILLE", "state": "NC", "street": "101 W MAIN ST", "postcode": "27360"}}},
{"geometry": {"type": "Point", "coordinates": [-80.067968704, 35.856849016]}, "type": "Feature", "properties": {"collection_times": [{"days": "Mon-Sat", "time": "10:00am"}, {"days": "Sun", "time": "Closed"}], "id": "2736000037", "name": "USPS COLLECTION BOX - BLUE BOX", "address": {"city": "THOMASVILLE", "state": "NC", "street": "1585 LIBERTY DR", "postcode": "27360"}}},
{"geometry": {"type": "Point", "coordinates": [-79.988691174, 35.896762261]}, "type": "Feature", "properties": {"collection_times": [{"days": "Mon-Fri", "time": "4:30pm"}, {"days": "Sat", "time": "11:30am"}, {"days": "Sun", "time": "Closed"}], "id": "2737000001", "name": "USPS COLLECTION BOX - BLUE BOX", "address": {"city": "TRINITY", "state": "NC", "street": "7259 NC HIGHWAY 62", "postcode": "27370"}}},
{"geometry": {"type": "Point", "coordinates": [-79.988691174, 35.896762261]}, "type": "Feature", "properties": {"collection_times": [{"days": "Mon-Fri", "time": "4:30pm"}, {"days": "Sat", "time": "11:30am"}, {"days": "Sun", "time": "Closed"}], "id": "2737000002", "name": "USPS COLLECTION BOX - BLUE BOX", "address": {"city": "TRINITY", "state": "NC", "street": "7259 NC HIGHWAY 62", "postcode": "27370"}}},
{"geometry": {"type": "Point", "coordinates": [-79.988691174, 35.896762261]}, "type": "Feature", "properties": {"collection_times": [{"days": "Mon-Fri", "time": "4:30pm"}, {"days": "Sat", "time": "11:30am"}, {"days": "Sun", "time": "Closed"}], "id": "2737000004", "name": "USPS COLLECTION BOX - PO LOBBY", "address": {"city": "TRINITY", "state": "NC", "street": "7259 NC HIGHWAY 62", "postcode": "27370"}}},
{"geometry": {"type": "Point", "coordinates": [-79.895074246, 35.364852559]}, "type": "Feature", "properties": {"collection_times": [{"days": "Mon-Fri", "time": "5:00pm"}, {"days": "Sat", "time": "12:00pm"}, {"days": "Sun", "time": "Closed"}], "id": "2737100001", "name": "USPS COLLECTION BOX - BLUE BOX", "address": {"city": "TROY", "state": "NC", "street": "601 N MAIN ST", "postcode": "27371"}}},
{"geometry": {"type": "Point", "coordinates": [-79.894123992, 35.361398745]}, "type": "Feature", "properties": {"collection_times": [{"days": "Mon-Sat", "time": "3:00pm"}, {"days": "Sun", "time": "Closed"}], "id": "2737100002", "name": "USPS COLLECTION BOX - BLUE BOX", "address": {"city": "TROY", "state": "NC", "street": "318 N MAIN ST", "postcode": "27371"}}},
{"geometry": {"type": "Point", "coordinates": [-79.892641107, 35.358479123]}, "type": "Feature", "properties": {"collection_times": [{"days": "Mon-Sat", "time": "3:00pm"}, {"days": "Sun", "time": "Closed"}], "id": "2737100003", "name": "USPS COLLECTION BOX - BLUE BOX", "address": {"city": "TROY", "state": "NC", "street": "102 S PEARL ST", "postcode": "27371"}}},
{"geometry": {"type": "Point", "coordinates": [-79.911346753, 35.347998782]}, "type": "Feature", "properties": {"collection_times": [{"days": "Mon-Sat", "time": "1:00pm"}, {"days": "Sun", "time": "Closed"}], "id": "2737100005", "name": "USPS COLLECTION BOX - BLUE BOX", "address": {"city": "TROY", "state": "NC", "street": "902 ALBEMARLE RD", "postcode": "27371"}}},
{"geometry": {"type": "Point", "coordinates": [-80.043891385, 35.359071579]}, "type": "Feature", "properties": {"collection_times": [{"days": "Mon-Sat", "time": "12:00pm"}, {"days": "Sun", "time": "Closed"}], "id": "2737100007", "name": "USPS COLLECTION BOX - BLUE BOX", "address": {"city": "TROY", "state": "NC", "street": "2205 RIVER RD", "postcode": "27371"}}},
{"geometry": {"type": "Point", "coordinates": [-79.895074246, 35.364852559]}, "type": "Feature", "properties": {"collection_times": [{"days": "Mon-Fri", "time": "5:00pm"}, {"days": "Sat", "time": "12:00pm"}, {"days": "Sun", "time": "Closed"}], "id": "2737100008", "name": "USPS COLLECTION BOX - PO LOBBY", "address": {"city": "TROY", "state": "NC", "street": "601 N MAIN ST", "postcode": "27371"}}},
{"geometry": {"type": "Point", "coordinates": [-80.139398339, 36.009991979]}, "type": "Feature", "properties": {"collection_times": [{"days": "Mon-Fri", "time": "4:45pm"}, {"days": "Sat", "time": "12:00pm"}, {"days": "Sun", "time": "Closed"}], "id": "2737300001", "name": "USPS COLLECTION BOX - BLUE BOX", "address": {"city": "WALLBURG", "state": "NC", "street": "8590 N NC HIGHWAY 109", "postcode": "27373"}}},
{"geometry": {"type": "Point", "coordinates": [-80.139398339, 36.009991979]}, "type": "Feature", "properties": {"collection_times": [{"days": "Mon-Fri", "time": "4:45pm"}, {"days": "Sat", "time": "12:00pm"}, {"days": "Sun", "time": "Closed"}], "id": "2737300003", "name": "USPS COLLECTION BOX - PO LOBBY", "address": {"city": "WALLBURG", "state": "NC", "street": "8590 N NC HIGHWAY 109", "postcode": "27373"}}},
{"geometry": {"type": "Point", "coordinates": [-80.257187089, 35.902692071]}, "type": "Feature", "properties": {"collection_times": [{"days": "Mon-Fri", "time": "5:00pm"}, {"days": "Sat", "time": "11:30am"}, {"days": "Sun", "time": "Closed"}], "id": "2737400002", "name": "USPS COLLECTION BOX - BLUE BOX", "address": {"city": "WELCOME", "state": "NC", "street": "6325 OLD US HIGHWAY 52", "postcode": "27374"}}},
{"geometry": {"type": "Point", "coordinates": [-80.257187089, 35.902692071]}, "type": "Feature", "properties": {"collection_times": [{"days": "Mon-Fri", "time": "5:00pm"}, {"days": "Sat", "time": "11:30am"}, {"days": "Sun", "time": "Closed"}], "id": "2737400003", "name": "USPS COLLECTION BOX - BLUE BOX", "address": {"city": "WELCOME", "state": "NC", "street": "6325 OLD US HIGHWAY 52", "postcode": "27374"}}},
{"geometry": {"type": "Point", "coordinates": [-80.257187089, 35.902692071]}, "type": "Feature", "properties": {"collection_times": [{"days": "Mon-Fri", "time": "5:00pm"}, {"days": "Sat", "time": "11:30am"}, {"days": "Sun", "time": "Closed"}], "id": "2737400004", "name": "USPS COLLECTION BOX - PO LOBBY", "address": {"city": "WELCOME", "state": "NC", "street": "6325 OLD US HIGHWAY 52", "postcode": "27374"}}},
{"geometry": {"type": "Point", "coordinates": [-79.774695968, 36.400004007]}, "type": "Feature", "properties": {"collection_times": [{"days": "Mon-Fri", "time": "4:45pm"}, {"days": "Sat", "time": "9:00am"}, {"days": "Sun", "time": "Closed"}], "id": "2737500001", "name": "USPS COLLECTION BOX - PO LOBBY", "address": {"city": "WENTWORTH", "state": "NC", "street": "200 COUNTY HOME RD", "postcode": "27375"}}},
{"geometry": {"type": "Point", "coordinates": [-79.774695968, 36.400004007]}, "type": "Feature", "properties": {"collection_times": [{"days": "Mon-Fri", "time": "4:45pm"}, {"days": "Sat", "time": "9:00am"}, {"days": "Sun", "time": "Closed"}], "id": "2737500002", "name": "USPS COLLECTION BOX - BLUE BOX", "address": {"city": "WENTWORTH", "state": "NC", "street": "200 COUNTY HOME RD", "postcode": "27375"}}},
{"geometry": {"type": "Point", "coordinates": [-79.569443003, 35.244687409]}, "type": "Feature", "properties": {"collection_times": [{"days": "Mon-Fri", "time": "4:30pm"}, {"days": "Sat", "time": "10:00am"}, {"days": "Sun", "time": "Closed"}], "id": "2737600002", "name": "USPS COLLECTION BOX - BLUE BOX", "address": {"city": "WEST END", "state": "NC", "street": "5161 NC HIGHWAY 211", "postcode": "27376"}}},
{"geometry": {"type": "Point", "coordinates": [-79.569443003, 35.244687409]}, "type": "Feature", "properties": {"collection_times": [{"days": "Mon-Fri", "time": "2:00pm"}, {"days": "Sat", "time": "11:00am"}, {"days": "Sun", "time": "Closed"}], "id": "2737600003", "name": "USPS COLLECTION BOX - BLUE BOX", "address": {"city": "WEST END", "state": "NC", "street": "5161 NC HIGHWAY 211", "postcode": "27376"}}},
{"geometry": {"type": "Point", "coordinates": [-79.589078525, 35.25738925]}, "type": "Feature", "properties": {"collection_times": [{"days": "Mon-Sat", "time": "12:00pm"}, {"days": "Sun", "time": "Closed"}], "id": "2737600004", "name": "USPS COLLECTION BOX - BLUE BOX", "address": {"city": "WEST END", "state": "NC", "street": "556 LONGLEAF DR", "postcode": "27376"}}},
{"geometry": {"type": "Point", "coordinates": [-79.569443003, 35.244687409]}, "type": "Feature", "properties": {"collection_times": [{"days": "Mon-Fri", "time": "4:30pm"}, {"days": "Sat", "time": "10:00am"}, {"days": "Sun", "time": "Closed"}], "id": "2737600007", "name": "USPS COLLECTION BOX - PO LOBBY", "address": {"city": "WEST END", "state": "NC", "street": "5161 NC HIGHWAY 211", "postcode": "27376"}}},
{"geometry": {"type": "Point", "coordinates": [-79.564890481, 36.063988794]}, "type": "Feature", "properties": {"collection_times": [{"days": "Mon-Sat", "time": "12:00pm"}, {"days": "Sun", "time": "Closed"}], "id": "2737700002", "name": "USPS COLLECTION BOX - BLUE BOX", "address": {"city": "WHITSETT", "state": "NC", "street": "1101 NC HIGHWAY 61", "postcode": "27377"}}},
{"geometry": {"type": "Point", "coordinates": [-79.56420632, 36.067318686]}, "type": "Feature", "properties": {"collection_times": [{"days": "Mon-Fri", "time": "4:30pm"}, {"days": "Sat", "time": "12:00pm"}, {"days": "Sun", "time": "Closed"}], "id": "2737700004", "name": "USPS COLLECTION BOX - BLUE BOX", "address": {"city": "WHITSETT", "state": "NC", "street": "1001 NC HIGHWAY 61", "postcode": "27377"}}},
{"geometry": {"type": "Point", "coordinates": [-79.56420632, 36.067318686]}, "type": "Feature", "properties": {"collection_times": [{"days": "Mon-Fri", "time": "4:30pm"}, {"days": "Sat", "time": "12:00pm"}, {"days": "Sun", "time": "Closed"}], "id": "2737700006", "name": "USPS COLLECTION BOX - PO LOBBY", "address": {"city": "WHITSETT", "state": "NC", "street": "1001 NC HIGHWAY 61", "postcode": "27377"}}},
{"geometry": {"type": "Point", "coordinates": [-79.608906358, 36.063107661]}, "type": "Feature", "properties": {"collection_times": [{"days": "Mon-Sat", "time": "12:00pm"}, {"days": "Sun", "time": "Closed"}], "id": "2737700007", "name": "USPS COLLECTION BOX - BLUE BOX", "address": {"city": "WHITSETT", "state": "NC", "street": "6307 BURLINGTON RD", "postcode": "27377"}}},
{"geometry": {"type": "Point", "coordinates": [-79.337050738, 36.403860832]}, "type": "Feature", "properties": {"collection_times": [{"days": "Mon-Fri", "time": "4:30pm"}, {"days": "Sat", "time": "12:00pm"}, {"days": "Sun", "time": "Closed"}], "id": "2737900001", "name": "USPS COLLECTION BOX - BLUE BOX", "address": {"city": "YANCEYVILLE", "state": "NC", "street": "146 MAIN ST", "postcode": "27379"}}},
{"geometry": {"type": "Point", "coordinates": [-79.337050738, 36.403860832]}, "type": "Feature", "properties": {"collection_times": [{"days": "Mon-Fri", "time": "4:30pm"}, {"days": "Sat", "time": "12:00pm"}, {"days": "Sun", "time": "Closed"}], "id": "2737900002", "name": "USPS COLLECTION BOX - PO LOBBY", "address": {"city": "YANCEYVILLE", "state": "NC", "street": "146 MAIN ST", "postcode": "27379"}}}
]}
