{"type": "FeatureCollection", "features": [
{"geometry": {"type": "Point", "coordinates": [-79.783404572, 36.074162622]}, "type": "Feature", "properties": {"collection_times": [{"days": "Mon-Fri", "time": "5:00pm"}, {"days": "Sat", "time": "2:00pm"}, {"days": "Sun", "time": "Closed"}], "id": "2740100007", "name": "USPS COLLECTION BOX - BLUE BOX", "address": {"city": "GREENSBORO", "state": "NC", "street": "201 N MURROW BLVD", "postcode": "27401"}}},
{"geometry": {"type": "Point", "coordinates": [-79.783404572, 36.074162622]}, "type": "Feature", "properties": {"collection_times": [{"days": "Mon-Fri", "time": "5:00pm"}, {"days": "Sat", "time": "2:00pm"}, {"days": "Sun", "time": "Closed"}], "id": "2740100009", "name": "USPS COLLECTION BOX - BLUE BOX", "address": {"city": "GREENSBORO", "state": "NC", "street": "201 N MURROW BLVD", "postcode": "27401"}}},
{"geometry": {"type": "Point", "coordinates": [-79.783404572, 36.074162622]}, "type": "Feature", "properties": {"collection_times": [{"days": "Mon-Fri", "time": "5:00pm"}, {"days": "Sat", "time": "2:00pm"}, {"days": "Sun", "time": "Closed"}], "id": "2740100010", "name": "USPS COLLECTION BOX - BLUE BOX", "address": {"city": "GREENSBORO", "state": "NC", "street": "201 N MURROW BLVD", "postcode": "27401"}}},
{"geometry": {"type": "Point", "coordinates": [-79.800748682, 36.073048385]}, "type": "Feature", "properties": {"collection_times": [{"days": "Mon-Fri", "time": "1:30pm"}, {"days": "Sat", "time": "11:00am"}, {"days": "Sun", "time": "Closed"}], "id": "2740100014", "name": "USPS COLLECTION BOX - BLUE BOX", "address": {"city": "GREENSBORO", "state": "NC", "street": "830 W MARKET ST", "postcode": "27401"}}},
{"geometry": {"type": "Point", "coordinates": [-79.795679833, 36.072828101]}, "type": "Feature", "properties": {"collection_times": [{"days": "Mon-Fri", "time": "3:30pm"}, {"days": "Sat-Sun", "time": "Closed"}], "id": "2740100015", "name": "USPS COLLECTION BOX - BLUE BOX", "address": {"city": "GREENSBORO", "state": "NC", "street": "440 W MARKET ST", "postcode": "27401"}}},
{"geometry": {"type": "Point", "coordinates": [-79.794330161, 36.072767494]}, "type": "Feature", "properties": {"collection_times": [{"days": "Mon-Fri", "time": "3:30pm"}, {"days": "Sat-Sun", "time": "Closed"}], "id": "2740100029", "name": "USPS COLLECTION BOX - BLUE BOX", "address": {"city": "GREENSBORO", "state": "NC", "street": "400 W MARKET ST", "postcode": "27401"}}},
{"geometry": {"type": "Point", "coordinates": [-79.792122665, 36.072553038]}, "type": "Feature", "properties": {"collection_times": [{"days": "Mon-Fri", "time": "3:30pm"}, {"days": "Sat", "time": "11:00am"}, {"days": "Sun", "time": "Closed"}], "id": "2740100032", "name": "USPS COLLECTION BOX - BLUE BOX", "address": {"city": "GREENSBORO", "state": "NC", "street": "201 W MARKET ST", "postcode": "27401"}}},
{"geometry": {"type": "Point", "coordinates": [-79.793834989, 36.086577808]}, "type": "Feature", "properties": {"collection_times": [{"days": "Mon-Fri", "time": "2:00pm"}, {"days": "Sat", "time": "11:00am"}, {"days": "Sun", "time": "Closed"}], "id": "2740100041", "name": "USPS COLLECTION BOX - BLUE BOX", "address": {"city": "GREENSBORO", "state": "NC", "street": "405 PARKWAY", "postcode": "27401"}}},
{"geometry": {"type": "Point", "coordinates": [-79.79237908, 36.073618324]}, "type": "Feature", "properties": {"collection_times": [{"days": "Mon-Fri", "time": "5:00pm"}, {"days": "Sat", "time": "11:00am"}, {"days": "Sun", "time": "Closed"}], "id": "2740100043", "name": "USPS COLLECTION BOX - BLUE BOX", "address": {"city": "GREENSBORO", "state": "NC", "street": "218 W FRIENDLY AVE", "postcode": "27401"}}},
{"geometry": {"type": "Point", "coordinates": [-79.791277264, 36.076113497]}, "type": "Feature", "properties": {"collection_times": [{"days": "Mon-Fri", "time": "3:15pm"}, {"days": "Sat-Sun", "time": "Closed"}], "id": "2740100049", "name": "USPS COLLECTION BOX - BLUE BOX", "address": {"city": "GREENSBORO", "state": "NC", "street": "331 N GREENE ST", "postcode": "27401"}}},
{"geometry": {"type": "Point", "coordinates": [-79.790256858, 36.07238422]}, "type": "Feature", "properties": {"collection_times": [{"days": "Mon-Fri", "time": "3:30pm"}, {"days": "Sat", "time": "11:00am"}, {"days": "Sun", "time": "Closed"}], "id": "2740100052", "name": "USPS COLLECTION BOX - BLUE BOX", "address": {"city": "GREENSBORO", "state": "NC", "street": "100 S ELM ST", "postcode": "27401"}}},
{"geometry": {"type": "Point", "coordinates": [-79.785476961, 36.085938347]}, "type": "Feature", "properties": {"collection_times": [{"days": "Mon-Fri", "time": "2:30pm"}, {"days": "Sat", "time": "11:00am"}, {"days": "Sun", "time": "Closed"}], "id": "2740100059", "name": "USPS COLLECTION BOX - BLUE BOX", "address": {"city": "GREENSBORO", "state": "NC", "street": "900 CHERRY ST", "postcode": "27401"}}},
{"geometry": {"type": "Point", "coordinates": [-79.788715339, 36.08968399]}, "type": "Feature", "properties": {"collection_times": [{"days": "Mon-Fri", "time": "2:30pm"}, {"days": "Sat", "time": "11:00am"}, {"days": "Sun", "time": "Closed"}], "id": "2740100060", "name": "USPS COLLECTION BOX - BLUE BOX", "address": {"city": "GREENSBORO", "state": "NC", "street": "110 E NORTHWOOD ST", "postcode": "27401"}}},
{"geometry": {"type": "Point", "coordinates": [-79.789916335, 36.076328159]}, "type": "Feature", "properties": {"collection_times": [{"days": "Mon-Fri", "time": "3:30pm"}, {"days": "Sat", "time": "11:00am"}, {"days": "Sun", "time": "Closed"}], "id": "2740100067", "name": "USPS COLLECTION BOX - BLUE BOX", "address": {"city": "GREENSBORO", "state": "NC", "street": "342 N ELM ST", "postcode": "27401"}}},
{"geometry": {"type": "Point", "coordinates": [-79.790712385, 36.07345282]}, "type": "Feature", "properties": {"collection_times": [{"days": "Mon-Fri", "time": "3:00pm"}, {"days": "Sat-Sun", "time": "Closed"}], "id": "2740100081", "name": "USPS COLLECTION BOX - BLUE BOX", "address": {"city": "GREENSBORO", "state": "NC", "street": "101 W FRIENDLY AVE", "postcode": "27401"}}},
{"geometry": {"type": "Point", "coordinates": [-79.7979988372, 36.0785215796]}, "type": "Feature", "properties": {"collection_times": [{"days": "Mon-Sat", "time": "11:00am"}, {"days": "Sun", "time": "Closed"}], "id": "2740100087", "name": "USPS COLLECTION BOX - BLUE BOX", "address": {"city": "GREENSBORO", "state": "NC", "street": "500 N CEDAR ST", "postcode": "27401"}}},
{"geometry": {"type": "Point", "coordinates": [-79.79589662, 36.075127673]}, "type": "Feature", "properties": {"collection_times": [{"days": "Mon-Fri", "time": "12:00pm"}, {"days": "Sat", "time": "11:00am"}, {"days": "Sun", "time": "Closed"}], "id": "2740100099", "name": "USPS COLLECTION BOX - BLUE BOX", "address": {"city": "GREENSBORO", "state": "NC", "street": "232 N EDGEWORTH ST", "postcode": "27401"}}},
{"geometry": {"type": "Point", "coordinates": [-79.783404572, 36.074162622]}, "type": "Feature", "properties": {"collection_times": [{"days": "Mon-Fri", "time": "5:00pm"}, {"days": "Sat", "time": "2:00pm"}, {"days": "Sun", "time": "Closed"}], "id": "2740100102", "name": "USPS COLLECTION BOX - BLUE BOX", "address": {"city": "GREENSBORO", "state": "NC", "street": "201 N MURROW BLVD", "postcode": "27401"}}},
{"geometry": {"type": "Point", "coordinates": [-79.785568944, 36.087918094]}, "type": "Feature", "properties": {"collection_times": [{"days": "Mon-Fri", "time": "2:30pm"}, {"days": "Sat", "time": "11:00am"}, {"days": "Sun", "time": "Closed"}], "id": "2740100113", "name": "USPS COLLECTION BOX - BLUE BOX", "address": {"city": "GREENSBORO", "state": "NC", "street": "301 E WENDOVER AVE", "postcode": "27401"}}},
{"geometry": {"type": "Point", "coordinates": [-79.795679833, 36.072828101]}, "type": "Feature", "properties": {"collection_times": [{"days": "Mon-Fri", "time": "3:30pm"}, {"days": "Sat-Sun", "time": "Closed"}], "id": "2740100127", "name": "USPS COLLECTION BOX - BLUE BOX", "address": {"city": "GREENSBORO", "state": "NC", "street": "440 W MARKET ST", "postcode": "27401"}}},
{"geometry": {"type": "Point", "coordinates": [-79.790256858, 36.07238422]}, "type": "Feature", "properties": {"collection_times": [{"days": "Mon-Fri", "time": "3:30pm"}, {"days": "Sat", "time": "11:00am"}, {"days": "Sun", "time": "Closed"}], "id": "2740100131", "name": "USPS COLLECTION BOX - BLUE BOX", "address": {"city": "GREENSBORO", "state": "NC", "street": "100 S ELM ST", "postcode": "27401"}}},
{"geometry": {"type": "Point", "coordinates": [-79.783404572, 36.074162622]}, "type": "Feature", "properties": {"collection_times": [{"days": "Mon-Fri", "time": "5:00pm"}, {"days": "Sat", "time": "2:00pm"}, {"days": "Sun", "time": "Closed"}], "id": "2740100139", "name": "USPS COLLECTION BOX - APC", "address": {"city": "GREENSBORO", "state": "NC", "street": "201 N MURROW BLVD", "postcode": "27401"}}},
{"geometry": {"type": "Point", "coordinates": [-79.783404572, 36.074162622]}, "type": "Feature", "properties": {"collection_times": [{"days": "Mon-Fri", "time": "5:00pm"}, {"days": "Sat", "time": "2:00pm"}, {"days": "Sun", "time": "Closed"}], "id": "2740100145", "name": "USPS COLLECTION BOX - PO LOBBY", "address": {"city": "GREENSBORO", "state": "NC", "street": "201 N MURROW BLVD", "postcode": "27401"}}},
{"geometry": {"type": "Point", "coordinates": [-79.783404572, 36.074162622]}, "type": "Feature", "properties": {"collection_times": [{"days": "Mon-Fri", "time": "5:00pm"}, {"days": "Sat", "time": "2:00pm"}, {"days": "Sun", "time": "Closed"}], "id": "2740100146", "name": "USPS COLLECTION BOX - BLUE BOX", "address": {"city": "GREENSBORO", "state": "NC", "street": "201 N MURROW BLVD", "postcode": "27401"}}},
{"geometry": {"type": "Point", "coordinates": [-79.805654357, 36.068675352]}, "type": "Feature", "properties": {"collection_times": [{"days": "Mon-Fri", "time": "2:00pm"}, {"days": "Sat", "time": "11:00am"}, {"days": "Sun", "time": "Closed"}], "id": "2740300007", "name": "USPS COLLECTION BOX - BLUE BOX", "address": {"city": "GREENSBORO", "state": "NC", "street": "328 TATE ST", "postcode": "27403"}}},
{"geometry": {"type": "Point", "coordinates": [-79.846911447, 36.073167268]}, "type": "Feature", "properties": {"collection_times": [{"days": "Mon-Fri", "time": "3:00pm"}, {"days": "Sat-Sun", "time": "Closed"}], "id": "2740300012", "name": "USPS COLLECTION BOX - BLUE BOX", "address": {"city": "GREENSBORO", "state": "NC", "street": "3701 W MARKET ST", "postcode": "27403"}}},
{"geometry": {"type": "Point", "coordinates": [-79.817097435, 36.064277844]}, "type": "Feature", "properties": {"collection_times": [{"days": "Mon-Fri", "time": "2:00pm"}, {"days": "Sat", "time": "11:00am"}, {"days": "Sun", "time": "Closed"}], "id": "2740300017", "name": "USPS COLLECTION BOX - BLUE BOX", "address": {"city": "GREENSBORO", "state": "NC", "street": "1614 SPRING GARDEN ST", "postcode": "27403"}}},
{"geometry": {"type": "Point", "coordinates": [-79.826178005, 36.082175575]}, "type": "Feature", "properties": {"collection_times": [{"days": "Mon-Fri", "time": "3:00pm"}, {"days": "Sat", "time": "11:00am"}, {"days": "Sun", "time": "Closed"}], "id": "2740300027", "name": "USPS COLLECTION BOX - BLUE BOX", "address": {"city": "GREENSBORO", "state": "NC", "street": "501 N ELAM AVE", "postcode": "27403"}}},
{"geometry": {"type": "Point", "coordinates": [-79.826683408, 36.068709803]}, "type": "Feature", "properties": {"collection_times": [{"days": "Mon-Fri", "time": "2:00pm"}, {"days": "Sat", "time": "11:00am"}, {"days": "Sun", "time": "Closed"}], "id": "2740300030", "name": "USPS COLLECTION BOX - BLUE BOX", "address": {"city": "GREENSBORO", "state": "NC", "street": "2113 WALKER AVE", "postcode": "27403"}}},
{"geometry": {"type": "Point", "coordinates": [-79.835006822, 36.045607373]}, "type": "Feature", "properties": {"collection_times": [{"days": "Mon-Fri", "time": "2:30pm"}, {"days": "Sat-Sun", "time": "Closed"}], "id": "2740300032", "name": "USPS COLLECTION BOX - BLUE BOX", "address": {"city": "GREENSBORO", "state": "NC", "street": "5 TERRACE WAY", "postcode": "27403"}}},
{"geometry": {"type": "Point", "coordinates": [-79.833003408, 36.085613846]}, "type": "Feature", "properties": {"collection_times": [{"days": "Mon-Fri", "time": "5:00pm"}, {"days": "Sat-Sun", "time": "Closed"}], "id": "2740400001", "name": "USPS COLLECTION BOX - PO LOBBY", "address": {"city": "GREENSBORO", "state": "NC", "street": "610 PEMBROKE RD", "postcode": "27404"}}},
{"geometry": {"type": "Point", "coordinates": [-79.764743426, 36.115085208]}, "type": "Feature", "properties": {"collection_times": [{"days": "Mon-Fri", "time": "2:00pm"}, {"days": "Sat", "time": "11:00am"}, {"days": "Sun", "time": "Closed"}], "id": "2740500005", "name": "USPS COLLECTION BOX - BLUE BOX", "address": {"city": "GREENSBORO", "state": "NC", "street": "3105 SUMMIT AVE", "postcode": "27405"}}},
{"geometry": {"type": "Point", "coordinates": [-79.775434745, 36.113544391]}, "type": "Feature", "properties": {"collection_times": [{"days": "Mon-Fri", "time": "2:00pm"}, {"days": "Sat", "time": "11:00am"}, {"days": "Sun", "time": "Closed"}], "id": "2740500006", "name": "USPS COLLECTION BOX - BLUE BOX", "address": {"city": "GREENSBORO", "state": "NC", "street": "3101 YANCEYVILLE ST", "postcode": "27405"}}},
{"geometry": {"type": "Point", "coordinates": [-79.76209886, 36.087498506]}, "type": "Feature", "properties": {"collection_times": [{"days": "Mon-Sat", "time": "10:00am"}, {"days": "Sun", "time": "Closed"}], "id": "2740500007", "name": "USPS COLLECTION BOX - BLUE BOX", "address": {"city": "GREENSBORO", "state": "NC", "street": "1803 E WENDOVER AVE", "postcode": "27405"}}},
{"geometry": {"type": "Point", "coordinates": [-79.764667667, 36.106715606]}, "type": "Feature", "properties": {"collection_times": [{"days": "Mon-Fri", "time": "3:00pm"}, {"days": "Sat", "time": "11:00am"}, {"days": "Sun", "time": "Closed"}], "id": "2740500010", "name": "USPS COLLECTION BOX - BLUE BOX", "address": {"city": "GREENSBORO", "state": "NC", "street": "2400 SUMMIT AVE", "postcode": "27405"}}},
{"geometry": {"type": "Point", "coordinates": [-79.784458203, 36.102541878]}, "type": "Feature", "properties": {"collection_times": [{"days": "Mon-Fri", "time": "2:30pm"}, {"days": "Sat", "time": "11:00am"}, {"days": "Sun", "time": "Closed"}], "id": "2740500011", "name": "USPS COLLECTION BOX - BLUE BOX", "address": {"city": "GREENSBORO", "state": "NC", "street": "2200 GOLDEN GATE DR", "postcode": "27405"}}},
{"geometry": {"type": "Point", "coordinates": [-79.777249224, 36.083582181]}, "type": "Feature", "properties": {"collection_times": [{"days": "Mon-Fri", "time": "2:00pm"}, {"days": "Sat", "time": "11:00am"}, {"days": "Sun", "time": "Closed"}], "id": "2740500022", "name": "USPS COLLECTION BOX - BLUE BOX", "address": {"city": "GREENSBORO", "state": "NC", "street": "913 SULLIVAN ST", "postcode": "27405"}}},
{"geometry": {"type": "Point", "coordinates": [-79.776363462, 36.085442982]}, "type": "Feature", "properties": {"collection_times": [{"days": "Mon-Fri", "time": "2:00pm"}, {"days": "Sat", "time": "11:00am"}, {"days": "Sun", "time": "Closed"}], "id": "2740500025", "name": "USPS COLLECTION BOX - BLUE BOX", "address": {"city": "GREENSBORO", "state": "NC", "street": "901 E BESSEMER AVE", "postcode": "27405"}}},
{"geometry": {"type": "Point", "coordinates": [-79.779729687, 36.095324976]}, "type": "Feature", "properties": {"collection_times": [{"days": "Mon-Fri", "time": "4:00pm"}, {"days": "Sat", "time": "2:00pm"}, {"days": "Sun", "time": "Closed"}], "id": "2740500028", "name": "USPS COLLECTION BOX - BLUE BOX", "address": {"city": "GREENSBORO", "state": "NC", "street": "1585 YANCEYVILLE ST", "postcode": "27405"}}},
{"geometry": {"type": "Point", "coordinates": [-79.779729687, 36.095324976]}, "type": "Feature", "properties": {"collection_times": [{"days": "Mon-Fri", "time": "4:00pm"}, {"days": "Sat", "time": "2:00pm"}, {"days": "Sun", "time": "Closed"}], "id": "2740500030", "name": "USPS COLLECTION BOX - BLUE BOX", "address": {"city": "GREENSBORO", "state": "NC", "street": "1585 YANCEYVILLE ST", "postcode": "27405"}}},
{"geometry": {"type": "Point", "coordinates": [-79.779729687, 36.095324976]}, "type": "Feature", "properties": {"collection_times": [{"days": "Mon-Fri", "time": "4:00pm"}, {"days": "Sat", "time": "2:00pm"}, {"days": "Sun", "time": "Closed"}], "id": "2740500031", "name": "USPS COLLECTION BOX - BLUE BOX", "address": {"city": "GREENSBORO", "state": "NC", "street": "1585 YANCEYVILLE ST", "postcode": "27405"}}},
{"geometry": {"type": "Point", "coordinates": [-79.762352131, 36.084671697]}, "type": "Feature", "properties": {"collection_times": [{"days": "Mon-Fri", "time": "2:00pm"}, {"days": "Sat", "time": "11:00am"}, {"days": "Sun", "time": "Closed"}], "id": "2740500042", "name": "USPS COLLECTION BOX - BLUE BOX", "address": {"city": "GREENSBORO", "state": "NC", "street": "1802 E BESSEMER AVE", "postcode": "27405"}}},
{"geometry": {"type": "Point", "coordinates": [-79.744924445, 36.094923889]}, "type": "Feature", "properties": {"collection_times": [{"days": "Mon-Fri", "time": "1:00pm"}, {"days": "Sat", "time": "11:00am"}, {"days": "Sun", "time": "Closed"}], "id": "2740500046", "name": "USPS COLLECTION BOX - BLUE BOX", "address": {"city": "GREENSBORO", "state": "NC", "street": "2521 PHILLIPS AVE", "postcode": "27405"}}},
{"geometry": {"type": "Point", "coordinates": [-79.781754619, 36.114928803]}, "type": "Feature", "properties": {"collection_times": [{"days": "Mon-Fri", "time": "3:00pm"}, {"days": "Sat", "time": "11:00am"}, {"days": "Sun", "time": "Closed"}], "id": "2740500048", "name": "USPS COLLECTION BOX - BLUE BOX", "address": {"city": "GREENSBORO", "state": "NC", "street": "2720 N CHURCH ST", "postcode": "27405"}}},
{"geometry": {"type": "Point", "coordinates": [-79.796144529, 36.123165832]}, "type": "Feature", "properties": {"collection_times": [{"days": "Mon-Fri", "time": "3:15pm"}, {"days": "Sat-Sun", "time": "Closed"}], "id": "2740500056", "name": "USPS COLLECTION BOX - BLUE BOX", "address": {"city": "GREENSBORO", "state": "NC", "street": "7 CORPORATE CENTER CT", "postcode": "27405"}}},
{"geometry": {"type": "Point", "coordinates": [-79.784429065, 36.115377754]}, "type": "Feature", "properties": {"collection_times": [{"days": "Mon-Fri", "time": "3:00pm"}, {"days": "Sat-Sun", "time": "Closed"}], "id": "2740500059", "name": "USPS COLLECTION BOX - BLUE BOX", "address": {"city": "GREENSBORO", "state": "NC", "street": "2710 HENRY ST", "postcode": "27405"}}},
{"geometry": {"type": "Point", "coordinates": [-79.786723496, 36.101471235]}, "type": "Feature", "properties": {"collection_times": [{"days": "Mon-Fri", "time": "2:30pm"}, {"days": "Sat-Sun", "time": "Closed"}], "id": "2740500061", "name": "USPS COLLECTION BOX - BLUE BOX", "address": {"city": "GREENSBORO", "state": "NC", "street": "201 STATE ST", "postcode": "27405"}}},
{"geometry": {"type": "Point", "coordinates": [-79.779729687, 36.095324976]}, "type": "Feature", "properties": {"collection_times": [{"days": "Mon-Fri", "time": "5:00pm"}, {"days": "Sat", "time": "2:00pm"}, {"days": "Sun", "time": "Closed"}], "id": "2740500062", "name": "USPS COLLECTION BOX - APC", "address": {"city": "GREENSBORO", "state": "NC", "street": "1585 YANCEYVILLE ST", "postcode": "27405"}}},
{"geometry": {"type": "Point", "coordinates": [-79.779729687, 36.095324976]}, "type": "Feature", "properties": {"collection_times": [{"days": "Mon-Fri", "time": "5:00pm"}, {"days": "Sat", "time": "2:00pm"}, {"days": "Sun", "time": "Closed"}], "id": "2740500063", "name": "USPS COLLECTION BOX - PO LOBBY", "address": {"city": "GREENSBORO", "state": "NC", "street": "1585 YANCEYVILLE ST", "postcode": "27405"}}},
{"geometry": {"type": "Point", "coordinates": [-79.79025084, 36.029158383]}, "type": "Feature", "properties": {"collection_times": [{"days": "Mon-Fri", "time": "2:00pm"}, {"days": "Sat", "time": "11:00am"}, {"days": "Sun", "time": "Closed"}], "id": "2740600001", "name": "USPS COLLECTION BOX - BLUE BOX", "address": {"city": "GREENSBORO", "state": "NC", "street": "111 INDUSTRIAL AVE", "postcode": "27406"}}},
{"geometry": {"type": "Point", "coordinates": [-79.835882127, 36.010808431]}, "type": "Feature", "properties": {"collection_times": [{"days": "Mon-Fri", "time": "2:30pm"}, {"days": "Sat-Sun", "time": "Closed"}], "id": "2740600003", "name": "USPS COLLECTION BOX - BLUE BOX", "address": {"city": "GREENSBORO", "state": "NC", "street": "2606 PHOENIX DR", "postcode": "27406"}}},
{"geometry": {"type": "Point", "coordinates": [-79.771448664, 36.049241465]}, "type": "Feature", "properties": {"collection_times": [{"days": "Mon-Fri", "time": "2:00pm"}, {"days": "Sat", "time": "11:00am"}, {"days": "Sun", "time": "Closed"}], "id": "2740600005", "name": "USPS COLLECTION BOX - BLUE BOX", "address": {"city": "GREENSBORO", "state": "NC", "street": "2401 S SIDE BLVD", "postcode": "27406"}}},
{"geometry": {"type": "Point", "coordinates": [-79.796824374, 36.042022232]}, "type": "Feature", "properties": {"collection_times": [{"days": "Mon-Fri", "time": "4:00pm"}, {"days": "Sat", "time": "2:00pm"}, {"days": "Sun", "time": "Closed"}], "id": "2740600007", "name": "USPS COLLECTION BOX - BLUE BOX", "address": {"city": "GREENSBORO", "state": "NC", "street": "2300 SOABAR ST", "postcode": "27406"}}},
{"geometry": {"type": "Point", "coordinates": [-79.796824374, 36.042022232]}, "type": "Feature", "properties": {"collection_times": [{"days": "Mon-Fri", "time": "4:00pm"}, {"days": "Sat", "time": "2:00pm"}, {"days": "Sun", "time": "Closed"}], "id": "2740600008", "name": "USPS COLLECTION BOX - BLUE BOX", "address": {"city": "GREENSBORO", "state": "NC", "street": "2300 SOABAR ST", "postcode": "27406"}}},
{"geometry": {"type": "Point", "coordinates": [-79.796824374, 36.042022232]}, "type": "Feature", "properties": {"collection_times": [{"days": "Mon-Fri", "time": "4:00pm"}, {"days": "Sat", "time": "2:00pm"}, {"days": "Sun", "time": "Closed"}], "id": "2740600009", "name": "USPS COLLECTION BOX - BLUE BOX", "address": {"city": "GREENSBORO", "state": "NC", "street": "2300 SOABAR ST", "postcode": "27406"}}},
{"geometry": {"type": "Point", "coordinates": [-79.805552956, 36.007818871]}, "type": "Feature", "properties": {"collection_times": [{"days": "Mon-Fri", "time": "2:00pm"}, {"days": "Sat", "time": "11:00am"}, {"days": "Sun", "time": "Closed"}], "id": "2740600015", "name": "USPS COLLECTION BOX - BLUE BOX", "address": {"city": "GREENSBORO", "state": "NC", "street": "3200 RANDLEMAN RD", "postcode": "27406"}}},
{"geometry": {"type": "Point", "coordinates": [-79.791509185, 36.047294848]}, "type": "Feature", "properties": {"collection_times": [{"days": "Mon-Fri", "time": "11:30am"}, {"days": "Sat", "time": "11:00am"}, {"days": "Sun", "time": "Closed"}], "id": "2740600025", "name": "USPS COLLECTION BOX - BLUE BOX", "address": {"city": "GREENSBORO", "state": "NC", "street": "2005 S ELM EUGENE ST", "postcode": "27406"}}},
{"geometry": {"type": "Point", "coordinates": [-79.774948722, 36.047820696]}, "type": "Feature", "properties": {"collection_times": [{"days": "Mon-Fri", "time": "2:00pm"}, {"days": "Sat", "time": "11:00am"}, {"days": "Sun", "time": "Closed"}], "id": "2740600030", "name": "USPS COLLECTION BOX - BLUE BOX", "address": {"city": "GREENSBORO", "state": "NC", "street": "2031 MARTIN LUTHER KING JR DR", "postcode": "27406"}}},
{"geometry": {"type": "Point", "coordinates": [-79.796824374, 36.042022232]}, "type": "Feature", "properties": {"collection_times": [{"days": "Mon-Fri", "time": "5:00pm"}, {"days": "Sat", "time": "2:00pm"}, {"days": "Sun", "time": "Closed"}], "id": "2740600048", "name": "USPS COLLECTION BOX - PO LOBBY", "address": {"city": "GREENSBORO", "state": "NC", "street": "2300 SOABAR ST", "postcode": "27406"}}},
{"geometry": {"type": "Point", "coordinates": [-79.851580522, 36.069153215]}, "type": "Feature", "properties": {"collection_times": [{"days": "Mon-Fri", "time": "3:00pm"}, {"days": "Sat", "time": "11:00am"}, {"days": "Sun", "time": "Closed"}], "id": "2740700004", "name": "USPS COLLECTION BOX - BLUE BOX", "address": {"city": "GREENSBORO", "state": "NC", "street": "4125 WALKER AVE", "postcode": "27407"}}},
{"geometry": {"type": "Point", "coordinates": [-79.869977591, 36.027424141]}, "type": "Feature", "properties": {"collection_times": [{"days": "Mon-Fri", "time": "2:00pm"}, {"days": "Sat", "time": "11:00am"}, {"days": "Sun", "time": "Closed"}], "id": "2740700007", "name": "USPS COLLECTION BOX - BLUE BOX", "address": {"city": "GREENSBORO", "state": "NC", "street": "5710 W GATE CITY BLVD", "postcode": "27407"}}},
{"geometry": {"type": "Point", "coordinates": [-79.871169423, 36.05622876]}, "type": "Feature", "properties": {"collection_times": [{"days": "Mon-Fri", "time": "2:30pm"}, {"days": "Sat", "time": "11:00am"}, {"days": "Sun", "time": "Closed"}], "id": "2740700011", "name": "USPS COLLECTION BOX - BLUE BOX", "address": {"city": "GREENSBORO", "state": "NC", "street": "901 NORWALK ST", "postcode": "27407"}}},
{"geometry": {"type": "Point", "coordinates": [-79.869977591, 36.027424141]}, "type": "Feature", "properties": {"collection_times": [{"days": "Mon-Fri", "time": "4:00pm"}, {"days": "Sat", "time": "2:00pm"}, {"days": "Sun", "time": "Closed"}], "id": "2740700022", "name": "USPS COLLECTION BOX - BLUE BOX", "address": {"city": "GREENSBORO", "state": "NC", "street": "4607 W GATE CITY BLVD", "postcode": "27407"}}},
{"geometry": {"type": "Point", "coordinates": [-79.869977591, 36.027424141]}, "type": "Feature", "properties": {"collection_times": [{"days": "Mon-Fri", "time": "4:00pm"}, {"days": "Sat", "time": "2:00pm"}, {"days": "Sun", "time": "Closed"}], "id": "2740700023", "name": "USPS COLLECTION BOX - BLUE BOX", "address": {"city": "GREENSBORO", "state": "NC", "street": "4607 W GATE CITY BLVD", "postcode": "27407"}}},
{"geometry": {"type": "Point", "coordinates": [-79.861505701, 36.070060731]}, "type": "Feature", "properties": {"collection_times": [{"days": "Mon-Fri", "time": "3:00pm"}, {"days": "Sat", "time": "11:00am"}, {"days": "Sun", "time": "Closed"}], "id": "2740700030", "name": "USPS COLLECTION BOX - BLUE BOX", "address": {"city": "GREENSBORO", "state": "NC", "street": "105 POMONA DR", "postcode": "27407"}}},
{"geometry": {"type": "Point", "coordinates": [-79.836951236, 36.037702488]}, "type": "Feature", "properties": {"collection_times": [{"days": "Mon-Fri", "time": "2:30pm"}, {"days": "Sat", "time": "11:00am"}, {"days": "Sun", "time": "Closed"}], "id": "2740700037", "name": "USPS COLLECTION BOX - BLUE BOX", "address": {"city": "GREENSBORO", "state": "NC", "street": "2500 VANSTORY ST", "postcode": "27407"}}},
{"geometry": {"type": "Point", "coordinates": [-79.863401229, 36.060446778]}, "type": "Feature", "properties": {"collection_times": [{"days": "Mon-Fri", "time": "3:00pm"}, {"days": "Sat", "time": "11:00am"}, {"days": "Sun", "time": "Closed"}], "id": "2740700043", "name": "USPS COLLECTION BOX - BLUE BOX", "address": {"city": "GREENSBORO", "state": "NC", "street": "3410 W WENDOVER AVE", "postcode": "27407"}}},
{"geometry": {"type": "Point", "coordinates": [-79.839876366, 36.047395281]}, "type": "Feature", "properties": {"collection_times": [{"days": "Mon-Fri", "time": "3:00pm"}, {"days": "Sat", "time": "11:00am"}, {"days": "Sun", "time": "Closed"}], "id": "2740700049", "name": "USPS COLLECTION BOX - BLUE BOX", "address": {"city": "GREENSBORO", "state": "NC", "street": "2216 W MEADOWVIEW RD", "postcode": "27407"}}},
{"geometry": {"type": "Point", "coordinates": [-79.841896213, 36.048595767]}, "type": "Feature", "properties": {"collection_times": [{"days": "Mon-Fri", "time": "3:00pm"}, {"days": "Sat", "time": "11:00am"}, {"days": "Sun", "time": "Closed"}], "id": "2740700056", "name": "USPS COLLECTION BOX - BLUE BOX", "address": {"city": "GREENSBORO", "state": "NC", "street": "2300 W MEADOWVIEW RD", "postcode": "27407"}}},
{"geometry": {"type": "Point", "coordinates": [-79.843047747, 36.049236803]}, "type": "Feature", "properties": {"collection_times": [{"days": "Mon-Fri", "time": "3:00pm"}, {"days": "Sat", "time": "11:00am"}, {"days": "Sun", "time": "Closed"}], "id": "2740700057", "name": "USPS COLLECTION BOX - BLUE BOX", "address": {"city": "GREENSBORO", "state": "NC", "street": "2303 W MEADOWVIEW RD", "postcode": "27407"}}},
{"geometry": {"type": "Point", "coordinates": [-79.839475427, 36.057663515]}, "type": "Feature", "properties": {"collection_times": [{"days": "Mon-Fri", "time": "2:30pm"}, {"days": "Sat", "time": "11:00am"}, {"days": "Sun", "time": "Closed"}], "id": "2740700061", "name": "USPS COLLECTION BOX - BLUE BOX", "address": {"city": "GREENSBORO", "state": "NC", "street": "2751 PATTERSON ST", "postcode": "27407"}}},
{"geometry": {"type": "Point", "coordinates": [-79.869977591, 36.027424141]}, "type": "Feature", "properties": {"collection_times": [{"days": "Mon-Fri", "time": "2:30pm"}, {"days": "Sat", "time": "11:00am"}, {"days": "Sun", "time": "Closed"}], "id": "2740700062", "name": "USPS COLLECTION BOX - BLUE BOX", "address": {"city": "GREENSBORO", "state": "NC", "street": "2001 BOULEVARD A", "postcode": "27407"}}},
{"geometry": {"type": "Point", "coordinates": [-79.902703742, 36.051715865]}, "type": "Feature", "properties": {"collection_times": [{"days": "Mon-Fri", "time": "2:30pm"}, {"days": "Sat", "time": "11:00am"}, {"days": "Sun", "time": "Closed"}], "id": "2740700063", "name": "USPS COLLECTION BOX - BLUE BOX", "address": {"city": "GREENSBORO", "state": "NC", "street": "1302 BRIDFORD PKWY", "postcode": "27407"}}},
{"geometry": {"type": "Point", "coordinates": [-79.861076822, 36.059223894]}, "type": "Feature", "properties": {"collection_times": [{"days": "Mon-Fri", "time": "10:45am"}, {"days": "Sat-Sun", "time": "Closed"}], "id": "2740700083", "name": "USPS COLLECTION BOX - BLUE BOX", "address": {"city": "GREENSBORO", "state": "NC", "street": "16 OAK BRANCH DR", "postcode": "27407"}}},
{"geometry": {"type": "Point", "coordinates": [-79.861076822, 36.059223894]}, "type": "Feature", "properties": {"collection_times": [{"days": "Mon-Fri", "time": "10:45am"}, {"days": "Sat-Sun", "time": "Closed"}], "id": "2740700084", "name": "USPS COLLECTION BOX - BLUE BOX", "address": {"city": "GREENSBORO", "state": "NC", "street": "16 OAK BRANCH DR", "postcode": "27407"}}},
{"geometry": {"type": "Point", "coordinates": [-79.860324822, 36.061769416]}, "type": "Feature", "properties": {"collection_times": [{"days": "Mon-Fri", "time": "2:30pm"}, {"days": "Sat", "time": "11:00am"}, {"days": "Sun", "time": "Closed"}], "id": "2740700087", "name": "USPS COLLECTION BOX - BLUE BOX", "address": {"city": "GREENSBORO", "state": "NC", "street": "3411 W WENDOVER AVE", "postcode": "27407"}}},
{"geometry": {"type": "Point", "coordinates": [-79.803925717, 36.084211871]}, "type": "Feature", "properties": {"collection_times": [{"days": "Mon-Sat", "time": "10:30am"}, {"days": "Sun", "time": "Closed"}], "id": "2740800018", "name": "USPS COLLECTION BOX - BLUE BOX", "address": {"city": "GREENSBORO", "state": "NC", "street": "1060 GRECADE ST", "postcode": "27408"}}},
{"geometry": {"type": "Point", "coordinates": [-79.80453196, 36.086594062]}, "type": "Feature", "properties": {"collection_times": [{"days": "Mon-Sat", "time": "10:15am"}, {"days": "Sun", "time": "Closed"}], "id": "2740800021", "name": "USPS COLLECTION BOX - BLUE BOX", "address": {"city": "GREENSBORO", "state": "NC", "street": "1205 W BESSEMER AVE", "postcode": "27408"}}},
{"geometry": {"type": "Point", "coordinates": [-79.807893321, 36.086904091]}, "type": "Feature", "properties": {"collection_times": [{"days": "Mon-Fri", "time": "2:45pm"}, {"days": "Sat", "time": "11:00am"}, {"days": "Sun", "time": "Closed"}], "id": "2740800025", "name": "USPS COLLECTION BOX - BLUE BOX", "address": {"city": "GREENSBORO", "state": "NC", "street": "1400 BATTLEGROUND AVE", "postcode": "27408"}}},
{"geometry": {"type": "Point", "coordinates": [-79.833003408, 36.085613846]}, "type": "Feature", "properties": {"collection_times": [{"days": "Mon-Fri", "time": "4:00pm"}, {"days": "Sat", "time": "2:00pm"}, {"days": "Sun", "time": "Closed"}], "id": "2740800030", "name": "USPS COLLECTION BOX - BLUE BOX", "address": {"city": "GREENSBORO", "state": "NC", "street": "610 PEMBROKE RD", "postcode": "27408"}}},
{"geometry": {"type": "Point", "coordinates": [-79.833003408, 36.085613846]}, "type": "Feature", "properties": {"collection_times": [{"days": "Mon-Fri", "time": "4:00pm"}, {"days": "Sat", "time": "2:00pm"}, {"days": "Sun", "time": "Closed"}], "id": "2740800031", "name": "USPS COLLECTION BOX - BLUE BOX", "address": {"city": "GREENSBORO", "state": "NC", "street": "610 PEMBROKE RD", "postcode": "27408"}}},
{"geometry": {"type": "Point", "coordinates": [-79.833003408, 36.085613846]}, "type": "Feature", "properties": {"collection_times": [{"days": "Mon-Fri", "time": "4:00pm"}, {"days": "Sat", "time": "2:00pm"}, {"days": "Sun", "time": "Closed"}], "id": "2740800032", "name": "USPS COLLECTION BOX - BLUE BOX", "address": {"city": "GREENSBORO", "state": "NC", "street": "610 PEMBROKE RD", "postcode": "27408"}}},
{"geometry": {"type": "Point", "coordinates": [-79.833003408, 36.085613846]}, "type": "Feature", "properties": {"collection_times": [{"days": "Mon-Fri", "time": "4:00pm"}, {"days": "Sat", "time": "2:00pm"}, {"days": "Sun", "time": "Closed"}], "id": "2740800033", "name": "USPS COLLECTION BOX - BLUE BOX", "address": {"city": "GREENSBORO", "state": "NC", "street": "610 PEMBROKE RD", "postcode": "27408"}}},
{"geometry": {"type": "Point", "coordinates": [-79.818599792, 36.097026635]}, "type": "Feature", "properties": {"collection_times": [{"days": "Mon-Fri", "time": "3:00pm"}, {"days": "Sat", "time": "11:00am"}, {"days": "Sun", "time": "Closed"}], "id": "2740800042", "name": "USPS COLLECTION BOX - BLUE BOX", "address": {"city": "GREENSBORO", "state": "NC", "street": "2100 W CORNWALLIS DR", "postcode": "27408"}}},
{"geometry": {"type": "Point", "coordinates": [-79.810526231, 36.089964748]}, "type": "Feature", "properties": {"collection_times": [{"days": "Mon-Fri", "time": "2:45pm"}, {"days": "Sat", "time": "11:00am"}, {"days": "Sun", "time": "Closed"}], "id": "2740800046", "name": "USPS COLLECTION BOX - BLUE BOX", "address": {"city": "GREENSBORO", "state": "NC", "street": "1616 BATTLEGROUND AVE STE A", "postcode": "27408"}}},
{"geometry": {"type": "Point", "coordinates": [-79.833907826, 36.113758668]}, "type": "Feature", "properties": {"collection_times": [{"days": "Mon-Fri", "time": "4:00pm"}, {"days": "Sat", "time": "12:30pm"}, {"days": "Sun", "time": "Closed"}], "id": "2740800054", "name": "USPS COLLECTION BOX - BLUE BOX", "address": {"city": "GREENSBORO", "state": "NC", "street": "2941 BATTLEGROUND AVE", "postcode": "27408"}}},
{"geometry": {"type": "Point", "coordinates": [-79.81587597, 36.097553451]}, "type": "Feature", "properties": {"collection_times": [{"days": "Mon-Fri", "time": "3:00pm"}, {"days": "Sat", "time": "11:00am"}, {"days": "Sun", "time": "Closed"}], "id": "2740800064", "name": "USPS COLLECTION BOX - BLUE BOX", "address": {"city": "GREENSBORO", "state": "NC", "street": "1515 W CORNWALLIS DR", "postcode": "27408"}}},
{"geometry": {"type": "Point", "coordinates": [-79.827937941, 36.085909902]}, "type": "Feature", "properties": {"collection_times": [{"days": "Mon-Fri", "time": "3:00pm"}, {"days": "Sat", "time": "11:00am"}, {"days": "Sun", "time": "Closed"}], "id": "2740800069", "name": "USPS COLLECTION BOX - BLUE BOX", "address": {"city": "GREENSBORO", "state": "NC", "street": "620 GREEN VALLEY RD", "postcode": "27408"}}},
{"geometry": {"type": "Point", "coordinates": [-79.792208914, 36.088258425]}, "type": "Feature", "properties": {"collection_times": [{"days": "Mon-Fri", "time": "3:30pm"}, {"days": "Sat", "time": "11:00am"}, {"days": "Sun", "time": "Closed"}], "id": "2740800075", "name": "USPS COLLECTION BOX - BLUE BOX", "address": {"city": "GREENSBORO", "state": "NC", "street": "324 W WENDOVER AVE", "postcode": "27408"}}},
{"geometry": {"type": "Point", "coordinates": [-79.792208914, 36.088258425]}, "type": "Feature", "properties": {"collection_times": [{"days": "Mon-Fri", "time": "3:30pm"}, {"days": "Sat", "time": "11:00am"}, {"days": "Sun", "time": "Closed"}], "id": "2740800083", "name": "USPS COLLECTION BOX - BLUE BOX", "address": {"city": "GREENSBORO", "state": "NC", "street": "324 W WENDOVER AVE", "postcode": "27408"}}},
{"geometry": {"type": "Point", "coordinates": [-79.81607644, 36.091753821]}, "type": "Feature", "properties": {"collection_times": [{"days": "Mon-Fri", "time": "3:00pm"}, {"days": "Sat", "time": "11:00am"}, {"days": "Sun", "time": "Closed"}], "id": "2740800087", "name": "USPS COLLECTION BOX - BLUE BOX", "address": {"city": "GREENSBORO", "state": "NC", "street": "806 GREEN VALLEY RD", "postcode": "27408"}}},
{"geometry": {"type": "Point", "coordinates": [-79.81607644, 36.091753821]}, "type": "Feature", "properties": {"collection_times": [{"days": "Mon-Fri", "time": "3:00pm"}, {"days": "Sat", "time": "11:00am"}, {"days": "Sun", "time": "Closed"}], "id": "2740800088", "name": "USPS COLLECTION BOX - BLUE BOX", "address": {"city": "GREENSBORO", "state": "NC", "street": "806 GREEN VALLEY RD", "postcode": "27408"}}},
{"geometry": {"type": "Point", "coordinates": [-79.825857487, 36.108822867]}, "type": "Feature", "properties": {"collection_times": [{"days": "Mon-Fri", "time": "3:00pm"}, {"days": "Sat", "time": "9:00am"}, {"days": "Sun", "time": "Closed"}], "id": "2740800091", "name": "USPS COLLECTION BOX - BLUE BOX", "address": {"city": "GREENSBORO", "state": "NC", "street": "2307 W CONE BLVD", "postcode": "27408"}}},
{"geometry": {"type": "Point", "coordinates": [-79.833003408, 36.085613846]}, "type": "Feature", "properties": {"collection_times": [{"days": "Mon-Fri", "time": "4:00pm"}, {"days": "Sat", "time": "2:00pm"}, {"days": "Sun", "time": "Closed"}], "id": "2740800092", "name": "USPS COLLECTION BOX - APC", "address": {"city": "GREENSBORO", "state": "NC", "street": "610 PEMBROKE RD", "postcode": "27408"}}},
{"geometry": {"type": "Point", "coordinates": [-79.812980818, 36.093852923]}, "type": "Feature", "properties": {"collection_times": [{"days": "Mon-Fri", "time": "4:00pm"}, {"days": "Sat", "time": "12:30pm"}, {"days": "Sun", "time": "Closed"}], "id": "2740800095", "name": "USPS COLLECTION BOX - BLUE BOX", "address": {"city": "GREENSBORO", "state": "NC", "street": "1852 BANKING ST", "postcode": "27408"}}},
{"geometry": {"type": "Point", "coordinates": [-79.812980818, 36.093852923]}, "type": "Feature", "properties": {"collection_times": [{"days": "Mon-Fri", "time": "4:00pm"}, {"days": "Sat", "time": "12:30pm"}, {"days": "Sun", "time": "Closed"}], "id": "2740800096", "name": "USPS COLLECTION BOX - BLUE BOX", "address": {"city": "GREENSBORO", "state": "NC", "street": "1852 BANKING ST", "postcode": "27408"}}},
{"geometry": {"type": "Point", "coordinates": [-79.884247925, 36.064727468]}, "type": "Feature", "properties": {"collection_times": [{"days": "Mon-Fri", "time": "3:00pm"}, {"days": "Sat", "time": "11:00am"}, {"days": "Sun", "time": "Closed"}], "id": "2740900008", "name": "USPS COLLECTION BOX - BLUE BOX", "address": {"city": "GREENSBORO", "state": "NC", "street": "400 EDWARDIA DR", "postcode": "27409"}}},
{"geometry": {"type": "Point", "coordinates": [-79.879232492, 36.069195174]}, "type": "Feature", "properties": {"collection_times": [{"days": "Mon-Fri", "time": "3:30pm"}, {"days": "Sat", "time": "11:00am"}, {"days": "Sun", "time": "Closed"}], "id": "2740900012", "name": "USPS COLLECTION BOX - BLUE BOX", "address": {"city": "GREENSBORO", "state": "NC", "street": "5111 W MARKET ST", "postcode": "27409"}}},
{"geometry": {"type": "Point", "coordinates": [-79.927610913, 36.081966946]}, "type": "Feature", "properties": {"collection_times": [{"days": "Mon-Fri", "time": "2:00pm"}, {"days": "Sat-Sun", "time": "Closed"}], "id": "2740900014", "name": "USPS COLLECTION BOX - BLUE BOX", "address": {"city": "GREENSBORO", "state": "NC", "street": "6900 DOWNWIND RD", "postcode": "27409"}}},
{"geometry": {"type": "Point", "coordinates": [-79.895057929, 36.076647511]}, "type": "Feature", "properties": {"collection_times": [{"days": "Mon-Fri", "time": "4:00pm"}, {"days": "Sat", "time": "2:00pm"}, {"days": "Sun", "time": "Closed"}], "id": "2740900021", "name": "USPS COLLECTION BOX - BLUE BOX", "address": {"city": "GREENSBORO", "state": "NC", "street": "5704 W MARKET ST", "postcode": "27409"}}},
{"geometry": {"type": "Point", "coordinates": [-79.895057929, 36.076647511]}, "type": "Feature", "properties": {"collection_times": [{"days": "Mon-Fri", "time": "4:00pm"}, {"days": "Sat", "time": "2:00pm"}, {"days": "Sun", "time": "Closed"}], "id": "2740900022", "name": "USPS COLLECTION BOX - BLUE BOX", "address": {"city": "GREENSBORO", "state": "NC", "street": "5704 W MARKET ST", "postcode": "27409"}}},
{"geometry": {"type": "Point", "coordinates": [-79.895057929, 36.076647511]}, "type": "Feature", "properties": {"collection_times": [{"days": "Mon-Fri", "time": "4:00pm"}, {"days": "Sat", "time": "2:00pm"}, {"days": "Sun", "time": "Closed"}], "id": "2740900023", "name": "USPS COLLECTION BOX - BLUE BOX", "address": {"city": "GREENSBORO", "state": "NC", "street": "5704 W MARKET ST", "postcode": "27409"}}},
{"geometry": {"type": "Point", "coordinates": [-79.895057929, 36.076647511]}, "type": "Feature", "properties": {"collection_times": [{"days": "Mon-Fri", "time": "4:00pm"}, {"days": "Sat", "time": "2:00pm"}, {"days": "Sun", "time": "Closed"}], "id": "2740900024", "name": "USPS COLLECTION BOX - BLUE BOX", "address": {"city": "GREENSBORO", "state": "NC", "street": "5704 W MARKET ST", "postcode": "27409"}}},
{"geometry": {"type": "Point", "coordinates": [-79.895057929, 36.076647511]}, "type": "Feature", "properties": {"collection_times": [{"days": "Mon-Fri", "time": "4:00pm"}, {"days": "Sat", "time": "2:00pm"}, {"days": "Sun", "time": "Closed"}], "id": "2740900025", "name": "USPS COLLECTION BOX - BLUE BOX", "address": {"city": "GREENSBORO", "state": "NC", "street": "5704 W MARKET ST", "postcode": "27409"}}},
{"geometry": {"type": "Point", "coordinates": [-79.944823317, 36.073423682]}, "type": "Feature", "properties": {"collection_times": [{"days": "Mon-Fri", "time": "3:00pm"}, {"days": "Sat-Sun", "time": "Closed"}], "id": "2740900034", "name": "USPS COLLECTION BOX - BLUE BOX", "address": {"city": "GREENSBORO", "state": "NC", "street": "7011 ALBERT PICK RD", "postcode": "27409"}}},
{"geometry": {"type": "Point", "coordinates": [-79.944825845, 36.082129296]}, "type": "Feature", "properties": {"collection_times": [{"days": "Mon-Fri", "time": "3:00pm"}, {"days": "Sat-Sun", "time": "Closed"}], "id": "2740900044", "name": "USPS COLLECTION BOX - BLUE BOX", "address": {"city": "GREENSBORO", "state": "NC", "street": "7106 CESSNA DR", "postcode": "27409"}}},
{"geometry": {"type": "Point", "coordinates": [-79.963423219, 36.076128897]}, "type": "Feature", "properties": {"collection_times": [{"days": "Mon-Fri", "time": "2:45pm"}, {"days": "Sat-Sun", "time": "Closed"}], "id": "2740900059", "name": "USPS COLLECTION BOX - BLUE BOX", "address": {"city": "GREENSBORO", "state": "NC", "street": "7624 THORNDIKE RD", "postcode": "27409"}}},
{"geometry": {"type": "Point", "coordinates": [-79.953007602, 36.115077049]}, "type": "Feature", "properties": {"collection_times": [{"days": "Mon-Fri", "time": "2:30pm"}, {"days": "Sat-Sun", "time": "Closed"}], "id": "2740900066", "name": "USPS COLLECTION BOX - BLUE BOX", "address": {"city": "GREENSBORO", "state": "NC", "street": "7614 BUSINESS PARK DR", "postcode": "27409"}}},
{"geometry": {"type": "Point", "coordinates": [-79.95357794, 36.063117366]}, "type": "Feature", "properties": {"collection_times": [{"days": "Mon-Fri", "time": "3:00pm"}, {"days": "Sat-Sun", "time": "Closed"}], "id": "2740900069", "name": "USPS COLLECTION BOX - BLUE BOX", "address": {"city": "GREENSBORO", "state": "NC", "street": "4524 GREEN POINT DR", "postcode": "27409"}}},
{"geometry": {"type": "Point", "coordinates": [-79.963275836, 36.083543896]}, "type": "Feature", "properties": {"collection_times": [{"days": "Mon-Fri", "time": "2:45pm"}, {"days": "Sat-Sun", "time": "Closed"}], "id": "2740900079", "name": "USPS COLLECTION BOX - BLUE BOX", "address": {"city": "GREENSBORO", "state": "NC", "street": "204 CENTREPORT DR", "postcode": "27409"}}},
{"geometry": {"type": "Point", "coordinates": [-79.910234169, 36.070413143]}, "type": "Feature", "properties": {"collection_times": [{"days": "Mon-Fri", "time": "2:00pm"}, {"days": "Sat-Sun", "time": "Closed"}], "id": "2740900082", "name": "USPS COLLECTION BOX - BLUE BOX", "address": {"city": "GREENSBORO", "state": "NC", "street": "222 S SWING RD", "postcode": "27409"}}},
{"geometry": {"type": "Point", "coordinates": [-79.906849448, 36.063856601]}, "type": "Feature", "properties": {"collection_times": [{"days": "Mon-Fri", "time": "2:00pm"}, {"days": "Sat-Sun", "time": "Closed"}], "id": "2740900083", "name": "USPS COLLECTION BOX - BLUE BOX", "address": {"city": "GREENSBORO", "state": "NC", "street": "624 GUILFORD COLLEGE RD", "postcode": "27409"}}},
{"geometry": {"type": "Point", "coordinates": [-79.952982598, 36.109808018]}, "type": "Feature", "properties": {"collection_times": [{"days": "Mon-Fri", "time": "2:30pm"}, {"days": "Sat-Sun", "time": "Closed"}], "id": "2740900084", "name": "USPS COLLECTION BOX - BLUE BOX", "address": {"city": "GREENSBORO", "state": "NC", "street": "532 N REGIONAL RD", "postcode": "27409"}}},
{"geometry": {"type": "Point", "coordinates": [-79.955852637, 36.107146849]}, "type": "Feature", "properties": {"collection_times": [{"days": "Mon-Fri", "time": "2:30pm"}, {"days": "Sat-Sun", "time": "Closed"}], "id": "2740900086", "name": "USPS COLLECTION BOX - BLUE BOX", "address": {"city": "GREENSBORO", "state": "NC", "street": "6520 BRYAN BLVD", "postcode": "27409"}}},
{"geometry": {"type": "Point", "coordinates": [-79.963222222, 36.080829398]}, "type": "Feature", "properties": {"collection_times": [{"days": "Mon-Fri", "time": "2:45pm"}, {"days": "Sat-Sun", "time": "Closed"}], "id": "2740900088", "name": "USPS COLLECTION BOX - BLUE BOX", "address": {"city": "GREENSBORO", "state": "NC", "street": "7819 NATIONAL SERVICE RD", "postcode": "27409"}}},
{"geometry": {"type": "Point", "coordinates": [-79.939973587, 36.078793234]}, "type": "Feature", "properties": {"collection_times": [{"days": "Mon-Fri", "time": "3:00pm"}, {"days": "Sat-Sun", "time": "Closed"}], "id": "2740900090", "name": "USPS COLLECTION BOX - BLUE BOX", "address": {"city": "GREENSBORO", "state": "NC", "street": "309 GALLIMORE DAIRY RD", "postcode": "27409"}}},
{"geometry": {"type": "Point", "coordinates": [-79.950427243, 36.069694103]}, "type": "Feature", "properties": {"collection_times": [{"days": "Mon-Fri", "time": "11:15am"}, {"days": "Sat-Sun", "time": "Closed"}], "id": "2740900092", "name": "USPS COLLECTION BOX - BLUE BOX", "address": {"city": "GREENSBORO", "state": "NC", "street": "496 GALLIMORE DAIRY RD", "postcode": "27409"}}},
{"geometry": {"type": "Point", "coordinates": [-79.956736785, 36.107168518]}, "type": "Feature", "properties": {"collection_times": [{"days": "Mon-Fri", "time": "1:00pm"}, {"days": "Sat-Sun", "time": "Closed"}], "id": "2740900101", "name": "USPS COLLECTION BOX - BLUE BOX", "address": {"city": "GREENSBORO", "state": "NC", "street": "6415 BRYAN BLVD", "postcode": "27409"}}},
{"geometry": {"type": "Point", "coordinates": [-79.984321638, 36.088746779]}, "type": "Feature", "properties": {"collection_times": [{"days": "Mon-Fri", "time": "11:30am"}, {"days": "Sat-Sun", "time": "Closed"}], "id": "2740900103", "name": "USPS COLLECTION BOX - BLUE BOX", "address": {"city": "GREENSBORO", "state": "NC", "street": "7900 MCCLOUD RD", "postcode": "27409"}}},
{"geometry": {"type": "Point", "coordinates": [-79.895057929, 36.076647511]}, "type": "Feature", "properties": {"collection_times": [{"days": "Mon-Fri", "time": "5:00pm"}, {"days": "Sat-Sun", "time": "Closed"}], "id": "2740900105", "name": "USPS COLLECTION BOX - APC", "address": {"city": "GREENSBORO", "state": "NC", "street": "5704 W MARKET ST", "postcode": "27409"}}},
{"geometry": {"type": "Point", "coordinates": [-79.895057929, 36.076647511]}, "type": "Feature", "properties": {"collection_times": [{"days": "Mon-Fri", "time": "5:00pm"}, {"days": "Sat-Sun", "time": "Closed"}], "id": "2740900106", "name": "USPS COLLECTION BOX - PO LOBBY", "address": {"city": "GREENSBORO", "state": "NC", "street": "5704 W MARKET ST", "postcode": "27409"}}},
{"geometry": {"type": "Point", "coordinates": [-79.846112139, 36.123325573]}, "type": "Feature", "properties": {"collection_times": [{"days": "Mon-Fri", "time": "3:00pm"}, {"days": "Sat", "time": "11:00am"}, {"days": "Sun", "time": "Closed"}], "id": "2741000002", "name": "USPS COLLECTION BOX - BLUE BOX", "address": {"city": "GREENSBORO", "state": "NC", "street": "3383 BATTLEGROUND AVE", "postcode": "27410"}}},
{"geometry": {"type": "Point", "coordinates": [-79.846112139, 36.123325573]}, "type": "Feature", "properties": {"collection_times": [{"days": "Mon-Fri", "time": "3:00pm"}, {"days": "Sat", "time": "11:00am"}, {"days": "Sun", "time": "Closed"}], "id": "2741000003", "name": "USPS COLLECTION BOX - BLUE BOX", "address": {"city": "GREENSBORO", "state": "NC", "street": "3383 BATTLEGROUND AVE", "postcode": "27410"}}},
{"geometry": {"type": "Point", "coordinates": [-79.854826404, 36.130580019]}, "type": "Feature", "properties": {"collection_times": [{"days": "Mon-Fri", "time": "3:00pm"}, {"days": "Sat", "time": "11:00am"}, {"days": "Sun", "time": "Closed"}], "id": "2741000005", "name": "USPS COLLECTION BOX - BLUE BOX", "address": {"city": "GREENSBORO", "state": "NC", "street": "3707 BATTLEGROUND AVE", "postcode": "27410"}}},
{"geometry": {"type": "Point", "coordinates": [-79.888497214, 36.089817892]}, "type": "Feature", "properties": {"collection_times": [{"days": "Mon-Fri", "time": "11:30am"}, {"days": "Sat", "time": "11:00am"}, {"days": "Sun", "time": "Closed"}], "id": "2741000008", "name": "USPS COLLECTION BOX - BLUE BOX", "address": {"city": "GREENSBORO", "state": "NC", "street": "5800 W FRIENDLY AVE", "postcode": "27410"}}},
{"geometry": {"type": "Point", "coordinates": [-79.844854304, 36.087367968]}, "type": "Feature", "properties": {"collection_times": [{"days": "Mon-Fri", "time": "1:30pm"}, {"days": "Sat-Sun", "time": "Closed"}], "id": "2741000019", "name": "USPS COLLECTION BOX - BLUE BOX", "address": {"city": "GREENSBORO", "state": "NC", "street": "3608 W FRIENDLY AVE", "postcode": "27410"}}},
{"geometry": {"type": "Point", "coordinates": [-79.867557664, 36.032390799]}, "type": "Feature", "properties": {"collection_times": [{"days": "Mon-Fri", "time": "4:00pm"}, {"days": "Sat-Sun", "time": "Closed"}], "id": "2741700001", "name": "USPS COLLECTION BOX - PO LOBBY", "address": {"city": "GREENSBORO", "state": "NC", "street": "4615 HIGH POINT RD", "postcode": "27417"}}},
{"geometry": {"type": "Point", "coordinates": [-79.833907826, 36.113758668]}, "type": "Feature", "properties": {"collection_times": [{"days": "Mon-Fri", "time": "5:00pm"}, {"days": "Sat", "time": "12:30pm"}, {"days": "Sun", "time": "Closed"}], "id": "2743800001", "name": "USPS COLLECTION BOX - PO LOBBY", "address": {"city": "GREENSBORO", "state": "NC", "street": "2941 BATTLEGROUND AVE", "postcode": "27438"}}},
{"geometry": {"type": "Point", "coordinates": [-79.833907826, 36.113758668]}, "type": "Feature", "properties": {"collection_times": [{"days": "Mon-Fri", "time": "5:00pm"}, {"days": "Sat", "time": "12:30pm"}, {"days": "Sun", "time": "Closed"}], "id": "2743800002", "name": "USPS COLLECTION BOX - APC", "address": {"city": "GREENSBORO", "state": "NC", "street": "2941 BATTLEGROUND AVE", "postcode": "27438"}}},
{"geometry": {"type": "Point", "coordinates": [-79.829730795, 36.120755313]}, "type": "Feature", "properties": {"collection_times": [{"days": "Mon-Fri", "time": "11:15am"}, {"days": "Sat", "time": "9:00am"}, {"days": "Sun", "time": "Closed"}], "id": "2745500007", "name": "USPS COLLECTION BOX - BLUE BOX", "address": {"city": "GREENSBORO", "state": "NC", "street": "1905 ASHWOOD CT", "postcode": "27455"}}},
{"geometry": {"type": "Point", "coordinates": [-79.826810883, 36.118216961]}, "type": "Feature", "properties": {"collection_times": [{"days": "Mon-Sat", "time": "9:00am"}, {"days": "Sun", "time": "Closed"}], "id": "2745500009", "name": "USPS COLLECTION BOX - BLUE BOX", "address": {"city": "GREENSBORO", "state": "NC", "street": "2002 PISGAH CHURCH RD", "postcode": "27455"}}},
{"geometry": {"type": "Point", "coordinates": [-79.982499159, 36.106641044]}, "type": "Feature", "properties": {"collection_times": [{"days": "Mon-Fri", "time": "5:00pm"}, {"days": "Sat", "time": "3:00pm"}, {"days": "Sun", "time": "Closed"}], "id": "2749800164", "name": "USPS COLLECTION BOX - BLUE BOX", "address": {"city": "GREENSBORO", "state": "NC", "street": "1120 PLEASANT RIDGE RD", "postcode": "27498"}}}
]}
