{"type": "FeatureCollection", "features": [
{"geometry": {"type": "Point", "coordinates": [-78.740240521, 35.516293285]}, "type": "Feature", "properties": {"collection_times": [{"days": "Mon-Fri", "time": "4:30pm"}, {"days": "Sat", "time": "12:00pm"}, {"days": "Sun", "time": "Closed"}], "id": "2750100001", "name": "USPS COLLECTION BOX - BLUE BOX", "address": {"city": "ANGIER", "state": "NC", "street": "31 W DUPREE ST", "postcode": "27501"}}},
{"geometry": {"type": "Point", "coordinates": [-78.740240521, 35.516293285]}, "type": "Feature", "properties": {"collection_times": [{"days": "Mon-Fri", "time": "4:30pm"}, {"days": "Sat", "time": "12:00pm"}, {"days": "Sun", "time": "Closed"}], "id": "2750100004", "name": "USPS COLLECTION BOX - PO LOBBY", "address": {"city": "ANGIER", "state": "NC", "street": "31 W DUPREE ST", "postcode": "27501"}}},
{"geometry": {"type": "Point", "coordinates": [-78.740240521, 35.516293285]}, "type": "Feature", "properties": {"collection_times": [{"days": "Mon-Fri", "time": "4:30pm"}, {"days": "Sat", "time": "12:00pm"}, {"days": "Sun", "time": "Closed"}], "id": "2750100005", "name": "USPS COLLECTION BOX - PO LOBBY", "address": {"city": "ANGIER", "state": "NC", "street": "31 W DUPREE ST", "postcode": "27501"}}},
{"geometry": {"type": "Point", "coordinates": [-78.861550214, 35.733476353]}, "type": "Feature", "properties": {"collection_times": [{"days": "Mon-Fri", "time": "5:00pm"}, {"days": "Sat", "time": "4:00pm"}, {"days": "Sun", "time": "Closed"}], "id": "2750200003", "name": "USPS COLLECTION BOX - BLUE BOX", "address": {"city": "APEX", "state": "NC", "street": "501 W WILLIAMS ST", "postcode": "27502"}}},
{"geometry": {"type": "Point", "coordinates": [-78.861550214, 35.733476353]}, "type": "Feature", "properties": {"collection_times": [{"days": "Mon-Fri", "time": "5:00pm"}, {"days": "Sat", "time": "4:00pm"}, {"days": "Sun", "time": "Closed"}], "id": "2750200004", "name": "USPS COLLECTION BOX - BLUE BOX", "address": {"city": "APEX", "state": "NC", "street": "501 W WILLIAMS ST", "postcode": "27502"}}},
{"geometry": {"type": "Point", "coordinates": [-78.847232658, 35.724489485]}, "type": "Feature", "properties": {"collection_times": [{"days": "Mon-Sat", "time": "9:15am"}, {"days": "Sun", "time": "Closed"}], "id": "2750200006", "name": "USPS COLLECTION BOX - BLUE BOX", "address": {"city": "APEX", "state": "NC", "street": "600 E WILLIAMS ST", "postcode": "27502"}}},
{"geometry": {"type": "Point", "coordinates": [-78.851195731, 35.73125254]}, "type": "Feature", "properties": {"collection_times": [{"days": "Mon-Sat", "time": "10:00am"}, {"days": "Sun", "time": "Closed"}], "id": "2750200007", "name": "USPS COLLECTION BOX - BLUE BOX", "address": {"city": "APEX", "state": "NC", "street": "112 N SALEM ST", "postcode": "27502"}}},
{"geometry": {"type": "Point", "coordinates": [-78.861550214, 35.733476353]}, "type": "Feature", "properties": {"collection_times": [{"days": "Mon-Fri", "time": "5:00pm"}, {"days": "Sat", "time": "4:00pm"}, {"days": "Sun", "time": "Closed"}], "id": "2750200010", "name": "USPS COLLECTION BOX - PO LOBBY", "address": {"city": "APEX", "state": "NC", "street": "501 W WILLIAMS ST", "postcode": "27502"}}},
{"geometry": {"type": "Point", "coordinates": [-78.846089444, 35.734944753]}, "type": "Feature", "properties": {"collection_times": [{"days": "Mon-Fri", "time": "2:00pm"}, {"days": "Sat", "time": "12:00pm"}, {"days": "Sun", "time": "Closed"}], "id": "2750200012", "name": "USPS COLLECTION BOX - BLUE BOX", "address": {"city": "APEX", "state": "NC", "street": "73 HUNTER ST", "postcode": "27502"}}},
{"geometry": {"type": "Point", "coordinates": [-78.827237294, 35.725536828]}, "type": "Feature", "properties": {"collection_times": [{"days": "Mon-Fri", "time": "1:30pm"}, {"days": "Sat", "time": "12:00pm"}, {"days": "Sun", "time": "Closed"}], "id": "2750200013", "name": "USPS COLLECTION BOX - BLUE BOX", "address": {"city": "APEX", "state": "NC", "street": "1710 CENTER ST", "postcode": "27502"}}},
{"geometry": {"type": "Point", "coordinates": [-78.861550214, 35.733476353]}, "type": "Feature", "properties": {"collection_times": [{"days": "Mon-Fri", "time": "5:00pm"}, {"days": "Sat", "time": "4:00pm"}, {"days": "Sun", "time": "Closed"}], "id": "2750200014", "name": "USPS COLLECTION BOX - APC", "address": {"city": "APEX", "state": "NC", "street": "501 W WILLIAMS ST", "postcode": "27502"}}},
{"geometry": {"type": "Point", "coordinates": [-78.878831384, 36.164058044]}, "type": "Feature", "properties": {"collection_times": [{"days": "Mon-Fri", "time": "4:00pm"}, {"days": "Sat", "time": "10:30am"}, {"days": "Sun", "time": "Closed"}], "id": "2750300001", "name": "USPS COLLECTION BOX - BLUE BOX", "address": {"city": "BAHAMA", "state": "NC", "street": "1420 BAHAMA RD", "postcode": "27503"}}},
{"geometry": {"type": "Point", "coordinates": [-78.878831384, 36.164058044]}, "type": "Feature", "properties": {"collection_times": [{"days": "Mon-Fri", "time": "4:00pm"}, {"days": "Sat", "time": "10:30am"}, {"days": "Sun", "time": "Closed"}], "id": "2750300002", "name": "USPS COLLECTION BOX - PO LOBBY", "address": {"city": "BAHAMA", "state": "NC", "street": "1420 BAHAMA RD", "postcode": "27503"}}},
{"geometry": {"type": "Point", "coordinates": [-78.548989844, 35.378179579]}, "type": "Feature", "properties": {"collection_times": [{"days": "Mon-Fri", "time": "5:00pm"}, {"days": "Sat", "time": "12:00pm"}, {"days": "Sun", "time": "Closed"}], "id": "2750400001", "name": "USPS COLLECTION BOX - BLUE BOX", "address": {"city": "BENSON", "state": "NC", "street": "402 S MARKET ST", "postcode": "27504"}}},
{"geometry": {"type": "Point", "coordinates": [-78.547546829, 35.381235267]}, "type": "Feature", "properties": {"collection_times": [{"days": "Mon-Fri", "time": "1:30pm"}, {"days": "Sat", "time": "12:00pm"}, {"days": "Sun", "time": "Closed"}], "id": "2750400004", "name": "USPS COLLECTION BOX - BLUE BOX", "address": {"city": "BENSON", "state": "NC", "street": "101 E MAIN ST", "postcode": "27504"}}},
{"geometry": {"type": "Point", "coordinates": [-78.548989844, 35.378179579]}, "type": "Feature", "properties": {"collection_times": [{"days": "Mon-Fri", "time": "5:00pm"}, {"days": "Sat", "time": "12:00pm"}, {"days": "Sun", "time": "Closed"}], "id": "2750400007", "name": "USPS COLLECTION BOX - PO LOBBY", "address": {"city": "BENSON", "state": "NC", "street": "402 S MARKET ST", "postcode": "27504"}}},
{"geometry": {"type": "Point", "coordinates": [-78.548989844, 35.378179579]}, "type": "Feature", "properties": {"collection_times": [{"days": "Mon-Fri", "time": "5:00pm"}, {"days": "Sat", "time": "12:00pm"}, {"days": "Sun", "time": "Closed"}], "id": "2750400008", "name": "USPS COLLECTION BOX - PO LOBBY", "address": {"city": "BENSON", "state": "NC", "street": "402 S MARKET ST", "postcode": "27504"}}},
{"geometry": {"type": "Point", "coordinates": [-79.053196953, 35.457949022]}, "type": "Feature", "properties": {"collection_times": [{"days": "Mon-Fri", "time": "4:30pm"}, {"days": "Sat", "time": "11:30am"}, {"days": "Sun", "time": "Closed"}], "id": "2750500001", "name": "USPS COLLECTION BOX - BLUE BOX", "address": {"city": "BROADWAY", "state": "NC", "street": "101 S MAIN ST", "postcode": "27505"}}},
{"geometry": {"type": "Point", "coordinates": [-79.053196953, 35.457949022]}, "type": "Feature", "properties": {"collection_times": [{"days": "Mon-Fri", "time": "4:30pm"}, {"days": "Sat", "time": "11:30am"}, {"days": "Sun", "time": "Closed"}], "id": "2750500002", "name": "USPS COLLECTION BOX - PO LOBBY", "address": {"city": "BROADWAY", "state": "NC", "street": "101 S MAIN ST", "postcode": "27505"}}},
{"geometry": {"type": "Point", "coordinates": [-78.735787802, 35.413001275]}, "type": "Feature", "properties": {"collection_times": [{"days": "Mon-Fri", "time": "5:00pm"}, {"days": "Sat", "time": "10:00am"}, {"days": "Sun", "time": "Closed"}], "id": "2750600001", "name": "USPS COLLECTION BOX - PO LOBBY", "address": {"city": "BUIES CREEK", "state": "NC", "street": "254 MAIN ST", "postcode": "27506"}}},
{"geometry": {"type": "Point", "coordinates": [-78.735787802, 35.413001275]}, "type": "Feature", "properties": {"collection_times": [{"days": "Mon-Fri", "time": "5:00pm"}, {"days": "Sat", "time": "10:00am"}, {"days": "Sun", "time": "Closed"}], "id": "2750600002", "name": "USPS COLLECTION BOX - BLUE BOX", "address": {"city": "BUIES CREEK", "state": "NC", "street": "254 MAIN ST", "postcode": "27506"}}},
{"geometry": {"type": "Point", "coordinates": [-78.544678714, 36.491557041]}, "type": "Feature", "properties": {"collection_times": [{"days": "Mon-Fri", "time": "4:15pm"}, {"days": "Sat", "time": "11:30am"}, {"days": "Sun", "time": "Closed"}], "id": "2750700001", "name": "USPS COLLECTION BOX - BLUE BOX", "address": {"city": "BULLOCK", "state": "NC", "street": "8682 US HIGHWAY 15", "postcode": "27507"}}},
{"geometry": {"type": "Point", "coordinates": [-78.544678714, 36.491557041]}, "type": "Feature", "properties": {"collection_times": [{"days": "Mon-Fri", "time": "4:15pm"}, {"days": "Sat", "time": "11:30am"}, {"days": "Sun", "time": "Closed"}], "id": "2750700002", "name": "USPS COLLECTION BOX - PO LOBBY", "address": {"city": "BULLOCK", "state": "NC", "street": "8682 US HIGHWAY 15", "postcode": "27507"}}},
{"geometry": {"type": "Point", "coordinates": [-78.253289603, 35.960432309]}, "type": "Feature", "properties": {"collection_times": [{"days": "Mon-Fri", "time": "4:00pm"}, {"days": "Sat", "time": "11:00am"}, {"days": "Sun", "time": "Closed"}], "id": "2750800001", "name": "USPS COLLECTION BOX - BLUE BOX", "address": {"city": "BUNN", "state": "NC", "street": "313 MAIN ST", "postcode": "27508"}}},
{"geometry": {"type": "Point", "coordinates": [-78.253289603, 35.960432309]}, "type": "Feature", "properties": {"collection_times": [{"days": "Mon-Fri", "time": "4:00pm"}, {"days": "Sat", "time": "11:00am"}, {"days": "Sun", "time": "Closed"}], "id": "2750800002", "name": "USPS COLLECTION BOX - PO LOBBY", "address": {"city": "BUNN", "state": "NC", "street": "313 MAIN ST", "postcode": "27508"}}},
{"geometry": {"type": "Point", "coordinates": [-78.758449958, 36.134044633]}, "type": "Feature", "properties": {"collection_times": [{"days": "Mon-Fri", "time": "4:30pm"}, {"days": "Sat", "time": "12:00pm"}, {"days": "Sun", "time": "Closed"}], "id": "2750900001", "name": "USPS COLLECTION BOX - BLUE BOX", "address": {"city": "BUTNER", "state": "NC", "street": "331 CENTRAL AVE", "postcode": "27509"}}},
{"geometry": {"type": "Point", "coordinates": [-78.758449958, 36.134044633]}, "type": "Feature", "properties": {"collection_times": [{"days": "Mon-Fri", "time": "4:30pm"}, {"days": "Sat", "time": "12:00pm"}, {"days": "Sun", "time": "Closed"}], "id": "2750900003", "name": "USPS COLLECTION BOX - PO LOBBY", "address": {"city": "BUTNER", "state": "NC", "street": "331 CENTRAL AVE", "postcode": "27509"}}},
{"geometry": {"type": "Point", "coordinates": [-78.758449958, 36.134044633]}, "type": "Feature", "properties": {"collection_times": [{"days": "Mon-Fri", "time": "4:30pm"}, {"days": "Sat", "time": "12:00pm"}, {"days": "Sun", "time": "Closed"}], "id": "2750900004", "name": "USPS COLLECTION BOX - PO LOBBY", "address": {"city": "BUTNER", "state": "NC", "street": "331 CENTRAL AVE", "postcode": "27509"}}},
{"geometry": {"type": "Point", "coordinates": [-79.072247941, 35.909553544]}, "type": "Feature", "properties": {"collection_times": [{"days": "Mon-Fri", "time": "11:30am"}, {"days": "Sat", "time": "9:00am"}, {"days": "Sun", "time": "Closed"}], "id": "2751000001", "name": "USPS COLLECTION BOX - BLUE BOX", "address": {"city": "CARRBORO", "state": "NC", "street": "201 S GREENSBORO ST.", "postcode": "27510"}}},
{"geometry": {"type": "Point", "coordinates": [-79.071690776, 35.922457003]}, "type": "Feature", "properties": {"collection_times": [{"days": "Mon-Fri", "time": "12:30pm"}, {"days": "Sat", "time": "9:00am"}, {"days": "Sun", "time": "Closed"}], "id": "2751000005", "name": "USPS COLLECTION BOX - BLUE BOX", "address": {"city": "CARRBORO", "state": "NC", "street": "306 ESTES DRIVE EXT", "postcode": "27510"}}},
{"geometry": {"type": "Point", "coordinates": [-79.078151687, 35.912613338]}, "type": "Feature", "properties": {"collection_times": [{"days": "Mon-Fri", "time": "11:00am"}, {"days": "Sat", "time": "9:00am"}, {"days": "Sun", "time": "Closed"}], "id": "2751000007", "name": "USPS COLLECTION BOX - BLUE BOX", "address": {"city": "CARRBORO", "state": "NC", "street": "500 W MAIN ST", "postcode": "27510"}}},
{"geometry": {"type": "Point", "coordinates": [-79.078474536, 35.905297367]}, "type": "Feature", "properties": {"collection_times": [{"days": "Mon-Fri", "time": "2:00pm"}, {"days": "Sat", "time": "9:00am"}, {"days": "Sun", "time": "Closed"}], "id": "2751000013", "name": "USPS COLLECTION BOX - BLUE BOX", "address": {"city": "CARRBORO", "state": "NC", "street": "200 BARNES ST", "postcode": "27510"}}},
{"geometry": {"type": "Point", "coordinates": [-79.083701895, 35.906623729]}, "type": "Feature", "properties": {"collection_times": [{"days": "Mon-Fri", "time": "9:30am"}, {"days": "Sat", "time": "9:00am"}, {"days": "Sun", "time": "Closed"}], "id": "2751000014", "name": "USPS COLLECTION BOX - BLUE BOX", "address": {"city": "CARRBORO", "state": "NC", "street": "501 JONES FERRY RD", "postcode": "27510"}}},
{"geometry": {"type": "Point", "coordinates": [-79.093914184, 35.91723113]}, "type": "Feature", "properties": {"collection_times": [{"days": "Mon-Fri", "time": "1:00pm"}, {"days": "Sat", "time": "9:00am"}, {"days": "Sun", "time": "Closed"}], "id": "2751000019", "name": "USPS COLLECTION BOX - BLUE BOX", "address": {"city": "CARRBORO", "state": "NC", "street": "104 NC 54", "postcode": "27510"}}},
{"geometry": {"type": "Point", "coordinates": [-79.088158845, 35.905257739]}, "type": "Feature", "properties": {"collection_times": [{"days": "Mon-Fri", "time": "12:15pm"}, {"days": "Sat", "time": "9:00am"}, {"days": "Sun", "time": "Closed"}], "id": "2751000023", "name": "USPS COLLECTION BOX - BLUE BOX", "address": {"city": "CARRBORO", "state": "NC", "street": "602 JONES FERRY RD", "postcode": "27510"}}},
{"geometry": {"type": "Point", "coordinates": [-79.094049506, 35.917381354]}, "type": "Feature", "properties": {"collection_times": [{"days": "Mon-Fri", "time": "1:00pm"}, {"days": "Sat", "time": "9:00am"}, {"days": "Sun", "time": "Closed"}], "id": "2751000025", "name": "USPS COLLECTION BOX - BLUE BOX", "address": {"city": "CARRBORO", "state": "NC", "street": "102 HIGHWAY 54 BYP", "postcode": "27510"}}},
{"geometry": {"type": "Point", "coordinates": [-79.072236124, 35.911896012]}, "type": "Feature", "properties": {"collection_times": [{"days": "Mon-Fri", "time": "11:30am"}, {"days": "Sat", "time": "9:00am"}, {"days": "Sun", "time": "Closed"}], "id": "2751000026", "name": "USPS COLLECTION BOX - BLUE BOX", "address": {"city": "CARRBORO", "state": "NC", "street": "200 N GREENSBORO ST", "postcode": "27510"}}},
{"geometry": {"type": "Point", "coordinates": [-79.075579732, 35.897330522]}, "type": "Feature", "properties": {"collection_times": [{"days": "Mon-Fri", "time": "12:30pm"}, {"days": "Sat", "time": "9:00am"}, {"days": "Sun", "time": "Closed"}], "id": "2751000027", "name": "USPS COLLECTION BOX - BLUE BOX", "address": {"city": "CARRBORO", "state": "NC", "street": "1000 SMITH LEVEL RD", "postcode": "27510"}}},
{"geometry": {"type": "Point", "coordinates": [-79.093436322, 35.917727642]}, "type": "Feature", "properties": {"collection_times": [{"days": "Mon-Fri", "time": "5:00pm"}, {"days": "Sat", "time": "12:00pm"}, {"days": "Sun", "time": "Closed"}], "id": "2751000030", "name": "USPS COLLECTION BOX - BLUE BOX", "address": {"city": "CARRBORO", "state": "NC", "street": "1500 W MAIN ST", "postcode": "27510"}}},
{"geometry": {"type": "Point", "coordinates": [-79.093436322, 35.917727642]}, "type": "Feature", "properties": {"collection_times": [{"days": "Mon-Fri", "time": "5:00pm"}, {"days": "Sat", "time": "12:00pm"}, {"days": "Sun", "time": "Closed"}], "id": "2751000031", "name": "USPS COLLECTION BOX - BLUE BOX", "address": {"city": "CARRBORO", "state": "NC", "street": "1500 W MAIN ST", "postcode": "27510"}}},
{"geometry": {"type": "Point", "coordinates": [-79.093436322, 35.917727642]}, "type": "Feature", "properties": {"collection_times": [{"days": "Mon-Fri", "time": "5:00pm"}, {"days": "Sat", "time": "12:00pm"}, {"days": "Sun", "time": "Closed"}], "id": "2751000034", "name": "USPS COLLECTION BOX - PO LOBBY", "address": {"city": "CARRBORO", "state": "NC", "street": "1500 W MAIN ST", "postcode": "27510"}}},
{"geometry": {"type": "Point", "coordinates": [-79.093436322, 35.917727642]}, "type": "Feature", "properties": {"collection_times": [{"days": "Mon-Fri", "time": "5:00pm"}, {"days": "Sat", "time": "12:00pm"}, {"days": "Sun", "time": "Closed"}], "id": "2751000035", "name": "USPS COLLECTION BOX - PO LOBBY", "address": {"city": "CARRBORO", "state": "NC", "street": "1500 W MAIN ST", "postcode": "27510"}}},
{"geometry": {"type": "Point", "coordinates": [-79.085511948, 35.895078084]}, "type": "Feature", "properties": {"collection_times": [{"days": "Mon-Fri", "time": "3:00pm"}, {"days": "Sat", "time": "9:00am"}, {"days": "Sun", "time": "Closed"}], "id": "2751000037", "name": "USPS COLLECTION BOX - BLUE BOX", "address": {"city": "CARRBORO", "state": "NC", "street": "180 BPW CLUB RD", "postcode": "27510"}}},
{"geometry": {"type": "Point", "coordinates": [-79.077279878, 35.911797474]}, "type": "Feature", "properties": {"collection_times": [{"days": "Mon-Fri", "time": "11:30am"}, {"days": "Sat", "time": "9:00am"}, {"days": "Sun", "time": "Closed"}], "id": "2751000038", "name": "USPS COLLECTION BOX - BLUE BOX", "address": {"city": "CARRBORO", "state": "NC", "street": "301 W MAIN ST", "postcode": "27510"}}},
{"geometry": {"type": "Point", "coordinates": [-79.093436322, 35.917727642]}, "type": "Feature", "properties": {"collection_times": [{"days": "Mon-Fri", "time": "5:00pm"}, {"days": "Sat", "time": "12:00pm"}, {"days": "Sun", "time": "Closed"}], "id": "2751000039", "name": "USPS COLLECTION BOX - APC", "address": {"city": "CARRBORO", "state": "NC", "street": "1500 W MAIN ST", "postcode": "27510"}}},
{"geometry": {"type": "Point", "coordinates": [-79.089253268, 35.904816007]}, "type": "Feature", "properties": {"collection_times": [{"days": "Mon-Fri", "time": "12:30pm"}, {"days": "Sat", "time": "9:00am"}, {"days": "Sun", "time": "Closed"}], "id": "2751000040", "name": "USPS COLLECTION BOX - BLUE BOX", "address": {"city": "CARRBORO", "state": "NC", "street": "610 JONES FERRY RD", "postcode": "27510"}}},
{"geometry": {"type": "Point", "coordinates": [-78.783417224, 35.763950049]}, "type": "Feature", "properties": {"collection_times": [{"days": "Mon-Fri", "time": "2:45pm"}, {"days": "Sat", "time": "1:00pm"}, {"days": "Sun", "time": "Closed"}], "id": "2751100002", "name": "USPS COLLECTION BOX - BLUE BOX", "address": {"city": "CARY", "state": "NC", "street": "1217 KILDAIRE FARM RD", "postcode": "27511"}}},
{"geometry": {"type": "Point", "coordinates": [-78.781824362, 35.770125838]}, "type": "Feature", "properties": {"collection_times": [{"days": "Mon-Fri", "time": "2:45pm"}, {"days": "Sat", "time": "1:00pm"}, {"days": "Sun", "time": "Closed"}], "id": "2751100003", "name": "USPS COLLECTION BOX - BLUE BOX", "address": {"city": "CARY", "state": "NC", "street": "1112 KILDAIRE FARM RD", "postcode": "27511"}}},
{"geometry": {"type": "Point", "coordinates": [-78.781696916, 35.771971159]}, "type": "Feature", "properties": {"collection_times": [{"days": "Mon-Fri", "time": "2:45pm"}, {"days": "Sat", "time": "1:00pm"}, {"days": "Sun", "time": "Closed"}], "id": "2751100005", "name": "USPS COLLECTION BOX - BLUE BOX", "address": {"city": "CARY", "state": "NC", "street": "919 KILDAIRE FARM RD", "postcode": "27511"}}},
{"geometry": {"type": "Point", "coordinates": [-78.820069343, 35.761139979]}, "type": "Feature", "properties": {"collection_times": [{"days": "Mon-Fri", "time": "2:30pm"}, {"days": "Sat", "time": "1:00pm"}, {"days": "Sun", "time": "Closed"}], "id": "2751100007", "name": "USPS COLLECTION BOX - BLUE BOX", "address": {"city": "CARY", "state": "NC", "street": "100 WOODWINDS INDUSTRIAL CT", "postcode": "27511"}}},
{"geometry": {"type": "Point", "coordinates": [-78.79832539, 35.739026938]}, "type": "Feature", "properties": {"collection_times": [{"days": "Mon-Fri", "time": "3:00pm"}, {"days": "Sat", "time": "1:00pm"}, {"days": "Sun", "time": "Closed"}], "id": "2751100009", "name": "USPS COLLECTION BOX - BLUE BOX", "address": {"city": "CARY", "state": "NC", "street": "101 EDINBURGH DR", "postcode": "27511"}}},
{"geometry": {"type": "Point", "coordinates": [-78.79832539, 35.739026938]}, "type": "Feature", "properties": {"collection_times": [{"days": "Mon-Fri", "time": "3:00pm"}, {"days": "Sat", "time": "1:00pm"}, {"days": "Sun", "time": "Closed"}], "id": "2751100010", "name": "USPS COLLECTION BOX - BLUE BOX", "address": {"city": "CARY", "state": "NC", "street": "101 EDINBURGH DR", "postcode": "27511"}}},
{"geometry": {"type": "Point", "coordinates": [-78.789165514, 35.734683042]}, "type": "Feature", "properties": {"collection_times": [{"days": "Mon-Fri", "time": "3:45pm"}, {"days": "Sat", "time": "1:00pm"}, {"days": "Sun", "time": "Closed"}], "id": "2751100012", "name": "USPS COLLECTION BOX - BLUE BOX", "address": {"city": "CARY", "state": "NC", "street": "2000 REGENCY PKWY", "postcode": "27511"}}},
{"geometry": {"type": "Point", "coordinates": [-78.794456339, 35.730037424]}, "type": "Feature", "properties": {"collection_times": [{"days": "Mon-Fri", "time": "3:30pm"}, {"days": "Sat", "time": "1:00pm"}, {"days": "Sun", "time": "Closed"}], "id": "2751100013", "name": "USPS COLLECTION BOX - BLUE BOX", "address": {"city": "CARY", "state": "NC", "street": "8000 REGENCY PKWY", "postcode": "27511"}}},
{"geometry": {"type": "Point", "coordinates": [-78.735488833, 35.754554578]}, "type": "Feature", "properties": {"collection_times": [{"days": "Mon-Fri", "time": "2:30pm"}, {"days": "Sat", "time": "1:00pm"}, {"days": "Sun", "time": "Closed"}], "id": "2751100015", "name": "USPS COLLECTION BOX - BLUE BOX", "address": {"city": "CARY", "state": "NC", "street": "110 CORNING RD", "postcode": "27511"}}},
{"geometry": {"type": "Point", "coordinates": [-78.786266652, 35.738021255]}, "type": "Feature", "properties": {"collection_times": [{"days": "Mon-Fri", "time": "2:45pm"}, {"days": "Sat", "time": "1:00pm"}, {"days": "Sun", "time": "Closed"}], "id": "2751100016", "name": "USPS COLLECTION BOX - BLUE BOX", "address": {"city": "CARY", "state": "NC", "street": "311 ASHVILLE AVE", "postcode": "27511"}}},
{"geometry": {"type": "Point", "coordinates": [-78.779958371, 35.740297852]}, "type": "Feature", "properties": {"collection_times": [{"days": "Mon-Fri", "time": "3:00pm"}, {"days": "Sat", "time": "1:00pm"}, {"days": "Sun", "time": "Closed"}], "id": "2751100017", "name": "USPS COLLECTION BOX - BLUE BOX", "address": {"city": "CARY", "state": "NC", "street": "1900 KILDAIRE FARM RD", "postcode": "27511"}}},
{"geometry": {"type": "Point", "coordinates": [-78.780184011, 35.738965811]}, "type": "Feature", "properties": {"collection_times": [{"days": "Mon-Fri", "time": "3:00pm"}, {"days": "Sat", "time": "1:00pm"}, {"days": "Sun", "time": "Closed"}], "id": "2751100019", "name": "USPS COLLECTION BOX - BLUE BOX", "address": {"city": "CARY", "state": "NC", "street": "2000 KILDAIRE FARM RD", "postcode": "27511"}}},
{"geometry": {"type": "Point", "coordinates": [-78.737333969, 35.755135899]}, "type": "Feature", "properties": {"collection_times": [{"days": "Mon-Sat", "time": "10:30am"}, {"days": "Sun", "time": "Closed"}], "id": "2751100020", "name": "USPS COLLECTION BOX - BLUE BOX", "address": {"city": "CARY", "state": "NC", "street": "5625 DILLARD DR", "postcode": "27511"}}},
{"geometry": {"type": "Point", "coordinates": [-78.737126165, 35.76051979]}, "type": "Feature", "properties": {"collection_times": [{"days": "Mon-Fri", "time": "2:45pm"}, {"days": "Sat", "time": "1:00pm"}, {"days": "Sun", "time": "Closed"}], "id": "2751100022", "name": "USPS COLLECTION BOX - BLUE BOX", "address": {"city": "CARY", "state": "NC", "street": "401 CROSSROADS BLVD", "postcode": "27511"}}},
{"geometry": {"type": "Point", "coordinates": [-78.74871669, 35.766153526]}, "type": "Feature", "properties": {"collection_times": [{"days": "Mon-Fri", "time": "2:30pm"}, {"days": "Sat", "time": "1:00pm"}, {"days": "Sun", "time": "Closed"}], "id": "2751100025", "name": "USPS COLLECTION BOX - BLUE BOX", "address": {"city": "CARY", "state": "NC", "street": "1200 DONALDSON DR", "postcode": "27511"}}},
{"geometry": {"type": "Point", "coordinates": [-78.76327237, 35.771613345]}, "type": "Feature", "properties": {"collection_times": [{"days": "Mon-Fri", "time": "3:00pm"}, {"days": "Sat", "time": "1:00pm"}, {"days": "Sun", "time": "Closed"}], "id": "2751100026", "name": "USPS COLLECTION BOX - BLUE BOX", "address": {"city": "CARY", "state": "NC", "street": "1105 WALNUT ST", "postcode": "27511"}}},
{"geometry": {"type": "Point", "coordinates": [-78.765623224, 35.773444378]}, "type": "Feature", "properties": {"collection_times": [{"days": "Mon-Fri", "time": "4:00pm"}, {"days": "Sat", "time": "1:00pm"}, {"days": "Sun", "time": "Closed"}], "id": "2751100027", "name": "USPS COLLECTION BOX - BLUE BOX", "address": {"city": "CARY", "state": "NC", "street": "975 WALNUT ST", "postcode": "27511"}}},
{"geometry": {"type": "Point", "coordinates": [-78.766332514, 35.775554625]}, "type": "Feature", "properties": {"collection_times": [{"days": "Mon-Fri", "time": "3:00pm"}, {"days": "Sat", "time": "1:00pm"}, {"days": "Sun", "time": "Closed"}], "id": "2751100030", "name": "USPS COLLECTION BOX - BLUE BOX", "address": {"city": "CARY", "state": "NC", "street": "651 CARY TOWNE BLVD", "postcode": "27511"}}},
{"geometry": {"type": "Point", "coordinates": [-78.764159498, 35.780612915]}, "type": "Feature", "properties": {"collection_times": [{"days": "Mon-Fri", "time": "3:00pm"}, {"days": "Sat", "time": "1:00pm"}, {"days": "Sun", "time": "Closed"}], "id": "2751100031", "name": "USPS COLLECTION BOX - BLUE BOX", "address": {"city": "CARY", "state": "NC", "street": "1100 SE MAYNARD RD", "postcode": "27511"}}},
{"geometry": {"type": "Point", "coordinates": [-78.763803847, 35.791040238]}, "type": "Feature", "properties": {"collection_times": [{"days": "Mon-Fri", "time": "3:15pm"}, {"days": "Sat", "time": "1:00pm"}, {"days": "Sun", "time": "Closed"}], "id": "2751100033", "name": "USPS COLLECTION BOX - BLUE BOX", "address": {"city": "CARY", "state": "NC", "street": "1419 SE MAYNARD RD", "postcode": "27511"}}},
{"geometry": {"type": "Point", "coordinates": [-78.768583646, 35.791183598]}, "type": "Feature", "properties": {"collection_times": [{"days": "Mon-Fri", "time": "3:15pm"}, {"days": "Sat", "time": "1:00pm"}, {"days": "Sun", "time": "Closed"}], "id": "2751100034", "name": "USPS COLLECTION BOX - BLUE BOX", "address": {"city": "CARY", "state": "NC", "street": "590 E CHATHAM ST", "postcode": "27511"}}},
{"geometry": {"type": "Point", "coordinates": [-78.781174919, 35.786483822]}, "type": "Feature", "properties": {"collection_times": [{"days": "Mon-Fri", "time": "4:45pm"}, {"days": "Sat", "time": "1:00pm"}, {"days": "Sun", "time": "Closed"}], "id": "2751100035", "name": "USPS COLLECTION BOX - BLUE BOX", "address": {"city": "CARY", "state": "NC", "street": "201 ACADEMY ST.", "postcode": "27511"}}},
{"geometry": {"type": "Point", "coordinates": [-78.789520765, 35.731553074]}, "type": "Feature", "properties": {"collection_times": [{"days": "Mon-Fri", "time": "3:30pm"}, {"days": "Sat", "time": "1:00pm"}, {"days": "Sun", "time": "Closed"}], "id": "2751100040", "name": "USPS COLLECTION BOX - BLUE BOX", "address": {"city": "CARY", "state": "NC", "street": "3500 REGENCY PKWY", "postcode": "27511"}}},
{"geometry": {"type": "Point", "coordinates": [-78.783373409, 35.787107455]}, "type": "Feature", "properties": {"collection_times": [{"days": "Mon-Fri", "time": "3:30pm"}, {"days": "Sat", "time": "1:00pm"}, {"days": "Sun", "time": "Closed"}], "id": "2751100044", "name": "USPS COLLECTION BOX - BLUE BOX", "address": {"city": "CARY", "state": "NC", "street": "100 S HARRISON AVE", "postcode": "27511"}}},
{"geometry": {"type": "Point", "coordinates": [-78.775795206, 35.755841747]}, "type": "Feature", "properties": {"collection_times": [{"days": "Mon-Fri", "time": "2:45pm"}, {"days": "Sat", "time": "1:00pm"}, {"days": "Sun", "time": "Closed"}], "id": "2751100045", "name": "USPS COLLECTION BOX - BLUE BOX", "address": {"city": "CARY", "state": "NC", "street": "10300 KINGSCLERE DR", "postcode": "27511"}}},
{"geometry": {"type": "Point", "coordinates": [-78.735425023, 35.75453941]}, "type": "Feature", "properties": {"collection_times": [{"days": "Mon-Fri", "time": "2:30pm"}, {"days": "Sat", "time": "1:00pm"}, {"days": "Sun", "time": "Closed"}], "id": "2751100046", "name": "USPS COLLECTION BOX - BLUE BOX", "address": {"city": "CARY", "state": "NC", "street": "111 CORNING RD", "postcode": "27511"}}},
{"geometry": {"type": "Point", "coordinates": [-78.780643468, 35.732676656]}, "type": "Feature", "properties": {"collection_times": [{"days": "Mon-Fri", "time": "3:00pm"}, {"days": "Sat", "time": "1:00pm"}, {"days": "Sun", "time": "Closed"}], "id": "2751100047", "name": "USPS COLLECTION BOX - BLUE BOX", "address": {"city": "CARY", "state": "NC", "street": "1100 CRESCENT GREEN", "postcode": "27511"}}},
{"geometry": {"type": "Point", "coordinates": [-78.731263543, 35.753352038]}, "type": "Feature", "properties": {"collection_times": [{"days": "Mon-Sat", "time": "12:00pm"}, {"days": "Sun", "time": "Closed"}], "id": "2751100049", "name": "USPS COLLECTION BOX - BLUE BOX", "address": {"city": "CARY", "state": "NC", "street": "5501 DILLARD DR", "postcode": "27511"}}},
{"geometry": {"type": "Point", "coordinates": [-78.759818738, 35.744598559]}, "type": "Feature", "properties": {"collection_times": [{"days": "Mon-Fri", "time": "3:00pm"}, {"days": "Sat", "time": "1:00pm"}, {"days": "Sun", "time": "Closed"}], "id": "2751100055", "name": "USPS COLLECTION BOX - BLUE BOX", "address": {"city": "CARY", "state": "NC", "street": "6400 TRYON RD", "postcode": "27511"}}},
{"geometry": {"type": "Point", "coordinates": [-78.764128928, 35.78601174]}, "type": "Feature", "properties": {"collection_times": [{"days": "Mon-Fri", "time": "3:15pm"}, {"days": "Sat", "time": "1:00pm"}, {"days": "Sun", "time": "Closed"}], "id": "2751100056", "name": "USPS COLLECTION BOX - BLUE BOX", "address": {"city": "CARY", "state": "NC", "street": "1250 SE MAYNARD RD", "postcode": "27511"}}},
{"geometry": {"type": "Point", "coordinates": [-78.787836987, 35.717133067]}, "type": "Feature", "properties": {"collection_times": [{"days": "Mon-Fri", "time": "3:00pm"}, {"days": "Sat", "time": "1:00pm"}, {"days": "Sun", "time": "Closed"}], "id": "2751100058", "name": "USPS COLLECTION BOX - BLUE BOX", "address": {"city": "CARY", "state": "NC", "street": "2978 KILDAIRE FARM RD", "postcode": "27511"}}},
{"geometry": {"type": "Point", "coordinates": [-78.793969505, 35.706933904]}, "type": "Feature", "properties": {"collection_times": [{"days": "Mon-Fri", "time": "3:00pm"}, {"days": "Sat", "time": "1:00pm"}, {"days": "Sun", "time": "Closed"}], "id": "2751100061", "name": "USPS COLLECTION BOX - BLUE BOX", "address": {"city": "CARY", "state": "NC", "street": "3400 KILDAIRE FARM RD", "postcode": "27511"}}},
{"geometry": {"type": "Point", "coordinates": [-78.79109227, 35.731947802]}, "type": "Feature", "properties": {"collection_times": [{"days": "Mon-Fri", "time": "3:30pm"}, {"days": "Sat", "time": "1:00pm"}, {"days": "Sun", "time": "Closed"}], "id": "2751100064", "name": "USPS COLLECTION BOX - BLUE BOX", "address": {"city": "CARY", "state": "NC", "street": "200 REGENCY FOREST DR", "postcode": "27511"}}},
{"geometry": {"type": "Point", "coordinates": [-78.785680665, 35.76492792]}, "type": "Feature", "properties": {"collection_times": [{"days": "Mon-Fri", "time": "5:00pm"}, {"days": "Sat", "time": "3:30pm"}, {"days": "Sun", "time": "Closed"}], "id": "2751100066", "name": "USPS COLLECTION BOX - PO LOBBY", "address": {"city": "CARY", "state": "NC", "street": "150 WRENN DR", "postcode": "27511"}}},
{"geometry": {"type": "Point", "coordinates": [-78.781179534, 35.786054604]}, "type": "Feature", "properties": {"collection_times": [{"days": "Mon-Fri", "time": "5:00pm"}, {"days": "Sat", "time": "12:00pm"}, {"days": "Sun", "time": "Closed"}], "id": "2751100067", "name": "USPS COLLECTION BOX - PO LOBBY", "address": {"city": "CARY", "state": "NC", "street": "205 S ACADEMY ST", "postcode": "27511"}}},
{"geometry": {"type": "Point", "coordinates": [-78.785680665, 35.76492792]}, "type": "Feature", "properties": {"collection_times": [{"days": "Mon-Fri", "time": "5:00pm"}, {"days": "Sat", "time": "1:00pm"}, {"days": "Sun", "time": "Closed"}], "id": "2751100069", "name": "USPS COLLECTION BOX - BLUE BOX", "address": {"city": "CARY", "state": "NC", "street": "150 WRENN DR", "postcode": "27511"}}},
{"geometry": {"type": "Point", "coordinates": [-78.785680665, 35.76492792]}, "type": "Feature", "properties": {"collection_times": [{"days": "Mon-Fri", "time": "5:00pm"}, {"days": "Sat", "time": "1:00pm"}, {"days": "Sun", "time": "Closed"}], "id": "2751100070", "name": "USPS COLLECTION BOX - BLUE BOX", "address": {"city": "CARY", "state": "NC", "street": "150 WRENN DR", "postcode": "27511"}}},
{"geometry": {"type": "Point", "coordinates": [-78.785680665, 35.76492792]}, "type": "Feature", "properties": {"collection_times": [{"days": "Mon-Fri", "time": "5:00pm"}, {"days": "Sat", "time": "1:00pm"}, {"days": "Sun", "time": "Closed"}], "id": "2751100071", "name": "USPS COLLECTION BOX - BLUE BOX", "address": {"city": "CARY", "state": "NC", "street": "150 WRENN DR", "postcode": "27511"}}},
{"geometry": {"type": "Point", "coordinates": [-78.783035775, 35.800531129]}, "type": "Feature", "properties": {"collection_times": [{"days": "Mon-Fri", "time": "3:30pm"}, {"days": "Sat", "time": "1:00pm"}, {"days": "Sun", "time": "Closed"}], "id": "2751300002", "name": "USPS COLLECTION BOX - BLUE BOX", "address": {"city": "CARY", "state": "NC", "street": "931 N HARRISON AVE", "postcode": "27513"}}},
{"geometry": {"type": "Point", "coordinates": [-78.777971096, 35.807504646]}, "type": "Feature", "properties": {"collection_times": [{"days": "Mon-Fri", "time": "3:30pm"}, {"days": "Sat", "time": "1:00pm"}, {"days": "Sun", "time": "Closed"}], "id": "2751300003", "name": "USPS COLLECTION BOX - BLUE BOX", "address": {"city": "CARY", "state": "NC", "street": "300 W DYNASTY DR.", "postcode": "27513"}}},
{"geometry": {"type": "Point", "coordinates": [-78.791156206, 35.801414341]}, "type": "Feature", "properties": {"collection_times": [{"days": "Mon-Fri", "time": "4:00pm"}, {"days": "Sat", "time": "1:00pm"}, {"days": "Sun", "time": "Closed"}], "id": "2751300004", "name": "USPS COLLECTION BOX - BLUE BOX", "address": {"city": "CARY", "state": "NC", "street": "817 BASS PRO LN", "postcode": "27513"}}},
{"geometry": {"type": "Point", "coordinates": [-78.794234418, 35.829646936]}, "type": "Feature", "properties": {"collection_times": [{"days": "Mon-Fri", "time": "3:45pm"}, {"days": "Sat", "time": "1:00pm"}, {"days": "Sun", "time": "Closed"}], "id": "2751300006", "name": "USPS COLLECTION BOX - BLUE BOX", "address": {"city": "CARY", "state": "NC", "street": "8000 WESTON PKWY", "postcode": "27513"}}},
{"geometry": {"type": "Point", "coordinates": [-78.788259961, 35.829033873]}, "type": "Feature", "properties": {"collection_times": [{"days": "Mon-Fri", "time": "3:45pm"}, {"days": "Sat", "time": "1:00pm"}, {"days": "Sun", "time": "Closed"}], "id": "2751300007", "name": "USPS COLLECTION BOX - BLUE BOX", "address": {"city": "CARY", "state": "NC", "street": "6501 WESTON PKWY", "postcode": "27513"}}},
{"geometry": {"type": "Point", "coordinates": [-78.829935474, 35.790006422]}, "type": "Feature", "properties": {"collection_times": [{"days": "Mon-Fri", "time": "3:15pm"}, {"days": "Sat", "time": "1:00pm"}, {"days": "Sun", "time": "Closed"}], "id": "2751300009", "name": "USPS COLLECTION BOX - BLUE BOX", "address": {"city": "CARY", "state": "NC", "street": "1003 HIGH HOUSE RD", "postcode": "27513"}}},
{"geometry": {"type": "Point", "coordinates": [-78.815787222, 35.814734103]}, "type": "Feature", "properties": {"collection_times": [{"days": "Mon-Fri", "time": "3:45pm"}, {"days": "Sat", "time": "1:00pm"}, {"days": "Sun", "time": "Closed"}], "id": "2751300020", "name": "USPS COLLECTION BOX - BLUE BOX", "address": {"city": "CARY", "state": "NC", "street": "15300 WESTON PKWY", "postcode": "27513"}}},
{"geometry": {"type": "Point", "coordinates": [-78.814108873, 35.79957651]}, "type": "Feature", "properties": {"collection_times": [{"days": "Mon-Fri", "time": "3:30pm"}, {"days": "Sat", "time": "1:00pm"}, {"days": "Sun", "time": "Closed"}], "id": "2751300021", "name": "USPS COLLECTION BOX - BLUE BOX", "address": {"city": "CARY", "state": "NC", "street": "1000 DARRINGTON DR", "postcode": "27513"}}},
{"geometry": {"type": "Point", "coordinates": [-78.810923505, 35.786353681]}, "type": "Feature", "properties": {"collection_times": [{"days": "Mon-Fri", "time": "3:15pm"}, {"days": "Sat", "time": "1:00pm"}, {"days": "Sun", "time": "Closed"}], "id": "2751300022", "name": "USPS COLLECTION BOX - BLUE BOX", "address": {"city": "CARY", "state": "NC", "street": "101 MAYNARD CROSSING CT", "postcode": "27513"}}},
{"geometry": {"type": "Point", "coordinates": [-79.031256974, 35.92775811]}, "type": "Feature", "properties": {"collection_times": [{"days": "Mon-Fri", "time": "5:00pm"}, {"days": "Sat", "time": "2:00pm"}, {"days": "Sun", "time": "Closed"}], "id": "2751400002", "name": "USPS COLLECTION BOX - BLUE BOX", "address": {"city": "CHAPEL HILL", "state": "NC", "street": "125 S ESTES DR", "postcode": "27514"}}},
{"geometry": {"type": "Point", "coordinates": [-79.025330169, 35.925202548]}, "type": "Feature", "properties": {"collection_times": [{"days": "Mon-Fri", "time": "2:00pm"}, {"days": "Sat", "time": "1:45pm"}, {"days": "Sun", "time": "Closed"}], "id": "2751400006", "name": "USPS COLLECTION BOX - BLUE BOX", "address": {"city": "CHAPEL HILL", "state": "NC", "street": "251 S ESTES DR", "postcode": "27514"}}},
{"geometry": {"type": "Point", "coordinates": [-79.022938655, 35.937581116]}, "type": "Feature", "properties": {"collection_times": [{"days": "Mon-Fri", "time": "4:00pm"}, {"days": "Sat", "time": "12:30pm"}, {"days": "Sun", "time": "Closed"}], "id": "2751400008", "name": "USPS COLLECTION BOX - BLUE BOX", "address": {"city": "CHAPEL HILL", "state": "NC", "street": "1724 FORDHAM BLVD", "postcode": "27514"}}},
{"geometry": {"type": "Point", "coordinates": [-79.030302413, 35.930353725]}, "type": "Feature", "properties": {"collection_times": [{"days": "Mon-Fri", "time": "4:00pm"}, {"days": "Sat", "time": "1:45pm"}, {"days": "Sun", "time": "Closed"}], "id": "2751400009", "name": "USPS COLLECTION BOX - BLUE BOX", "address": {"city": "CHAPEL HILL", "state": "NC", "street": "120 CONNER DR", "postcode": "27514"}}},
{"geometry": {"type": "Point", "coordinates": [-79.034430686, 35.929072818]}, "type": "Feature", "properties": {"collection_times": [{"days": "Mon-Fri", "time": "2:00pm"}, {"days": "Sat", "time": "12:15pm"}, {"days": "Sun", "time": "Closed"}], "id": "2751400010", "name": "USPS COLLECTION BOX - BLUE BOX", "address": {"city": "CHAPEL HILL", "state": "NC", "street": "1407 E FRANKLIN ST", "postcode": "27514"}}},
{"geometry": {"type": "Point", "coordinates": [-79.033772167, 35.93036538]}, "type": "Feature", "properties": {"collection_times": [{"days": "Mon-Fri", "time": "4:45pm"}, {"days": "Sat", "time": "12:15pm"}, {"days": "Sun", "time": "Closed"}], "id": "2751400011", "name": "USPS COLLECTION BOX - BLUE BOX", "address": {"city": "CHAPEL HILL", "state": "NC", "street": "1506 E FRANKLIN ST", "postcode": "27514"}}},
{"geometry": {"type": "Point", "coordinates": [-79.028768828, 35.934533788]}, "type": "Feature", "properties": {"collection_times": [{"days": "Mon-Fri", "time": "4:00pm"}, {"days": "Sat", "time": "12:15pm"}, {"days": "Sun", "time": "Closed"}], "id": "2751400013", "name": "USPS COLLECTION BOX - BLUE BOX", "address": {"city": "CHAPEL HILL", "state": "NC", "street": "111 S ELLIOTT RD", "postcode": "27514"}}},
{"geometry": {"type": "Point", "coordinates": [-79.026594893, 35.936576438]}, "type": "Feature", "properties": {"collection_times": [{"days": "Mon-Fri", "time": "4:00pm"}, {"days": "Sat", "time": "12:30pm"}, {"days": "Sun", "time": "Closed"}], "id": "2751400014", "name": "USPS COLLECTION BOX - BLUE BOX", "address": {"city": "CHAPEL HILL", "state": "NC", "street": "1800 E FRANKLIN ST", "postcode": "27514"}}},
{"geometry": {"type": "Point", "coordinates": [-79.024413039, 35.938401643]}, "type": "Feature", "properties": {"collection_times": [{"days": "Mon-Fri", "time": "4:30pm"}, {"days": "Sat", "time": "1:00pm"}, {"days": "Sun", "time": "Closed"}], "id": "2751400015", "name": "USPS COLLECTION BOX - BLUE BOX", "address": {"city": "CHAPEL HILL", "state": "NC", "street": "1829 E FRANKLIN ST", "postcode": "27514"}}},
{"geometry": {"type": "Point", "coordinates": [-79.017855899, 35.940045657]}, "type": "Feature", "properties": {"collection_times": [{"days": "Mon-Sat", "time": "11:00am"}, {"days": "Sun", "time": "Closed"}], "id": "2751400018", "name": "USPS COLLECTION BOX - BLUE BOX", "address": {"city": "CHAPEL HILL", "state": "NC", "street": "100 EUROPA DR", "postcode": "27514"}}},
{"geometry": {"type": "Point", "coordinates": [-79.01320656, 35.944888929]}, "type": "Feature", "properties": {"collection_times": [{"days": "Mon-Fri", "time": "1:00pm"}, {"days": "Sat", "time": "12:45pm"}, {"days": "Sun", "time": "Closed"}], "id": "2751400021", "name": "USPS COLLECTION BOX - BLUE BOX", "address": {"city": "CHAPEL HILL", "state": "NC", "street": "1775 DOBBINS DR", "postcode": "27514"}}},
{"geometry": {"type": "Point", "coordinates": [-79.054677288, 35.90789805]}, "type": "Feature", "properties": {"collection_times": [{"days": "Mon-Fri", "time": "2:00pm"}, {"days": "Sat", "time": "12:30pm"}, {"days": "Sun", "time": "Closed"}], "id": "2751400030", "name": "USPS COLLECTION BOX - BLUE BOX", "address": {"city": "CHAPEL HILL", "state": "NC", "street": "302 PITTSBORO ST", "postcode": "27514"}}},
{"geometry": {"type": "Point", "coordinates": [-79.053099992, 35.914217095]}, "type": "Feature", "properties": {"collection_times": [{"days": "Mon-Fri", "time": "5:00pm"}, {"days": "Sat", "time": "1:15pm"}, {"days": "Sun", "time": "Closed"}], "id": "2751400033", "name": "USPS COLLECTION BOX - BLUE BOX", "address": {"city": "CHAPEL HILL", "state": "NC", "street": "179 E FRANKLIN ST", "postcode": "27514"}}},
{"geometry": {"type": "Point", "coordinates": [-79.053099992, 35.914217095]}, "type": "Feature", "properties": {"collection_times": [{"days": "Mon-Fri", "time": "5:00pm"}, {"days": "Sat", "time": "1:15pm"}, {"days": "Sun", "time": "Closed"}], "id": "2751400036", "name": "USPS COLLECTION BOX - BLUE BOX", "address": {"city": "CHAPEL HILL", "state": "NC", "street": "179 E FRANKLIN ST", "postcode": "27514"}}},
{"geometry": {"type": "Point", "coordinates": [-79.055792553, 35.913253476]}, "type": "Feature", "properties": {"collection_times": [{"days": "Mon-Fri", "time": "4:30pm"}, {"days": "Sat", "time": "1:30pm"}, {"days": "Sun", "time": "Closed"}], "id": "2751400037", "name": "USPS COLLECTION BOX - BLUE BOX", "address": {"city": "CHAPEL HILL", "state": "NC", "street": "100 N COLUMBIA ST", "postcode": "27514"}}},
{"geometry": {"type": "Point", "coordinates": [-79.049913955, 35.915447468]}, "type": "Feature", "properties": {"collection_times": [{"days": "Mon-Fri", "time": "4:00pm"}, {"days": "Sat", "time": "12:45pm"}, {"days": "Sun", "time": "Closed"}], "id": "2751400041", "name": "USPS COLLECTION BOX - BLUE BOX", "address": {"city": "CHAPEL HILL", "state": "NC", "street": "311 W FRANKLIN ST", "postcode": "27514"}}},
{"geometry": {"type": "Point", "coordinates": [-79.048538945, 35.915913701]}, "type": "Feature", "properties": {"collection_times": [{"days": "Mon-Fri", "time": "4:00pm"}, {"days": "Sat", "time": "12:45pm"}, {"days": "Sun", "time": "Closed"}], "id": "2751400042", "name": "USPS COLLECTION BOX - BLUE BOX", "address": {"city": "CHAPEL HILL", "state": "NC", "street": "462 W FRANKLIN ST", "postcode": "27514"}}},
{"geometry": {"type": "Point", "coordinates": [-79.051110449, 35.911884888]}, "type": "Feature", "properties": {"collection_times": [{"days": "Mon-Fri", "time": "3:00pm"}, {"days": "Sat", "time": "1:30pm"}, {"days": "Sun", "time": "Closed"}], "id": "2751400043", "name": "USPS COLLECTION BOX - BLUE BOX", "address": {"city": "CHAPEL HILL", "state": "NC", "street": "200 E CAMERON AVE", "postcode": "27514"}}},
{"geometry": {"type": "Point", "coordinates": [-79.047351779, 35.912166723]}, "type": "Feature", "properties": {"collection_times": [{"days": "Mon-Sat", "time": "9:45am"}, {"days": "Sun", "time": "Closed"}], "id": "2751400045", "name": "USPS COLLECTION BOX - BLUE BOX", "address": {"city": "CHAPEL HILL", "state": "NC", "street": "204 RALEIGH ST", "postcode": "27514"}}},
{"geometry": {"type": "Point", "coordinates": [-79.05200446, 35.903541993]}, "type": "Feature", "properties": {"collection_times": [{"days": "Mon-Fri", "time": "3:00pm"}, {"days": "Sat", "time": "12:30pm"}, {"days": "Sun", "time": "Closed"}], "id": "2751400048", "name": "USPS COLLECTION BOX - BLUE BOX", "address": {"city": "CHAPEL HILL", "state": "NC", "street": "101 MANNING DR", "postcode": "27514"}}},
{"geometry": {"type": "Point", "coordinates": [-79.055948524, 35.920773147]}, "type": "Feature", "properties": {"collection_times": [{"days": "Mon-Fri", "time": "3:30pm"}, {"days": "Sat", "time": "1:15pm"}, {"days": "Sun", "time": "Closed"}], "id": "2751400052", "name": "USPS COLLECTION BOX - BLUE BOX", "address": {"city": "CHAPEL HILL", "state": "NC", "street": "700 MARTIN LUTHER KING JR BLVD", "postcode": "27514"}}},
{"geometry": {"type": "Point", "coordinates": [-79.055069721, 35.930751167]}, "type": "Feature", "properties": {"collection_times": [{"days": "Mon-Fri", "time": "3:00pm"}, {"days": "Sat", "time": "1:15pm"}, {"days": "Sun", "time": "Closed"}], "id": "2751400053", "name": "USPS COLLECTION BOX - BLUE BOX", "address": {"city": "CHAPEL HILL", "state": "NC", "street": "900 MARTIN LUTHER KING JR BLVD", "postcode": "27514"}}},
{"geometry": {"type": "Point", "coordinates": [-79.017855899, 35.940045657]}, "type": "Feature", "properties": {"collection_times": [{"days": "Mon-Sat", "time": "11:00am"}, {"days": "Sun", "time": "Closed"}], "id": "2751400054", "name": "USPS COLLECTION BOX - BLUE BOX", "address": {"city": "CHAPEL HILL", "state": "NC", "street": "100 EUROPA DR", "postcode": "27514"}}},
{"geometry": {"type": "Point", "coordinates": [-78.97746102, 35.910759951]}, "type": "Feature", "properties": {"collection_times": [{"days": "Mon-Fri", "time": "3:15pm"}, {"days": "Sat", "time": "1:15pm"}, {"days": "Sun", "time": "Closed"}], "id": "2751400056", "name": "USPS COLLECTION BOX - BLUE BOX", "address": {"city": "CHAPEL HILL", "state": "NC", "street": "6320 QUADRANGLE DR", "postcode": "27514"}}},
{"geometry": {"type": "Point", "coordinates": [-79.007664511, 35.947787578]}, "type": "Feature", "properties": {"collection_times": [{"days": "Mon-Sat", "time": "12:00pm"}, {"days": "Sun", "time": "Closed"}], "id": "2751400059", "name": "USPS COLLECTION BOX - BLUE BOX", "address": {"city": "CHAPEL HILL", "state": "NC", "street": "100 EASTOWNE DR", "postcode": "27514"}}},
{"geometry": {"type": "Point", "coordinates": [-79.053791145, 35.963923042]}, "type": "Feature", "properties": {"collection_times": [{"days": "Mon-Fri", "time": "3:30pm"}, {"days": "Sat", "time": "12:00pm"}, {"days": "Sun", "time": "Closed"}], "id": "2751400062", "name": "USPS COLLECTION BOX - BLUE BOX", "address": {"city": "CHAPEL HILL", "state": "NC", "street": "1129 WEAVER DAIRY RD", "postcode": "27514"}}},
{"geometry": {"type": "Point", "coordinates": [-79.056381691, 35.914232566]}, "type": "Feature", "properties": {"collection_times": [{"days": "Mon-Sat", "time": "1:00pm"}, {"days": "Sun", "time": "Closed"}], "id": "2751400066", "name": "USPS COLLECTION BOX - BLUE BOX", "address": {"city": "CHAPEL HILL", "state": "NC", "street": "302 N COLUMBIA", "postcode": "27514"}}},
{"geometry": {"type": "Point", "coordinates": [-79.052853745, 35.908122111]}, "type": "Feature", "properties": {"collection_times": [{"days": "Mon-Sat", "time": "1:00pm"}, {"days": "Sun", "time": "Closed"}], "id": "2751400069", "name": "USPS COLLECTION BOX - BLUE BOX", "address": {"city": "CHAPEL HILL", "state": "NC", "street": "302 N COLUMBIA ST", "postcode": "27514"}}},
{"geometry": {"type": "Point", "coordinates": [-79.058508007, 35.895988356]}, "type": "Feature", "properties": {"collection_times": [{"days": "Mon-Sat", "time": "12:00pm"}, {"days": "Sun", "time": "Closed"}], "id": "2751400070", "name": "USPS COLLECTION BOX - BLUE BOX", "address": {"city": "CHAPEL HILL", "state": "NC", "street": "1009 S COLUMBIA ST", "postcode": "27514"}}},
{"geometry": {"type": "Point", "coordinates": [-79.007664511, 35.947787578]}, "type": "Feature", "properties": {"collection_times": [{"days": "Mon-Sat", "time": "12:00pm"}, {"days": "Sun", "time": "Closed"}], "id": "2751400073", "name": "USPS COLLECTION BOX - BLUE BOX", "address": {"city": "CHAPEL HILL", "state": "NC", "street": "100 EASTOWNE DR", "postcode": "27514"}}},
{"geometry": {"type": "Point", "coordinates": [-79.024062967, 35.912943141]}, "type": "Feature", "properties": {"collection_times": [{"days": "Mon-Fri", "time": "12:00pm"}, {"days": "Sat", "time": "1:30pm"}, {"days": "Sun", "time": "Closed"}], "id": "2751400075", "name": "USPS COLLECTION BOX - BLUE BOX", "address": {"city": "CHAPEL HILL", "state": "NC", "street": "112 MAXWELL RD", "postcode": "27514"}}},
{"geometry": {"type": "Point", "coordinates": [-79.025810519, 35.908560884]}, "type": "Feature", "properties": {"collection_times": [{"days": "Mon-Fri", "time": "3:30pm"}, {"days": "Sat", "time": "1:30pm"}, {"days": "Sun", "time": "Closed"}], "id": "2751400077", "name": "USPS COLLECTION BOX - BLUE BOX", "address": {"city": "CHAPEL HILL", "state": "NC", "street": "1201 RALEIGH RD", "postcode": "27514"}}},
{"geometry": {"type": "Point", "coordinates": [-79.032908517, 35.9314295]}, "type": "Feature", "properties": {"collection_times": [{"days": "Mon-Fri", "time": "4:45pm"}, {"days": "Sat", "time": "12:15pm"}, {"days": "Sun", "time": "Closed"}], "id": "2751400078", "name": "USPS COLLECTION BOX - BLUE BOX", "address": {"city": "CHAPEL HILL", "state": "NC", "street": "1512 E FRANKLIN ST", "postcode": "27514"}}},
{"geometry": {"type": "Point", "coordinates": [-79.032747195, 35.939411712]}, "type": "Feature", "properties": {"collection_times": [{"days": "Mon-Fri", "time": "4:00pm"}, {"days": "Sat", "time": "12:00pm"}, {"days": "Sun", "time": "Closed"}], "id": "2751400079", "name": "USPS COLLECTION BOX - BLUE BOX", "address": {"city": "CHAPEL HILL", "state": "NC", "street": "11500 US 15 501 N", "postcode": "27514"}}},
{"geometry": {"type": "Point", "coordinates": [-79.094457583, 35.832564062]}, "type": "Feature", "properties": {"collection_times": [{"days": "Mon-Fri", "time": "12:15pm"}, {"days": "Sat", "time": "12:00pm"}, {"days": "Sun", "time": "Closed"}], "id": "2751400085", "name": "USPS COLLECTION BOX - BLUE BOX", "address": {"city": "CHAPEL HILL", "state": "NC", "street": "217 CREEKS EDGE", "postcode": "27514"}}},
{"geometry": {"type": "Point", "coordinates": [-79.00846332, 35.898446824]}, "type": "Feature", "properties": {"collection_times": [{"days": "Mon-Fri", "time": "12:00pm"}, {"days": "Sat", "time": "1:15pm"}, {"days": "Sun", "time": "Closed"}], "id": "2751400087", "name": "USPS COLLECTION BOX - BLUE BOX", "address": {"city": "CHAPEL HILL", "state": "NC", "street": "341 FINLEY FOREST CIR", "postcode": "27514"}}},
{"geometry": {"type": "Point", "coordinates": [-79.032747195, 35.939411712]}, "type": "Feature", "properties": {"collection_times": [{"days": "Mon-Fri", "time": "2:30pm"}, {"days": "Sat", "time": "12:00pm"}, {"days": "Sun", "time": "Closed"}], "id": "2751400090", "name": "USPS COLLECTION BOX - BLUE BOX", "address": {"city": "CHAPEL HILL", "state": "NC", "street": "1105 W NC HIGHWAY 54 BYP", "postcode": "27514"}}},
{"geometry": {"type": "Point", "coordinates": [-79.016584449, 35.948345812]}, "type": "Feature", "properties": {"collection_times": [{"days": "Mon-Sat", "time": "11:00am"}, {"days": "Sun", "time": "Closed"}], "id": "2751400091", "name": "USPS COLLECTION BOX - BLUE BOX", "address": {"city": "CHAPEL HILL", "state": "NC", "street": "103 MELVILLE LOOP", "postcode": "27514"}}},
{"geometry": {"type": "Point", "coordinates": [-78.983734947, 35.910868344]}, "type": "Feature", "properties": {"collection_times": [{"days": "Mon-Fri", "time": "12:00pm"}, {"days": "Sat", "time": "1:15pm"}, {"days": "Sun", "time": "Closed"}], "id": "2751400092", "name": "USPS COLLECTION BOX - BLUE BOX", "address": {"city": "CHAPEL HILL", "state": "NC", "street": "6116 FARRINGTON RD", "postcode": "27514"}}},
{"geometry": {"type": "Point", "coordinates": [-79.025330169, 35.925202548]}, "type": "Feature", "properties": {"collection_times": [{"days": "Mon-Fri", "time": "2:00pm"}, {"days": "Sat", "time": "1:45pm"}, {"days": "Sun", "time": "Closed"}], "id": "2751400097", "name": "USPS COLLECTION BOX - BLUE BOX", "address": {"city": "CHAPEL HILL", "state": "NC", "street": "251 S ESTES DR", "postcode": "27514"}}},
{"geometry": {"type": "Point", "coordinates": [-79.016273371, 35.905048225]}, "type": "Feature", "properties": {"collection_times": [{"days": "Mon-Fri", "time": "3:15pm"}, {"days": "Sat", "time": "1:15pm"}, {"days": "Sun", "time": "Closed"}], "id": "2751400098", "name": "USPS COLLECTION BOX - BLUE BOX", "address": {"city": "CHAPEL HILL", "state": "NC", "street": "1414 RALEIGH RD", "postcode": "27514"}}},
{"geometry": {"type": "Point", "coordinates": [-79.059525286, 35.967005151]}, "type": "Feature", "properties": {"collection_times": [{"days": "Mon-Fri", "time": "3:30pm"}, {"days": "Sat", "time": "12:00pm"}, {"days": "Sun", "time": "Closed"}], "id": "2751400100", "name": "USPS COLLECTION BOX - BLUE BOX", "address": {"city": "CHAPEL HILL", "state": "NC", "street": "1800 MARTIN LUTHER KING JR BLVD", "postcode": "27514"}}},
{"geometry": {"type": "Point", "coordinates": [-79.015619678, 35.906268699]}, "type": "Feature", "properties": {"collection_times": [{"days": "Mon-Fri", "time": "3:15pm"}, {"days": "Sat", "time": "1:15pm"}, {"days": "Sun", "time": "Closed"}], "id": "2751400102", "name": "USPS COLLECTION BOX - BLUE BOX", "address": {"city": "CHAPEL HILL", "state": "NC", "street": "609 W BARBEE CHAPEL RD", "postcode": "27514"}}},
{"geometry": {"type": "Point", "coordinates": [-78.984446369, 35.912584735]}, "type": "Feature", "properties": {"collection_times": [{"days": "Mon-Fri", "time": "3:15pm"}, {"days": "Sat", "time": "1:15pm"}, {"days": "Sun", "time": "Closed"}], "id": "2751400103", "name": "USPS COLLECTION BOX - BLUE BOX", "address": {"city": "CHAPEL HILL", "state": "NC", "street": "5925 FARRINGTON RD", "postcode": "27514"}}},
{"geometry": {"type": "Point", "coordinates": [-79.032747195, 35.939411712]}, "type": "Feature", "properties": {"collection_times": [{"days": "Mon-Fri", "time": "4:15pm"}, {"days": "Sat", "time": "12:00pm"}, {"days": "Sun", "time": "Closed"}], "id": "2751400104", "name": "USPS COLLECTION BOX - BLUE BOX", "address": {"city": "CHAPEL HILL", "state": "NC", "street": "10003 MAIN ST", "postcode": "27514"}}},
{"geometry": {"type": "Point", "coordinates": [-79.04111378, 35.898223824]}, "type": "Feature", "properties": {"collection_times": [{"days": "Mon-Fri", "time": "11:00am"}, {"days": "Sat-Sun", "time": "Closed"}], "id": "2751400106", "name": "USPS COLLECTION BOX - BLUE BOX", "address": {"city": "CHAPEL HILL", "state": "NC", "street": "1600 BAITY HILL DR", "postcode": "27514"}}},
{"geometry": {"type": "Point", "coordinates": [-79.014782344, 35.948315559]}, "type": "Feature", "properties": {"collection_times": [{"days": "Mon-Fri", "time": "1:15pm"}, {"days": "Sat-Sun", "time": "Closed"}], "id": "2751400107", "name": "USPS COLLECTION BOX - BLUE BOX", "address": {"city": "CHAPEL HILL", "state": "NC", "street": "205 SAGE RD", "postcode": "27514"}}},
{"geometry": {"type": "Point", "coordinates": [-79.031256974, 35.92775811]}, "type": "Feature", "properties": {"collection_times": [{"days": "Mon-Fri", "time": "5:00pm"}, {"days": "Sat", "time": "4:00pm"}, {"days": "Sun", "time": "Closed"}], "id": "2751400108", "name": "USPS COLLECTION BOX - PO LOBBY", "address": {"city": "CHAPEL HILL", "state": "NC", "street": "125 S ESTES DR", "postcode": "27514"}}},
{"geometry": {"type": "Point", "coordinates": [-79.053791145, 35.963923042]}, "type": "Feature", "properties": {"collection_times": [{"days": "Mon-Fri", "time": "5:00pm"}, {"days": "Sat", "time": "10:00am"}, {"days": "Sun", "time": "Closed"}], "id": "2751400109", "name": "USPS COLLECTION BOX - PO LOBBY", "address": {"city": "CHAPEL HILL", "state": "NC", "street": "1129 WEAVER DAIRY RD", "postcode": "27514"}}},
{"geometry": {"type": "Point", "coordinates": [-79.031256974, 35.92775811]}, "type": "Feature", "properties": {"collection_times": [{"days": "Mon-Fri", "time": "5:00pm"}, {"days": "Sat", "time": "2:00pm"}, {"days": "Sun", "time": "Closed"}], "id": "2751400111", "name": "USPS COLLECTION BOX - APC", "address": {"city": "CHAPEL HILL", "state": "NC", "street": "125 S ESTES DR", "postcode": "27514"}}},
{"geometry": {"type": "Point", "coordinates": [-79.053099992, 35.914217095]}, "type": "Feature", "properties": {"collection_times": [{"days": "Mon-Fri", "time": "4:00pm"}, {"days": "Sat-Sun", "time": "Closed"}], "id": "2751400113", "name": "USPS COLLECTION BOX - PO LOBBY", "address": {"city": "CHAPEL HILL", "state": "NC", "street": "179 E FRANKLIN ST", "postcode": "27514"}}},
{"geometry": {"type": "Point", "coordinates": [-78.847908964, 35.791095018]}, "type": "Feature", "properties": {"collection_times": [{"days": "Mon-Fri", "time": "3:15pm"}, {"days": "Sat", "time": "1:00pm"}, {"days": "Sun", "time": "Closed"}], "id": "2751900000", "name": "USPS COLLECTION BOX - BLUE BOX", "address": {"city": "CARY", "state": "NC", "street": "1903 HIGH HOUSE RD", "postcode": "27519"}}},
{"geometry": {"type": "Point", "coordinates": [-78.907957739, 35.828396332]}, "type": "Feature", "properties": {"collection_times": [{"days": "Mon-Sat", "time": "1:00pm"}, {"days": "Sun", "time": "Closed"}], "id": "2751900001", "name": "USPS COLLECTION BOX - BLUE BOX", "address": {"city": "CARY", "state": "NC", "street": "1075 RESIDENTS CLUB DR", "postcode": "27519"}}},
{"geometry": {"type": "Point", "coordinates": [-78.448543627, 35.640230097]}, "type": "Feature", "properties": {"collection_times": [{"days": "Mon-Fri", "time": "2:00pm"}, {"days": "Sat", "time": "12:00pm"}, {"days": "Sun", "time": "Closed"}], "id": "2752000004", "name": "USPS COLLECTION BOX - BLUE BOX", "address": {"city": "CLAYTON", "state": "NC", "street": "10137 US 70 HWY W", "postcode": "27520"}}},
{"geometry": {"type": "Point", "coordinates": [-78.469911851, 35.650456758]}, "type": "Feature", "properties": {"collection_times": [{"days": "Mon-Sat", "time": "11:00am"}, {"days": "Sun", "time": "Closed"}], "id": "2752000006", "name": "USPS COLLECTION BOX - BLUE BOX", "address": {"city": "CLAYTON", "state": "NC", "street": "11407 US 70 HWY W", "postcode": "27520"}}},
{"geometry": {"type": "Point", "coordinates": [-78.457798095, 35.651316642]}, "type": "Feature", "properties": {"collection_times": [{"days": "Mon-Fri", "time": "3:00pm"}, {"days": "Sat", "time": "12:00pm"}, {"days": "Sun", "time": "Closed"}], "id": "2752000008", "name": "USPS COLLECTION BOX - BLUE BOX", "address": {"city": "CLAYTON", "state": "NC", "street": "111 BARBOUR ST", "postcode": "27520"}}},
{"geometry": {"type": "Point", "coordinates": [-78.451797611, 35.64648343]}, "type": "Feature", "properties": {"collection_times": [{"days": "Mon-Fri", "time": "5:00pm"}, {"days": "Sat", "time": "12:00pm"}, {"days": "Sun", "time": "Closed"}], "id": "2752000014", "name": "USPS COLLECTION BOX - BLUE BOX", "address": {"city": "CLAYTON", "state": "NC", "street": "604 E FRONT ST", "postcode": "27520"}}},
{"geometry": {"type": "Point", "coordinates": [-78.451797611, 35.64648343]}, "type": "Feature", "properties": {"collection_times": [{"days": "Mon-Fri", "time": "5:00pm"}, {"days": "Sat", "time": "12:00pm"}, {"days": "Sun", "time": "Closed"}], "id": "2752000015", "name": "USPS COLLECTION BOX - PO LOBBY", "address": {"city": "CLAYTON", "state": "NC", "street": "604 E FRONT ST", "postcode": "27520"}}},
{"geometry": {"type": "Point", "coordinates": [-78.426451819, 35.691661872]}, "type": "Feature", "properties": {"collection_times": [{"days": "Mon-Sat", "time": "10:00am"}, {"days": "Sun", "time": "Closed"}], "id": "2752000016", "name": "USPS COLLECTION BOX - BLUE BOX", "address": {"city": "CLAYTON", "state": "NC", "street": "455 ATHLETIC CLUB BLVD", "postcode": "27520"}}},
{"geometry": {"type": "Point", "coordinates": [-78.395829224, 35.64872492]}, "type": "Feature", "properties": {"collection_times": [{"days": "Mon-Sat", "time": "11:00am"}, {"days": "Sun", "time": "Closed"}], "id": "2752000017", "name": "USPS COLLECTION BOX - BLUE BOX", "address": {"city": "CLAYTON", "state": "NC", "street": "50 NEUSE RIVER PKWY", "postcode": "27520"}}},
{"geometry": {"type": "Point", "coordinates": [-78.673199789, 35.407833455]}, "type": "Feature", "properties": {"collection_times": [{"days": "Mon-Fri", "time": "4:00pm"}, {"days": "Sat", "time": "12:00pm"}, {"days": "Sun", "time": "Closed"}], "id": "2752100001", "name": "USPS COLLECTION BOX - BLUE BOX", "address": {"city": "COATS", "state": "NC", "street": "43 W MAIN ST", "postcode": "27521"}}},
{"geometry": {"type": "Point", "coordinates": [-78.673199789, 35.407833455]}, "type": "Feature", "properties": {"collection_times": [{"days": "Mon-Fri", "time": "4:00pm"}, {"days": "Sat", "time": "12:00pm"}, {"days": "Sun", "time": "Closed"}], "id": "2752100004", "name": "USPS COLLECTION BOX - PO LOBBY", "address": {"city": "COATS", "state": "NC", "street": "43 W MAIN ST", "postcode": "27521"}}},
{"geometry": {"type": "Point", "coordinates": [-78.6873280479, 36.1227834957]}, "type": "Feature", "properties": {"collection_times": [{"days": "Mon-Fri", "time": "5:00pm"}, {"days": "Sat", "time": "12:00pm"}, {"days": "Sun", "time": "Closed"}], "id": "2752200001", "name": "USPS COLLECTION BOX - BLUE BOX", "address": {"city": "CREEDMOOR", "state": "NC", "street": "2157 WILTON AVE", "postcode": "27522"}}},
{"geometry": {"type": "Point", "coordinates": [-78.6873280479, 36.1227834957]}, "type": "Feature", "properties": {"collection_times": [{"days": "Mon-Fri", "time": "5:00pm"}, {"days": "Sat", "time": "12:00pm"}, {"days": "Sun", "time": "Closed"}], "id": "2752200003", "name": "USPS COLLECTION BOX - PO LOBBY", "address": {"city": "CREEDMOOR", "state": "NC", "street": "2157 WILTON AVE", "postcode": "27522"}}},
{"geometry": {"type": "Point", "coordinates": [-78.430637948, 35.444799169]}, "type": "Feature", "properties": {"collection_times": [{"days": "Mon-Fri", "time": "4:00pm"}, {"days": "Sat", "time": "12:00pm"}, {"days": "Sun", "time": "Closed"}], "id": "2752400001", "name": "USPS COLLECTION BOX - BLUE BOX", "address": {"city": "FOUR OAKS", "state": "NC", "street": "107 N RAILROAD ST", "postcode": "27524"}}},
{"geometry": {"type": "Point", "coordinates": [-78.430637948, 35.444799169]}, "type": "Feature", "properties": {"collection_times": [{"days": "Mon-Fri", "time": "4:00pm"}, {"days": "Sat", "time": "12:00pm"}, {"days": "Sun", "time": "Closed"}], "id": "2752400004", "name": "USPS COLLECTION BOX - PO LOBBY", "address": {"city": "FOUR OAKS", "state": "NC", "street": "107 N RAILROAD ST", "postcode": "27524"}}},
{"geometry": {"type": "Point", "coordinates": [-78.458338438, 36.100936956]}, "type": "Feature", "properties": {"collection_times": [{"days": "Mon-Fri", "time": "5:00pm"}, {"days": "Sat", "time": "11:00am"}, {"days": "Sun", "time": "Closed"}], "id": "2752500002", "name": "USPS COLLECTION BOX - BLUE BOX", "address": {"city": "FRANKLINTON", "state": "NC", "street": "320 S MAIN ST", "postcode": "27525"}}},
{"geometry": {"type": "Point", "coordinates": [-78.458338438, 36.100936956]}, "type": "Feature", "properties": {"collection_times": [{"days": "Mon-Fri", "time": "4:30pm"}, {"days": "Sat", "time": "11:00am"}, {"days": "Sun", "time": "Closed"}], "id": "2752500008", "name": "USPS COLLECTION BOX - PO LOBBY", "address": {"city": "FRANKLINTON", "state": "NC", "street": "320 S MAIN ST", "postcode": "27525"}}},
{"geometry": {"type": "Point", "coordinates": [-78.781847268, 35.586407495]}, "type": "Feature", "properties": {"collection_times": [{"days": "Mon-Fri", "time": "5:00pm"}, {"days": "Sat", "time": "12:00pm"}, {"days": "Sun", "time": "Closed"}], "id": "2752600001", "name": "USPS COLLECTION BOX - BLUE BOX", "address": {"city": "FUQUAY VARINA", "state": "NC", "street": "131 N JUDD PKWY NE", "postcode": "27526"}}},
{"geometry": {"type": "Point", "coordinates": [-78.781847268, 35.586407495]}, "type": "Feature", "properties": {"collection_times": [{"days": "Mon-Fri", "time": "5:00pm"}, {"days": "Sat", "time": "12:00pm"}, {"days": "Sun", "time": "Closed"}], "id": "2752600002", "name": "USPS COLLECTION BOX - BLUE BOX", "address": {"city": "FUQUAY VARINA", "state": "NC", "street": "131 N JUDD PKWY NE", "postcode": "27526"}}},
{"geometry": {"type": "Point", "coordinates": [-78.781847268, 35.586407495]}, "type": "Feature", "properties": {"collection_times": [{"days": "Mon-Fri", "time": "5:00pm"}, {"days": "Sat", "time": "12:00pm"}, {"days": "Sun", "time": "Closed"}], "id": "2752600010", "name": "USPS COLLECTION BOX - PO LOBBY", "address": {"city": "FUQUAY VARINA", "state": "NC", "street": "131 N JUDD PKWY NE", "postcode": "27526"}}},
{"geometry": {"type": "Point", "coordinates": [-78.799834744, 35.583909784]}, "type": "Feature", "properties": {"collection_times": [{"days": "Mon-Sat", "time": "3:45pm"}, {"days": "Sun", "time": "Closed"}], "id": "2752600013", "name": "USPS COLLECTION BOX - BLUE BOX", "address": {"city": "FUQUAY VARINA", "state": "NC", "street": "100 S MAIN ST", "postcode": "27526"}}},
{"geometry": {"type": "Point", "coordinates": [-78.622087058, 35.709325605]}, "type": "Feature", "properties": {"collection_times": [{"days": "Mon-Sat", "time": "12:00pm"}, {"days": "Sun", "time": "Closed"}], "id": "2752900003", "name": "USPS COLLECTION BOX - BLUE BOX", "address": {"city": "GARNER", "state": "NC", "street": "1316 5TH AVE", "postcode": "27529"}}},
{"geometry": {"type": "Point", "coordinates": [-78.622087058, 35.709325605]}, "type": "Feature", "properties": {"collection_times": [{"days": "Mon-Sat", "time": "12:00pm"}, {"days": "Sun", "time": "Closed"}], "id": "2752900005", "name": "USPS COLLECTION BOX - BLUE BOX", "address": {"city": "GARNER", "state": "NC", "street": "1316 5TH AVE", "postcode": "27529"}}},
{"geometry": {"type": "Point", "coordinates": [-78.622087058, 35.709325605]}, "type": "Feature", "properties": {"collection_times": [{"days": "Mon-Sat", "time": "12:00pm"}, {"days": "Sun", "time": "Closed"}], "id": "2752900006", "name": "USPS COLLECTION BOX - BLUE BOX", "address": {"city": "GARNER", "state": "NC", "street": "1316 5TH AVE", "postcode": "27529"}}},
{"geometry": {"type": "Point", "coordinates": [-78.605479559, 35.706914143]}, "type": "Feature", "properties": {"collection_times": [{"days": "Mon-Sat", "time": "11:00am"}, {"days": "Sun", "time": "Closed"}], "id": "2752900019", "name": "USPS COLLECTION BOX - BLUE BOX", "address": {"city": "GARNER", "state": "NC", "street": "101 W MAIN ST", "postcode": "27529"}}},
{"geometry": {"type": "Point", "coordinates": [-78.626154724, 35.727442454]}, "type": "Feature", "properties": {"collection_times": [{"days": "Mon-Sat", "time": "11:00am"}, {"days": "Sun", "time": "Closed"}], "id": "2752900025", "name": "USPS COLLECTION BOX - BLUE BOX", "address": {"city": "GARNER", "state": "NC", "street": "2017 W GARNER RD", "postcode": "27529"}}},
{"geometry": {"type": "Point", "coordinates": [-78.633174234, 35.716098401]}, "type": "Feature", "properties": {"collection_times": [{"days": "Mon-Sat", "time": "11:00am"}, {"days": "Sun", "time": "Closed"}], "id": "2752900030", "name": "USPS COLLECTION BOX - BLUE BOX", "address": {"city": "GARNER", "state": "NC", "street": "1027 US 70 HWY W", "postcode": "27529"}}},
{"geometry": {"type": "Point", "coordinates": [-78.622834464, 35.707136162]}, "type": "Feature", "properties": {"collection_times": [{"days": "Mon-Sat", "time": "12:00pm"}, {"days": "Sun", "time": "Closed"}], "id": "2752900034", "name": "USPS COLLECTION BOX - BLUE BOX", "address": {"city": "GARNER", "state": "NC", "street": "206 FOREST HILLS DR", "postcode": "27529"}}},
{"geometry": {"type": "Point", "coordinates": [-78.62554982, 35.707343055]}, "type": "Feature", "properties": {"collection_times": [{"days": "Mon-Fri", "time": "11:00am"}, {"days": "Sat", "time": "9:30am"}, {"days": "Sun", "time": "Closed"}], "id": "2752900037", "name": "USPS COLLECTION BOX - BLUE BOX", "address": {"city": "GARNER", "state": "NC", "street": "1002 VANDORA SPRINGS RD", "postcode": "27529"}}},
{"geometry": {"type": "Point", "coordinates": [-78.607322756, 35.686237517]}, "type": "Feature", "properties": {"collection_times": [{"days": "Mon-Fri", "time": "5:00pm"}, {"days": "Sat", "time": "12:00pm"}, {"days": "Sun", "time": "Closed"}], "id": "2752900039", "name": "USPS COLLECTION BOX - BLUE BOX", "address": {"city": "GARNER", "state": "NC", "street": "267 TIMBER DR", "postcode": "27529"}}},
{"geometry": {"type": "Point", "coordinates": [-78.607322756, 35.686237517]}, "type": "Feature", "properties": {"collection_times": [{"days": "Mon-Fri", "time": "5:00pm"}, {"days": "Sat", "time": "12:00pm"}, {"days": "Sun", "time": "Closed"}], "id": "2752900040", "name": "USPS COLLECTION BOX - BLUE BOX", "address": {"city": "GARNER", "state": "NC", "street": "267 TIMBER DR", "postcode": "27529"}}},
{"geometry": {"type": "Point", "coordinates": [-78.607322756, 35.686237517]}, "type": "Feature", "properties": {"collection_times": [{"days": "Mon-Fri", "time": "5:00pm"}, {"days": "Sat", "time": "12:00pm"}, {"days": "Sun", "time": "Closed"}], "id": "2752900041", "name": "USPS COLLECTION BOX - BLUE BOX", "address": {"city": "GARNER", "state": "NC", "street": "267 TIMBER DR", "postcode": "27529"}}},
{"geometry": {"type": "Point", "coordinates": [-78.5671724, 35.607529055]}, "type": "Feature", "properties": {"collection_times": [{"days": "Mon-Sat", "time": "11:00am"}, {"days": "Sun", "time": "Closed"}], "id": "2752900043", "name": "USPS COLLECTION BOX - BLUE BOX", "address": {"city": "GARNER", "state": "NC", "street": "53 GLEN RD", "postcode": "27529"}}},
{"geometry": {"type": "Point", "coordinates": [-78.607322756, 35.686237517]}, "type": "Feature", "properties": {"collection_times": [{"days": "Mon-Fri", "time": "5:00pm"}, {"days": "Sat", "time": "12:00pm"}, {"days": "Sun", "time": "Closed"}], "id": "2752900044", "name": "USPS COLLECTION BOX - PO LOBBY", "address": {"city": "GARNER", "state": "NC", "street": "267 TIMBER DR", "postcode": "27529"}}},
{"geometry": {"type": "Point", "coordinates": [-78.607322756, 35.686237517]}, "type": "Feature", "properties": {"collection_times": [{"days": "Mon-Fri", "time": "5:00pm"}, {"days": "Sat", "time": "12:00pm"}, {"days": "Sun", "time": "Closed"}], "id": "2752900045", "name": "USPS COLLECTION BOX - PO LOBBY", "address": {"city": "GARNER", "state": "NC", "street": "267 TIMBER DR", "postcode": "27529"}}},
{"geometry": {"type": "Point", "coordinates": [-78.607322756, 35.686237517]}, "type": "Feature", "properties": {"collection_times": [{"days": "Mon-Fri", "time": "5:00pm"}, {"days": "Sat", "time": "12:00pm"}, {"days": "Sun", "time": "Closed"}], "id": "2752900046", "name": "USPS COLLECTION BOX - APC", "address": {"city": "GARNER", "state": "NC", "street": "267 TIMBER DR", "postcode": "27529"}}},
{"geometry": {"type": "Point", "coordinates": [-78.016667987, 35.401123554]}, "type": "Feature", "properties": {"collection_times": [{"days": "Mon-Sat", "time": "10:45am"}, {"days": "Sun", "time": "Closed"}], "id": "2753000004", "name": "USPS COLLECTION BOX - BLUE BOX", "address": {"city": "GOLDSBORO", "state": "NC", "street": "1312 W GRANTHAM ST", "postcode": "27530"}}},
{"geometry": {"type": "Point", "coordinates": [-77.99484012, 35.382158206]}, "type": "Feature", "properties": {"collection_times": [{"days": "Mon-Sat", "time": "9:00am"}, {"days": "Sun", "time": "Closed"}], "id": "2753000012", "name": "USPS COLLECTION BOX - BLUE BOX", "address": {"city": "GOLDSBORO", "state": "NC", "street": "100 ORMOND AVE", "postcode": "27530"}}},
{"geometry": {"type": "Point", "coordinates": [-78.005589119, 35.372101212]}, "type": "Feature", "properties": {"collection_times": [{"days": "Mon-Sat", "time": "9:00am"}, {"days": "Sun", "time": "Closed"}], "id": "2753000014", "name": "USPS COLLECTION BOX - BLUE BOX", "address": {"city": "GOLDSBORO", "state": "NC", "street": "902 S GEORGE ST", "postcode": "27530"}}},
{"geometry": {"type": "Point", "coordinates": [-77.997200299, 35.383193189]}, "type": "Feature", "properties": {"collection_times": [{"days": "Mon-Sat", "time": "9:15am"}, {"days": "Sun", "time": "Closed"}], "id": "2753000024", "name": "USPS COLLECTION BOX - BLUE BOX", "address": {"city": "GOLDSBORO", "state": "NC", "street": "101 N CENTER ST", "postcode": "27530"}}},
{"geometry": {"type": "Point", "coordinates": [-77.983280489, 35.381353998]}, "type": "Feature", "properties": {"collection_times": [{"days": "Mon-Sat", "time": "9:30am"}, {"days": "Sun", "time": "Closed"}], "id": "2753000030", "name": "USPS COLLECTION BOX - BLUE BOX", "address": {"city": "GOLDSBORO", "state": "NC", "street": "205 N HERMAN ST", "postcode": "27530"}}},
{"geometry": {"type": "Point", "coordinates": [-77.992090658, 35.385717706]}, "type": "Feature", "properties": {"collection_times": [{"days": "Mon-Sat", "time": "10:30am"}, {"days": "Sun", "time": "Closed"}], "id": "2753000036", "name": "USPS COLLECTION BOX - BLUE BOX", "address": {"city": "GOLDSBORO", "state": "NC", "street": "308 N WILLIAM ST", "postcode": "27530"}}},
{"geometry": {"type": "Point", "coordinates": [-77.99305219, 35.383489161]}, "type": "Feature", "properties": {"collection_times": [{"days": "Mon-Fri", "time": "5:00pm"}, {"days": "Sat", "time": "12:00pm"}, {"days": "Sun", "time": "Closed"}], "id": "2753000084", "name": "USPS COLLECTION BOX - PO LOBBY", "address": {"city": "GOLDSBORO", "state": "NC", "street": "200 N WILLIAM ST", "postcode": "27530"}}},
{"geometry": {"type": "Point", "coordinates": [-77.99305219, 35.383489161]}, "type": "Feature", "properties": {"collection_times": [{"days": "Mon-Fri", "time": "5:00pm"}, {"days": "Sat", "time": "12:00pm"}, {"days": "Sun", "time": "Closed"}], "id": "2753000087", "name": "USPS COLLECTION BOX - BLUE BOX", "address": {"city": "GOLDSBORO", "state": "NC", "street": "200 N WILLIAM ST", "postcode": "27530"}}},
{"geometry": {"type": "Point", "coordinates": [-77.99305219, 35.383489161]}, "type": "Feature", "properties": {"collection_times": [{"days": "Mon-Fri", "time": "5:00pm"}, {"days": "Sat", "time": "12:00pm"}, {"days": "Sun", "time": "Closed"}], "id": "2753000088", "name": "USPS COLLECTION BOX - BLUE BOX", "address": {"city": "GOLDSBORO", "state": "NC", "street": "200 N WILLIAM ST", "postcode": "27530"}}},
{"geometry": {"type": "Point", "coordinates": [-77.969817564, 35.378264203]}, "type": "Feature", "properties": {"collection_times": [{"days": "Mon-Sat", "time": "9:00am"}, {"days": "Sun", "time": "Closed"}], "id": "2753000092", "name": "USPS COLLECTION BOX - BLUE BOX", "address": {"city": "GOLDSBORO", "state": "NC", "street": "1700 E ASH ST", "postcode": "27530"}}},
{"geometry": {"type": "Point", "coordinates": [-77.941099214, 35.376315397]}, "type": "Feature", "properties": {"collection_times": [{"days": "Mon-Sat", "time": "11:00am"}, {"days": "Sun", "time": "Closed"}], "id": "2753400002", "name": "USPS COLLECTION BOX - BLUE BOX", "address": {"city": "GOLDSBORO", "state": "NC", "street": "703 N BERKELEY BLVD", "postcode": "27534"}}},
{"geometry": {"type": "Point", "coordinates": [-77.9463366, 35.37540041]}, "type": "Feature", "properties": {"collection_times": [{"days": "Mon-Sat", "time": "12:00pm"}, {"days": "Sun", "time": "Closed"}], "id": "2753400004", "name": "USPS COLLECTION BOX - BLUE BOX", "address": {"city": "GOLDSBORO", "state": "NC", "street": "2900 CASHWELL DR", "postcode": "27534"}}},
{"geometry": {"type": "Point", "coordinates": [-77.944807828, 35.372885326]}, "type": "Feature", "properties": {"collection_times": [{"days": "Mon-Fri", "time": "5:00pm"}, {"days": "Sat", "time": "12:00pm"}, {"days": "Sun", "time": "Closed"}], "id": "2753400006", "name": "USPS COLLECTION BOX - BLUE BOX", "address": {"city": "GOLDSBORO", "state": "NC", "street": "3100 CASHWELL DR", "postcode": "27534"}}},
{"geometry": {"type": "Point", "coordinates": [-77.96072301, 35.357767473]}, "type": "Feature", "properties": {"collection_times": [{"days": "Mon-Sat", "time": "11:00am"}, {"days": "Sun", "time": "Closed"}], "id": "2753400008", "name": "USPS COLLECTION BOX - BLUE BOX", "address": {"city": "GOLDSBORO", "state": "NC", "street": "1350 EDWARDS ST", "postcode": "27534"}}},
{"geometry": {"type": "Point", "coordinates": [-77.956341817, 35.374218682]}, "type": "Feature", "properties": {"collection_times": [{"days": "Mon-Sat", "time": "10:00am"}, {"days": "Sun", "time": "Closed"}], "id": "2753400010", "name": "USPS COLLECTION BOX - BLUE BOX", "address": {"city": "GOLDSBORO", "state": "NC", "street": "2500 E ASH ST", "postcode": "27534"}}},
{"geometry": {"type": "Point", "coordinates": [-77.944807828, 35.372885326]}, "type": "Feature", "properties": {"collection_times": [{"days": "Mon-Fri", "time": "5:00pm"}, {"days": "Sat", "time": "12:00pm"}, {"days": "Sun", "time": "Closed"}], "id": "2753400017", "name": "USPS COLLECTION BOX - PO LOBBY", "address": {"city": "GOLDSBORO", "state": "NC", "street": "3100 CASHWELL DR", "postcode": "27534"}}},
{"geometry": {"type": "Point", "coordinates": [-77.953195013, 35.400807177]}, "type": "Feature", "properties": {"collection_times": [{"days": "Mon-Sat", "time": "10:00am"}, {"days": "Sun", "time": "Closed"}], "id": "2753400021", "name": "USPS COLLECTION BOX - BLUE BOX", "address": {"city": "GOLDSBORO", "state": "NC", "street": "2700 WAYNE MEMORIAL DR", "postcode": "27534"}}},
{"geometry": {"type": "Point", "coordinates": [-77.951084991, 35.401382473]}, "type": "Feature", "properties": {"collection_times": [{"days": "Mon-Sat", "time": "10:15am"}, {"days": "Sun", "time": "Closed"}], "id": "2753400023", "name": "USPS COLLECTION BOX - BLUE BOX", "address": {"city": "GOLDSBORO", "state": "NC", "street": "100 COX BLVD", "postcode": "27534"}}},
{"geometry": {"type": "Point", "coordinates": [-77.96105285, 35.398483651]}, "type": "Feature", "properties": {"collection_times": [{"days": "Mon-Sat", "time": "11:00am"}, {"days": "Sun", "time": "Closed"}], "id": "2753400024", "name": "USPS COLLECTION BOX - BLUE BOX", "address": {"city": "GOLDSBORO", "state": "NC", "street": "2302 WAYNE MEMORIAL DR", "postcode": "27534"}}},
{"geometry": {"type": "Point", "coordinates": [-77.953963974, 35.402643326]}, "type": "Feature", "properties": {"collection_times": [{"days": "Mon-Sat", "time": "8:30am"}, {"days": "Sun", "time": "Closed"}], "id": "2753400026", "name": "USPS COLLECTION BOX - BLUE BOX", "address": {"city": "GOLDSBORO", "state": "NC", "street": "100 HOSPITAL RD", "postcode": "27534"}}},
{"geometry": {"type": "Point", "coordinates": [-78.410339977, 36.322184193]}, "type": "Feature", "properties": {"collection_times": [{"days": "Mon-Fri", "time": "5:00pm"}, {"days": "Sat", "time": "4:30pm"}, {"days": "Sun", "time": "Closed"}], "id": "2753600001", "name": "USPS COLLECTION BOX - BLUE BOX", "address": {"city": "HENDERSON", "state": "NC", "street": "905 S GARNETT ST", "postcode": "27536"}}},
{"geometry": {"type": "Point", "coordinates": [-78.404979749, 36.326271673]}, "type": "Feature", "properties": {"collection_times": [{"days": "Mon-Fri", "time": "11:00am"}, {"days": "Sat", "time": "9:00am"}, {"days": "Sun", "time": "Closed"}], "id": "2753600005", "name": "USPS COLLECTION BOX - BLUE BOX", "address": {"city": "HENDERSON", "state": "NC", "street": "106 W WINDER ST", "postcode": "27536"}}},
{"geometry": {"type": "Point", "coordinates": [-78.40362425, 36.326586364]}, "type": "Feature", "properties": {"collection_times": [{"days": "Mon-Fri", "time": "11:00am"}, {"days": "Sat", "time": "9:00am"}, {"days": "Sun", "time": "Closed"}], "id": "2753600006", "name": "USPS COLLECTION BOX - BLUE BOX", "address": {"city": "HENDERSON", "state": "NC", "street": "137 S GARNETT ST", "postcode": "27536"}}},
{"geometry": {"type": "Point", "coordinates": [-78.409288334, 36.337843168]}, "type": "Feature", "properties": {"collection_times": [{"days": "Mon-Sat", "time": "12:00pm"}, {"days": "Sun", "time": "Closed"}], "id": "2753600022", "name": "USPS COLLECTION BOX - BLUE BOX", "address": {"city": "HENDERSON", "state": "NC", "street": "941 W ANDREWS AVE", "postcode": "27536"}}},
{"geometry": {"type": "Point", "coordinates": [-78.43405013, 36.332408343]}, "type": "Feature", "properties": {"collection_times": [{"days": "Mon-Sat", "time": "12:00pm"}, {"days": "Sun", "time": "Closed"}], "id": "2753600024", "name": "USPS COLLECTION BOX - BLUE BOX", "address": {"city": "HENDERSON", "state": "NC", "street": "993 S BECKFORD DR", "postcode": "27536"}}},
{"geometry": {"type": "Point", "coordinates": [-78.430856012, 36.330461348]}, "type": "Feature", "properties": {"collection_times": [{"days": "Mon-Sat", "time": "12:00pm"}, {"days": "Sun", "time": "Closed"}], "id": "2753600029", "name": "USPS COLLECTION BOX - BLUE BOX", "address": {"city": "HENDERSON", "state": "NC", "street": "1255 DABNEY DR", "postcode": "27536"}}},
{"geometry": {"type": "Point", "coordinates": [-78.421179317, 36.324216861]}, "type": "Feature", "properties": {"collection_times": [{"days": "Mon-Sat", "time": "12:00pm"}, {"days": "Sun", "time": "Closed"}], "id": "2753600032", "name": "USPS COLLECTION BOX - BLUE BOX", "address": {"city": "HENDERSON", "state": "NC", "street": "503 DABNEY DR", "postcode": "27536"}}},
{"geometry": {"type": "Point", "coordinates": [-78.441312674, 36.334246838]}, "type": "Feature", "properties": {"collection_times": [{"days": "Mon-Sat", "time": "9:30am"}, {"days": "Sun", "time": "Closed"}], "id": "2753600046", "name": "USPS COLLECTION BOX - BLUE BOX", "address": {"city": "HENDERSON", "state": "NC", "street": "302 N COOPER DR", "postcode": "27536"}}},
{"geometry": {"type": "Point", "coordinates": [-78.447977512, 36.330376908]}, "type": "Feature", "properties": {"collection_times": [{"days": "Mon-Sat", "time": "9:30am"}, {"days": "Sun", "time": "Closed"}], "id": "2753600047", "name": "USPS COLLECTION BOX - BLUE BOX", "address": {"city": "HENDERSON", "state": "NC", "street": "568 RUIN CREEK RD", "postcode": "27536"}}},
{"geometry": {"type": "Point", "coordinates": [-78.410339977, 36.322184193]}, "type": "Feature", "properties": {"collection_times": [{"days": "Mon-Sat", "time": "4:30pm"}, {"days": "Sun", "time": "Closed"}], "id": "2753600050", "name": "USPS COLLECTION BOX - PO LOBBY", "address": {"city": "HENDERSON", "state": "NC", "street": "905 S GARNETT ST", "postcode": "27536"}}},
{"geometry": {"type": "Point", "coordinates": [-78.836470546, 35.65665807]}, "type": "Feature", "properties": {"collection_times": [{"days": "Mon-Fri", "time": "4:30pm"}, {"days": "Sat", "time": "12:00pm"}, {"days": "Sun", "time": "Closed"}], "id": "2754000002", "name": "USPS COLLECTION BOX - PO LOBBY", "address": {"city": "HOLLY SPRINGS", "state": "NC", "street": "112 3RD ST", "postcode": "27540"}}},
{"geometry": {"type": "Point", "coordinates": [-78.836470546, 35.65665807]}, "type": "Feature", "properties": {"collection_times": [{"days": "Mon-Fri", "time": "4:30pm"}, {"days": "Sat", "time": "12:00pm"}, {"days": "Sun", "time": "Closed"}], "id": "2754000003", "name": "USPS COLLECTION BOX - BLUE BOX", "address": {"city": "HOLLY SPRINGS", "state": "NC", "street": "112 3RD ST", "postcode": "27540"}}},
{"geometry": {"type": "Point", "coordinates": [-79.051085557, 36.272355453]}, "type": "Feature", "properties": {"collection_times": [{"days": "Mon-Fri", "time": "4:00pm"}, {"days": "Sat", "time": "10:00am"}, {"days": "Sun", "time": "Closed"}], "id": "2754100001", "name": "USPS COLLECTION BOX - PO LOBBY", "address": {"city": "HURDLE MILLS", "state": "NC", "street": "9581 HURDLE MILLS RD", "postcode": "27541"}}},
{"geometry": {"type": "Point", "coordinates": [-79.051085557, 36.272355453]}, "type": "Feature", "properties": {"collection_times": [{"days": "Mon-Fri", "time": "4:00pm"}, {"days": "Sat", "time": "10:00am"}, {"days": "Sun", "time": "Closed"}], "id": "2754100002", "name": "USPS COLLECTION BOX - BLUE BOX", "address": {"city": "HURDLE MILLS", "state": "NC", "street": "9581 HURDLE MILLS RD", "postcode": "27541"}}},
{"geometry": {"type": "Point", "coordinates": [-78.123928284, 35.595114196]}, "type": "Feature", "properties": {"collection_times": [{"days": "Mon-Fri", "time": "4:00pm"}, {"days": "Sat", "time": "10:00am"}, {"days": "Sun", "time": "Closed"}], "id": "2754200001", "name": "USPS COLLECTION BOX - BLUE BOX", "address": {"city": "KENLY", "state": "NC", "street": "102 N GARDNER AVE", "postcode": "27542"}}},
{"geometry": {"type": "Point", "coordinates": [-78.123928284, 35.595114196]}, "type": "Feature", "properties": {"collection_times": [{"days": "Mon-Fri", "time": "4:00pm"}, {"days": "Sat", "time": "10:00am"}, {"days": "Sun", "time": "Closed"}], "id": "2754200007", "name": "USPS COLLECTION BOX - PO LOBBY", "address": {"city": "KENLY", "state": "NC", "street": "102 N GARDNER AVE", "postcode": "27542"}}},
{"geometry": {"type": "Point", "coordinates": [-78.821288818, 35.479701453]}, "type": "Feature", "properties": {"collection_times": [{"days": "Mon-Fri", "time": "4:30pm"}, {"days": "Sat", "time": "11:00am"}, {"days": "Sun", "time": "Closed"}], "id": "2754300001", "name": "USPS COLLECTION BOX - BLUE BOX", "address": {"city": "KIPLING", "state": "NC", "street": "36 NEILL SMITH RD", "postcode": "27543"}}},
{"geometry": {"type": "Point", "coordinates": [-78.821288818, 35.479701453]}, "type": "Feature", "properties": {"collection_times": [{"days": "Mon-Fri", "time": "4:30pm"}, {"days": "Sat", "time": "11:00am"}, {"days": "Sun", "time": "Closed"}], "id": "2754300003", "name": "USPS COLLECTION BOX - PO LOBBY", "address": {"city": "KIPLING", "state": "NC", "street": "36 NEILL SMITH RD", "postcode": "27543"}}},
{"geometry": {"type": "Point", "coordinates": [-78.444347715, 36.220513483]}, "type": "Feature", "properties": {"collection_times": [{"days": "Mon-Fri", "time": "4:30pm"}, {"days": "Sat", "time": "11:30am"}, {"days": "Sun", "time": "Closed"}], "id": "2754400001", "name": "USPS COLLECTION BOX - BLUE BOX", "address": {"city": "KITTRELL", "state": "NC", "street": "1400 US HIGHWAY 1 S", "postcode": "27544"}}},
{"geometry": {"type": "Point", "coordinates": [-78.444347715, 36.220513483]}, "type": "Feature", "properties": {"collection_times": [{"days": "Mon-Fri", "time": "4:30pm"}, {"days": "Sat", "time": "11:30am"}, {"days": "Sun", "time": "Closed"}], "id": "2754400002", "name": "USPS COLLECTION BOX - PO LOBBY", "address": {"city": "KITTRELL", "state": "NC", "street": "1400 US HIGHWAY 1 S", "postcode": "27544"}}},
{"geometry": {"type": "Point", "coordinates": [-78.489244542, 35.794050778]}, "type": "Feature", "properties": {"collection_times": [{"days": "Mon-Fri", "time": "4:30pm"}, {"days": "Sat", "time": "12:30pm"}, {"days": "Sun", "time": "Closed"}], "id": "2754500001", "name": "USPS COLLECTION BOX - BLUE BOX", "address": {"city": "KNIGHTDALE", "state": "NC", "street": "1003 MULFORD CT", "postcode": "27545"}}},
{"geometry": {"type": "Point", "coordinates": [-78.4875487, 35.797805447]}, "type": "Feature", "properties": {"collection_times": [{"days": "Mon-Sat", "time": "10:00am"}, {"days": "Sun", "time": "Closed"}], "id": "2754500002", "name": "USPS COLLECTION BOX - BLUE BOX", "address": {"city": "KNIGHTDALE", "state": "NC", "street": "1001 N SMITHFIELD RD", "postcode": "27545"}}},
{"geometry": {"type": "Point", "coordinates": [-78.491865055, 35.798572146]}, "type": "Feature", "properties": {"collection_times": [{"days": "Mon-Sat", "time": "10:00am"}, {"days": "Sun", "time": "Closed"}], "id": "2754500005", "name": "USPS COLLECTION BOX - BLUE BOX", "address": {"city": "KNIGHTDALE", "state": "NC", "street": "7001 US HIGHWAY 64 E", "postcode": "27545"}}},
{"geometry": {"type": "Point", "coordinates": [-78.511401675, 35.794649681]}, "type": "Feature", "properties": {"collection_times": [{"days": "Mon-Sat", "time": "10:00am"}, {"days": "Sun", "time": "Closed"}], "id": "2754500006", "name": "USPS COLLECTION BOX - BLUE BOX", "address": {"city": "KNIGHTDALE", "state": "NC", "street": "1000 BIG OAK CT", "postcode": "27545"}}},
{"geometry": {"type": "Point", "coordinates": [-78.489244542, 35.794050778]}, "type": "Feature", "properties": {"collection_times": [{"days": "Mon-Fri", "time": "4:30pm"}, {"days": "Sat", "time": "12:30pm"}, {"days": "Sun", "time": "Closed"}], "id": "2754500007", "name": "USPS COLLECTION BOX - PO LOBBY", "address": {"city": "KNIGHTDALE", "state": "NC", "street": "1003 MULFORD CT", "postcode": "27545"}}},
{"geometry": {"type": "Point", "coordinates": [-78.489244542, 35.794050778]}, "type": "Feature", "properties": {"collection_times": [{"days": "Mon-Fri", "time": "4:30pm"}, {"days": "Sat", "time": "12:30pm"}, {"days": "Sun", "time": "Closed"}], "id": "2754500008", "name": "USPS COLLECTION BOX - PO LOBBY", "address": {"city": "KNIGHTDALE", "state": "NC", "street": "1003 MULFORD CT", "postcode": "27545"}}},
{"geometry": {"type": "Point", "coordinates": [-78.817939938, 35.397857766]}, "type": "Feature", "properties": {"collection_times": [{"days": "Mon-Fri", "time": "4:30pm"}, {"days": "Sat", "time": "12:00pm"}, {"days": "Sun", "time": "Closed"}], "id": "2754600002", "name": "USPS COLLECTION BOX - PO LOBBY", "address": {"city": "LILLINGTON", "state": "NC", "street": "901 S 8TH ST", "postcode": "27546"}}},
{"geometry": {"type": "Point", "coordinates": [-78.817939938, 35.397857766]}, "type": "Feature", "properties": {"collection_times": [{"days": "Mon-Fri", "time": "4:30pm"}, {"days": "Sat", "time": "12:00pm"}, {"days": "Sun", "time": "Closed"}], "id": "2754600004", "name": "USPS COLLECTION BOX - BLUE BOX", "address": {"city": "LILLINGTON", "state": "NC", "street": "901 S 8TH ST", "postcode": "27546"}}},
{"geometry": {"type": "Point", "coordinates": [-78.817939938, 35.397857766]}, "type": "Feature", "properties": {"collection_times": [{"days": "Mon-Fri", "time": "4:30pm"}, {"days": "Sat", "time": "12:00pm"}, {"days": "Sun", "time": "Closed"}], "id": "2754600006", "name": "USPS COLLECTION BOX - BLUE BOX", "address": {"city": "LILLINGTON", "state": "NC", "street": "901 S 8TH ST", "postcode": "27546"}}},
{"geometry": {"type": "Point", "coordinates": [-78.817939938, 35.397857766]}, "type": "Feature", "properties": {"collection_times": [{"days": "Mon-Fri", "time": "4:30pm"}, {"days": "Sat", "time": "12:00pm"}, {"days": "Sun", "time": "Closed"}], "id": "2754600007", "name": "USPS COLLECTION BOX - BLUE BOX", "address": {"city": "LILLINGTON", "state": "NC", "street": "901 S 8TH ST", "postcode": "27546"}}},
{"geometry": {"type": "Point", "coordinates": [-78.817939938, 35.397857766]}, "type": "Feature", "properties": {"collection_times": [{"days": "Mon-Fri", "time": "4:30pm"}, {"days": "Sat", "time": "12:00pm"}, {"days": "Sun", "time": "Closed"}], "id": "2754600009", "name": "USPS COLLECTION BOX - PO LOBBY", "address": {"city": "LILLINGTON", "state": "NC", "street": "901 S 8TH ST", "postcode": "27546"}}},
{"geometry": {"type": "Point", "coordinates": [-78.817939938, 35.397857766]}, "type": "Feature", "properties": {"collection_times": [{"days": "Mon-Fri", "time": "4:30pm"}, {"days": "Sat", "time": "12:00pm"}, {"days": "Sun", "time": "Closed"}], "id": "2754600011", "name": "USPS COLLECTION BOX - PO LOBBY", "address": {"city": "LILLINGTON", "state": "NC", "street": "901 S 8TH ST", "postcode": "27546"}}},
{"geometry": {"type": "Point", "coordinates": [-78.300267068, 36.100018526]}, "type": "Feature", "properties": {"collection_times": [{"days": "Mon-Fri", "time": "5:00pm"}, {"days": "Sat", "time": "3:00pm"}, {"days": "Sun", "time": "Closed"}], "id": "2754900003", "name": "USPS COLLECTION BOX - BLUE BOX", "address": {"city": "LOUISBURG", "state": "NC", "street": "125 N MAIN ST", "postcode": "27549"}}},
{"geometry": {"type": "Point", "coordinates": [-78.301023447, 36.099093805]}, "type": "Feature", "properties": {"collection_times": [{"days": "Mon-Fri", "time": "4:00pm"}, {"days": "Sat", "time": "3:00pm"}, {"days": "Sun", "time": "Closed"}], "id": "2754900004", "name": "USPS COLLECTION BOX - BLUE BOX", "address": {"city": "LOUISBURG", "state": "NC", "street": "101 W NASH ST", "postcode": "27549"}}},
{"geometry": {"type": "Point", "coordinates": [-78.298073559, 36.097207291]}, "type": "Feature", "properties": {"collection_times": [{"days": "Mon-Fri", "time": "4:00pm"}, {"days": "Sat", "time": "3:00pm"}, {"days": "Sun", "time": "Closed"}], "id": "2754900006", "name": "USPS COLLECTION BOX - BLUE BOX", "address": {"city": "LOUISBURG", "state": "NC", "street": "104 WADE AVE", "postcode": "27549"}}},
{"geometry": {"type": "Point", "coordinates": [-78.298939762, 36.089897194]}, "type": "Feature", "properties": {"collection_times": [{"days": "Mon-Fri", "time": "4:00pm"}, {"days": "Sat", "time": "3:00pm"}, {"days": "Sun", "time": "Closed"}], "id": "2754900007", "name": "USPS COLLECTION BOX - BLUE BOX", "address": {"city": "LOUISBURG", "state": "NC", "street": "302 FRANKLIN PLZ", "postcode": "27549"}}},
{"geometry": {"type": "Point", "coordinates": [-78.295769551, 36.095040808]}, "type": "Feature", "properties": {"collection_times": [{"days": "Mon-Fri", "time": "4:00pm"}, {"days": "Sat", "time": "3:00pm"}, {"days": "Sun", "time": "Closed"}], "id": "2754900008", "name": "USPS COLLECTION BOX - BLUE BOX", "address": {"city": "LOUISBURG", "state": "NC", "street": "136 SHANNON VLG", "postcode": "27549"}}},
{"geometry": {"type": "Point", "coordinates": [-78.297686739, 36.10355603]}, "type": "Feature", "properties": {"collection_times": [{"days": "Mon-Fri", "time": "3:30pm"}, {"days": "Sat", "time": "3:00pm"}, {"days": "Sun", "time": "Closed"}], "id": "2754900011", "name": "USPS COLLECTION BOX - BLUE BOX", "address": {"city": "LOUISBURG", "state": "NC", "street": "502 N MAIN ST", "postcode": "27549"}}},
{"geometry": {"type": "Point", "coordinates": [-78.300267068, 36.100018526]}, "type": "Feature", "properties": {"collection_times": [{"days": "Mon-Fri", "time": "4:30pm"}, {"days": "Sat", "time": "3:00pm"}, {"days": "Sun", "time": "Closed"}], "id": "2754900014", "name": "USPS COLLECTION BOX - PO LOBBY", "address": {"city": "LOUISBURG", "state": "NC", "street": "125 N MAIN ST", "postcode": "27549"}}},
{"geometry": {"type": "Point", "coordinates": [-78.085443013, 36.43827352]}, "type": "Feature", "properties": {"collection_times": [{"days": "Mon-Fri", "time": "4:15pm"}, {"days": "Sat", "time": "10:00am"}, {"days": "Sun", "time": "Closed"}], "id": "2755100001", "name": "USPS COLLECTION BOX - BLUE BOX", "address": {"city": "MACON", "state": "NC", "street": "1608 US HIGHWAY 158 E", "postcode": "27551"}}},
{"geometry": {"type": "Point", "coordinates": [-78.085443013, 36.43827352]}, "type": "Feature", "properties": {"collection_times": [{"days": "Mon-Fri", "time": "4:15pm"}, {"days": "Sat", "time": "10:00am"}, {"days": "Sun", "time": "Closed"}], "id": "2755100002", "name": "USPS COLLECTION BOX - PO LOBBY", "address": {"city": "MACON", "state": "NC", "street": "1608 US HIGHWAY 158 E", "postcode": "27551"}}},
{"geometry": {"type": "Point", "coordinates": [-78.933598517, 35.41659025]}, "type": "Feature", "properties": {"collection_times": [{"days": "Mon-Fri", "time": "4:30pm"}, {"days": "Sat", "time": "12:00pm"}, {"days": "Sun", "time": "Closed"}], "id": "2755200001", "name": "USPS COLLECTION BOX - BLUE BOX", "address": {"city": "MAMERS", "state": "NC", "street": "61 MAMERS RD", "postcode": "27552"}}},
{"geometry": {"type": "Point", "coordinates": [-78.933598517, 35.41659025]}, "type": "Feature", "properties": {"collection_times": [{"days": "Mon-Fri", "time": "4:30pm"}, {"days": "Sat", "time": "12:00pm"}, {"days": "Sun", "time": "Closed"}], "id": "2755200002", "name": "USPS COLLECTION BOX - PO LOBBY", "address": {"city": "MAMERS", "state": "NC", "street": "61 MAMERS RD", "postcode": "27552"}}},
{"geometry": {"type": "Point", "coordinates": [-78.282478895, 36.4217884]}, "type": "Feature", "properties": {"collection_times": [{"days": "Mon-Fri", "time": "4:30pm"}, {"days": "Sat", "time": "11:00am"}, {"days": "Sun", "time": "Closed"}], "id": "2755300001", "name": "USPS COLLECTION BOX - BLUE BOX", "address": {"city": "MANSON", "state": "NC", "street": "1402 US HIGHWAY 1 S", "postcode": "27553"}}},
{"geometry": {"type": "Point", "coordinates": [-78.282478895, 36.4217884]}, "type": "Feature", "properties": {"collection_times": [{"days": "Mon-Fri", "time": "4:30pm"}, {"days": "Sat", "time": "11:00am"}, {"days": "Sun", "time": "Closed"}], "id": "2755300002", "name": "USPS COLLECTION BOX - PO LOBBY", "address": {"city": "MANSON", "state": "NC", "street": "1402 US HIGHWAY 1 S", "postcode": "27553"}}},
{"geometry": {"type": "Point", "coordinates": [-78.204697796, 35.563603507]}, "type": "Feature", "properties": {"collection_times": [{"days": "Mon-Fri", "time": "4:30pm"}, {"days": "Sat", "time": "12:00pm"}, {"days": "Sun", "time": "Closed"}], "id": "2755500001", "name": "USPS COLLECTION BOX - BLUE BOX", "address": {"city": "MICRO", "state": "NC", "street": "101 S RAILROAD ST", "postcode": "27555"}}},
{"geometry": {"type": "Point", "coordinates": [-78.204697796, 35.563603507]}, "type": "Feature", "properties": {"collection_times": [{"days": "Mon-Fri", "time": "4:30pm"}, {"days": "Sat", "time": "12:00pm"}, {"days": "Sun", "time": "Closed"}], "id": "2755500002", "name": "USPS COLLECTION BOX - PO LOBBY", "address": {"city": "MICRO", "state": "NC", "street": "101 S RAILROAD ST", "postcode": "27555"}}},
{"geometry": {"type": "Point", "coordinates": [-78.324275622, 36.400042121]}, "type": "Feature", "properties": {"collection_times": [{"days": "Mon-Fri", "time": "5:00pm"}, {"days": "Sat", "time": "11:30am"}, {"days": "Sun", "time": "Closed"}], "id": "2755600001", "name": "USPS COLLECTION BOX - BLUE BOX", "address": {"city": "MIDDLEBURG", "state": "NC", "street": "69 N HAWKINS AVE", "postcode": "27556"}}},
{"geometry": {"type": "Point", "coordinates": [-78.324275622, 36.400042121]}, "type": "Feature", "properties": {"collection_times": [{"days": "Mon-Fri", "time": "5:00pm"}, {"days": "Sat", "time": "11:30am"}, {"days": "Sun", "time": "Closed"}], "id": "2755600002", "name": "USPS COLLECTION BOX - PO LOBBY", "address": {"city": "MIDDLEBURG", "state": "NC", "street": "69 N HAWKINS AVE", "postcode": "27556"}}},
{"geometry": {"type": "Point", "coordinates": [-78.203974105, 35.787152063]}, "type": "Feature", "properties": {"collection_times": [{"days": "Mon-Fri", "time": "4:00pm"}, {"days": "Sat", "time": "11:00am"}, {"days": "Sun", "time": "Closed"}], "id": "2755700001", "name": "USPS COLLECTION BOX - BLUE BOX", "address": {"city": "MIDDLESEX", "state": "NC", "street": "10286 S NASH ST", "postcode": "27557"}}},
{"geometry": {"type": "Point", "coordinates": [-78.203974105, 35.787152063]}, "type": "Feature", "properties": {"collection_times": [{"days": "Mon-Fri", "time": "4:00pm"}, {"days": "Sat", "time": "11:00am"}, {"days": "Sun", "time": "Closed"}], "id": "2755700003", "name": "USPS COLLECTION BOX - PO LOBBY", "address": {"city": "MIDDLESEX", "state": "NC", "street": "10286 S NASH ST", "postcode": "27557"}}},
{"geometry": {"type": "Point", "coordinates": [-79.077570093, 35.619462818]}, "type": "Feature", "properties": {"collection_times": [{"days": "Mon-Fri", "time": "4:30pm"}, {"days": "Sat", "time": "11:30am"}, {"days": "Sun", "time": "Closed"}], "id": "2755900001", "name": "USPS COLLECTION BOX - BLUE BOX", "address": {"city": "MONCURE", "state": "NC", "street": "213 POST OFFICE RD", "postcode": "27559"}}},
{"geometry": {"type": "Point", "coordinates": [-79.077570093, 35.619462818]}, "type": "Feature", "properties": {"collection_times": [{"days": "Mon-Fri", "time": "4:30pm"}, {"days": "Sat", "time": "11:30am"}, {"days": "Sun", "time": "Closed"}], "id": "2755900003", "name": "USPS COLLECTION BOX - PO LOBBY", "address": {"city": "MONCURE", "state": "NC", "street": "213 POST OFFICE RD", "postcode": "27559"}}},
{"geometry": {"type": "Point", "coordinates": [-78.833295668, 35.8419187]}, "type": "Feature", "properties": {"collection_times": [{"days": "Mon-Fri", "time": "5:00pm"}, {"days": "Sat", "time": "9:30am"}, {"days": "Sun", "time": "Closed"}], "id": "2756000001", "name": "USPS COLLECTION BOX - BLUE BOX", "address": {"city": "MORRISVILLE", "state": "NC", "street": "10520 CHAPEL HILL RD", "postcode": "27560"}}},
{"geometry": {"type": "Point", "coordinates": [-78.814477176, 35.837229812]}, "type": "Feature", "properties": {"collection_times": [{"days": "Mon-Fri", "time": "2:45pm"}, {"days": "Sat", "time": "1:00pm"}, {"days": "Sun", "time": "Closed"}], "id": "2756000003", "name": "USPS COLLECTION BOX - BLUE BOX", "address": {"city": "MORRISVILLE", "state": "NC", "street": "100 SOUTHCENTER CT", "postcode": "27560"}}},
{"geometry": {"type": "Point", "coordinates": [-78.809577329, 35.840990946]}, "type": "Feature", "properties": {"collection_times": [{"days": "Mon-Fri", "time": "2:45pm"}, {"days": "Sat", "time": "1:00pm"}, {"days": "Sun", "time": "Closed"}], "id": "2756000004", "name": "USPS COLLECTION BOX - BLUE BOX", "address": {"city": "MORRISVILLE", "state": "NC", "street": "100 DOMINION DR", "postcode": "27560"}}},
{"geometry": {"type": "Point", "coordinates": [-78.803609128, 35.846814467]}, "type": "Feature", "properties": {"collection_times": [{"days": "Mon-Fri", "time": "4:00pm"}, {"days": "Sat", "time": "1:00pm"}, {"days": "Sun", "time": "Closed"}], "id": "2756000006", "name": "USPS COLLECTION BOX - BLUE BOX", "address": {"city": "MORRISVILLE", "state": "NC", "street": "2500 GATEWAY CENTRE BLVD", "postcode": "27560"}}},
{"geometry": {"type": "Point", "coordinates": [-78.801832309, 35.848234249]}, "type": "Feature", "properties": {"collection_times": [{"days": "Mon-Fri", "time": "4:00pm"}, {"days": "Sat", "time": "1:00pm"}, {"days": "Sun", "time": "Closed"}], "id": "2756000007", "name": "USPS COLLECTION BOX - BLUE BOX", "address": {"city": "MORRISVILLE", "state": "NC", "street": "3800 GATEWAY CENTRE BLVD", "postcode": "27560"}}},
{"geometry": {"type": "Point", "coordinates": [-78.803754389, 35.885945067]}, "type": "Feature", "properties": {"collection_times": [{"days": "Mon-Fri", "time": "4:15pm"}, {"days": "Sat", "time": "1:00pm"}, {"days": "Sun", "time": "Closed"}], "id": "2756000008", "name": "USPS COLLECTION BOX - BLUE BOX", "address": {"city": "MORRISVILLE", "state": "NC", "street": "201 KITTY HAWK DR", "postcode": "27560"}}},
{"geometry": {"type": "Point", "coordinates": [-78.813495808, 35.856522671]}, "type": "Feature", "properties": {"collection_times": [{"days": "Mon-Fri", "time": "4:00pm"}, {"days": "Sat", "time": "1:00pm"}, {"days": "Sun", "time": "Closed"}], "id": "2756000009", "name": "USPS COLLECTION BOX - BLUE BOX", "address": {"city": "MORRISVILLE", "state": "NC", "street": "3000 AERIAL CENTER PKWY", "postcode": "27560"}}},
{"geometry": {"type": "Point", "coordinates": [-78.820592663, 35.863574069]}, "type": "Feature", "properties": {"collection_times": [{"days": "Mon-Fri", "time": "3:45pm"}, {"days": "Sat", "time": "1:00pm"}, {"days": "Sun", "time": "Closed"}], "id": "2756000010", "name": "USPS COLLECTION BOX - BLUE BOX", "address": {"city": "MORRISVILLE", "state": "NC", "street": "1 COPLEY PKWY", "postcode": "27560"}}},
{"geometry": {"type": "Point", "coordinates": [-78.824111368, 35.853653159]}, "type": "Feature", "properties": {"collection_times": [{"days": "Mon-Fri", "time": "3:30pm"}, {"days": "Sat", "time": "1:00pm"}, {"days": "Sun", "time": "Closed"}], "id": "2756000012", "name": "USPS COLLECTION BOX - BLUE BOX", "address": {"city": "MORRISVILLE", "state": "NC", "street": "1000 PERIMETER PARK DR", "postcode": "27560"}}},
{"geometry": {"type": "Point", "coordinates": [-78.825455854, 35.853835028]}, "type": "Feature", "properties": {"collection_times": [{"days": "Mon-Fri", "time": "3:15pm"}, {"days": "Sat", "time": "1:00pm"}, {"days": "Sun", "time": "Closed"}], "id": "2756000013", "name": "USPS COLLECTION BOX - BLUE BOX", "address": {"city": "MORRISVILLE", "state": "NC", "street": "1100 PERIMETER PARK DR", "postcode": "27560"}}},
{"geometry": {"type": "Point", "coordinates": [-78.829068326, 35.852935199]}, "type": "Feature", "properties": {"collection_times": [{"days": "Mon-Fri", "time": "3:15pm"}, {"days": "Sat", "time": "1:00pm"}, {"days": "Sun", "time": "Closed"}], "id": "2756000014", "name": "USPS COLLECTION BOX - BLUE BOX", "address": {"city": "MORRISVILLE", "state": "NC", "street": "1800 PERIMETER PARK DR", "postcode": "27560"}}},
{"geometry": {"type": "Point", "coordinates": [-78.814473982, 35.837416244]}, "type": "Feature", "properties": {"collection_times": [{"days": "Mon-Fri", "time": "2:45pm"}, {"days": "Sat", "time": "1:00pm"}, {"days": "Sun", "time": "Closed"}], "id": "2756000023", "name": "USPS COLLECTION BOX - BLUE BOX", "address": {"city": "MORRISVILLE", "state": "NC", "street": "140 SOUTHCENTER CT", "postcode": "27560"}}},
{"geometry": {"type": "Point", "coordinates": [-78.818741815, 35.85955652]}, "type": "Feature", "properties": {"collection_times": [{"days": "Mon-Fri", "time": "3:45pm"}, {"days": "Sat", "time": "1:00pm"}, {"days": "Sun", "time": "Closed"}], "id": "2756000025", "name": "USPS COLLECTION BOX - BLUE BOX", "address": {"city": "MORRISVILLE", "state": "NC", "street": "1001 AIRPORT BLVD", "postcode": "27560"}}},
{"geometry": {"type": "Point", "coordinates": [-78.833750222, 35.845217122]}, "type": "Feature", "properties": {"collection_times": [{"days": "Mon-Fri", "time": "3:00pm"}, {"days": "Sat", "time": "1:00pm"}, {"days": "Sun", "time": "Closed"}], "id": "2756000026", "name": "USPS COLLECTION BOX - BLUE BOX", "address": {"city": "MORRISVILLE", "state": "NC", "street": "2900 PERIMETER PARK DR", "postcode": "27560"}}},
{"geometry": {"type": "Point", "coordinates": [-78.813318649, 35.856310546]}, "type": "Feature", "properties": {"collection_times": [{"days": "Mon-Fri", "time": "4:00pm"}, {"days": "Sat", "time": "1:00pm"}, {"days": "Sun", "time": "Closed"}], "id": "2756000027", "name": "USPS COLLECTION BOX - BLUE BOX", "address": {"city": "MORRISVILLE", "state": "NC", "street": "8001 AERIAL CENTER PKWY", "postcode": "27560"}}},
{"geometry": {"type": "Point", "coordinates": [-78.814061086, 35.857596115]}, "type": "Feature", "properties": {"collection_times": [{"days": "Mon-Fri", "time": "4:00pm"}, {"days": "Sat", "time": "1:00pm"}, {"days": "Sun", "time": "Closed"}], "id": "2756000028", "name": "USPS COLLECTION BOX - BLUE BOX", "address": {"city": "MORRISVILLE", "state": "NC", "street": "6001 HOSPITALITY CT", "postcode": "27560"}}},
{"geometry": {"type": "Point", "coordinates": [-78.814200949, 35.858223165]}, "type": "Feature", "properties": {"collection_times": [{"days": "Mon-Fri", "time": "4:00pm"}, {"days": "Sat", "time": "1:00pm"}, {"days": "Sun", "time": "Closed"}], "id": "2756000029", "name": "USPS COLLECTION BOX - BLUE BOX", "address": {"city": "MORRISVILLE", "state": "NC", "street": "5001 HOSPITALITY CT", "postcode": "27560"}}},
{"geometry": {"type": "Point", "coordinates": [-78.826882976, 35.84781973]}, "type": "Feature", "properties": {"collection_times": [{"days": "Mon-Fri", "time": "3:00pm"}, {"days": "Sat", "time": "1:00pm"}, {"days": "Sun", "time": "Closed"}], "id": "2756000030", "name": "USPS COLLECTION BOX - BLUE BOX", "address": {"city": "MORRISVILLE", "state": "NC", "street": "507 AIRPORT BLVD", "postcode": "27560"}}},
{"geometry": {"type": "Point", "coordinates": [-78.827738468, 35.853987664]}, "type": "Feature", "properties": {"collection_times": [{"days": "Mon-Fri", "time": "3:15pm"}, {"days": "Sat", "time": "1:00pm"}, {"days": "Sun", "time": "Closed"}], "id": "2756000031", "name": "USPS COLLECTION BOX - BLUE BOX", "address": {"city": "MORRISVILLE", "state": "NC", "street": "1400 PERIMETER PARK DR", "postcode": "27560"}}},
{"geometry": {"type": "Point", "coordinates": [-78.812211405, 35.836765934]}, "type": "Feature", "properties": {"collection_times": [{"days": "Mon-Fri", "time": "2:45pm"}, {"days": "Sat", "time": "1:00pm"}, {"days": "Sun", "time": "Closed"}], "id": "2756000032", "name": "USPS COLLECTION BOX - BLUE BOX", "address": {"city": "MORRISVILLE", "state": "NC", "street": "860 AVIATION PKWY", "postcode": "27560"}}},
{"geometry": {"type": "Point", "coordinates": [-78.815120544, 35.836552644]}, "type": "Feature", "properties": {"collection_times": [{"days": "Mon-Fri", "time": "2:45pm"}, {"days": "Sat", "time": "1:00pm"}, {"days": "Sun", "time": "Closed"}], "id": "2756000033", "name": "USPS COLLECTION BOX - BLUE BOX", "address": {"city": "MORRISVILLE", "state": "NC", "street": "215 SOUTHPORT DR", "postcode": "27560"}}},
{"geometry": {"type": "Point", "coordinates": [-78.817214984, 35.872278175]}, "type": "Feature", "properties": {"collection_times": [{"days": "Mon-Fri", "time": "4:15pm"}, {"days": "Sat", "time": "1:00pm"}, {"days": "Sun", "time": "Closed"}], "id": "2756000034", "name": "USPS COLLECTION BOX - BLUE BOX", "address": {"city": "MORRISVILLE", "state": "NC", "street": "100 INNOVATION AVE", "postcode": "27560"}}},
{"geometry": {"type": "Point", "coordinates": [-78.828350366, 35.821702749]}, "type": "Feature", "properties": {"collection_times": [{"days": "Mon-Fri", "time": "9:30am"}, {"days": "Sat-Sun", "time": "Closed"}], "id": "2756000035", "name": "USPS COLLECTION BOX - BLUE BOX", "address": {"city": "MORRISVILLE", "state": "NC", "street": "100 TOWN HALL DR", "postcode": "27560"}}},
{"geometry": {"type": "Point", "coordinates": [-78.833295668, 35.8419187]}, "type": "Feature", "properties": {"collection_times": [{"days": "Mon-Fri", "time": "5:00pm"}, {"days": "Sat", "time": "9:30am"}, {"days": "Sun", "time": "Closed"}], "id": "2756000037", "name": "USPS COLLECTION BOX - PO LOBBY", "address": {"city": "MORRISVILLE", "state": "NC", "street": "10520 CHAPEL HILL RD", "postcode": "27560"}}},
{"geometry": {"type": "Point", "coordinates": [-78.822605516, 35.861872408]}, "type": "Feature", "properties": {"collection_times": [{"days": "Mon-Fri", "time": "3:45pm"}, {"days": "Sat", "time": "1:00pm"}, {"days": "Sun", "time": "Closed"}], "id": "2756000039", "name": "USPS COLLECTION BOX - BLUE BOX", "address": {"city": "MORRISVILLE", "state": "NC", "street": "2801 SLATER RD", "postcode": "27560"}}},
{"geometry": {"type": "Point", "coordinates": [-78.816086046, 35.857285682]}, "type": "Feature", "properties": {"collection_times": [{"days": "Mon-Fri", "time": "4:00pm"}, {"days": "Sat", "time": "1:00pm"}, {"days": "Sun", "time": "Closed"}], "id": "2756000041", "name": "USPS COLLECTION BOX - BLUE BOX", "address": {"city": "MORRISVILLE", "state": "NC", "street": "2000 AERIAL CENTER PKWY", "postcode": "27560"}}},
{"geometry": {"type": "Point", "coordinates": [-78.826882976, 35.84781973]}, "type": "Feature", "properties": {"collection_times": [{"days": "Mon-Fri", "time": "3:00pm"}, {"days": "Sat", "time": "1:00pm"}, {"days": "Sun", "time": "Closed"}], "id": "2756000044", "name": "USPS COLLECTION BOX - BLUE BOX", "address": {"city": "MORRISVILLE", "state": "NC", "street": "507 AIRPORT BLVD", "postcode": "27560"}}},
{"geometry": {"type": "Point", "coordinates": [-78.828978582, 35.848978257]}, "type": "Feature", "properties": {"collection_times": [{"days": "Mon-Fri", "time": "3:00pm"}, {"days": "Sat", "time": "1:00pm"}, {"days": "Sun", "time": "Closed"}], "id": "2756000045", "name": "USPS COLLECTION BOX - BLUE BOX", "address": {"city": "MORRISVILLE", "state": "NC", "street": "5150 MCCRIMMON PKWY", "postcode": "27560"}}},
{"geometry": {"type": "Point", "coordinates": [-78.836969943, 35.836100519]}, "type": "Feature", "properties": {"collection_times": [{"days": "Mon-Fri", "time": "1:00pm"}, {"days": "Sat", "time": "10:00am"}, {"days": "Sun", "time": "Closed"}], "id": "2756000048", "name": "USPS COLLECTION BOX - BLUE BOX", "address": {"city": "MORRISVILLE", "state": "NC", "street": "2400 TERMINAL BLVD", "postcode": "27560"}}},
{"geometry": {"type": "Point", "coordinates": [-78.934709928, 35.681304164]}, "type": "Feature", "properties": {"collection_times": [{"days": "Mon-Fri", "time": "4:30pm"}, {"days": "Sat", "time": "11:00am"}, {"days": "Sun", "time": "Closed"}], "id": "2756200001", "name": "USPS COLLECTION BOX - PO LOBBY", "address": {"city": "NEW HILL", "state": "NC", "street": "3525 OLD US 1 HWY", "postcode": "27562"}}},
{"geometry": {"type": "Point", "coordinates": [-78.934709928, 35.681304164]}, "type": "Feature", "properties": {"collection_times": [{"days": "Mon-Fri", "time": "4:30pm"}, {"days": "Sat", "time": "11:00am"}, {"days": "Sun", "time": "Closed"}], "id": "2756200002", "name": "USPS COLLECTION BOX - BLUE BOX", "address": {"city": "NEW HILL", "state": "NC", "street": "3525 OLD US 1 HWY", "postcode": "27562"}}},
{"geometry": {"type": "Point", "coordinates": [-78.193624283, 36.444883186]}, "type": "Feature", "properties": {"collection_times": [{"days": "Mon-Fri", "time": "4:45pm"}, {"days": "Sat", "time": "10:00am"}, {"days": "Sun", "time": "Closed"}], "id": "2756300001", "name": "USPS COLLECTION BOX - BLUE BOX", "address": {"city": "NORLINA", "state": "NC", "street": "306 LIBERTY ST", "postcode": "27563"}}},
{"geometry": {"type": "Point", "coordinates": [-78.193624283, 36.444883186]}, "type": "Feature", "properties": {"collection_times": [{"days": "Mon-Fri", "time": "4:45pm"}, {"days": "Sat", "time": "10:00am"}, {"days": "Sun", "time": "Closed"}], "id": "2756300002", "name": "USPS COLLECTION BOX - PO LOBBY", "address": {"city": "NORLINA", "state": "NC", "street": "306 LIBERTY ST", "postcode": "27563"}}},
{"geometry": {"type": "Point", "coordinates": [-78.587725744, 36.310656072]}, "type": "Feature", "properties": {"collection_times": [{"days": "Mon-Fri", "time": "5:00pm"}, {"days": "Sat", "time": "3:00pm"}, {"days": "Sun", "time": "Closed"}], "id": "2756500001", "name": "USPS COLLECTION BOX - PO LOBBY", "address": {"city": "OXFORD", "state": "NC", "street": "146 MAIN ST", "postcode": "27565"}}},
{"geometry": {"type": "Point", "coordinates": [-78.587725744, 36.310656072]}, "type": "Feature", "properties": {"collection_times": [{"days": "Mon-Fri", "time": "5:00pm"}, {"days": "Sat", "time": "3:00pm"}, {"days": "Sun", "time": "Closed"}], "id": "2756500004", "name": "USPS COLLECTION BOX - BLUE BOX", "address": {"city": "OXFORD", "state": "NC", "street": "146 MAIN ST", "postcode": "27565"}}},
{"geometry": {"type": "Point", "coordinates": [-78.587725744, 36.310656072]}, "type": "Feature", "properties": {"collection_times": [{"days": "Mon-Fri", "time": "5:00pm"}, {"days": "Sat", "time": "3:00pm"}, {"days": "Sun", "time": "Closed"}], "id": "2756500005", "name": "USPS COLLECTION BOX - BLUE BOX", "address": {"city": "OXFORD", "state": "NC", "street": "146 MAIN ST", "postcode": "27565"}}},
{"geometry": {"type": "Point", "coordinates": [-78.593576099, 36.317801837]}, "type": "Feature", "properties": {"collection_times": [{"days": "Mon-Sat", "time": "12:00pm"}, {"days": "Sun", "time": "Closed"}], "id": "2756500016", "name": "USPS COLLECTION BOX - BLUE BOX", "address": {"city": "OXFORD", "state": "NC", "street": "509 COLLEGE ST", "postcode": "27565"}}},
{"geometry": {"type": "Point", "coordinates": [-78.58769256, 36.312281348]}, "type": "Feature", "properties": {"collection_times": [{"days": "Mon-Sat", "time": "12:00pm"}, {"days": "Sun", "time": "Closed"}], "id": "2756500024", "name": "USPS COLLECTION BOX - BLUE BOX", "address": {"city": "OXFORD", "state": "NC", "street": "143 WILLIAMSBORO ST", "postcode": "27565"}}},
{"geometry": {"type": "Point", "coordinates": [-78.591416443, 36.309083705]}, "type": "Feature", "properties": {"collection_times": [{"days": "Mon-Sat", "time": "12:00pm"}, {"days": "Sun", "time": "Closed"}], "id": "2756500026", "name": "USPS COLLECTION BOX - BLUE BOX", "address": {"city": "OXFORD", "state": "NC", "street": "115 GRANVILLE CORS", "postcode": "27565"}}},
{"geometry": {"type": "Point", "coordinates": [-78.591195513, 36.310541244]}, "type": "Feature", "properties": {"collection_times": [{"days": "Mon-Sat", "time": "12:00pm"}, {"days": "Sun", "time": "Closed"}], "id": "2756500033", "name": "USPS COLLECTION BOX - BLUE BOX", "address": {"city": "OXFORD", "state": "NC", "street": "201 HILLSBORO ST", "postcode": "27565"}}},
{"geometry": {"type": "Point", "coordinates": [-78.587742397, 36.310678699]}, "type": "Feature", "properties": {"collection_times": [{"days": "Mon-Fri", "time": "5:00pm"}, {"days": "Sat", "time": "3:00pm"}, {"days": "Sun", "time": "Closed"}], "id": "2756500036", "name": "USPS COLLECTION BOX - PO LOBBY", "address": {"city": "OXFORD", "state": "NC", "street": "144 MAIN ST", "postcode": "27565"}}},
{"geometry": {"type": "Point", "coordinates": [-78.587742397, 36.310678699]}, "type": "Feature", "properties": {"collection_times": [{"days": "Mon-Fri", "time": "5:00pm"}, {"days": "Sat", "time": "3:00pm"}, {"days": "Sun", "time": "Closed"}], "id": "2756500037", "name": "USPS COLLECTION BOX - PO LOBBY", "address": {"city": "OXFORD", "state": "NC", "street": "144 MAIN ST", "postcode": "27565"}}},
{"geometry": {"type": "Point", "coordinates": [-78.245050815, 35.512859055]}, "type": "Feature", "properties": {"collection_times": [{"days": "Mon-Fri", "time": "4:00pm"}, {"days": "Sat", "time": "10:30am"}, {"days": "Sun", "time": "Closed"}], "id": "2756800001", "name": "USPS COLLECTION BOX - BLUE BOX", "address": {"city": "PINE LEVEL", "state": "NC", "street": "121 W PINE ST", "postcode": "27568"}}},
{"geometry": {"type": "Point", "coordinates": [-78.245050815, 35.512859055]}, "type": "Feature", "properties": {"collection_times": [{"days": "Mon-Fri", "time": "4:00pm"}, {"days": "Sat", "time": "10:30am"}, {"days": "Sun", "time": "Closed"}], "id": "2756800002", "name": "USPS COLLECTION BOX - PO LOBBY", "address": {"city": "PINE LEVEL", "state": "NC", "street": "121 W PINE ST", "postcode": "27568"}}},
{"geometry": {"type": "Point", "coordinates": [-78.15960703, 35.465518085]}, "type": "Feature", "properties": {"collection_times": [{"days": "Mon-Fri", "time": "4:30pm"}, {"days": "Sat", "time": "10:15am"}, {"days": "Sun", "time": "Closed"}], "id": "2756900001", "name": "USPS COLLECTION BOX - PO LOBBY", "address": {"city": "PRINCETON", "state": "NC", "street": "107 W EDWARDS ST", "postcode": "27569"}}},
{"geometry": {"type": "Point", "coordinates": [-78.15960703, 35.465518085]}, "type": "Feature", "properties": {"collection_times": [{"days": "Mon-Fri", "time": "4:30pm"}, {"days": "Sat", "time": "10:15am"}, {"days": "Sun", "time": "Closed"}], "id": "2756900002", "name": "USPS COLLECTION BOX - BLUE BOX", "address": {"city": "PRINCETON", "state": "NC", "street": "107 W EDWARDS ST", "postcode": "27569"}}},
{"geometry": {"type": "Point", "coordinates": [-78.236898631, 36.43549401]}, "type": "Feature", "properties": {"collection_times": [{"days": "Mon-Fri", "time": "4:30pm"}, {"days": "Sat", "time": "11:15am"}, {"days": "Sun", "time": "Closed"}], "id": "2757000001", "name": "USPS COLLECTION BOX - BLUE BOX", "address": {"city": "RIDGEWAY", "state": "NC", "street": "686 US HIGHWAY 1 S", "postcode": "27570"}}},
{"geometry": {"type": "Point", "coordinates": [-78.236898631, 36.43549401]}, "type": "Feature", "properties": {"collection_times": [{"days": "Mon-Fri", "time": "4:30pm"}, {"days": "Sat", "time": "11:15am"}, {"days": "Sun", "time": "Closed"}], "id": "2757000002", "name": "USPS COLLECTION BOX - PO LOBBY", "address": {"city": "RIDGEWAY", "state": "NC", "street": "686 US HIGHWAY 1 S", "postcode": "27570"}}},
{"geometry": {"type": "Point", "coordinates": [-78.46628061, 35.921015178]}, "type": "Feature", "properties": {"collection_times": [{"days": "Mon-Fri", "time": "4:00pm"}, {"days": "Sat", "time": "11:30am"}, {"days": "Sun", "time": "Closed"}], "id": "2757100001", "name": "USPS COLLECTION BOX - BLUE BOX", "address": {"city": "ROLESVILLE", "state": "NC", "street": "6470 ROGERS RD", "postcode": "27571"}}},
{"geometry": {"type": "Point", "coordinates": [-78.46628061, 35.921015178]}, "type": "Feature", "properties": {"collection_times": [{"days": "Mon-Fri", "time": "4:00pm"}, {"days": "Sat", "time": "11:30am"}, {"days": "Sun", "time": "Closed"}], "id": "2757100003", "name": "USPS COLLECTION BOX - PO LOBBY", "address": {"city": "ROLESVILLE", "state": "NC", "street": "6470 ROGERS RD", "postcode": "27571"}}},
{"geometry": {"type": "Point", "coordinates": [-78.921093488, 36.210399418]}, "type": "Feature", "properties": {"collection_times": [{"days": "Mon-Fri", "time": "4:00pm"}, {"days": "Sat", "time": "9:00am"}, {"days": "Sun", "time": "Closed"}], "id": "2757200001", "name": "USPS COLLECTION BOX - PO LOBBY", "address": {"city": "ROUGEMONT", "state": "NC", "street": "12311 ROXBORO RD", "postcode": "27572"}}},
{"geometry": {"type": "Point", "coordinates": [-78.921093488, 36.210399418]}, "type": "Feature", "properties": {"collection_times": [{"days": "Mon-Fri", "time": "4:00pm"}, {"days": "Sat", "time": "9:00am"}, {"days": "Sun", "time": "Closed"}], "id": "2757200002", "name": "USPS COLLECTION BOX - BLUE BOX", "address": {"city": "ROUGEMONT", "state": "NC", "street": "12311 ROXBORO RD", "postcode": "27572"}}},
{"geometry": {"type": "Point", "coordinates": [-78.985181623, 36.391482539]}, "type": "Feature", "properties": {"collection_times": [{"days": "Mon-Fri", "time": "5:00pm"}, {"days": "Sat", "time": "12:00pm"}, {"days": "Sun", "time": "Closed"}], "id": "2757300001", "name": "USPS COLLECTION BOX - BLUE BOX", "address": {"city": "ROXBORO", "state": "NC", "street": "223 S MAIN ST", "postcode": "27573"}}},
{"geometry": {"type": "Point", "coordinates": [-78.991520203, 36.395727357]}, "type": "Feature", "properties": {"collection_times": [{"days": "Mon-Fri", "time": "3:30pm"}, {"days": "Sat", "time": "10:00am"}, {"days": "Sun", "time": "Closed"}], "id": "2757300005", "name": "USPS COLLECTION BOX - BLUE BOX", "address": {"city": "ROXBORO", "state": "NC", "street": "304 S MORGAN ST", "postcode": "27573"}}},
{"geometry": {"type": "Point", "coordinates": [-78.984556669, 36.407900555]}, "type": "Feature", "properties": {"collection_times": [{"days": "Mon-Fri", "time": "12:00pm"}, {"days": "Sat", "time": "11:00am"}, {"days": "Sun", "time": "Closed"}], "id": "2757300007", "name": "USPS COLLECTION BOX - BLUE BOX", "address": {"city": "ROXBORO", "state": "NC", "street": "615 RIDGE RD", "postcode": "27573"}}},
{"geometry": {"type": "Point", "coordinates": [-78.982938932, 36.394203442]}, "type": "Feature", "properties": {"collection_times": [{"days": "Mon-Fri", "time": "3:30pm"}, {"days": "Sat", "time": "3:00pm"}, {"days": "Sun", "time": "Closed"}], "id": "2757300016", "name": "USPS COLLECTION BOX - BLUE BOX", "address": {"city": "ROXBORO", "state": "NC", "street": "201 N MAIN ST", "postcode": "27573"}}},
{"geometry": {"type": "Point", "coordinates": [-78.98495338, 36.394349988]}, "type": "Feature", "properties": {"collection_times": [{"days": "Mon-Fri", "time": "3:30pm"}, {"days": "Sat", "time": "3:00pm"}, {"days": "Sun", "time": "Closed"}], "id": "2757300018", "name": "USPS COLLECTION BOX - BLUE BOX", "address": {"city": "ROXBORO", "state": "NC", "street": "105 COURT ST", "postcode": "27573"}}},
{"geometry": {"type": "Point", "coordinates": [-78.985181623, 36.391482539]}, "type": "Feature", "properties": {"collection_times": [{"days": "Mon-Fri", "time": "4:30pm"}, {"days": "Sat", "time": "12:00pm"}, {"days": "Sun", "time": "Closed"}], "id": "2757300023", "name": "USPS COLLECTION BOX - PO LOBBY", "address": {"city": "ROXBORO", "state": "NC", "street": "223 S MAIN ST", "postcode": "27573"}}},
{"geometry": {"type": "Point", "coordinates": [-78.299909684, 35.524784334]}, "type": "Feature", "properties": {"collection_times": [{"days": "Mon-Sat", "time": "11:00am"}, {"days": "Sun", "time": "Closed"}], "id": "2757600002", "name": "USPS COLLECTION BOX - BLUE BOX", "address": {"city": "SELMA", "state": "NC", "street": "1417 S POLLOCK ST", "postcode": "27576"}}},
{"geometry": {"type": "Point", "coordinates": [-78.282962443, 35.535480329]}, "type": "Feature", "properties": {"collection_times": [{"days": "Mon-Fri", "time": "3:00pm"}, {"days": "Sat", "time": "12:00pm"}, {"days": "Sun", "time": "Closed"}], "id": "2757600007", "name": "USPS COLLECTION BOX - BLUE BOX", "address": {"city": "SELMA", "state": "NC", "street": "100 E ANDERSON ST", "postcode": "27576"}}},
{"geometry": {"type": "Point", "coordinates": [-78.287040123, 35.517825026]}, "type": "Feature", "properties": {"collection_times": [{"days": "Mon-Sat", "time": "11:30am"}, {"days": "Sun", "time": "Closed"}], "id": "2757600011", "name": "USPS COLLECTION BOX - BLUE BOX", "address": {"city": "SELMA", "state": "NC", "street": "49 JR RD", "postcode": "27576"}}},
{"geometry": {"type": "Point", "coordinates": [-78.281971409, 35.537556292]}, "type": "Feature", "properties": {"collection_times": [{"days": "Mon-Fri", "time": "5:00pm"}, {"days": "Sat", "time": "12:00pm"}, {"days": "Sun", "time": "Closed"}], "id": "2757600012", "name": "USPS COLLECTION BOX - BLUE BOX", "address": {"city": "SELMA", "state": "NC", "street": "308 N RAIFORD ST", "postcode": "27576"}}},
{"geometry": {"type": "Point", "coordinates": [-78.281971409, 35.537556292]}, "type": "Feature", "properties": {"collection_times": [{"days": "Mon-Fri", "time": "5:00pm"}, {"days": "Sat", "time": "12:00pm"}, {"days": "Sun", "time": "Closed"}], "id": "2757600014", "name": "USPS COLLECTION BOX - PO LOBBY", "address": {"city": "SELMA", "state": "NC", "street": "308 N RAIFORD ST", "postcode": "27576"}}},
{"geometry": {"type": "Point", "coordinates": [-78.295643158, 35.527106335]}, "type": "Feature", "properties": {"collection_times": [{"days": "Mon-Sat", "time": "10:30am"}, {"days": "Sun", "time": "Closed"}], "id": "2757600016", "name": "USPS COLLECTION BOX - BLUE BOX", "address": {"city": "SELMA", "state": "NC", "street": "101 BLACKSTONE LN", "postcode": "27576"}}},
{"geometry": {"type": "Point", "coordinates": [-78.34883613, 35.509443102]}, "type": "Feature", "properties": {"collection_times": [{"days": "Mon-Fri", "time": "12:00pm"}, {"days": "Sat", "time": "10:00am"}, {"days": "Sun", "time": "Closed"}], "id": "2757700002", "name": "USPS COLLECTION BOX - BLUE BOX", "address": {"city": "SMITHFIELD", "state": "NC", "street": "201 E CHURCH ST", "postcode": "27577"}}},
{"geometry": {"type": "Point", "coordinates": [-78.350871294, 35.501625511]}, "type": "Feature", "properties": {"collection_times": [{"days": "Mon-Fri", "time": "12:00pm"}, {"days": "Sat", "time": "10:00am"}, {"days": "Sun", "time": "Closed"}], "id": "2757700003", "name": "USPS COLLECTION BOX - BLUE BOX", "address": {"city": "SMITHFIELD", "state": "NC", "street": "301 E DUNDEE ST", "postcode": "27577"}}},
{"geometry": {"type": "Point", "coordinates": [-78.355646761, 35.497513758]}, "type": "Feature", "properties": {"collection_times": [{"days": "Mon-Fri", "time": "2:00pm"}, {"days": "Sat", "time": "10:00am"}, {"days": "Sun", "time": "Closed"}], "id": "2757700004", "name": "USPS COLLECTION BOX - BLUE BOX", "address": {"city": "SMITHFIELD", "state": "NC", "street": "201 E BINGHAM ST", "postcode": "27577"}}},
{"geometry": {"type": "Point", "coordinates": [-78.305028857, 35.521964663]}, "type": "Feature", "properties": {"collection_times": [{"days": "Mon-Fri", "time": "10:30am"}, {"days": "Sat-Sun", "time": "Closed"}], "id": "2757700006", "name": "USPS COLLECTION BOX - BLUE BOX", "address": {"city": "SMITHFIELD", "state": "NC", "street": "7 NOBLE ST", "postcode": "27577"}}},
{"geometry": {"type": "Point", "coordinates": [-78.314899243, 35.518959]}, "type": "Feature", "properties": {"collection_times": [{"days": "Mon-Fri", "time": "11:00am"}, {"days": "Sat", "time": "10:00am"}, {"days": "Sun", "time": "Closed"}], "id": "2757700007", "name": "USPS COLLECTION BOX - BLUE BOX", "address": {"city": "SMITHFIELD", "state": "NC", "street": "1213 N BRIGHTLEAF BLVD", "postcode": "27577"}}},
{"geometry": {"type": "Point", "coordinates": [-78.329123778, 35.514572594]}, "type": "Feature", "properties": {"collection_times": [{"days": "Mon-Fri", "time": "2:30pm"}, {"days": "Sat", "time": "10:00am"}, {"days": "Sun", "time": "Closed"}], "id": "2757700008", "name": "USPS COLLECTION BOX - BLUE BOX", "address": {"city": "SMITHFIELD", "state": "NC", "street": "725 N BRIGHTLEAF BLVD", "postcode": "27577"}}},
{"geometry": {"type": "Point", "coordinates": [-78.334008883, 35.513086938]}, "type": "Feature", "properties": {"collection_times": [{"days": "Mon-Sat", "time": "9:00am"}, {"days": "Sun", "time": "Closed"}], "id": "2757700009", "name": "USPS COLLECTION BOX - BLUE BOX", "address": {"city": "SMITHFIELD", "state": "NC", "street": "509 N BRIGHTLEAF BLVD", "postcode": "27577"}}},
{"geometry": {"type": "Point", "coordinates": [-78.342906276, 35.509909509]}, "type": "Feature", "properties": {"collection_times": [{"days": "Mon-Fri", "time": "3:00pm"}, {"days": "Sat", "time": "9:30am"}, {"days": "Sun", "time": "Closed"}], "id": "2757700011", "name": "USPS COLLECTION BOX - BLUE BOX", "address": {"city": "SMITHFIELD", "state": "NC", "street": "513 E MARKET ST", "postcode": "27577"}}},
{"geometry": {"type": "Point", "coordinates": [-78.348027169, 35.510554532]}, "type": "Feature", "properties": {"collection_times": [{"days": "Mon-Fri", "time": "3:30pm"}, {"days": "Sat", "time": "10:00am"}, {"days": "Sun", "time": "Closed"}], "id": "2757700013", "name": "USPS COLLECTION BOX - BLUE BOX", "address": {"city": "SMITHFIELD", "state": "NC", "street": "207 E JOHNSTON ST", "postcode": "27577"}}},
{"geometry": {"type": "Point", "coordinates": [-78.346044046, 35.511063595]}, "type": "Feature", "properties": {"collection_times": [{"days": "Mon-Fri", "time": "1:00pm"}, {"days": "Sat", "time": "10:00am"}, {"days": "Sun", "time": "Closed"}], "id": "2757700015", "name": "USPS COLLECTION BOX - BLUE BOX", "address": {"city": "SMITHFIELD", "state": "NC", "street": "101 S 3RD ST", "postcode": "27577"}}},
{"geometry": {"type": "Point", "coordinates": [-78.348782341, 35.512386466]}, "type": "Feature", "properties": {"collection_times": [{"days": "Mon-Fri", "time": "1:00pm"}, {"days": "Sat", "time": "10:00am"}, {"days": "Sun", "time": "Closed"}], "id": "2757700016", "name": "USPS COLLECTION BOX - BLUE BOX", "address": {"city": "SMITHFIELD", "state": "NC", "street": "101 E MARKET ST", "postcode": "27577"}}},
{"geometry": {"type": "Point", "coordinates": [-78.345106968, 35.512697655]}, "type": "Feature", "properties": {"collection_times": [{"days": "Mon-Fri", "time": "5:00pm"}, {"days": "Sat", "time": "1:00pm"}, {"days": "Sun", "time": "Closed"}], "id": "2757700018", "name": "USPS COLLECTION BOX - BLUE BOX", "address": {"city": "SMITHFIELD", "state": "NC", "street": "201 N 3RD ST", "postcode": "27577"}}},
{"geometry": {"type": "Point", "coordinates": [-78.345106968, 35.512697655]}, "type": "Feature", "properties": {"collection_times": [{"days": "Mon-Fri", "time": "5:00pm"}, {"days": "Sat", "time": "1:00pm"}, {"days": "Sun", "time": "Closed"}], "id": "2757700019", "name": "USPS COLLECTION BOX - BLUE BOX", "address": {"city": "SMITHFIELD", "state": "NC", "street": "201 N 3RD ST", "postcode": "27577"}}},
{"geometry": {"type": "Point", "coordinates": [-78.345106968, 35.512697655]}, "type": "Feature", "properties": {"collection_times": [{"days": "Mon-Fri", "time": "5:00pm"}, {"days": "Sat", "time": "1:00pm"}, {"days": "Sun", "time": "Closed"}], "id": "2757700020", "name": "USPS COLLECTION BOX - BLUE BOX", "address": {"city": "SMITHFIELD", "state": "NC", "street": "201 N 3RD ST", "postcode": "27577"}}},
{"geometry": {"type": "Point", "coordinates": [-78.345106968, 35.512697655]}, "type": "Feature", "properties": {"collection_times": [{"days": "Mon-Fri", "time": "5:00pm"}, {"days": "Sat", "time": "1:00pm"}, {"days": "Sun", "time": "Closed"}], "id": "2757700021", "name": "USPS COLLECTION BOX - BLUE BOX", "address": {"city": "SMITHFIELD", "state": "NC", "street": "201 N 3RD ST", "postcode": "27577"}}},
{"geometry": {"type": "Point", "coordinates": [-78.356116445, 35.499303867]}, "type": "Feature", "properties": {"collection_times": [{"days": "Mon-Fri", "time": "11:00am"}, {"days": "Sat", "time": "10:00am"}, {"days": "Sun", "time": "Closed"}], "id": "2757700024", "name": "USPS COLLECTION BOX - BLUE BOX", "address": {"city": "SMITHFIELD", "state": "NC", "street": "101 W SANDERS ST", "postcode": "27577"}}},
{"geometry": {"type": "Point", "coordinates": [-78.366440007, 35.530237396]}, "type": "Feature", "properties": {"collection_times": [{"days": "Mon-Fri", "time": "10:30am"}, {"days": "Sat", "time": "10:00am"}, {"days": "Sun", "time": "Closed"}], "id": "2757700025", "name": "USPS COLLECTION BOX - BLUE BOX", "address": {"city": "SMITHFIELD", "state": "NC", "street": "1500 W MARKET ST", "postcode": "27577"}}},
{"geometry": {"type": "Point", "coordinates": [-78.351128822, 35.501222264]}, "type": "Feature", "properties": {"collection_times": [{"days": "Mon-Sat", "time": "10:00am"}, {"days": "Sun", "time": "Closed"}], "id": "2757700027", "name": "USPS COLLECTION BOX - BLUE BOX", "address": {"city": "SMITHFIELD", "state": "NC", "street": "1025 OUTLET CENTER DR", "postcode": "27577"}}},
{"geometry": {"type": "Point", "coordinates": [-78.345106968, 35.512697655]}, "type": "Feature", "properties": {"collection_times": [{"days": "Mon-Fri", "time": "5:00pm"}, {"days": "Sat", "time": "1:00pm"}, {"days": "Sun", "time": "Closed"}], "id": "2757700028", "name": "USPS COLLECTION BOX - PO LOBBY", "address": {"city": "SMITHFIELD", "state": "NC", "street": "201 N 3RD ST", "postcode": "27577"}}},
{"geometry": {"type": "Point", "coordinates": [-78.345106968, 35.512697655]}, "type": "Feature", "properties": {"collection_times": [{"days": "Mon-Fri", "time": "5:00pm"}, {"days": "Sat", "time": "1:00pm"}, {"days": "Sun", "time": "Closed"}], "id": "2757700030", "name": "USPS COLLECTION BOX - PO LOBBY", "address": {"city": "SMITHFIELD", "state": "NC", "street": "201 N 3RD ST", "postcode": "27577"}}},
{"geometry": {"type": "Point", "coordinates": [-78.348027169, 35.510554532]}, "type": "Feature", "properties": {"collection_times": [{"days": "Mon-Fri", "time": "3:30pm"}, {"days": "Sat", "time": "10:00am"}, {"days": "Sun", "time": "Closed"}], "id": "2757700031", "name": "USPS COLLECTION BOX - BLUE BOX", "address": {"city": "SMITHFIELD", "state": "NC", "street": "207 E JOHNSTON ST", "postcode": "27577"}}},
{"geometry": {"type": "Point", "coordinates": [-78.311152958, 35.519902873]}, "type": "Feature", "properties": {"collection_times": [{"days": "Mon-Fri", "time": "11:00am"}, {"days": "Sat", "time": "10:00am"}, {"days": "Sun", "time": "Closed"}], "id": "2757700032", "name": "USPS COLLECTION BOX - BLUE BOX", "address": {"city": "SMITHFIELD", "state": "NC", "street": "1299 N BRIGHTLEAF BLVD", "postcode": "27577"}}},
{"geometry": {"type": "Point", "coordinates": [-78.333243135, 35.513253608]}, "type": "Feature", "properties": {"collection_times": [{"days": "Mon-Sat", "time": "9:00am"}, {"days": "Sun", "time": "Closed"}], "id": "2757700035", "name": "USPS COLLECTION BOX - BLUE BOX", "address": {"city": "SMITHFIELD", "state": "NC", "street": "514 N BRIGHTLEAF BLVD", "postcode": "27577"}}},
{"geometry": {"type": "Point", "coordinates": [-78.7220281, 36.200500369]}, "type": "Feature", "properties": {"collection_times": [{"days": "Mon-Fri", "time": "4:00pm"}, {"days": "Sat", "time": "10:30am"}, {"days": "Sun", "time": "Closed"}], "id": "2758100001", "name": "USPS COLLECTION BOX - PO LOBBY", "address": {"city": "STEM", "state": "NC", "street": "104 E TALLY HO RD", "postcode": "27581"}}},
{"geometry": {"type": "Point", "coordinates": [-78.7220281, 36.200500369]}, "type": "Feature", "properties": {"collection_times": [{"days": "Mon-Fri", "time": "4:00pm"}, {"days": "Sat", "time": "10:30am"}, {"days": "Sun", "time": "Closed"}], "id": "2758100002", "name": "USPS COLLECTION BOX - BLUE BOX", "address": {"city": "STEM", "state": "NC", "street": "104 E TALLY HO RD", "postcode": "27581"}}},
{"geometry": {"type": "Point", "coordinates": [-78.569015342, 36.447514766]}, "type": "Feature", "properties": {"collection_times": [{"days": "Mon-Fri", "time": "4:15pm"}, {"days": "Sat", "time": "11:15am"}, {"days": "Sun", "time": "Closed"}], "id": "2758200001", "name": "USPS COLLECTION BOX - BLUE BOX", "address": {"city": "STOVALL", "state": "NC", "street": "102 MAIN ST", "postcode": "27582"}}},
{"geometry": {"type": "Point", "coordinates": [-78.569015342, 36.447514766]}, "type": "Feature", "properties": {"collection_times": [{"days": "Mon-Fri", "time": "4:15pm"}, {"days": "Sat", "time": "11:15am"}, {"days": "Sun", "time": "Closed"}], "id": "2758200002", "name": "USPS COLLECTION BOX - PO LOBBY", "address": {"city": "STOVALL", "state": "NC", "street": "102 MAIN ST", "postcode": "27582"}}},
{"geometry": {"type": "Point", "coordinates": [-78.949269647, 36.28663057]}, "type": "Feature", "properties": {"collection_times": [{"days": "Mon-Fri", "time": "4:00pm"}, {"days": "Sat", "time": "10:00am"}, {"days": "Sun", "time": "Closed"}], "id": "2758300001", "name": "USPS COLLECTION BOX - BLUE BOX", "address": {"city": "TIMBERLAKE", "state": "NC", "street": "545 HELENA MORIAH RD", "postcode": "27583"}}},
{"geometry": {"type": "Point", "coordinates": [-78.949269647, 36.28663057]}, "type": "Feature", "properties": {"collection_times": [{"days": "Mon-Fri", "time": "4:00pm"}, {"days": "Sat", "time": "10:00am"}, {"days": "Sun", "time": "Closed"}], "id": "2758300002", "name": "USPS COLLECTION BOX - PO LOBBY", "address": {"city": "TIMBERLAKE", "state": "NC", "street": "545 HELENA MORIAH RD", "postcode": "27583"}}},
{"geometry": {"type": "Point", "coordinates": [-78.949269647, 36.28663057]}, "type": "Feature", "properties": {"collection_times": [{"days": "Mon-Fri", "time": "4:00pm"}, {"days": "Sat", "time": "10:00am"}, {"days": "Sun", "time": "Closed"}], "id": "2758300004", "name": "USPS COLLECTION BOX - PO LOBBY", "address": {"city": "TIMBERLAKE", "state": "NC", "street": "545 HELENA MORIAH RD", "postcode": "27583"}}},
{"geometry": {"type": "Point", "coordinates": [-78.457598833, 36.532670055]}, "type": "Feature", "properties": {"collection_times": [{"days": "Mon-Fri", "time": "4:30pm"}, {"days": "Sat", "time": "10:30am"}, {"days": "Sun", "time": "Closed"}], "id": "2758400001", "name": "USPS COLLECTION BOX - PO LOBBY", "address": {"city": "TOWNSVILLE", "state": "NC", "street": "12525 NC HIGHWAY 39 N", "postcode": "27584"}}},
{"geometry": {"type": "Point", "coordinates": [-78.457598833, 36.532670055]}, "type": "Feature", "properties": {"collection_times": [{"days": "Mon-Fri", "time": "4:30pm"}, {"days": "Sat", "time": "10:30am"}, {"days": "Sun", "time": "Closed"}], "id": "2758400002", "name": "USPS COLLECTION BOX - BLUE BOX", "address": {"city": "TOWNSVILLE", "state": "NC", "street": "12525 NC HIGHWAY 39 N", "postcode": "27584"}}},
{"geometry": {"type": "Point", "coordinates": [-78.512081748, 35.971345076]}, "type": "Feature", "properties": {"collection_times": [{"days": "Mon-Fri", "time": "5:00pm"}, {"days": "Sat", "time": "3:00pm"}, {"days": "Sun", "time": "Closed"}], "id": "2758700002", "name": "USPS COLLECTION BOX - PO LOBBY", "address": {"city": "WAKE FOREST", "state": "NC", "street": "224 E HOLDING AVE", "postcode": "27587"}}},
{"geometry": {"type": "Point", "coordinates": [-78.512081748, 35.971345076]}, "type": "Feature", "properties": {"collection_times": [{"days": "Mon-Fri", "time": "5:00pm"}, {"days": "Sat", "time": "3:00pm"}, {"days": "Sun", "time": "Closed"}], "id": "2758700004", "name": "USPS COLLECTION BOX - BLUE BOX", "address": {"city": "WAKE FOREST", "state": "NC", "street": "224 E HOLDING AVE", "postcode": "27587"}}},
{"geometry": {"type": "Point", "coordinates": [-78.512081748, 35.971345076]}, "type": "Feature", "properties": {"collection_times": [{"days": "Mon-Fri", "time": "5:00pm"}, {"days": "Sat", "time": "3:00pm"}, {"days": "Sun", "time": "Closed"}], "id": "2758700005", "name": "USPS COLLECTION BOX - BLUE BOX", "address": {"city": "WAKE FOREST", "state": "NC", "street": "224 E HOLDING AVE", "postcode": "27587"}}},
{"geometry": {"type": "Point", "coordinates": [-78.538883541, 35.982019934]}, "type": "Feature", "properties": {"collection_times": [{"days": "Mon-Fri", "time": "3:00pm"}, {"days": "Sat", "time": "12:30pm"}, {"days": "Sun", "time": "Closed"}], "id": "2758700009", "name": "USPS COLLECTION BOX - BLUE BOX", "address": {"city": "WAKE FOREST", "state": "NC", "street": "12263 CAPITAL BLVD", "postcode": "27587"}}},
{"geometry": {"type": "Point", "coordinates": [-78.536386345, 35.979543346]}, "type": "Feature", "properties": {"collection_times": [{"days": "Mon-Fri", "time": "3:00pm"}, {"days": "Sat", "time": "12:30pm"}, {"days": "Sun", "time": "Closed"}], "id": "2758700011", "name": "USPS COLLECTION BOX - BLUE BOX", "address": {"city": "WAKE FOREST", "state": "NC", "street": "833 DURHAM RD", "postcode": "27587"}}},
{"geometry": {"type": "Point", "coordinates": [-78.531922401, 35.949395997]}, "type": "Feature", "properties": {"collection_times": [{"days": "Mon-Sat", "time": "11:00am"}, {"days": "Sun", "time": "Closed"}], "id": "2758700014", "name": "USPS COLLECTION BOX - BLUE BOX", "address": {"city": "WAKE FOREST", "state": "NC", "street": "2004 S MAIN ST", "postcode": "27587"}}},
{"geometry": {"type": "Point", "coordinates": [-78.509970808, 35.976989529]}, "type": "Feature", "properties": {"collection_times": [{"days": "Mon-Fri", "time": "3:00pm"}, {"days": "Sat", "time": "12:30pm"}, {"days": "Sun", "time": "Closed"}], "id": "2758700017", "name": "USPS COLLECTION BOX - BLUE BOX", "address": {"city": "WAKE FOREST", "state": "NC", "street": "200 E OWEN AVE", "postcode": "27587"}}},
{"geometry": {"type": "Point", "coordinates": [-78.542038439, 35.958275821]}, "type": "Feature", "properties": {"collection_times": [{"days": "Mon-Sat", "time": "11:00am"}, {"days": "Sun", "time": "Closed"}], "id": "2758700020", "name": "USPS COLLECTION BOX - BLUE BOX", "address": {"city": "WAKE FOREST", "state": "NC", "street": "11635 CAPITAL BLVD", "postcode": "27587"}}},
{"geometry": {"type": "Point", "coordinates": [-78.512081748, 35.971345076]}, "type": "Feature", "properties": {"collection_times": [{"days": "Mon-Fri", "time": "5:00pm"}, {"days": "Sat", "time": "3:00pm"}, {"days": "Sun", "time": "Closed"}], "id": "2758700022", "name": "USPS COLLECTION BOX - APC", "address": {"city": "WAKE FOREST", "state": "NC", "street": "224 E HOLDING AVE", "postcode": "27587"}}},
{"geometry": {"type": "Point", "coordinates": [-78.155522257, 36.397651638]}, "type": "Feature", "properties": {"collection_times": [{"days": "Mon-Fri", "time": "11:15am"}, {"days": "Sat-Sun", "time": "Closed"}], "id": "2758900001", "name": "USPS COLLECTION BOX - BLUE BOX", "address": {"city": "WARRENTON", "state": "NC", "street": "123 S MAIN ST", "postcode": "27589"}}},
{"geometry": {"type": "Point", "coordinates": [-78.154681917, 36.400011817]}, "type": "Feature", "properties": {"collection_times": [{"days": "Mon-Fri", "time": "4:30pm"}, {"days": "Sat", "time": "2:00pm"}, {"days": "Sun", "time": "Closed"}], "id": "2758900002", "name": "USPS COLLECTION BOX - BLUE BOX", "address": {"city": "WARRENTON", "state": "NC", "street": "143 N MAIN ST", "postcode": "27589"}}},
{"geometry": {"type": "Point", "coordinates": [-78.163455304, 36.405994716]}, "type": "Feature", "properties": {"collection_times": [{"days": "Mon-Fri", "time": "9:00am"}, {"days": "Sat-Sun", "time": "Closed"}], "id": "2758900005", "name": "USPS COLLECTION BOX - BLUE BOX", "address": {"city": "WARRENTON", "state": "NC", "street": "542 W RIDGEWAY ST", "postcode": "27589"}}},
{"geometry": {"type": "Point", "coordinates": [-78.154681917, 36.400011817]}, "type": "Feature", "properties": {"collection_times": [{"days": "Mon-Fri", "time": "4:30pm"}, {"days": "Sat", "time": "2:00pm"}, {"days": "Sun", "time": "Closed"}], "id": "2758900009", "name": "USPS COLLECTION BOX - PO LOBBY", "address": {"city": "WARRENTON", "state": "NC", "street": "143 N MAIN ST", "postcode": "27589"}}},
{"geometry": {"type": "Point", "coordinates": [-78.376058527, 35.792647491]}, "type": "Feature", "properties": {"collection_times": [{"days": "Mon-Fri", "time": "4:30pm"}, {"days": "Sat", "time": "9:00am"}, {"days": "Sun", "time": "Closed"}], "id": "2759100001", "name": "USPS COLLECTION BOX - BLUE BOX", "address": {"city": "WENDELL", "state": "NC", "street": "40 HANOR LN", "postcode": "27591"}}},
{"geometry": {"type": "Point", "coordinates": [-78.376058527, 35.792647491]}, "type": "Feature", "properties": {"collection_times": [{"days": "Mon-Fri", "time": "4:30pm"}, {"days": "Sat", "time": "9:00am"}, {"days": "Sun", "time": "Closed"}], "id": "2759100005", "name": "USPS COLLECTION BOX - PO LOBBY", "address": {"city": "WENDELL", "state": "NC", "street": "40 HANOR LN", "postcode": "27591"}}},
{"geometry": {"type": "Point", "coordinates": [-78.369796186, 35.781749876]}, "type": "Feature", "properties": {"collection_times": [{"days": "Mon-Fri", "time": "12:00pm"}, {"days": "Sat-Sun", "time": "Closed"}], "id": "2759100006", "name": "USPS COLLECTION BOX - BLUE BOX", "address": {"city": "WENDELL", "state": "NC", "street": "32 N MAIN ST", "postcode": "27591"}}},
{"geometry": {"type": "Point", "coordinates": [-78.727295087, 35.593884308]}, "type": "Feature", "properties": {"collection_times": [{"days": "Mon-Fri", "time": "4:30pm"}, {"days": "Sat", "time": "12:00pm"}, {"days": "Sun", "time": "Closed"}], "id": "2759200001", "name": "USPS COLLECTION BOX - PO LOBBY", "address": {"city": "WILLOW SPRING", "state": "NC", "street": "6805 DWIGHT ROWLAND RD", "postcode": "27592"}}},
{"geometry": {"type": "Point", "coordinates": [-78.727295087, 35.593884308]}, "type": "Feature", "properties": {"collection_times": [{"days": "Mon-Fri", "time": "4:30pm"}, {"days": "Sat", "time": "12:00pm"}, {"days": "Sun", "time": "Closed"}], "id": "2759200002", "name": "USPS COLLECTION BOX - BLUE BOX", "address": {"city": "WILLOW SPRING", "state": "NC", "street": "6805 DWIGHT ROWLAND RD", "postcode": "27592"}}},
{"geometry": {"type": "Point", "coordinates": [-78.3565325, 35.583280044]}, "type": "Feature", "properties": {"collection_times": [{"days": "Mon-Fri", "time": "4:15pm"}, {"days": "Sat", "time": "11:00am"}, {"days": "Sun", "time": "Closed"}], "id": "2759300001", "name": "USPS COLLECTION BOX - PO LOBBY", "address": {"city": "WILSONS MILLS", "state": "NC", "street": "71 FIRE DEPARTMENT RD", "postcode": "27593"}}},
{"geometry": {"type": "Point", "coordinates": [-78.3565325, 35.583280044]}, "type": "Feature", "properties": {"collection_times": [{"days": "Mon-Fri", "time": "4:15pm"}, {"days": "Sat", "time": "11:00am"}, {"days": "Sun", "time": "Closed"}], "id": "2759300002", "name": "USPS COLLECTION BOX - BLUE BOX", "address": {"city": "WILSONS MILLS", "state": "NC", "street": "71 FIRE DEPARTMENT RD", "postcode": "27593"}}},
{"geometry": {"type": "Point", "coordinates": [-78.171097869, 36.486300158]}, "type": "Feature", "properties": {"collection_times": [{"days": "Mon-Fri", "time": "4:30pm"}, {"days": "Sat", "time": "11:15am"}, {"days": "Sun", "time": "Closed"}], "id": "2759400001", "name": "USPS COLLECTION BOX - BLUE BOX", "address": {"city": "WISE", "state": "NC", "street": "1728 US 1 HWY N", "postcode": "27594"}}},
{"geometry": {"type": "Point", "coordinates": [-78.171097869, 36.486300158]}, "type": "Feature", "properties": {"collection_times": [{"days": "Mon-Fri", "time": "4:30pm"}, {"days": "Sat", "time": "11:15am"}, {"days": "Sun", "time": "Closed"}], "id": "2759400002", "name": "USPS COLLECTION BOX - PO LOBBY", "address": {"city": "WISE", "state": "NC", "street": "1728 US 1 HWY N", "postcode": "27594"}}},
{"geometry": {"type": "Point", "coordinates": [-78.484159111, 36.036533568]}, "type": "Feature", "properties": {"collection_times": [{"days": "Mon-Fri", "time": "11:00am"}, {"days": "Sat-Sun", "time": "Closed"}], "id": "2759600002", "name": "USPS COLLECTION BOX - BLUE BOX", "address": {"city": "YOUNGSVILLE", "state": "NC", "street": "105 WHEATON AVE", "postcode": "27596"}}},
{"geometry": {"type": "Point", "coordinates": [-78.475739079, 36.023301175]}, "type": "Feature", "properties": {"collection_times": [{"days": "Mon-Fri", "time": "4:30pm"}, {"days": "Sat", "time": "11:30am"}, {"days": "Sun", "time": "Closed"}], "id": "2759600004", "name": "USPS COLLECTION BOX - BLUE BOX", "address": {"city": "YOUNGSVILLE", "state": "NC", "street": "112 E PERSIMMON ST", "postcode": "27596"}}},
{"geometry": {"type": "Point", "coordinates": [-78.475739079, 36.023301175]}, "type": "Feature", "properties": {"collection_times": [{"days": "Mon-Fri", "time": "4:30pm"}, {"days": "Sat", "time": "11:30am"}, {"days": "Sun", "time": "Closed"}], "id": "2759600005", "name": "USPS COLLECTION BOX - PO LOBBY", "address": {"city": "YOUNGSVILLE", "state": "NC", "street": "112 E PERSIMMON ST", "postcode": "27596"}}},
{"geometry": {"type": "Point", "coordinates": [-78.488266671, 36.039174866]}, "type": "Feature", "properties": {"collection_times": [{"days": "Mon-Fri", "time": "9:00am"}, {"days": "Sat-Sun", "time": "Closed"}], "id": "2759600006", "name": "USPS COLLECTION BOX - BLUE BOX", "address": {"city": "YOUNGSVILLE", "state": "NC", "street": "418 HAMPTON LN", "postcode": "27596"}}},
{"geometry": {"type": "Point", "coordinates": [-78.311021324, 35.822016274]}, "type": "Feature", "properties": {"collection_times": [{"days": "Mon-Fri", "time": "4:30pm"}, {"days": "Sat", "time": "3:00pm"}, {"days": "Sun", "time": "Closed"}], "id": "2759700002", "name": "USPS COLLECTION BOX - BLUE BOX", "address": {"city": "ZEBULON", "state": "NC", "street": "139 E VANCE ST", "postcode": "27597"}}},
{"geometry": {"type": "Point", "coordinates": [-78.313263785, 35.822307654]}, "type": "Feature", "properties": {"collection_times": [{"days": "Mon-Sat", "time": "1:00pm"}, {"days": "Sun", "time": "Closed"}], "id": "2759700004", "name": "USPS COLLECTION BOX - BLUE BOX", "address": {"city": "ZEBULON", "state": "NC", "street": "200 N ARENDELL AVE", "postcode": "27597"}}},
{"geometry": {"type": "Point", "coordinates": [-78.317070375, 35.833123684]}, "type": "Feature", "properties": {"collection_times": [{"days": "Mon-Sat", "time": "1:00pm"}, {"days": "Sun", "time": "Closed"}], "id": "2759700005", "name": "USPS COLLECTION BOX - BLUE BOX", "address": {"city": "ZEBULON", "state": "NC", "street": "164 WAKELON ST", "postcode": "27597"}}},
{"geometry": {"type": "Point", "coordinates": [-78.325278617, 35.820565212]}, "type": "Feature", "properties": {"collection_times": [{"days": "Mon-Sat", "time": "1:00pm"}, {"days": "Sun", "time": "Closed"}], "id": "2759700006", "name": "USPS COLLECTION BOX - BLUE BOX", "address": {"city": "ZEBULON", "state": "NC", "street": "540 W GANNON AVE", "postcode": "27597"}}},
{"geometry": {"type": "Point", "coordinates": [-78.311021324, 35.822016274]}, "type": "Feature", "properties": {"collection_times": [{"days": "Mon-Fri", "time": "4:30pm"}, {"days": "Sat", "time": "10:00am"}, {"days": "Sun", "time": "Closed"}], "id": "2759700009", "name": "USPS COLLECTION BOX - PO LOBBY", "address": {"city": "ZEBULON", "state": "NC", "street": "139 E VANCE ST", "postcode": "27597"}}}
]}
