{"type": "FeatureCollection", "features": [
{"geometry": {"type": "Point", "coordinates": [-78.643771565, 35.777052829]}, "type": "Feature", "properties": {"collection_times": [{"days": "Mon-Fri", "time": "3:00pm"}, {"days": "Sat", "time": "10:00am"}, {"days": "Sun", "time": "Closed"}], "id": "2760100008", "name": "USPS COLLECTION BOX - BLUE BOX", "address": {"city": "RALEIGH", "state": "NC", "street": "301 W MARTIN ST", "postcode": "27601"}}},
{"geometry": {"type": "Point", "coordinates": [-78.639335492, 35.781229637]}, "type": "Feature", "properties": {"collection_times": [{"days": "Mon-Fri", "time": "1:00pm"}, {"days": "Sat", "time": "10:00am"}, {"days": "Sun", "time": "Closed"}], "id": "2760100013", "name": "USPS COLLECTION BOX - BLUE BOX", "address": {"city": "RALEIGH", "state": "NC", "street": "16 W EDENTON ST.", "postcode": "27601"}}},
{"geometry": {"type": "Point", "coordinates": [-78.638347233, 35.77457027]}, "type": "Feature", "properties": {"collection_times": [{"days": "Mon-Fri", "time": "3:00pm"}, {"days": "Sat", "time": "10:00am"}, {"days": "Sun", "time": "Closed"}], "id": "2760100032", "name": "USPS COLLECTION BOX - BLUE BOX", "address": {"city": "RALEIGH", "state": "NC", "street": "429 S WILMINGTON ST", "postcode": "27601"}}},
{"geometry": {"type": "Point", "coordinates": [-78.641551249, 35.778312756]}, "type": "Feature", "properties": {"collection_times": [{"days": "Mon-Fri", "time": "3:00pm"}, {"days": "Sat", "time": "10:00am"}, {"days": "Sun", "time": "Closed"}], "id": "2760100037", "name": "USPS COLLECTION BOX - BLUE BOX", "address": {"city": "RALEIGH", "state": "NC", "street": "127 W HARGETT ST", "postcode": "27601"}}},
{"geometry": {"type": "Point", "coordinates": [-78.638933165, 35.778283702]}, "type": "Feature", "properties": {"collection_times": [{"days": "Mon-Fri", "time": "3:00pm"}, {"days": "Sat", "time": "10:00am"}, {"days": "Sun", "time": "Closed"}], "id": "2760100038", "name": "USPS COLLECTION BOX - BLUE BOX", "address": {"city": "RALEIGH", "state": "NC", "street": "23 HARGETT ST", "postcode": "27601"}}},
{"geometry": {"type": "Point", "coordinates": [-78.634385482, 35.783695024]}, "type": "Feature", "properties": {"collection_times": [{"days": "Mon-Fri", "time": "3:00pm"}, {"days": "Sat", "time": "10:00am"}, {"days": "Sun", "time": "Closed"}], "id": "2760100049", "name": "USPS COLLECTION BOX - BLUE BOX", "address": {"city": "RALEIGH", "state": "NC", "street": "310 E LANE ST", "postcode": "27601"}}},
{"geometry": {"type": "Point", "coordinates": [-78.638414504, 35.783825776]}, "type": "Feature", "properties": {"collection_times": [{"days": "Mon-Fri", "time": "4:00pm"}, {"days": "Sat", "time": "10:00am"}, {"days": "Sun", "time": "Closed"}], "id": "2760100053", "name": "USPS COLLECTION BOX - BLUE BOX", "address": {"city": "RALEIGH", "state": "NC", "street": "50 W LANE ST.", "postcode": "27601"}}},
{"geometry": {"type": "Point", "coordinates": [-78.636417132, 35.780637969]}, "type": "Feature", "properties": {"collection_times": [{"days": "Mon-Fri", "time": "4:00pm"}, {"days": "Sat", "time": "10:00am"}, {"days": "Sun", "time": "Closed"}], "id": "2760100065", "name": "USPS COLLECTION BOX - BLUE BOX", "address": {"city": "RALEIGH", "state": "NC", "street": "4 N BLOUNT ST", "postcode": "27601"}}},
{"geometry": {"type": "Point", "coordinates": [-78.634728315, 35.780243444]}, "type": "Feature", "properties": {"collection_times": [{"days": "Mon-Fri", "time": "5:00pm"}, {"days": "Sat", "time": "10:00am"}, {"days": "Sun", "time": "Closed"}], "id": "2760100088", "name": "USPS COLLECTION BOX - BLUE BOX", "address": {"city": "RALEIGH", "state": "NC", "street": "311 NEW BERN AVE", "postcode": "27601"}}},
{"geometry": {"type": "Point", "coordinates": [-78.634728315, 35.780243444]}, "type": "Feature", "properties": {"collection_times": [{"days": "Mon-Fri", "time": "5:00pm"}, {"days": "Sat", "time": "10:00am"}, {"days": "Sun", "time": "Closed"}], "id": "2760100089", "name": "USPS COLLECTION BOX - BLUE BOX", "address": {"city": "RALEIGH", "state": "NC", "street": "311 NEW BERN AVE", "postcode": "27601"}}},
{"geometry": {"type": "Point", "coordinates": [-78.634728315, 35.780243444]}, "type": "Feature", "properties": {"collection_times": [{"days": "Mon-Fri", "time": "5:00pm"}, {"days": "Sat", "time": "10:00am"}, {"days": "Sun", "time": "Closed"}], "id": "2760100090", "name": "USPS COLLECTION BOX - BLUE BOX", "address": {"city": "RALEIGH", "state": "NC", "street": "311 NEW BERN AVE", "postcode": "27601"}}},
{"geometry": {"type": "Point", "coordinates": [-78.634728315, 35.780243444]}, "type": "Feature", "properties": {"collection_times": [{"days": "Mon-Fri", "time": "5:00pm"}, {"days": "Sat", "time": "10:00am"}, {"days": "Sun", "time": "Closed"}], "id": "2760100093", "name": "USPS COLLECTION BOX - BLUE BOX", "address": {"city": "RALEIGH", "state": "NC", "street": "311 NEW BERN AVE", "postcode": "27601"}}},
{"geometry": {"type": "Point", "coordinates": [-78.639334429, 35.776702007]}, "type": "Feature", "properties": {"collection_times": [{"days": "Mon-Fri", "time": "3:00pm"}, {"days": "Sat", "time": "10:00am"}, {"days": "Sun", "time": "Closed"}], "id": "2760100095", "name": "USPS COLLECTION BOX - BLUE BOX", "address": {"city": "RALEIGH", "state": "NC", "street": "300 FAYETTEVILLE ST", "postcode": "27601"}}},
{"geometry": {"type": "Point", "coordinates": [-78.634728315, 35.780243444]}, "type": "Feature", "properties": {"collection_times": [{"days": "Mon-Fri", "time": "5:00pm"}, {"days": "Sat-Sun", "time": "Closed"}], "id": "2760100096", "name": "USPS COLLECTION BOX - PO LOBBY", "address": {"city": "RALEIGH", "state": "NC", "street": "311 NEW BERN AVE", "postcode": "27601"}}},
{"geometry": {"type": "Point", "coordinates": [-78.639326554, 35.776831035]}, "type": "Feature", "properties": {"collection_times": [{"days": "Mon-Fri", "time": "4:00pm"}, {"days": "Sat-Sun", "time": "Closed"}], "id": "2760200002", "name": "USPS COLLECTION BOX - PO LOBBY", "address": {"city": "RALEIGH", "state": "NC", "street": "300 FAYETTEVILLE ST", "postcode": "27602"}}},
{"geometry": {"type": "Point", "coordinates": [-78.66657433, 35.77306715]}, "type": "Feature", "properties": {"collection_times": [{"days": "Mon-Fri", "time": "12:00pm"}, {"days": "Sat", "time": "10:00am"}, {"days": "Sun", "time": "Closed"}], "id": "2760300000", "name": "USPS COLLECTION BOX - BLUE BOX", "address": {"city": "RALEIGH", "state": "NC", "street": "701 BARBOUR DR", "postcode": "27603"}}},
{"geometry": {"type": "Point", "coordinates": [-78.650120155, 35.776882663]}, "type": "Feature", "properties": {"collection_times": [{"days": "Mon-Fri", "time": "11:30am"}, {"days": "Sat", "time": "10:00am"}, {"days": "Sun", "time": "Closed"}], "id": "2760300002", "name": "USPS COLLECTION BOX - BLUE BOX", "address": {"city": "RALEIGH", "state": "NC", "street": "236 S BOYLAN AVE", "postcode": "27603"}}},
{"geometry": {"type": "Point", "coordinates": [-78.650637427, 35.74922008]}, "type": "Feature", "properties": {"collection_times": [{"days": "Mon-Sat", "time": "10:00am"}, {"days": "Sun", "time": "Closed"}], "id": "2760300004", "name": "USPS COLLECTION BOX - BLUE BOX", "address": {"city": "RALEIGH", "state": "NC", "street": "400 CAROLINA PINES AVE", "postcode": "27603"}}},
{"geometry": {"type": "Point", "coordinates": [-78.663144887, 35.761424048]}, "type": "Feature", "properties": {"collection_times": [{"days": "Mon-Fri", "time": "2:00pm"}, {"days": "Sat", "time": "10:00am"}, {"days": "Sun", "time": "Closed"}], "id": "2760300005", "name": "USPS COLLECTION BOX - BLUE BOX", "address": {"city": "RALEIGH", "state": "NC", "street": "1200 FARMERS MARKET DR", "postcode": "27603"}}},
{"geometry": {"type": "Point", "coordinates": [-78.642761059, 35.780502769]}, "type": "Feature", "properties": {"collection_times": [{"days": "Mon-Fri", "time": "2:00pm"}, {"days": "Sat", "time": "10:00am"}, {"days": "Sun", "time": "Closed"}], "id": "2760300007", "name": "USPS COLLECTION BOX - BLUE BOX", "address": {"city": "RALEIGH", "state": "NC", "street": "225 HILLSBOROUGH ST", "postcode": "27603"}}},
{"geometry": {"type": "Point", "coordinates": [-78.646825229, 35.735717649]}, "type": "Feature", "properties": {"collection_times": [{"days": "Mon-Fri", "time": "2:00pm"}, {"days": "Sat", "time": "10:00am"}, {"days": "Sun", "time": "Closed"}], "id": "2760300009", "name": "USPS COLLECTION BOX - BLUE BOX", "address": {"city": "RALEIGH", "state": "NC", "street": "322 CHAPANOKE RD", "postcode": "27603"}}},
{"geometry": {"type": "Point", "coordinates": [-78.64245751, 35.78270811]}, "type": "Feature", "properties": {"collection_times": [{"days": "Mon-Fri", "time": "4:00pm"}, {"days": "Sat", "time": "10:00am"}, {"days": "Sun", "time": "Closed"}], "id": "2760300011", "name": "USPS COLLECTION BOX - BLUE BOX", "address": {"city": "RALEIGH", "state": "NC", "street": "216 W JONES ST", "postcode": "27603"}}},
{"geometry": {"type": "Point", "coordinates": [-78.662969857, 35.752033354]}, "type": "Feature", "properties": {"collection_times": [{"days": "Mon-Fri", "time": "4:00pm"}, {"days": "Sat", "time": "10:00am"}, {"days": "Sun", "time": "Closed"}], "id": "2760300013", "name": "USPS COLLECTION BOX - BLUE BOX", "address": {"city": "RALEIGH", "state": "NC", "street": "2001 MAIL SERVICE CTR", "postcode": "27603"}}},
{"geometry": {"type": "Point", "coordinates": [-78.707330888, 35.650288502]}, "type": "Feature", "properties": {"collection_times": [{"days": "Mon-Fri", "time": "1:00pm"}, {"days": "Sat", "time": "10:00am"}, {"days": "Sun", "time": "Closed"}], "id": "2760300014", "name": "USPS COLLECTION BOX - BLUE BOX", "address": {"city": "RALEIGH", "state": "NC", "street": "9101 FAYETTEVILLE RD", "postcode": "27603"}}},
{"geometry": {"type": "Point", "coordinates": [-78.653273177, 35.724917527]}, "type": "Feature", "properties": {"collection_times": [{"days": "Mon-Fri", "time": "12:00pm"}, {"days": "Sat", "time": "10:00am"}, {"days": "Sun", "time": "Closed"}], "id": "2760300015", "name": "USPS COLLECTION BOX - BLUE BOX", "address": {"city": "RALEIGH", "state": "NC", "street": "1450 GARNER STATION BLVD", "postcode": "27603"}}},
{"geometry": {"type": "Point", "coordinates": [-78.644681837, 35.7805727]}, "type": "Feature", "properties": {"collection_times": [{"days": "Mon-Fri", "time": "2:00pm"}, {"days": "Sat", "time": "10:00am"}, {"days": "Sun", "time": "Closed"}], "id": "2760300016", "name": "USPS COLLECTION BOX - BLUE BOX", "address": {"city": "RALEIGH", "state": "NC", "street": "327 HILLSBOROUGH ST", "postcode": "27603"}}},
{"geometry": {"type": "Point", "coordinates": [-78.64454533, 35.786028273]}, "type": "Feature", "properties": {"collection_times": [{"days": "Mon-Fri", "time": "2:00pm"}, {"days": "Sat", "time": "10:00am"}, {"days": "Sun", "time": "Closed"}], "id": "2760300017", "name": "USPS COLLECTION BOX - BLUE BOX", "address": {"city": "RALEIGH", "state": "NC", "street": "441 N HARRINGTON ST", "postcode": "27603"}}},
{"geometry": {"type": "Point", "coordinates": [-78.639174913, 35.782577238]}, "type": "Feature", "properties": {"collection_times": [{"days": "Mon-Fri", "time": "4:00pm"}, {"days": "Sat", "time": "10:00am"}, {"days": "Sun", "time": "Closed"}], "id": "2760300020", "name": "USPS COLLECTION BOX - BLUE BOX", "address": {"city": "RALEIGH", "state": "NC", "street": "16 W JONES ST", "postcode": "27603"}}},
{"geometry": {"type": "Point", "coordinates": [-78.678978439, 35.744194478]}, "type": "Feature", "properties": {"collection_times": [{"days": "Mon-Fri", "time": "3:00pm"}, {"days": "Sat", "time": "10:00am"}, {"days": "Sun", "time": "Closed"}], "id": "2760300022", "name": "USPS COLLECTION BOX - BLUE BOX", "address": {"city": "RALEIGH", "state": "NC", "street": "2720 LAKE WHEELER RD", "postcode": "27603"}}},
{"geometry": {"type": "Point", "coordinates": [-78.656647069, 35.761207579]}, "type": "Feature", "properties": {"collection_times": [{"days": "Mon-Fri", "time": "2:00pm"}, {"days": "Sat", "time": "10:00am"}, {"days": "Sun", "time": "Closed"}], "id": "2760300023", "name": "USPS COLLECTION BOX - BLUE BOX", "address": {"city": "RALEIGH", "state": "NC", "street": "628 MAYWOOD AVE", "postcode": "27603"}}},
{"geometry": {"type": "Point", "coordinates": [-78.649007083, 35.758551358]}, "type": "Feature", "properties": {"collection_times": [{"days": "Mon-Fri", "time": "2:00pm"}, {"days": "Sat", "time": "10:00am"}, {"days": "Sun", "time": "Closed"}], "id": "2760300028", "name": "USPS COLLECTION BOX - BLUE BOX", "address": {"city": "RALEIGH", "state": "NC", "street": "1637 S SAUNDERS ST", "postcode": "27603"}}},
{"geometry": {"type": "Point", "coordinates": [-78.64948904, 35.731295527]}, "type": "Feature", "properties": {"collection_times": [{"days": "Mon-Fri", "time": "2:00pm"}, {"days": "Sat", "time": "10:00am"}, {"days": "Sun", "time": "Closed"}], "id": "2760300033", "name": "USPS COLLECTION BOX - BLUE BOX", "address": {"city": "RALEIGH", "state": "NC", "street": "331 TRYON RD", "postcode": "27603"}}},
{"geometry": {"type": "Point", "coordinates": [-78.646547232, 35.774532572]}, "type": "Feature", "properties": {"collection_times": [{"days": "Mon-Fri", "time": "11:30am"}, {"days": "Sat", "time": "10:00am"}, {"days": "Sun", "time": "Closed"}], "id": "2760300036", "name": "USPS COLLECTION BOX - BLUE BOX", "address": {"city": "RALEIGH", "state": "NC", "street": "516 W CABARRUS ST", "postcode": "27603"}}},
{"geometry": {"type": "Point", "coordinates": [-78.608859568, 35.821112996]}, "type": "Feature", "properties": {"collection_times": [{"days": "Mon-Sat", "time": "9:00am"}, {"days": "Sun", "time": "Closed"}], "id": "2760400004", "name": "USPS COLLECTION BOX - BLUE BOX", "address": {"city": "RALEIGH", "state": "NC", "street": "3200 BEECHLEAF CT", "postcode": "27604"}}},
{"geometry": {"type": "Point", "coordinates": [-78.608859568, 35.821112996]}, "type": "Feature", "properties": {"collection_times": [{"days": "Mon-Sat", "time": "9:00am"}, {"days": "Sun", "time": "Closed"}], "id": "2760400005", "name": "USPS COLLECTION BOX - BLUE BOX", "address": {"city": "RALEIGH", "state": "NC", "street": "3200 BEECHLEAF CT", "postcode": "27604"}}},
{"geometry": {"type": "Point", "coordinates": [-78.595141144, 35.81742795]}, "type": "Feature", "properties": {"collection_times": [{"days": "Mon-Fri", "time": "4:00pm"}, {"days": "Sat", "time": "10:00am"}, {"days": "Sun", "time": "Closed"}], "id": "2760400006", "name": "USPS COLLECTION BOX - BLUE BOX", "address": {"city": "RALEIGH", "state": "NC", "street": "2777 BRENTWOOD RD", "postcode": "27604"}}},
{"geometry": {"type": "Point", "coordinates": [-78.595141144, 35.81742795]}, "type": "Feature", "properties": {"collection_times": [{"days": "Mon-Fri", "time": "4:00pm"}, {"days": "Sat", "time": "10:00am"}, {"days": "Sun", "time": "Closed"}], "id": "2760400007", "name": "USPS COLLECTION BOX - BLUE BOX", "address": {"city": "RALEIGH", "state": "NC", "street": "2777 BRENTWOOD RD", "postcode": "27604"}}},
{"geometry": {"type": "Point", "coordinates": [-78.587179673, 35.824197543]}, "type": "Feature", "properties": {"collection_times": [{"days": "Mon-Fri", "time": "11:00am"}, {"days": "Sat", "time": "10:00am"}, {"days": "Sun", "time": "Closed"}], "id": "2760400010", "name": "USPS COLLECTION BOX - BLUE BOX", "address": {"city": "RALEIGH", "state": "NC", "street": "3101 STARMOUNT DR", "postcode": "27604"}}},
{"geometry": {"type": "Point", "coordinates": [-78.580302996, 35.849368121]}, "type": "Feature", "properties": {"collection_times": [{"days": "Mon-Fri", "time": "11:00am"}, {"days": "Sat", "time": "10:00am"}, {"days": "Sun", "time": "Closed"}], "id": "2760400016", "name": "USPS COLLECTION BOX - BLUE BOX", "address": {"city": "RALEIGH", "state": "NC", "street": "4654 CAPITAL BLVD", "postcode": "27604"}}},
{"geometry": {"type": "Point", "coordinates": [-78.579636465, 35.871691315]}, "type": "Feature", "properties": {"collection_times": [{"days": "Mon-Fri", "time": "4:00pm"}, {"days": "Sat", "time": "10:00am"}, {"days": "Sun", "time": "Closed"}], "id": "2760400017", "name": "USPS COLLECTION BOX - BLUE BOX", "address": {"city": "RALEIGH", "state": "NC", "street": "6320 CAPITAL BLVD", "postcode": "27604"}}},
{"geometry": {"type": "Point", "coordinates": [-78.603073924, 35.819698054]}, "type": "Feature", "properties": {"collection_times": [{"days": "Mon-Fri", "time": "4:00pm"}, {"days": "Sat", "time": "10:00am"}, {"days": "Sun", "time": "Closed"}], "id": "2760400023", "name": "USPS COLLECTION BOX - BLUE BOX", "address": {"city": "RALEIGH", "state": "NC", "street": "3000 HIGHWOODS BLVD", "postcode": "27604"}}},
{"geometry": {"type": "Point", "coordinates": [-78.580326463, 35.84953421]}, "type": "Feature", "properties": {"collection_times": [{"days": "Mon-Fri", "time": "11:00am"}, {"days": "Sat", "time": "10:00am"}, {"days": "Sun", "time": "Closed"}], "id": "2760400025", "name": "USPS COLLECTION BOX - BLUE BOX", "address": {"city": "RALEIGH", "state": "NC", "street": "4600 CAPITAL BLVD", "postcode": "27604"}}},
{"geometry": {"type": "Point", "coordinates": [-78.596121073, 35.848243365]}, "type": "Feature", "properties": {"collection_times": [{"days": "Mon-Fri", "time": "4:00pm"}, {"days": "Sat", "time": "10:00am"}, {"days": "Sun", "time": "Closed"}], "id": "2760400027", "name": "USPS COLLECTION BOX - BLUE BOX", "address": {"city": "RALEIGH", "state": "NC", "street": "4901 DEPARTURE DR.", "postcode": "27604"}}},
{"geometry": {"type": "Point", "coordinates": [-78.596121073, 35.848243365]}, "type": "Feature", "properties": {"collection_times": [{"days": "Mon-Fri", "time": "4:00pm"}, {"days": "Sat", "time": "10:00am"}, {"days": "Sun", "time": "Closed"}], "id": "2760400028", "name": "USPS COLLECTION BOX - BLUE BOX", "address": {"city": "RALEIGH", "state": "NC", "street": "4901 DEPARTURE DR.", "postcode": "27604"}}},
{"geometry": {"type": "Point", "coordinates": [-78.596121073, 35.848243365]}, "type": "Feature", "properties": {"collection_times": [{"days": "Mon-Fri", "time": "4:00pm"}, {"days": "Sat", "time": "10:00am"}, {"days": "Sun", "time": "Closed"}], "id": "2760400029", "name": "USPS COLLECTION BOX - BLUE BOX", "address": {"city": "RALEIGH", "state": "NC", "street": "4901 DEPARTURE DR.", "postcode": "27604"}}},
{"geometry": {"type": "Point", "coordinates": [-78.637267962, 35.787967927]}, "type": "Feature", "properties": {"collection_times": [{"days": "Mon-Fri", "time": "4:00pm"}, {"days": "Sat", "time": "10:00am"}, {"days": "Sun", "time": "Closed"}], "id": "2760400034", "name": "USPS COLLECTION BOX - BLUE BOX", "address": {"city": "RALEIGH", "state": "NC", "street": "15 E PEACE ST", "postcode": "27604"}}},
{"geometry": {"type": "Point", "coordinates": [-78.604063451, 35.817447434]}, "type": "Feature", "properties": {"collection_times": [{"days": "Mon-Fri", "time": "3:00pm"}, {"days": "Sat", "time": "10:00am"}, {"days": "Sun", "time": "Closed"}], "id": "2760400038", "name": "USPS COLLECTION BOX - BLUE BOX", "address": {"city": "RALEIGH", "state": "NC", "street": "3101 POPLARWOOD CT", "postcode": "27604"}}},
{"geometry": {"type": "Point", "coordinates": [-78.604063451, 35.817447434]}, "type": "Feature", "properties": {"collection_times": [{"days": "Mon-Fri", "time": "3:00pm"}, {"days": "Sat", "time": "10:00am"}, {"days": "Sun", "time": "Closed"}], "id": "2760400039", "name": "USPS COLLECTION BOX - BLUE BOX", "address": {"city": "RALEIGH", "state": "NC", "street": "3101 POPLARWOOD CT", "postcode": "27604"}}},
{"geometry": {"type": "Point", "coordinates": [-78.604063451, 35.817447434]}, "type": "Feature", "properties": {"collection_times": [{"days": "Mon-Fri", "time": "3:00pm"}, {"days": "Sat", "time": "10:00am"}, {"days": "Sun", "time": "Closed"}], "id": "2760400041", "name": "USPS COLLECTION BOX - BLUE BOX", "address": {"city": "RALEIGH", "state": "NC", "street": "3101 POPLARWOOD CT", "postcode": "27604"}}},
{"geometry": {"type": "Point", "coordinates": [-78.63979921, 35.786115253]}, "type": "Feature", "properties": {"collection_times": [{"days": "Mon-Fri", "time": "3:00pm"}, {"days": "Sat", "time": "10:00am"}, {"days": "Sun", "time": "Closed"}], "id": "2760400043", "name": "USPS COLLECTION BOX - BLUE BOX", "address": {"city": "RALEIGH", "state": "NC", "street": "433 N SALISBURY ST", "postcode": "27604"}}},
{"geometry": {"type": "Point", "coordinates": [-78.606402849, 35.819503202]}, "type": "Feature", "properties": {"collection_times": [{"days": "Mon-Fri", "time": "3:00pm"}, {"days": "Sat", "time": "10:00am"}, {"days": "Sun", "time": "Closed"}], "id": "2760400045", "name": "USPS COLLECTION BOX - BLUE BOX", "address": {"city": "RALEIGH", "state": "NC", "street": "3100 SMOKETREE CT", "postcode": "27604"}}},
{"geometry": {"type": "Point", "coordinates": [-78.606402849, 35.819503202]}, "type": "Feature", "properties": {"collection_times": [{"days": "Mon-Fri", "time": "3:00pm"}, {"days": "Sat", "time": "10:00am"}, {"days": "Sun", "time": "Closed"}], "id": "2760400046", "name": "USPS COLLECTION BOX - BLUE BOX", "address": {"city": "RALEIGH", "state": "NC", "street": "3100 SMOKETREE CT", "postcode": "27604"}}},
{"geometry": {"type": "Point", "coordinates": [-78.608859568, 35.821112996]}, "type": "Feature", "properties": {"collection_times": [{"days": "Mon-Sat", "time": "9:00am"}, {"days": "Sun", "time": "Closed"}], "id": "2760400049", "name": "USPS COLLECTION BOX - BLUE BOX", "address": {"city": "RALEIGH", "state": "NC", "street": "3200 BEECHLEAF CT", "postcode": "27604"}}},
{"geometry": {"type": "Point", "coordinates": [-78.625545157, 35.799426158]}, "type": "Feature", "properties": {"collection_times": [{"days": "Mon-Fri", "time": "1:00pm"}, {"days": "Sat", "time": "10:00am"}, {"days": "Sun", "time": "Closed"}], "id": "2760400054", "name": "USPS COLLECTION BOX - BLUE BOX", "address": {"city": "RALEIGH", "state": "NC", "street": "1526 WAKE FOREST RD", "postcode": "27604"}}},
{"geometry": {"type": "Point", "coordinates": [-78.606492396, 35.825286724]}, "type": "Feature", "properties": {"collection_times": [{"days": "Mon-Sat", "time": "9:30am"}, {"days": "Sun", "time": "Closed"}], "id": "2760400057", "name": "USPS COLLECTION BOX - BLUE BOX", "address": {"city": "RALEIGH", "state": "NC", "street": "3261 ATLANTIC AVE", "postcode": "27604"}}},
{"geometry": {"type": "Point", "coordinates": [-78.600658966, 35.816504528]}, "type": "Feature", "properties": {"collection_times": [{"days": "Mon-Sat", "time": "9:30am"}, {"days": "Sun", "time": "Closed"}], "id": "2760400060", "name": "USPS COLLECTION BOX - BLUE BOX", "address": {"city": "RALEIGH", "state": "NC", "street": "2728 CAPITAL BLVD", "postcode": "27604"}}},
{"geometry": {"type": "Point", "coordinates": [-78.607451619, 35.822743558]}, "type": "Feature", "properties": {"collection_times": [{"days": "Mon-Fri", "time": "4:00pm"}, {"days": "Sat", "time": "10:00am"}, {"days": "Sun", "time": "Closed"}], "id": "2760400064", "name": "USPS COLLECTION BOX - BLUE BOX", "address": {"city": "RALEIGH", "state": "NC", "street": "3128 HIGHWOODS BLVD", "postcode": "27604"}}},
{"geometry": {"type": "Point", "coordinates": [-78.607451619, 35.822743558]}, "type": "Feature", "properties": {"collection_times": [{"days": "Mon-Fri", "time": "4:00pm"}, {"days": "Sat", "time": "10:00am"}, {"days": "Sun", "time": "Closed"}], "id": "2760400065", "name": "USPS COLLECTION BOX - BLUE BOX", "address": {"city": "RALEIGH", "state": "NC", "street": "3128 HIGHWOODS BLVD", "postcode": "27604"}}},
{"geometry": {"type": "Point", "coordinates": [-78.661178612, 35.79086308]}, "type": "Feature", "properties": {"collection_times": [{"days": "Mon-Fri", "time": "3:00pm"}, {"days": "Sat", "time": "10:00am"}, {"days": "Sun", "time": "Closed"}], "id": "2760500002", "name": "USPS COLLECTION BOX - BLUE BOX", "address": {"city": "RALEIGH", "state": "NC", "street": "2113 CAMERON ST", "postcode": "27605"}}},
{"geometry": {"type": "Point", "coordinates": [-78.662894258, 35.791254694]}, "type": "Feature", "properties": {"collection_times": [{"days": "Mon-Fri", "time": "4:00pm"}, {"days": "Sat", "time": "10:00am"}, {"days": "Sun", "time": "Closed"}], "id": "2760500004", "name": "USPS COLLECTION BOX - BLUE BOX", "address": {"city": "RALEIGH", "state": "NC", "street": "505 OBERLIN RD", "postcode": "27605"}}},
{"geometry": {"type": "Point", "coordinates": [-78.662894258, 35.791254694]}, "type": "Feature", "properties": {"collection_times": [{"days": "Mon-Fri", "time": "4:00pm"}, {"days": "Sat", "time": "10:00am"}, {"days": "Sun", "time": "Closed"}], "id": "2760500005", "name": "USPS COLLECTION BOX - BLUE BOX", "address": {"city": "RALEIGH", "state": "NC", "street": "505 OBERLIN RD", "postcode": "27605"}}},
{"geometry": {"type": "Point", "coordinates": [-78.662894258, 35.791254694]}, "type": "Feature", "properties": {"collection_times": [{"days": "Mon-Fri", "time": "4:00pm"}, {"days": "Sat", "time": "10:00am"}, {"days": "Sun", "time": "Closed"}], "id": "2760500006", "name": "USPS COLLECTION BOX - BLUE BOX", "address": {"city": "RALEIGH", "state": "NC", "street": "505 OBERLIN RD", "postcode": "27605"}}},
{"geometry": {"type": "Point", "coordinates": [-78.643636365, 35.796020508]}, "type": "Feature", "properties": {"collection_times": [{"days": "Mon-Fri", "time": "2:00pm"}, {"days": "Sat", "time": "10:00am"}, {"days": "Sun", "time": "Closed"}], "id": "2760500010", "name": "USPS COLLECTION BOX - BLUE BOX", "address": {"city": "RALEIGH", "state": "NC", "street": "1318 DALE ST", "postcode": "27605"}}},
{"geometry": {"type": "Point", "coordinates": [-78.661166084, 35.789637218]}, "type": "Feature", "properties": {"collection_times": [{"days": "Mon-Fri", "time": "2:00pm"}, {"days": "Sat", "time": "10:00am"}, {"days": "Sun", "time": "Closed"}], "id": "2760500011", "name": "USPS COLLECTION BOX - BLUE BOX", "address": {"city": "RALEIGH", "state": "NC", "street": "425 DANIELS ST", "postcode": "27605"}}},
{"geometry": {"type": "Point", "coordinates": [-78.662063242, 35.788129934]}, "type": "Feature", "properties": {"collection_times": [{"days": "Mon-Fri", "time": "3:00pm"}, {"days": "Sat", "time": "10:00am"}, {"days": "Sun", "time": "Closed"}], "id": "2760500020", "name": "USPS COLLECTION BOX - BLUE BOX", "address": {"city": "RALEIGH", "state": "NC", "street": "219 OBERLIN RD", "postcode": "27605"}}},
{"geometry": {"type": "Point", "coordinates": [-78.662590057, 35.793124189]}, "type": "Feature", "properties": {"collection_times": [{"days": "Mon-Fri", "time": "2:00pm"}, {"days": "Sat", "time": "10:00am"}, {"days": "Sun", "time": "Closed"}], "id": "2760500023", "name": "USPS COLLECTION BOX - BLUE BOX", "address": {"city": "RALEIGH", "state": "NC", "street": "625 OBERLIN RD", "postcode": "27605"}}},
{"geometry": {"type": "Point", "coordinates": [-78.66156673, 35.79473727]}, "type": "Feature", "properties": {"collection_times": [{"days": "Mon-Fri", "time": "2:00pm"}, {"days": "Sat", "time": "10:00am"}, {"days": "Sun", "time": "Closed"}], "id": "2760500024", "name": "USPS COLLECTION BOX - BLUE BOX", "address": {"city": "RALEIGH", "state": "NC", "street": "801 OBERLIN RD", "postcode": "27605"}}},
{"geometry": {"type": "Point", "coordinates": [-78.660212395, 35.798711694]}, "type": "Feature", "properties": {"collection_times": [{"days": "Mon-Fri", "time": "2:00pm"}, {"days": "Sat", "time": "10:00am"}, {"days": "Sun", "time": "Closed"}], "id": "2760500026", "name": "USPS COLLECTION BOX - BLUE BOX", "address": {"city": "RALEIGH", "state": "NC", "street": "1101 OBERLIN RD", "postcode": "27605"}}},
{"geometry": {"type": "Point", "coordinates": [-78.65785911, 35.790995798]}, "type": "Feature", "properties": {"collection_times": [{"days": "Mon-Fri", "time": "3:00pm"}, {"days": "Sat", "time": "10:00am"}, {"days": "Sun", "time": "Closed"}], "id": "2760500027", "name": "USPS COLLECTION BOX - BLUE BOX", "address": {"city": "RALEIGH", "state": "NC", "street": "1900 CAMERON ST", "postcode": "27605"}}},
{"geometry": {"type": "Point", "coordinates": [-78.650997792, 35.788896846]}, "type": "Feature", "properties": {"collection_times": [{"days": "Mon-Fri", "time": "1:00pm"}, {"days": "Sat", "time": "10:00am"}, {"days": "Sun", "time": "Closed"}], "id": "2760500029", "name": "USPS COLLECTION BOX - BLUE BOX", "address": {"city": "RALEIGH", "state": "NC", "street": "700 SAINT MARYS ST", "postcode": "27605"}}},
{"geometry": {"type": "Point", "coordinates": [-78.66341555, 35.790458118]}, "type": "Feature", "properties": {"collection_times": [{"days": "Mon-Fri", "time": "2:00pm"}, {"days": "Sat", "time": "10:00am"}, {"days": "Sun", "time": "Closed"}], "id": "2760500033", "name": "USPS COLLECTION BOX - BLUE BOX", "address": {"city": "RALEIGH", "state": "NC", "street": "2202 STAFFORD AVE", "postcode": "27605"}}},
{"geometry": {"type": "Point", "coordinates": [-78.650139969, 35.796547322]}, "type": "Feature", "properties": {"collection_times": [{"days": "Mon-Fri", "time": "3:00pm"}, {"days": "Sat", "time": "10:00am"}, {"days": "Sun", "time": "Closed"}], "id": "2760500035", "name": "USPS COLLECTION BOX - BLUE BOX", "address": {"city": "RALEIGH", "state": "NC", "street": "606 WADE AVE", "postcode": "27605"}}},
{"geometry": {"type": "Point", "coordinates": [-78.658582998, 35.799245503]}, "type": "Feature", "properties": {"collection_times": [{"days": "Mon-Fri", "time": "3:00pm"}, {"days": "Sat", "time": "10:00am"}, {"days": "Sun", "time": "Closed"}], "id": "2760500040", "name": "USPS COLLECTION BOX - BLUE BOX", "address": {"city": "RALEIGH", "state": "NC", "street": "1029 WADE AVE", "postcode": "27605"}}},
{"geometry": {"type": "Point", "coordinates": [-78.652239512, 35.793458925]}, "type": "Feature", "properties": {"collection_times": [{"days": "Mon-Fri", "time": "2:00pm"}, {"days": "Sat", "time": "10:00am"}, {"days": "Sun", "time": "Closed"}], "id": "2760500041", "name": "USPS COLLECTION BOX - BLUE BOX", "address": {"city": "RALEIGH", "state": "NC", "street": "871 WASHINGTON ST", "postcode": "27605"}}},
{"geometry": {"type": "Point", "coordinates": [-78.646463917, 35.796022839]}, "type": "Feature", "properties": {"collection_times": [{"days": "Mon-Fri", "time": "11:00am"}, {"days": "Sat", "time": "10:00am"}, {"days": "Sun", "time": "Closed"}], "id": "2760500042", "name": "USPS COLLECTION BOX - BLUE BOX", "address": {"city": "RALEIGH", "state": "NC", "street": "1307 GLENWOOD AVE", "postcode": "27605"}}},
{"geometry": {"type": "Point", "coordinates": [-78.662894258, 35.791254694]}, "type": "Feature", "properties": {"collection_times": [{"days": "Mon-Fri", "time": "4:00pm"}, {"days": "Sat-Sun", "time": "Closed"}], "id": "2760500044", "name": "USPS COLLECTION BOX - PO LOBBY", "address": {"city": "RALEIGH", "state": "NC", "street": "505 OBERLIN RD", "postcode": "27605"}}},
{"geometry": {"type": "Point", "coordinates": [-78.678293921, 35.777316874]}, "type": "Feature", "properties": {"collection_times": [{"days": "Mon-Fri", "time": "2:00pm"}, {"days": "Sat", "time": "10:00am"}, {"days": "Sun", "time": "Closed"}], "id": "2760600000", "name": "USPS COLLECTION BOX - BLUE BOX", "address": {"city": "RALEIGH", "state": "NC", "street": "2235 AVENT FERRY RD", "postcode": "27606"}}},
{"geometry": {"type": "Point", "coordinates": [-78.695890301, 35.767793691]}, "type": "Feature", "properties": {"collection_times": [{"days": "Mon-Fri", "time": "4:00pm"}, {"days": "Sat", "time": "10:00am"}, {"days": "Sun", "time": "Closed"}], "id": "2760600001", "name": "USPS COLLECTION BOX - BLUE BOX", "address": {"city": "RALEIGH", "state": "NC", "street": "3233 AVENT FERRY RD", "postcode": "27606"}}},
{"geometry": {"type": "Point", "coordinates": [-78.727923302, 35.768134267]}, "type": "Feature", "properties": {"collection_times": [{"days": "Mon-Fri", "time": "11:30am"}, {"days": "Sat", "time": "10:00am"}, {"days": "Sun", "time": "Closed"}], "id": "2760600004", "name": "USPS COLLECTION BOX - BLUE BOX", "address": {"city": "RALEIGH", "state": "NC", "street": "5511 CAPITAL CENTER DR", "postcode": "27606"}}},
{"geometry": {"type": "Point", "coordinates": [-78.727923302, 35.768134267]}, "type": "Feature", "properties": {"collection_times": [{"days": "Mon-Fri", "time": "11:30am"}, {"days": "Sat", "time": "10:00am"}, {"days": "Sun", "time": "Closed"}], "id": "2760600005", "name": "USPS COLLECTION BOX - BLUE BOX", "address": {"city": "RALEIGH", "state": "NC", "street": "5511 CAPITAL CENTER DR", "postcode": "27606"}}},
{"geometry": {"type": "Point", "coordinates": [-78.727923302, 35.768134267]}, "type": "Feature", "properties": {"collection_times": [{"days": "Mon-Fri", "time": "11:30am"}, {"days": "Sat", "time": "10:00am"}, {"days": "Sun", "time": "Closed"}], "id": "2760600006", "name": "USPS COLLECTION BOX - BLUE BOX", "address": {"city": "RALEIGH", "state": "NC", "street": "5511 CAPITAL CENTER DR", "postcode": "27606"}}},
{"geometry": {"type": "Point", "coordinates": [-78.681238252, 35.771370355]}, "type": "Feature", "properties": {"collection_times": [{"days": "Mon-Fri", "time": "2:00pm"}, {"days": "Sat", "time": "10:00am"}, {"days": "Sun", "time": "Closed"}], "id": "2760600007", "name": "USPS COLLECTION BOX - BLUE BOX", "address": {"city": "RALEIGH", "state": "NC", "street": "1001 CAPABILITY DR", "postcode": "27606"}}},
{"geometry": {"type": "Point", "coordinates": [-78.721128319, 35.773655337]}, "type": "Feature", "properties": {"collection_times": [{"days": "Mon-Fri", "time": "4:00pm"}, {"days": "Sat", "time": "10:00am"}, {"days": "Sun", "time": "Closed"}], "id": "2760600010", "name": "USPS COLLECTION BOX - BLUE BOX", "address": {"city": "RALEIGH", "state": "NC", "street": "4917 WATERS EDGE DR", "postcode": "27606"}}},
{"geometry": {"type": "Point", "coordinates": [-78.73141287, 35.762937211]}, "type": "Feature", "properties": {"collection_times": [{"days": "Mon-Fri", "time": "12:30pm"}, {"days": "Sat", "time": "10:00am"}, {"days": "Sun", "time": "Closed"}], "id": "2760600013", "name": "USPS COLLECTION BOX - BLUE BOX", "address": {"city": "RALEIGH", "state": "NC", "street": "5540 CENTERVIEW DR", "postcode": "27606"}}},
{"geometry": {"type": "Point", "coordinates": [-78.701907973, 35.790524127]}, "type": "Feature", "properties": {"collection_times": [{"days": "Mon-Fri", "time": "11:00am"}, {"days": "Sat", "time": "10:00am"}, {"days": "Sun", "time": "Closed"}], "id": "2760600021", "name": "USPS COLLECTION BOX - BLUE BOX", "address": {"city": "RALEIGH", "state": "NC", "street": "600 HUTTON ST", "postcode": "27606"}}},
{"geometry": {"type": "Point", "coordinates": [-78.724599238, 35.768009556]}, "type": "Feature", "properties": {"collection_times": [{"days": "Mon-Fri", "time": "1:00pm"}, {"days": "Sat", "time": "10:00am"}, {"days": "Sun", "time": "Closed"}], "id": "2760600022", "name": "USPS COLLECTION BOX - BLUE BOX", "address": {"city": "RALEIGH", "state": "NC", "street": "801 JONES FRANKLIN RD", "postcode": "27606"}}},
{"geometry": {"type": "Point", "coordinates": [-78.714442894, 35.789830429]}, "type": "Feature", "properties": {"collection_times": [{"days": "Mon-Fri", "time": "1:00pm"}, {"days": "Sat", "time": "10:00am"}, {"days": "Sun", "time": "Closed"}], "id": "2760600023", "name": "USPS COLLECTION BOX - BLUE BOX", "address": {"city": "RALEIGH", "state": "NC", "street": "200 POWELL DR", "postcode": "27606"}}},
{"geometry": {"type": "Point", "coordinates": [-78.703152498, 35.784937574]}, "type": "Feature", "properties": {"collection_times": [{"days": "Mon-Fri", "time": "1:00pm"}, {"days": "Sat", "time": "10:00am"}, {"days": "Sun", "time": "Closed"}], "id": "2760600025", "name": "USPS COLLECTION BOX - BLUE BOX", "address": {"city": "RALEIGH", "state": "NC", "street": "4530 WESTERN BLVD", "postcode": "27606"}}},
{"geometry": {"type": "Point", "coordinates": [-78.716741463, 35.786440746]}, "type": "Feature", "properties": {"collection_times": [{"days": "Mon-Fri", "time": "1:00pm"}, {"days": "Sat", "time": "10:00am"}, {"days": "Sun", "time": "Closed"}], "id": "2760600026", "name": "USPS COLLECTION BOX - BLUE BOX", "address": {"city": "RALEIGH", "state": "NC", "street": "5500 WESTERN BLVD", "postcode": "27606"}}},
{"geometry": {"type": "Point", "coordinates": [-78.677918548, 35.769597054]}, "type": "Feature", "properties": {"collection_times": [{"days": "Mon-Fri", "time": "2:00pm"}, {"days": "Sat", "time": "10:00am"}, {"days": "Sun", "time": "Closed"}], "id": "2760600027", "name": "USPS COLLECTION BOX - BLUE BOX", "address": {"city": "RALEIGH", "state": "NC", "street": "1017 MAIN CAMPUS DR", "postcode": "27606"}}},
{"geometry": {"type": "Point", "coordinates": [-78.707556282, 35.750858325]}, "type": "Feature", "properties": {"collection_times": [{"days": "Mon-Fri", "time": "2:30pm"}, {"days": "Sat", "time": "10:00am"}, {"days": "Sun", "time": "Closed"}], "id": "2760600028", "name": "USPS COLLECTION BOX - BLUE BOX", "address": {"city": "RALEIGH", "state": "NC", "street": "2100 LAKE DAM RD", "postcode": "27606"}}},
{"geometry": {"type": "Point", "coordinates": [-78.74205174, 35.765858005]}, "type": "Feature", "properties": {"collection_times": [{"days": "Mon-Fri", "time": "2:30pm"}, {"days": "Sat", "time": "1:00pm"}, {"days": "Sun", "time": "Closed"}], "id": "2760600030", "name": "USPS COLLECTION BOX - BLUE BOX", "address": {"city": "RALEIGH", "state": "NC", "street": "1299 BUCK JONES RD", "postcode": "27606"}}},
{"geometry": {"type": "Point", "coordinates": [-78.698745289, 35.665662237]}, "type": "Feature", "properties": {"collection_times": [{"days": "Mon-Fri", "time": "1:00pm"}, {"days": "Sat", "time": "10:00am"}, {"days": "Sun", "time": "Closed"}], "id": "2760600031", "name": "USPS COLLECTION BOX - BLUE BOX", "address": {"city": "RALEIGH", "state": "NC", "street": "7971 FAYETTEVILLE RD", "postcode": "27606"}}},
{"geometry": {"type": "Point", "coordinates": [-78.659958765, 35.780925428]}, "type": "Feature", "properties": {"collection_times": [{"days": "Mon-Fri", "time": "2:00pm"}, {"days": "Sat", "time": "10:00am"}, {"days": "Sun", "time": "Closed"}], "id": "2760600032", "name": "USPS COLLECTION BOX - BLUE BOX", "address": {"city": "RALEIGH", "state": "NC", "street": "301 ASHE AVE", "postcode": "27606"}}},
{"geometry": {"type": "Point", "coordinates": [-78.707556282, 35.750858325]}, "type": "Feature", "properties": {"collection_times": [{"days": "Mon-Fri", "time": "5:00pm"}, {"days": "Sat", "time": "12:00pm"}, {"days": "Sun", "time": "Closed"}], "id": "2760600033", "name": "USPS COLLECTION BOX - PO LOBBY", "address": {"city": "RALEIGH", "state": "NC", "street": "2100 LAKE DAM RD", "postcode": "27606"}}},
{"geometry": {"type": "Point", "coordinates": [-78.70807449, 35.815823864]}, "type": "Feature", "properties": {"collection_times": [{"days": "Mon-Fri", "time": "2:00pm"}, {"days": "Sat", "time": "10:00am"}, {"days": "Sun", "time": "Closed"}], "id": "2760700002", "name": "USPS COLLECTION BOX - BLUE BOX", "address": {"city": "RALEIGH", "state": "NC", "street": "4601 LAKE BOONE TRL", "postcode": "27607"}}},
{"geometry": {"type": "Point", "coordinates": [-78.704856591, 35.818768098]}, "type": "Feature", "properties": {"collection_times": [{"days": "Mon-Fri", "time": "1:00pm"}, {"days": "Sat", "time": "10:00am"}, {"days": "Sun", "time": "Closed"}], "id": "2760700004", "name": "USPS COLLECTION BOX - BLUE BOX", "address": {"city": "RALEIGH", "state": "NC", "street": "2800 BLUE RIDGE RD", "postcode": "27607"}}},
{"geometry": {"type": "Point", "coordinates": [-78.70807449, 35.815823864]}, "type": "Feature", "properties": {"collection_times": [{"days": "Mon-Fri", "time": "2:00pm"}, {"days": "Sat", "time": "10:00am"}, {"days": "Sun", "time": "Closed"}], "id": "2760700006", "name": "USPS COLLECTION BOX - BLUE BOX", "address": {"city": "RALEIGH", "state": "NC", "street": "4601 LAKE BOONE TRL", "postcode": "27607"}}},
{"geometry": {"type": "Point", "coordinates": [-78.693760734, 35.815767919]}, "type": "Feature", "properties": {"collection_times": [{"days": "Mon-Fri", "time": "4:00pm"}, {"days": "Sat", "time": "10:00am"}, {"days": "Sun", "time": "Closed"}], "id": "2760700007", "name": "USPS COLLECTION BOX - BLUE BOX", "address": {"city": "RALEIGH", "state": "NC", "street": "3800 LAKE BOONE TRL", "postcode": "27607"}}},
{"geometry": {"type": "Point", "coordinates": [-78.748999462, 35.793915757]}, "type": "Feature", "properties": {"collection_times": [{"days": "Mon-Sat", "time": "10:00am"}, {"days": "Sun", "time": "Closed"}], "id": "2760700011", "name": "USPS COLLECTION BOX - BLUE BOX", "address": {"city": "RALEIGH", "state": "NC", "street": "7400 CHAPEL HILL RD", "postcode": "27607"}}},
{"geometry": {"type": "Point", "coordinates": [-78.750039051, 35.794386448]}, "type": "Feature", "properties": {"collection_times": [{"days": "Mon-Sat", "time": "10:00am"}, {"days": "Sun", "time": "Closed"}], "id": "2760700012", "name": "USPS COLLECTION BOX - BLUE BOX", "address": {"city": "RALEIGH", "state": "NC", "street": "7424 CHAPEL HILL RD", "postcode": "27607"}}},
{"geometry": {"type": "Point", "coordinates": [-78.676125539, 35.809690322]}, "type": "Feature", "properties": {"collection_times": [{"days": "Mon-Fri", "time": "12:30pm"}, {"days": "Sat", "time": "10:00am"}, {"days": "Sun", "time": "Closed"}], "id": "2760700015", "name": "USPS COLLECTION BOX - BLUE BOX", "address": {"city": "RALEIGH", "state": "NC", "street": "3051 MEDLIN DR", "postcode": "27607"}}},
{"geometry": {"type": "Point", "coordinates": [-78.693407592, 35.81480872]}, "type": "Feature", "properties": {"collection_times": [{"days": "Mon-Fri", "time": "2:00pm"}, {"days": "Sat", "time": "10:00am"}, {"days": "Sun", "time": "Closed"}], "id": "2760700017", "name": "USPS COLLECTION BOX - BLUE BOX", "address": {"city": "RALEIGH", "state": "NC", "street": "3300 DRAKE CIR", "postcode": "27607"}}},
{"geometry": {"type": "Point", "coordinates": [-78.693760734, 35.815767919]}, "type": "Feature", "properties": {"collection_times": [{"days": "Mon-Fri", "time": "4:00pm"}, {"days": "Sat", "time": "10:00am"}, {"days": "Sun", "time": "Closed"}], "id": "2760700027", "name": "USPS COLLECTION BOX - BLUE BOX", "address": {"city": "RALEIGH", "state": "NC", "street": "3800 LAKE BOONE TRL", "postcode": "27607"}}},
{"geometry": {"type": "Point", "coordinates": [-78.703977966, 35.815523903]}, "type": "Feature", "properties": {"collection_times": [{"days": "Mon-Fri", "time": "1:00pm"}, {"days": "Sat", "time": "10:00am"}, {"days": "Sun", "time": "Closed"}], "id": "2760700030", "name": "USPS COLLECTION BOX - BLUE BOX", "address": {"city": "RALEIGH", "state": "NC", "street": "4420 LAKE BOONE TRL", "postcode": "27607"}}},
{"geometry": {"type": "Point", "coordinates": [-78.745438059, 35.804820825]}, "type": "Feature", "properties": {"collection_times": [{"days": "Mon-Fri", "time": "1:00pm"}, {"days": "Sat", "time": "10:00am"}, {"days": "Sun", "time": "Closed"}], "id": "2760700034", "name": "USPS COLLECTION BOX - BLUE BOX", "address": {"city": "RALEIGH", "state": "NC", "street": "2300 STINSON DR", "postcode": "27607"}}},
{"geometry": {"type": "Point", "coordinates": [-78.687412359, 35.80194323]}, "type": "Feature", "properties": {"collection_times": [{"days": "Mon-Fri", "time": "12:30pm"}, {"days": "Sat", "time": "10:00am"}, {"days": "Sun", "time": "Closed"}], "id": "2760700035", "name": "USPS COLLECTION BOX - BLUE BOX", "address": {"city": "RALEIGH", "state": "NC", "street": "1200 RIDGE RD", "postcode": "27607"}}},
{"geometry": {"type": "Point", "coordinates": [-78.745438059, 35.804820825]}, "type": "Feature", "properties": {"collection_times": [{"days": "Mon-Fri", "time": "1:00pm"}, {"days": "Sat", "time": "10:00am"}, {"days": "Sun", "time": "Closed"}], "id": "2760700040", "name": "USPS COLLECTION BOX - BLUE BOX", "address": {"city": "RALEIGH", "state": "NC", "street": "2600 STINSON DR", "postcode": "27607"}}},
{"geometry": {"type": "Point", "coordinates": [-78.709043038, 35.802036924]}, "type": "Feature", "properties": {"collection_times": [{"days": "Mon-Fri", "time": "4:00pm"}, {"days": "Sat", "time": "10:00am"}, {"days": "Sun", "time": "Closed"}], "id": "2760700041", "name": "USPS COLLECTION BOX - BLUE BOX", "address": {"city": "RALEIGH", "state": "NC", "street": "4000 WESTCHASE BLVD", "postcode": "27607"}}},
{"geometry": {"type": "Point", "coordinates": [-78.710274993, 35.802367932]}, "type": "Feature", "properties": {"collection_times": [{"days": "Mon-Fri", "time": "4:00pm"}, {"days": "Sat", "time": "10:00am"}, {"days": "Sun", "time": "Closed"}], "id": "2760700045", "name": "USPS COLLECTION BOX - BLUE BOX", "address": {"city": "RALEIGH", "state": "NC", "street": "4020 WESTCHASE BLVD", "postcode": "27607"}}},
{"geometry": {"type": "Point", "coordinates": [-78.710274993, 35.802367932]}, "type": "Feature", "properties": {"collection_times": [{"days": "Mon-Fri", "time": "4:00pm"}, {"days": "Sat", "time": "10:00am"}, {"days": "Sun", "time": "Closed"}], "id": "2760700046", "name": "USPS COLLECTION BOX - BLUE BOX", "address": {"city": "RALEIGH", "state": "NC", "street": "4020 WESTCHASE BLVD", "postcode": "27607"}}},
{"geometry": {"type": "Point", "coordinates": [-78.692224579, 35.794332834]}, "type": "Feature", "properties": {"collection_times": [{"days": "Mon-Fri", "time": "4:00pm"}, {"days": "Sat", "time": "10:00am"}, {"days": "Sun", "time": "Closed"}], "id": "2760700050", "name": "USPS COLLECTION BOX - BLUE BOX", "address": {"city": "RALEIGH", "state": "NC", "street": "3915 BERYL RD", "postcode": "27607"}}},
{"geometry": {"type": "Point", "coordinates": [-78.692224579, 35.794332834]}, "type": "Feature", "properties": {"collection_times": [{"days": "Mon-Fri", "time": "4:00pm"}, {"days": "Sat", "time": "10:00am"}, {"days": "Sun", "time": "Closed"}], "id": "2760700051", "name": "USPS COLLECTION BOX - BLUE BOX", "address": {"city": "RALEIGH", "state": "NC", "street": "3915 BERYL RD", "postcode": "27607"}}},
{"geometry": {"type": "Point", "coordinates": [-78.692224579, 35.794332834]}, "type": "Feature", "properties": {"collection_times": [{"days": "Mon-Fri", "time": "4:00pm"}, {"days": "Sat", "time": "10:00am"}, {"days": "Sun", "time": "Closed"}], "id": "2760700052", "name": "USPS COLLECTION BOX - BLUE BOX", "address": {"city": "RALEIGH", "state": "NC", "street": "3915 BERYL RD", "postcode": "27607"}}},
{"geometry": {"type": "Point", "coordinates": [-78.705257428, 35.815145532]}, "type": "Feature", "properties": {"collection_times": [{"days": "Mon-Fri", "time": "1:00pm"}, {"days": "Sat", "time": "10:00am"}, {"days": "Sun", "time": "Closed"}], "id": "2760700063", "name": "USPS COLLECTION BOX - BLUE BOX", "address": {"city": "RALEIGH", "state": "NC", "street": "2500 BLUE RIDGE RD", "postcode": "27607"}}},
{"geometry": {"type": "Point", "coordinates": [-78.658244997, 35.799862062]}, "type": "Feature", "properties": {"collection_times": [{"days": "Mon-Fri", "time": "3:00pm"}, {"days": "Sat", "time": "10:00am"}, {"days": "Sun", "time": "Closed"}], "id": "2760800002", "name": "USPS COLLECTION BOX - BLUE BOX", "address": {"city": "RALEIGH", "state": "NC", "street": "1301 ANNAPOLIS DR", "postcode": "27608"}}},
{"geometry": {"type": "Point", "coordinates": [-78.646625925, 35.804476358]}, "type": "Feature", "properties": {"collection_times": [{"days": "Mon-Fri", "time": "4:00pm"}, {"days": "Sat", "time": "10:00am"}, {"days": "Sun", "time": "Closed"}], "id": "2760800009", "name": "USPS COLLECTION BOX - BLUE BOX", "address": {"city": "RALEIGH", "state": "NC", "street": "2009 FAIRVIEW RD", "postcode": "27608"}}},
{"geometry": {"type": "Point", "coordinates": [-78.644796058, 35.80089821]}, "type": "Feature", "properties": {"collection_times": [{"days": "Mon-Fri", "time": "2:00pm"}, {"days": "Sat", "time": "10:00am"}, {"days": "Sun", "time": "Closed"}], "id": "2760800012", "name": "USPS COLLECTION BOX - BLUE BOX", "address": {"city": "RALEIGH", "state": "NC", "street": "700 HARVEY ST", "postcode": "27608"}}},
{"geometry": {"type": "Point", "coordinates": [-78.655661038, 35.809509075]}, "type": "Feature", "properties": {"collection_times": [{"days": "Mon-Fri", "time": "4:00pm"}, {"days": "Sat", "time": "10:00am"}, {"days": "Sun", "time": "Closed"}], "id": "2760800016", "name": "USPS COLLECTION BOX - BLUE BOX", "address": {"city": "RALEIGH", "state": "NC", "street": "2601 OBERLIN RD", "postcode": "27608"}}},
{"geometry": {"type": "Point", "coordinates": [-78.631976499, 35.828458105]}, "type": "Feature", "properties": {"collection_times": [{"days": "Mon-Fri", "time": "3:00pm"}, {"days": "Sat", "time": "10:00am"}, {"days": "Sun", "time": "Closed"}], "id": "2760900001", "name": "USPS COLLECTION BOX - BLUE BOX", "address": {"city": "RALEIGH", "state": "NC", "street": "3825 BARRETT DR", "postcode": "27609"}}},
{"geometry": {"type": "Point", "coordinates": [-78.608143938, 35.833064242]}, "type": "Feature", "properties": {"collection_times": [{"days": "Mon-Fri", "time": "2:00pm"}, {"days": "Sat", "time": "10:00am"}, {"days": "Sun", "time": "Closed"}], "id": "2760900004", "name": "USPS COLLECTION BOX - BLUE BOX", "address": {"city": "RALEIGH", "state": "NC", "street": "3925 TARHEEL DR", "postcode": "27609"}}},
{"geometry": {"type": "Point", "coordinates": [-78.630228492, 35.830037921]}, "type": "Feature", "properties": {"collection_times": [{"days": "Mon-Fri", "time": "4:00pm"}, {"days": "Sat", "time": "10:00am"}, {"days": "Sun", "time": "Closed"}], "id": "2760900006", "name": "USPS COLLECTION BOX - BLUE BOX", "address": {"city": "RALEIGH", "state": "NC", "street": "4020 BARRETT DR", "postcode": "27609"}}},
{"geometry": {"type": "Point", "coordinates": [-78.630228492, 35.830037921]}, "type": "Feature", "properties": {"collection_times": [{"days": "Mon-Fri", "time": "4:00pm"}, {"days": "Sat", "time": "10:00am"}, {"days": "Sun", "time": "Closed"}], "id": "2760900007", "name": "USPS COLLECTION BOX - BLUE BOX", "address": {"city": "RALEIGH", "state": "NC", "street": "4020 BARRETT DR", "postcode": "27609"}}},
{"geometry": {"type": "Point", "coordinates": [-78.619856375, 35.83300404]}, "type": "Feature", "properties": {"collection_times": [{"days": "Mon-Fri", "time": "1:00pm"}, {"days": "Sat", "time": "10:00am"}, {"days": "Sun", "time": "Closed"}], "id": "2760900008", "name": "USPS COLLECTION BOX - BLUE BOX", "address": {"city": "RALEIGH", "state": "NC", "street": "3700 BENSON DR", "postcode": "27609"}}},
{"geometry": {"type": "Point", "coordinates": [-78.61441149, 35.840741304]}, "type": "Feature", "properties": {"collection_times": [{"days": "Mon-Fri", "time": "2:00pm"}, {"days": "Sat", "time": "10:00am"}, {"days": "Sun", "time": "Closed"}], "id": "2760900012", "name": "USPS COLLECTION BOX - BLUE BOX", "address": {"city": "RALEIGH", "state": "NC", "street": "4405 BLAND RD", "postcode": "27609"}}},
{"geometry": {"type": "Point", "coordinates": [-78.614414061, 35.84077638]}, "type": "Feature", "properties": {"collection_times": [{"days": "Mon-Fri", "time": "2:00pm"}, {"days": "Sat", "time": "10:00am"}, {"days": "Sun", "time": "Closed"}], "id": "2760900014", "name": "USPS COLLECTION BOX - BLUE BOX", "address": {"city": "RALEIGH", "state": "NC", "street": "4407 BLAND RD", "postcode": "27609"}}},
{"geometry": {"type": "Point", "coordinates": [-78.633870469, 35.832117839]}, "type": "Feature", "properties": {"collection_times": [{"days": "Mon-Fri", "time": "4:00pm"}, {"days": "Sat", "time": "10:00am"}, {"days": "Sun", "time": "Closed"}], "id": "2760900017", "name": "USPS COLLECTION BOX - BLUE BOX", "address": {"city": "RALEIGH", "state": "NC", "street": "3801 COMPUTER DR", "postcode": "27609"}}},
{"geometry": {"type": "Point", "coordinates": [-78.618052027, 35.832784517]}, "type": "Feature", "properties": {"collection_times": [{"days": "Mon-Sat", "time": "9:30am"}, {"days": "Sun", "time": "Closed"}], "id": "2760900019", "name": "USPS COLLECTION BOX - BLUE BOX", "address": {"city": "RALEIGH", "state": "NC", "street": "1112 DRESSER CT", "postcode": "27609"}}},
{"geometry": {"type": "Point", "coordinates": [-78.618204075, 35.826976523]}, "type": "Feature", "properties": {"collection_times": [{"days": "Mon-Fri", "time": "1:00pm"}, {"days": "Sat", "time": "10:00am"}, {"days": "Sun", "time": "Closed"}], "id": "2760900020", "name": "USPS COLLECTION BOX - BLUE BOX", "address": {"city": "RALEIGH", "state": "NC", "street": "3300 EXECUTIVE DR", "postcode": "27609"}}},
{"geometry": {"type": "Point", "coordinates": [-78.614764703, 35.849085381]}, "type": "Feature", "properties": {"collection_times": [{"days": "Mon-Fri", "time": "2:00pm"}, {"days": "Sat", "time": "10:00am"}, {"days": "Sun", "time": "Closed"}], "id": "2760900026", "name": "USPS COLLECTION BOX - BLUE BOX", "address": {"city": "RALEIGH", "state": "NC", "street": "5001 FALLS OF NEUSE RD", "postcode": "27609"}}},
{"geometry": {"type": "Point", "coordinates": [-78.620059788, 35.864386489]}, "type": "Feature", "properties": {"collection_times": [{"days": "Mon-Fri", "time": "2:00pm"}, {"days": "Sat", "time": "10:00am"}, {"days": "Sun", "time": "Closed"}], "id": "2760900027", "name": "USPS COLLECTION BOX - BLUE BOX", "address": {"city": "RALEIGH", "state": "NC", "street": "6000 FALLS OF NEUSE RD", "postcode": "27609"}}},
{"geometry": {"type": "Point", "coordinates": [-78.621668637, 35.861420187]}, "type": "Feature", "properties": {"collection_times": [{"days": "Mon-Fri", "time": "2:00pm"}, {"days": "Sat", "time": "10:00am"}, {"days": "Sun", "time": "Closed"}], "id": "2760900028", "name": "USPS COLLECTION BOX - BLUE BOX", "address": {"city": "RALEIGH", "state": "NC", "street": "5800 FARINGDON PL", "postcode": "27609"}}},
{"geometry": {"type": "Point", "coordinates": [-78.642557093, 35.844701963]}, "type": "Feature", "properties": {"collection_times": [{"days": "Mon-Fri", "time": "3:00pm"}, {"days": "Sat", "time": "10:00am"}, {"days": "Sun", "time": "Closed"}], "id": "2760900033", "name": "USPS COLLECTION BOX - BLUE BOX", "address": {"city": "RALEIGH", "state": "NC", "street": "4700 HOMEWOOD CT", "postcode": "27609"}}},
{"geometry": {"type": "Point", "coordinates": [-78.619317282, 35.819780067]}, "type": "Feature", "properties": {"collection_times": [{"days": "Mon-Fri", "time": "1:00pm"}, {"days": "Sat", "time": "10:00am"}, {"days": "Sun", "time": "Closed"}], "id": "2760900034", "name": "USPS COLLECTION BOX - BLUE BOX", "address": {"city": "RALEIGH", "state": "NC", "street": "3001 INDUSTRIAL DR", "postcode": "27609"}}},
{"geometry": {"type": "Point", "coordinates": [-78.614687169, 35.84916474]}, "type": "Feature", "properties": {"collection_times": [{"days": "Mon-Fri", "time": "3:00pm"}, {"days": "Sat", "time": "10:00am"}, {"days": "Sun", "time": "Closed"}], "id": "2760900035", "name": "USPS COLLECTION BOX - BLUE BOX", "address": {"city": "RALEIGH", "state": "NC", "street": "5000 FALLS OF NEUSE RD", "postcode": "27609"}}},
{"geometry": {"type": "Point", "coordinates": [-78.619434224, 35.829092399]}, "type": "Feature", "properties": {"collection_times": [{"days": "Mon-Fri", "time": "11:30am"}, {"days": "Sat", "time": "10:00am"}, {"days": "Sun", "time": "Closed"}], "id": "2760900039", "name": "USPS COLLECTION BOX - BLUE BOX", "address": {"city": "RALEIGH", "state": "NC", "street": "3404 WAKE FOREST RD", "postcode": "27609"}}},
{"geometry": {"type": "Point", "coordinates": [-78.609222159, 35.840988462]}, "type": "Feature", "properties": {"collection_times": [{"days": "Mon-Fri", "time": "3:00pm"}, {"days": "Sat", "time": "10:00am"}, {"days": "Sun", "time": "Closed"}], "id": "2760900045", "name": "USPS COLLECTION BOX - BLUE BOX", "address": {"city": "RALEIGH", "state": "NC", "street": "1637 N MARKET DR", "postcode": "27609"}}},
{"geometry": {"type": "Point", "coordinates": [-78.63194503, 35.829763488]}, "type": "Feature", "properties": {"collection_times": [{"days": "Mon-Fri", "time": "2:00pm"}, {"days": "Sat", "time": "10:00am"}, {"days": "Sun", "time": "Closed"}], "id": "2760900046", "name": "USPS COLLECTION BOX - BLUE BOX", "address": {"city": "RALEIGH", "state": "NC", "street": "3820 MERTON DR", "postcode": "27609"}}},
{"geometry": {"type": "Point", "coordinates": [-78.64341023, 35.856272809]}, "type": "Feature", "properties": {"collection_times": [{"days": "Mon-Fri", "time": "3:00pm"}, {"days": "Sat", "time": "10:00am"}, {"days": "Sun", "time": "Closed"}], "id": "2760900047", "name": "USPS COLLECTION BOX - BLUE BOX", "address": {"city": "RALEIGH", "state": "NC", "street": "224 W MILLBROOK RD", "postcode": "27609"}}},
{"geometry": {"type": "Point", "coordinates": [-78.615334938, 35.850618177]}, "type": "Feature", "properties": {"collection_times": [{"days": "Mon-Sat", "time": "9:15am"}, {"days": "Sun", "time": "Closed"}], "id": "2760900048", "name": "USPS COLLECTION BOX - BLUE BOX", "address": {"city": "RALEIGH", "state": "NC", "street": "1307 E MILLBROOK RD", "postcode": "27609"}}},
{"geometry": {"type": "Point", "coordinates": [-78.621343457, 35.827845042]}, "type": "Feature", "properties": {"collection_times": [{"days": "Mon-Fri", "time": "3:30pm"}, {"days": "Sat", "time": "10:00am"}, {"days": "Sun", "time": "Closed"}], "id": "2760900054", "name": "USPS COLLECTION BOX - BLUE BOX", "address": {"city": "RALEIGH", "state": "NC", "street": "1110 NAVAHO DR", "postcode": "27609"}}},
{"geometry": {"type": "Point", "coordinates": [-78.620059788, 35.864386489]}, "type": "Feature", "properties": {"collection_times": [{"days": "Mon-Fri", "time": "2:00pm"}, {"days": "Sat", "time": "10:00am"}, {"days": "Sun", "time": "Closed"}], "id": "2760900056", "name": "USPS COLLECTION BOX - BLUE BOX", "address": {"city": "RALEIGH", "state": "NC", "street": "6000 FALLS OF NEUSE RD", "postcode": "27609"}}},
{"geometry": {"type": "Point", "coordinates": [-78.623798043, 35.865106728]}, "type": "Feature", "properties": {"collection_times": [{"days": "Mon-Fri", "time": "2:00pm"}, {"days": "Sat", "time": "10:00am"}, {"days": "Sun", "time": "Closed"}], "id": "2760900057", "name": "USPS COLLECTION BOX - BLUE BOX", "address": {"city": "RALEIGH", "state": "NC", "street": "901 RIDGEFIELD DR", "postcode": "27609"}}},
{"geometry": {"type": "Point", "coordinates": [-78.638612972, 35.860424833]}, "type": "Feature", "properties": {"collection_times": [{"days": "Mon-Fri", "time": "3:00pm"}, {"days": "Sat", "time": "10:00am"}, {"days": "Sun", "time": "Closed"}], "id": "2760900060", "name": "USPS COLLECTION BOX - BLUE BOX", "address": {"city": "RALEIGH", "state": "NC", "street": "5900 SIX FORKS RD", "postcode": "27609"}}},
{"geometry": {"type": "Point", "coordinates": [-78.643412585, 35.843221752]}, "type": "Feature", "properties": {"collection_times": [{"days": "Mon-Fri", "time": "2:00pm"}, {"days": "Sat", "time": "10:00am"}, {"days": "Sun", "time": "Closed"}], "id": "2760900070", "name": "USPS COLLECTION BOX - BLUE BOX", "address": {"city": "RALEIGH", "state": "NC", "street": "4601 SIX FORKS RD", "postcode": "27609"}}},
{"geometry": {"type": "Point", "coordinates": [-78.641774696, 35.855306955]}, "type": "Feature", "properties": {"collection_times": [{"days": "Mon-Fri", "time": "1:00pm"}, {"days": "Sat", "time": "10:00am"}, {"days": "Sun", "time": "Closed"}], "id": "2760900072", "name": "USPS COLLECTION BOX - BLUE BOX", "address": {"city": "RALEIGH", "state": "NC", "street": "5400 SIX FORKS RD", "postcode": "27609"}}},
{"geometry": {"type": "Point", "coordinates": [-78.640513936, 35.857294245]}, "type": "Feature", "properties": {"collection_times": [{"days": "Mon-Fri", "time": "3:00pm"}, {"days": "Sat", "time": "10:00am"}, {"days": "Sun", "time": "Closed"}], "id": "2760900075", "name": "USPS COLLECTION BOX - BLUE BOX", "address": {"city": "RALEIGH", "state": "NC", "street": "5510 SIX FORKS RD", "postcode": "27609"}}},
{"geometry": {"type": "Point", "coordinates": [-78.631446187, 35.822546586]}, "type": "Feature", "properties": {"collection_times": [{"days": "Mon-Fri", "time": "2:00pm"}, {"days": "Sat", "time": "10:00am"}, {"days": "Sun", "time": "Closed"}], "id": "2760900077", "name": "USPS COLLECTION BOX - BLUE BOX", "address": {"city": "RALEIGH", "state": "NC", "street": "100 E SIX FORKS RD", "postcode": "27609"}}},
{"geometry": {"type": "Point", "coordinates": [-78.612753571, 35.842469991]}, "type": "Feature", "properties": {"collection_times": [{"days": "Mon-Fri", "time": "2:00pm"}, {"days": "Sat", "time": "10:00am"}, {"days": "Sun", "time": "Closed"}], "id": "2760900080", "name": "USPS COLLECTION BOX - BLUE BOX", "address": {"city": "RALEIGH", "state": "NC", "street": "4505 FALLS OF NEUSE RD", "postcode": "27609"}}},
{"geometry": {"type": "Point", "coordinates": [-78.623291041, 35.866372483]}, "type": "Feature", "properties": {"collection_times": [{"days": "Mon-Fri", "time": "12:00pm"}, {"days": "Sat", "time": "10:00am"}, {"days": "Sun", "time": "Closed"}], "id": "2760900081", "name": "USPS COLLECTION BOX - BLUE BOX", "address": {"city": "RALEIGH", "state": "NC", "street": "805 SPRING FOREST RD", "postcode": "27609"}}},
{"geometry": {"type": "Point", "coordinates": [-78.640184093, 35.85784437]}, "type": "Feature", "properties": {"collection_times": [{"days": "Mon-Fri", "time": "3:00pm"}, {"days": "Sat", "time": "10:00am"}, {"days": "Sun", "time": "Closed"}], "id": "2760900083", "name": "USPS COLLECTION BOX - BLUE BOX", "address": {"city": "RALEIGH", "state": "NC", "street": "5620 SIX FORKS RD", "postcode": "27609"}}},
{"geometry": {"type": "Point", "coordinates": [-78.614536137, 35.835706352]}, "type": "Feature", "properties": {"collection_times": [{"days": "Mon-Fri", "time": "11:00am"}, {"days": "Sat", "time": "10:00am"}, {"days": "Sun", "time": "Closed"}], "id": "2760900084", "name": "USPS COLLECTION BOX - BLUE BOX", "address": {"city": "RALEIGH", "state": "NC", "street": "4015 WAKE FOREST RD", "postcode": "27609"}}},
{"geometry": {"type": "Point", "coordinates": [-78.61290742, 35.837737978]}, "type": "Feature", "properties": {"collection_times": [{"days": "Mon-Fri", "time": "3:00pm"}, {"days": "Sat", "time": "10:00am"}, {"days": "Sun", "time": "Closed"}], "id": "2760900085", "name": "USPS COLLECTION BOX - BLUE BOX", "address": {"city": "RALEIGH", "state": "NC", "street": "4109 WAKE FOREST RD", "postcode": "27609"}}},
{"geometry": {"type": "Point", "coordinates": [-78.642009298, 35.854955045]}, "type": "Feature", "properties": {"collection_times": [{"days": "Mon-Fri", "time": "3:00pm"}, {"days": "Sat", "time": "10:00am"}, {"days": "Sun", "time": "Closed"}], "id": "2760900096", "name": "USPS COLLECTION BOX - BLUE BOX", "address": {"city": "RALEIGH", "state": "NC", "street": "5401 SIX FORKS RD", "postcode": "27609"}}},
{"geometry": {"type": "Point", "coordinates": [-78.626659395, 35.820633966]}, "type": "Feature", "properties": {"collection_times": [{"days": "Mon-Fri", "time": "4:00pm"}, {"days": "Sat", "time": "10:00am"}, {"days": "Sun", "time": "Closed"}], "id": "2760900106", "name": "USPS COLLECTION BOX - BLUE BOX", "address": {"city": "RALEIGH", "state": "NC", "street": "350 E SIX FORKS RD STE 150", "postcode": "27609"}}},
{"geometry": {"type": "Point", "coordinates": [-78.626659395, 35.820633966]}, "type": "Feature", "properties": {"collection_times": [{"days": "Mon-Fri", "time": "4:00pm"}, {"days": "Sat", "time": "10:00am"}, {"days": "Sun", "time": "Closed"}], "id": "2760900107", "name": "USPS COLLECTION BOX - BLUE BOX", "address": {"city": "RALEIGH", "state": "NC", "street": "350 E SIX FORKS RD STE 150", "postcode": "27609"}}},
{"geometry": {"type": "Point", "coordinates": [-78.626659395, 35.820633966]}, "type": "Feature", "properties": {"collection_times": [{"days": "Mon-Fri", "time": "4:00pm"}, {"days": "Sat", "time": "10:00am"}, {"days": "Sun", "time": "Closed"}], "id": "2760900108", "name": "USPS COLLECTION BOX - BLUE BOX", "address": {"city": "RALEIGH", "state": "NC", "street": "350 E SIX FORKS RD STE 150", "postcode": "27609"}}},
{"geometry": {"type": "Point", "coordinates": [-78.626659395, 35.820633966]}, "type": "Feature", "properties": {"collection_times": [{"days": "Mon-Fri", "time": "4:00pm"}, {"days": "Sat", "time": "10:00am"}, {"days": "Sun", "time": "Closed"}], "id": "2760900109", "name": "USPS COLLECTION BOX - BLUE BOX", "address": {"city": "RALEIGH", "state": "NC", "street": "350 E SIX FORKS RD STE 150", "postcode": "27609"}}},
{"geometry": {"type": "Point", "coordinates": [-78.640595522, 35.836869666]}, "type": "Feature", "properties": {"collection_times": [{"days": "Mon-Fri", "time": "2:00pm"}, {"days": "Sat", "time": "10:00am"}, {"days": "Sun", "time": "Closed"}], "id": "2760900110", "name": "USPS COLLECTION BOX - BLUE BOX", "address": {"city": "RALEIGH", "state": "NC", "street": "4208 SIX FORKS RD", "postcode": "27609"}}},
{"geometry": {"type": "Point", "coordinates": [-78.643524991, 35.837843447]}, "type": "Feature", "properties": {"collection_times": [{"days": "Mon-Fri", "time": "1:00pm"}, {"days": "Sat", "time": "10:00am"}, {"days": "Sun", "time": "Closed"}], "id": "2760900112", "name": "USPS COLLECTION BOX - BLUE BOX", "address": {"city": "RALEIGH", "state": "NC", "street": "4350 LASSITER AT NORTH HILLS AVE", "postcode": "27609"}}},
{"geometry": {"type": "Point", "coordinates": [-78.569680043, 35.770272754]}, "type": "Feature", "properties": {"collection_times": [{"days": "Mon-Fri", "time": "1:00pm"}, {"days": "Sat", "time": "10:00am"}, {"days": "Sun", "time": "Closed"}], "id": "2761000002", "name": "USPS COLLECTION BOX - BLUE BOX", "address": {"city": "RALEIGH", "state": "NC", "street": "4000 CARYA DR", "postcode": "27610"}}},
{"geometry": {"type": "Point", "coordinates": [-78.612294218, 35.792916928]}, "type": "Feature", "properties": {"collection_times": [{"days": "Mon-Fri", "time": "1:00pm"}, {"days": "Sat", "time": "10:00am"}, {"days": "Sun", "time": "Closed"}], "id": "2761000005", "name": "USPS COLLECTION BOX - BLUE BOX", "address": {"city": "RALEIGH", "state": "NC", "street": "2101 GLASCOCK ST", "postcode": "27610"}}},
{"geometry": {"type": "Point", "coordinates": [-78.582124861, 35.796653385]}, "type": "Feature", "properties": {"collection_times": [{"days": "Mon-Fri", "time": "1:00pm"}, {"days": "Sat", "time": "10:00am"}, {"days": "Sun", "time": "Closed"}], "id": "2761000007", "name": "USPS COLLECTION BOX - BLUE BOX", "address": {"city": "RALEIGH", "state": "NC", "street": "3540 MAITLAND DR", "postcode": "27610"}}},
{"geometry": {"type": "Point", "coordinates": [-78.620609179, 35.784247586]}, "type": "Feature", "properties": {"collection_times": [{"days": "Mon-Fri", "time": "11:00am"}, {"days": "Sat", "time": "10:00am"}, {"days": "Sun", "time": "Closed"}], "id": "2761000008", "name": "USPS COLLECTION BOX - BLUE BOX", "address": {"city": "RALEIGH", "state": "NC", "street": "1315 OAKWOOD AVE", "postcode": "27610"}}},
{"geometry": {"type": "Point", "coordinates": [-78.60637934, 35.779602987]}, "type": "Feature", "properties": {"collection_times": [{"days": "Mon-Fri", "time": "12:00pm"}, {"days": "Sat", "time": "10:00am"}, {"days": "Sun", "time": "Closed"}], "id": "2761000010", "name": "USPS COLLECTION BOX - BLUE BOX", "address": {"city": "RALEIGH", "state": "NC", "street": "2100 NEW BERN AVE", "postcode": "27610"}}},
{"geometry": {"type": "Point", "coordinates": [-78.570158427, 35.799251437]}, "type": "Feature", "properties": {"collection_times": [{"days": "Mon-Fri", "time": "1:00pm"}, {"days": "Sat", "time": "10:00am"}, {"days": "Sun", "time": "Closed"}], "id": "2761000013", "name": "USPS COLLECTION BOX - BLUE BOX", "address": {"city": "RALEIGH", "state": "NC", "street": "3943 NEW BERN AVE", "postcode": "27610"}}},
{"geometry": {"type": "Point", "coordinates": [-78.613928416, 35.761880084]}, "type": "Feature", "properties": {"collection_times": [{"days": "Mon-Fri", "time": "1:00pm"}, {"days": "Sat", "time": "10:00am"}, {"days": "Sun", "time": "Closed"}], "id": "2761000016", "name": "USPS COLLECTION BOX - BLUE BOX", "address": {"city": "RALEIGH", "state": "NC", "street": "1429 ROCK QUARRY RD", "postcode": "27610"}}},
{"geometry": {"type": "Point", "coordinates": [-78.583424417, 35.778070328]}, "type": "Feature", "properties": {"collection_times": [{"days": "Mon-Fri", "time": "2:00pm"}, {"days": "Sat", "time": "10:00am"}, {"days": "Sun", "time": "Closed"}], "id": "2761000018", "name": "USPS COLLECTION BOX - BLUE BOX", "address": {"city": "RALEIGH", "state": "NC", "street": "236 SUNNYBROOK RD", "postcode": "27610"}}},
{"geometry": {"type": "Point", "coordinates": [-78.586771791, 35.787682375]}, "type": "Feature", "properties": {"collection_times": [{"days": "Mon-Fri", "time": "1:00pm"}, {"days": "Sat", "time": "10:00am"}, {"days": "Sun", "time": "Closed"}], "id": "2761000020", "name": "USPS COLLECTION BOX - BLUE BOX", "address": {"city": "RALEIGH", "state": "NC", "street": "3001 CALUMET DR", "postcode": "27610"}}},
{"geometry": {"type": "Point", "coordinates": [-78.577334573, 35.763971028]}, "type": "Feature", "properties": {"collection_times": [{"days": "Mon-Fri", "time": "1:00pm"}, {"days": "Sat", "time": "10:00am"}, {"days": "Sun", "time": "Closed"}], "id": "2761000021", "name": "USPS COLLECTION BOX - BLUE BOX", "address": {"city": "RALEIGH", "state": "NC", "street": "1020 BIRCH RIDGE DR", "postcode": "27610"}}},
{"geometry": {"type": "Point", "coordinates": [-78.614192989, 35.754145691]}, "type": "Feature", "properties": {"collection_times": [{"days": "Mon-Fri", "time": "1:00pm"}, {"days": "Sat", "time": "10:00am"}, {"days": "Sun", "time": "Closed"}], "id": "2761000026", "name": "USPS COLLECTION BOX - BLUE BOX", "address": {"city": "RALEIGH", "state": "NC", "street": "1601 CROSS LINK RD", "postcode": "27610"}}},
{"geometry": {"type": "Point", "coordinates": [-78.680012253, 35.842640138]}, "type": "Feature", "properties": {"collection_times": [{"days": "Mon-Fri", "time": "4:00pm"}, {"days": "Sat", "time": "2:00pm"}, {"days": "Sun", "time": "Closed"}], "id": "2761200004", "name": "USPS COLLECTION BOX - BLUE BOX", "address": {"city": "RALEIGH", "state": "NC", "street": "4601 GLENWOOD AVE", "postcode": "27612"}}},
{"geometry": {"type": "Point", "coordinates": [-78.680012253, 35.842640138]}, "type": "Feature", "properties": {"collection_times": [{"days": "Mon-Fri", "time": "4:00pm"}, {"days": "Sat", "time": "2:00pm"}, {"days": "Sun", "time": "Closed"}], "id": "2761200005", "name": "USPS COLLECTION BOX - BLUE BOX", "address": {"city": "RALEIGH", "state": "NC", "street": "4601 GLENWOOD AVE", "postcode": "27612"}}},
{"geometry": {"type": "Point", "coordinates": [-78.679361308, 35.84213106]}, "type": "Feature", "properties": {"collection_times": [{"days": "Mon-Fri", "time": "3:00pm"}, {"days": "Sat", "time": "10:00am"}, {"days": "Sun", "time": "Closed"}], "id": "2761200009", "name": "USPS COLLECTION BOX - BLUE BOX", "address": {"city": "RALEIGH", "state": "NC", "street": "4501 GLENWOOD AVE", "postcode": "27612"}}},
{"geometry": {"type": "Point", "coordinates": [-78.712022497, 35.859790134]}, "type": "Feature", "properties": {"collection_times": [{"days": "Mon-Fri", "time": "1:00pm"}, {"days": "Sat", "time": "10:00am"}, {"days": "Sun", "time": "Closed"}], "id": "2761200020", "name": "USPS COLLECTION BOX - BLUE BOX", "address": {"city": "RALEIGH", "state": "NC", "street": "4600 PLEASANT VALLEY RD", "postcode": "27612"}}},
{"geometry": {"type": "Point", "coordinates": [-78.728585701, 35.871519873]}, "type": "Feature", "properties": {"collection_times": [{"days": "Mon-Fri", "time": "3:00pm"}, {"days": "Sat", "time": "10:00am"}, {"days": "Sun", "time": "Closed"}], "id": "2761200021", "name": "USPS COLLECTION BOX - BLUE BOX", "address": {"city": "RALEIGH", "state": "NC", "street": "6651 WESTBOROUGH DR", "postcode": "27612"}}},
{"geometry": {"type": "Point", "coordinates": [-78.665832535, 35.82503264]}, "type": "Feature", "properties": {"collection_times": [{"days": "Mon-Fri", "time": "3:00pm"}, {"days": "Sat", "time": "10:00am"}, {"days": "Sun", "time": "Closed"}], "id": "2761200022", "name": "USPS COLLECTION BOX - BLUE BOX", "address": {"city": "RALEIGH", "state": "NC", "street": "3201 GLENWOOD AVE", "postcode": "27612"}}},
{"geometry": {"type": "Point", "coordinates": [-78.699985242, 35.854229498]}, "type": "Feature", "properties": {"collection_times": [{"days": "Mon-Fri", "time": "3:00pm"}, {"days": "Sat", "time": "10:00am"}, {"days": "Sun", "time": "Closed"}], "id": "2761200035", "name": "USPS COLLECTION BOX - BLUE BOX", "address": {"city": "RALEIGH", "state": "NC", "street": "6001 GLENWOOD AVE", "postcode": "27612"}}},
{"geometry": {"type": "Point", "coordinates": [-78.679502924, 35.843436208]}, "type": "Feature", "properties": {"collection_times": [{"days": "Mon-Fri", "time": "4:00pm"}, {"days": "Sat", "time": "10:00am"}, {"days": "Sun", "time": "Closed"}], "id": "2761200038", "name": "USPS COLLECTION BOX - BLUE BOX", "address": {"city": "RALEIGH", "state": "NC", "street": "4600 MARRIOTT DR", "postcode": "27612"}}},
{"geometry": {"type": "Point", "coordinates": [-78.708120518, 35.860150562]}, "type": "Feature", "properties": {"collection_times": [{"days": "Mon-Fri", "time": "4:00pm"}, {"days": "Sat", "time": "10:00am"}, {"days": "Sun", "time": "Closed"}], "id": "2761200040", "name": "USPS COLLECTION BOX - BLUE BOX", "address": {"city": "RALEIGH", "state": "NC", "street": "6600 GLENWOOD AVE", "postcode": "27612"}}},
{"geometry": {"type": "Point", "coordinates": [-78.712062788, 35.853530812]}, "type": "Feature", "properties": {"collection_times": [{"days": "Mon-Fri", "time": "3:00pm"}, {"days": "Sat", "time": "10:00am"}, {"days": "Sun", "time": "Closed"}], "id": "2761200043", "name": "USPS COLLECTION BOX - BLUE BOX", "address": {"city": "RALEIGH", "state": "NC", "street": "5540 MCNEELY DR", "postcode": "27612"}}},
{"geometry": {"type": "Point", "coordinates": [-78.682590387, 35.857483059]}, "type": "Feature", "properties": {"collection_times": [{"days": "Mon-Fri", "time": "3:00pm"}, {"days": "Sat", "time": "10:00am"}, {"days": "Sun", "time": "Closed"}], "id": "2761200059", "name": "USPS COLLECTION BOX - BLUE BOX", "address": {"city": "RALEIGH", "state": "NC", "street": "2840 PLAZA PL", "postcode": "27612"}}},
{"geometry": {"type": "Point", "coordinates": [-78.666297577, 35.828227332]}, "type": "Feature", "properties": {"collection_times": [{"days": "Mon-Fri", "time": "3:00pm"}, {"days": "Sat", "time": "10:00am"}, {"days": "Sun", "time": "Closed"}], "id": "2761200066", "name": "USPS COLLECTION BOX - BLUE BOX", "address": {"city": "RALEIGH", "state": "NC", "street": "3600 GLENWOOD AVE", "postcode": "27612"}}},
{"geometry": {"type": "Point", "coordinates": [-78.667023697, 35.830463966]}, "type": "Feature", "properties": {"collection_times": [{"days": "Mon-Fri", "time": "3:00pm"}, {"days": "Sat", "time": "10:00am"}, {"days": "Sun", "time": "Closed"}], "id": "2761200088", "name": "USPS COLLECTION BOX - BLUE BOX", "address": {"city": "RALEIGH", "state": "NC", "street": "3737 GLENWOOD AVE", "postcode": "27612"}}},
{"geometry": {"type": "Point", "coordinates": [-78.679647448, 35.871266504]}, "type": "Feature", "properties": {"collection_times": [{"days": "Mon-Fri", "time": "12:00pm"}, {"days": "Sat", "time": "10:00am"}, {"days": "Sun", "time": "Closed"}], "id": "2761200089", "name": "USPS COLLECTION BOX - BLUE BOX", "address": {"city": "RALEIGH", "state": "NC", "street": "6300 CREEDMOOR RD", "postcode": "27612"}}},
{"geometry": {"type": "Point", "coordinates": [-78.68119608, 35.901739043]}, "type": "Feature", "properties": {"collection_times": [{"days": "Mon-Fri", "time": "2:00pm"}, {"days": "Sat", "time": "10:00am"}, {"days": "Sun", "time": "Closed"}], "id": "2761300005", "name": "USPS COLLECTION BOX - BLUE BOX", "address": {"city": "RALEIGH", "state": "NC", "street": "8387 CREEDMOOR RD", "postcode": "27613"}}},
{"geometry": {"type": "Point", "coordinates": [-78.723700622, 35.896998862]}, "type": "Feature", "properties": {"collection_times": [{"days": "Mon-Fri", "time": "4:00pm"}, {"days": "Sat", "time": "10:00am"}, {"days": "Sun", "time": "Closed"}], "id": "2761300006", "name": "USPS COLLECTION BOX - BLUE BOX", "address": {"city": "RALEIGH", "state": "NC", "street": "9101 LEESVILLE RD", "postcode": "27613"}}},
{"geometry": {"type": "Point", "coordinates": [-78.680884065, 35.898627094]}, "type": "Feature", "properties": {"collection_times": [{"days": "Mon-Fri", "time": "4:00pm"}, {"days": "Sat", "time": "10:00am"}, {"days": "Sun", "time": "Closed"}], "id": "2761300007", "name": "USPS COLLECTION BOX - BLUE BOX", "address": {"city": "RALEIGH", "state": "NC", "street": "8111 CREEDMOOR RD", "postcode": "27613"}}},
{"geometry": {"type": "Point", "coordinates": [-78.642831485, 35.797076675]}, "type": "Feature", "properties": {"collection_times": [{"days": "Mon-Fri", "time": "4:00pm"}, {"days": "Sat", "time": "10:00am"}, {"days": "Sun", "time": "Closed"}], "id": "2761300009", "name": "USPS COLLECTION BOX - BLUE BOX", "address": {"city": "RALEIGH", "state": "NC", "street": "1427 BARTON PLACE DR", "postcode": "27613"}}},
{"geometry": {"type": "Point", "coordinates": [-78.679427165, 35.886565124]}, "type": "Feature", "properties": {"collection_times": [{"days": "Mon-Fri", "time": "3:00pm"}, {"days": "Sat", "time": "10:00am"}, {"days": "Sun", "time": "Closed"}], "id": "2761300010", "name": "USPS COLLECTION BOX - BLUE BOX", "address": {"city": "RALEIGH", "state": "NC", "street": "7300 CREEDMOOR RD", "postcode": "27613"}}},
{"geometry": {"type": "Point", "coordinates": [-78.783554956, 35.911042242]}, "type": "Feature", "properties": {"collection_times": [{"days": "Mon-Fri", "time": "3:00pm"}, {"days": "Sat", "time": "10:00am"}, {"days": "Sun", "time": "Closed"}], "id": "2761300012", "name": "USPS COLLECTION BOX - BLUE BOX", "address": {"city": "RALEIGH", "state": "NC", "street": "8100 BRIER CREEK PKWY", "postcode": "27613"}}},
{"geometry": {"type": "Point", "coordinates": [-78.580704092, 35.884787705]}, "type": "Feature", "properties": {"collection_times": [{"days": "Mon-Sat", "time": "10:00am"}, {"days": "Sun", "time": "Closed"}], "id": "2761500003", "name": "USPS COLLECTION BOX - BLUE BOX", "address": {"city": "RALEIGH", "state": "NC", "street": "3209 GRESHAM LAKE RD", "postcode": "27615"}}},
{"geometry": {"type": "Point", "coordinates": [-78.580704092, 35.884787705]}, "type": "Feature", "properties": {"collection_times": [{"days": "Mon-Sat", "time": "10:00am"}, {"days": "Sun", "time": "Closed"}], "id": "2761500007", "name": "USPS COLLECTION BOX - BLUE BOX", "address": {"city": "RALEIGH", "state": "NC", "street": "3209 GRESHAM LAKE RD", "postcode": "27615"}}},
{"geometry": {"type": "Point", "coordinates": [-78.659384876, 35.886908952]}, "type": "Feature", "properties": {"collection_times": [{"days": "Mon-Fri", "time": "1:00pm"}, {"days": "Sat", "time": "10:00am"}, {"days": "Sun", "time": "Closed"}], "id": "2761500009", "name": "USPS COLLECTION BOX - BLUE BOX", "address": {"city": "RALEIGH", "state": "NC", "street": "7713 LEAD MINE RD", "postcode": "27615"}}},
{"geometry": {"type": "Point", "coordinates": [-78.601125174, 35.892942851]}, "type": "Feature", "properties": {"collection_times": [{"days": "Mon-Fri", "time": "12:00pm"}, {"days": "Sat", "time": "10:00am"}, {"days": "Sun", "time": "Closed"}], "id": "2761500011", "name": "USPS COLLECTION BOX - BLUE BOX", "address": {"city": "RALEIGH", "state": "NC", "street": "8320 LITCHFORD RD", "postcode": "27615"}}},
{"geometry": {"type": "Point", "coordinates": [-78.64318414, 35.874084183]}, "type": "Feature", "properties": {"collection_times": [{"days": "Mon-Fri", "time": "3:00pm"}, {"days": "Sat", "time": "10:00am"}, {"days": "Sun", "time": "Closed"}], "id": "2761500022", "name": "USPS COLLECTION BOX - BLUE BOX", "address": {"city": "RALEIGH", "state": "NC", "street": "120 WIND CHIME CT", "postcode": "27615"}}},
{"geometry": {"type": "Point", "coordinates": [-78.646014968, 35.880987583]}, "type": "Feature", "properties": {"collection_times": [{"days": "Mon-Fri", "time": "3:00pm"}, {"days": "Sat", "time": "10:00am"}, {"days": "Sun", "time": "Closed"}], "id": "2761500032", "name": "USPS COLLECTION BOX - BLUE BOX", "address": {"city": "RALEIGH", "state": "NC", "street": "7401 SIX FORKS RD", "postcode": "27615"}}},
{"geometry": {"type": "Point", "coordinates": [-78.627366866, 35.890501086]}, "type": "Feature", "properties": {"collection_times": [{"days": "Mon-Fri", "time": "4:00pm"}, {"days": "Sat", "time": "1:00pm"}, {"days": "Sun", "time": "Closed"}], "id": "2761500044", "name": "USPS COLLECTION BOX - BLUE BOX", "address": {"city": "RALEIGH", "state": "NC", "street": "7800 FALLS OF NEUSE RD", "postcode": "27615"}}},
{"geometry": {"type": "Point", "coordinates": [-78.64439434, 35.875799645]}, "type": "Feature", "properties": {"collection_times": [{"days": "Mon-Fri", "time": "3:00pm"}, {"days": "Sat", "time": "10:00am"}, {"days": "Sun", "time": "Closed"}], "id": "2761500045", "name": "USPS COLLECTION BOX - BLUE BOX", "address": {"city": "RALEIGH", "state": "NC", "street": "142 MINE LAKE CT", "postcode": "27615"}}},
{"geometry": {"type": "Point", "coordinates": [-78.648288702, 35.884432451]}, "type": "Feature", "properties": {"collection_times": [{"days": "Mon-Fri", "time": "4:00pm"}, {"days": "Sat", "time": "10:00am"}, {"days": "Sun", "time": "Closed"}], "id": "2761500048", "name": "USPS COLLECTION BOX - BLUE BOX", "address": {"city": "RALEIGH", "state": "NC", "street": "120 HORIZON DR", "postcode": "27615"}}},
{"geometry": {"type": "Point", "coordinates": [-78.641107637, 35.870926955]}, "type": "Feature", "properties": {"collection_times": [{"days": "Mon-Fri", "time": "3:00pm"}, {"days": "Sat", "time": "10:00am"}, {"days": "Sun", "time": "Closed"}], "id": "2761500050", "name": "USPS COLLECTION BOX - BLUE BOX", "address": {"city": "RALEIGH", "state": "NC", "street": "6600 SIX FORKS RD", "postcode": "27615"}}},
{"geometry": {"type": "Point", "coordinates": [-78.627366866, 35.890501086]}, "type": "Feature", "properties": {"collection_times": [{"days": "Mon-Fri", "time": "4:00pm"}, {"days": "Sat", "time": "1:00pm"}, {"days": "Sun", "time": "Closed"}], "id": "2761500052", "name": "USPS COLLECTION BOX - BLUE BOX", "address": {"city": "RALEIGH", "state": "NC", "street": "7800 FALLS OF NEUSE RD", "postcode": "27615"}}},
{"geometry": {"type": "Point", "coordinates": [-78.588371481, 35.905513343]}, "type": "Feature", "properties": {"collection_times": [{"days": "Mon-Fri", "time": "12:00pm"}, {"days": "Sat", "time": "10:00am"}, {"days": "Sun", "time": "Closed"}], "id": "2761500053", "name": "USPS COLLECTION BOX - BLUE BOX", "address": {"city": "RALEIGH", "state": "NC", "street": "1121 FALLS RIVER AVE", "postcode": "27615"}}},
{"geometry": {"type": "Point", "coordinates": [-78.625191946, 35.893257847]}, "type": "Feature", "properties": {"collection_times": [{"days": "Mon-Fri", "time": "12:00pm"}, {"days": "Sat", "time": "10:00am"}, {"days": "Sun", "time": "Closed"}], "id": "2761500056", "name": "USPS COLLECTION BOX - BLUE BOX", "address": {"city": "RALEIGH", "state": "NC", "street": "13200 FALLS OF NEUSE RD", "postcode": "27615"}}},
{"geometry": {"type": "Point", "coordinates": [-78.625191946, 35.893257847]}, "type": "Feature", "properties": {"collection_times": [{"days": "Mon-Fri", "time": "12:00pm"}, {"days": "Sat", "time": "10:00am"}, {"days": "Sun", "time": "Closed"}], "id": "2761500057", "name": "USPS COLLECTION BOX - BLUE BOX", "address": {"city": "RALEIGH", "state": "NC", "street": "14460 FALLS OF NEUSE RD", "postcode": "27615"}}},
{"geometry": {"type": "Point", "coordinates": [-78.647736666, 35.896215632]}, "type": "Feature", "properties": {"collection_times": [{"days": "Mon-Fri", "time": "4:00pm"}, {"days": "Sat", "time": "10:00am"}, {"days": "Sun", "time": "Closed"}], "id": "2761500058", "name": "USPS COLLECTION BOX - BLUE BOX", "address": {"city": "RALEIGH", "state": "NC", "street": "9131 ANSON WAY", "postcode": "27615"}}},
{"geometry": {"type": "Point", "coordinates": [-78.651319476, 35.899116612]}, "type": "Feature", "properties": {"collection_times": [{"days": "Mon-Fri", "time": "1:00pm"}, {"days": "Sat", "time": "10:00am"}, {"days": "Sun", "time": "Closed"}], "id": "2761500059", "name": "USPS COLLECTION BOX - BLUE BOX", "address": {"city": "RALEIGH", "state": "NC", "street": "8701 SIX FORKS RD", "postcode": "27615"}}},
{"geometry": {"type": "Point", "coordinates": [-78.579067701, 35.857295411]}, "type": "Feature", "properties": {"collection_times": [{"days": "Mon-Sat", "time": "9:30am"}, {"days": "Sun", "time": "Closed"}], "id": "2761600001", "name": "USPS COLLECTION BOX - BLUE BOX", "address": {"city": "RALEIGH", "state": "NC", "street": "5200 GREENS DAIRY RD", "postcode": "27616"}}},
{"geometry": {"type": "Point", "coordinates": [-78.540750053, 35.875338832]}, "type": "Feature", "properties": {"collection_times": [{"days": "Mon-Sat", "time": "9:00am"}, {"days": "Sun", "time": "Closed"}], "id": "2761600002", "name": "USPS COLLECTION BOX - BLUE BOX", "address": {"city": "RALEIGH", "state": "NC", "street": "7440 LOUISBURG RD", "postcode": "27616"}}},
{"geometry": {"type": "Point", "coordinates": [-78.626669079, 35.820640013]}, "type": "Feature", "properties": {"collection_times": [{"days": "Mon-Fri", "time": "5:00pm"}, {"days": "Sat", "time": "12:00pm"}, {"days": "Sun", "time": "Closed"}], "id": "2761900001", "name": "USPS COLLECTION BOX - PO LOBBY", "address": {"city": "RALEIGH", "state": "NC", "street": "350 E SIX FORKS RD", "postcode": "27619"}}},
{"geometry": {"type": "Point", "coordinates": [-78.583420592, 35.778463438]}, "type": "Feature", "properties": {"collection_times": [{"days": "Mon-Fri", "time": "5:00pm"}, {"days": "Sat", "time": "1:30pm"}, {"days": "Sun", "time": "Closed"}], "id": "2762000001", "name": "USPS COLLECTION BOX - PO LOBBY", "address": {"city": "RALEIGH", "state": "NC", "street": "236 SUNNYBROOK RD", "postcode": "27620"}}},
{"geometry": {"type": "Point", "coordinates": [-78.626669079, 35.820640013]}, "type": "Feature", "properties": {"collection_times": [{"days": "Mon-Fri", "time": "5:00pm"}, {"days": "Sat", "time": "12:00pm"}, {"days": "Sun", "time": "Closed"}], "id": "2762200002", "name": "USPS COLLECTION BOX - APC", "address": {"city": "RALEIGH", "state": "NC", "street": "350 E SIX FORKS RD", "postcode": "27622"}}},
{"geometry": {"type": "Point", "coordinates": [-78.627369366, 35.890429138]}, "type": "Feature", "properties": {"collection_times": [{"days": "Mon-Fri", "time": "5:00pm"}, {"days": "Sat", "time": "1:30pm"}, {"days": "Sun", "time": "Closed"}], "id": "2762400001", "name": "USPS COLLECTION BOX - PO LOBBY", "address": {"city": "RALEIGH", "state": "NC", "street": "7800 FALLS OF NEUSE RD", "postcode": "27624"}}},
{"geometry": {"type": "Point", "coordinates": [-78.627369366, 35.890429138]}, "type": "Feature", "properties": {"collection_times": [{"days": "Mon-Fri", "time": "5:00pm"}, {"days": "Sat", "time": "1:30pm"}, {"days": "Sun", "time": "Closed"}], "id": "2762400002", "name": "USPS COLLECTION BOX - APC", "address": {"city": "RALEIGH", "state": "NC", "street": "7800 FALLS OF NEUSE RD", "postcode": "27624"}}},
{"geometry": {"type": "Point", "coordinates": [-78.646208521, 35.80421209]}, "type": "Feature", "properties": {"collection_times": [{"days": "Mon-Fri", "time": "4:00pm"}, {"days": "Sat-Sun", "time": "Closed"}], "id": "2762800001", "name": "USPS COLLECTION BOX - PO LOBBY", "address": {"city": "RALEIGH", "state": "NC", "street": "2009 FAIRVIEW RD", "postcode": "27628"}}},
{"geometry": {"type": "Point", "coordinates": [-78.595141144, 35.81742795]}, "type": "Feature", "properties": {"collection_times": [{"days": "Mon-Fri", "time": "5:00pm"}, {"days": "Sat", "time": "12:00pm"}, {"days": "Sun", "time": "Closed"}], "id": "2762900001", "name": "USPS COLLECTION BOX - PO LOBBY", "address": {"city": "RALEIGH", "state": "NC", "street": "2777 BRENTWOOD RD", "postcode": "27629"}}},
{"geometry": {"type": "Point", "coordinates": [-78.595141144, 35.81742795]}, "type": "Feature", "properties": {"collection_times": [{"days": "Mon-Fri", "time": "5:00pm"}, {"days": "Sat", "time": "12:00pm"}, {"days": "Sun", "time": "Closed"}], "id": "2762900002", "name": "USPS COLLECTION BOX - APC", "address": {"city": "RALEIGH", "state": "NC", "street": "2777 BRENTWOOD RD", "postcode": "27629"}}},
{"geometry": {"type": "Point", "coordinates": [-78.692322266, 35.794350912]}, "type": "Feature", "properties": {"collection_times": [{"days": "Mon-Fri", "time": "4:30pm"}, {"days": "Sat-Sun", "time": "Closed"}], "id": "2763600001", "name": "USPS COLLECTION BOX - PO LOBBY", "address": {"city": "RALEIGH", "state": "NC", "street": "3919 BERYL RD", "postcode": "27636"}}},
{"geometry": {"type": "Point", "coordinates": [-78.596121073, 35.848243365]}, "type": "Feature", "properties": {"collection_times": [{"days": "Mon-Fri", "time": "5:00pm"}, {"days": "Sat-Sun", "time": "Closed"}], "id": "2765800001", "name": "USPS COLLECTION BOX - PO LOBBY", "address": {"city": "RALEIGH", "state": "NC", "street": "4901 DEPARTURE DR", "postcode": "27658"}}},
{"geometry": {"type": "Point", "coordinates": [-78.579636465, 35.871691315]}, "type": "Feature", "properties": {"collection_times": [{"days": "Mon-Fri", "time": "5:00pm"}, {"days": "Sat-Sun", "time": "Closed"}], "id": "2766100001", "name": "USPS COLLECTION BOX - PO LOBBY", "address": {"city": "RALEIGH", "state": "NC", "street": "6320 CAPITAL BLVD", "postcode": "27661"}}},
{"geometry": {"type": "Point", "coordinates": [-78.748818529, 35.904921296]}, "type": "Feature", "properties": {"collection_times": [{"days": "Mon-Fri", "time": "4:00pm"}, {"days": "Sat", "time": "1:00pm"}, {"days": "Sun", "time": "Closed"}], "id": "2767500001", "name": "USPS COLLECTION BOX - BLUE BOX", "address": {"city": "RALEIGH", "state": "NC", "street": "1 FLORETTA PL", "postcode": "27675"}}},
{"geometry": {"type": "Point", "coordinates": [-78.748818529, 35.904921296]}, "type": "Feature", "properties": {"collection_times": [{"days": "Mon-Fri", "time": "4:00pm"}, {"days": "Sat", "time": "1:00pm"}, {"days": "Sun", "time": "Closed"}], "id": "2767500002", "name": "USPS COLLECTION BOX - BLUE BOX", "address": {"city": "RALEIGH", "state": "NC", "street": "1 FLORETTA PL", "postcode": "27675"}}},
{"geometry": {"type": "Point", "coordinates": [-78.748818529, 35.904921296]}, "type": "Feature", "properties": {"collection_times": [{"days": "Mon-Fri", "time": "5:00pm"}, {"days": "Sat", "time": "2:00pm"}, {"days": "Sun", "time": "Closed"}], "id": "2767500003", "name": "USPS COLLECTION BOX - PO LOBBY", "address": {"city": "RALEIGH", "state": "NC", "street": "1 FLORETTA PL", "postcode": "27675"}}},
{"geometry": {"type": "Point", "coordinates": [-78.748818529, 35.904921296]}, "type": "Feature", "properties": {"collection_times": [{"days": "Mon-Fri", "time": "5:00pm"}, {"days": "Sat", "time": "2:00pm"}, {"days": "Sun", "time": "Closed"}], "id": "2767500004", "name": "USPS COLLECTION BOX - APC", "address": {"city": "RALEIGH", "state": "NC", "street": "1 FLORETTA PL", "postcode": "27675"}}}
]}
