{"type": "FeatureCollection", "features": [
{"geometry": {"type": "Point", "coordinates": [-78.900281621, 35.996958552]}, "type": "Feature", "properties": {"collection_times": [{"days": "Mon-Fri", "time": "5:00pm"}, {"days": "Sat", "time": "10:00am"}, {"days": "Sun", "time": "Closed"}], "id": "2770100000", "name": "USPS COLLECTION BOX - BLUE BOX", "address": {"city": "DURHAM", "state": "NC", "street": "323 E CHAPEL HILL ST", "postcode": "27701"}}},
{"geometry": {"type": "Point", "coordinates": [-78.899887849, 35.997031832]}, "type": "Feature", "properties": {"collection_times": [{"days": "Mon-Fri", "time": "5:00pm"}, {"days": "Sat", "time": "12:00pm"}, {"days": "Sun", "time": "Closed"}], "id": "2770100003", "name": "USPS COLLECTION BOX - BLUE BOX", "address": {"city": "DURHAM", "state": "NC", "street": "200 RIGSBEE AVE", "postcode": "27701"}}},
{"geometry": {"type": "Point", "coordinates": [-78.911016118, 36.010488986]}, "type": "Feature", "properties": {"collection_times": [{"days": "Mon-Fri", "time": "12:00pm"}, {"days": "Sat", "time": "10:00am"}, {"days": "Sun", "time": "Closed"}], "id": "2770100012", "name": "USPS COLLECTION BOX - BLUE BOX", "address": {"city": "DURHAM", "state": "NC", "street": "1016 WATTS ST", "postcode": "27701"}}},
{"geometry": {"type": "Point", "coordinates": [-78.909671053, 36.002328105]}, "type": "Feature", "properties": {"collection_times": [{"days": "Mon-Sat", "time": "9:00am"}, {"days": "Sun", "time": "Closed"}], "id": "2770100014", "name": "USPS COLLECTION BOX - BLUE BOX", "address": {"city": "DURHAM", "state": "NC", "street": "1006 LAMOND AVE", "postcode": "27701"}}},
{"geometry": {"type": "Point", "coordinates": [-78.921187607, 35.996712958]}, "type": "Feature", "properties": {"collection_times": [{"days": "Mon-Fri", "time": "12:00pm"}, {"days": "Sat", "time": "10:00am"}, {"days": "Sun", "time": "Closed"}], "id": "2770100016", "name": "USPS COLLECTION BOX - BLUE BOX", "address": {"city": "DURHAM", "state": "NC", "street": "1500 DUKE UNIVERSITY RD", "postcode": "27701"}}},
{"geometry": {"type": "Point", "coordinates": [-78.891073818, 35.974610491]}, "type": "Feature", "properties": {"collection_times": [{"days": "Mon-Fri", "time": "12:00pm"}, {"days": "Sat", "time": "10:00am"}, {"days": "Sun", "time": "Closed"}], "id": "2770100021", "name": "USPS COLLECTION BOX - BLUE BOX", "address": {"city": "DURHAM", "state": "NC", "street": "1101 E LAWSON ST", "postcode": "27701"}}},
{"geometry": {"type": "Point", "coordinates": [-78.907588991, 35.996868452]}, "type": "Feature", "properties": {"collection_times": [{"days": "Mon-Fri", "time": "3:00pm"}, {"days": "Sat", "time": "10:00am"}, {"days": "Sun", "time": "Closed"}], "id": "2770100028", "name": "USPS COLLECTION BOX - BLUE BOX", "address": {"city": "DURHAM", "state": "NC", "street": "404 WILLARD ST", "postcode": "27701"}}},
{"geometry": {"type": "Point", "coordinates": [-78.909745647, 36.000305927]}, "type": "Feature", "properties": {"collection_times": [{"days": "Mon-Fri", "time": "3:00pm"}, {"days": "Sat", "time": "10:00am"}, {"days": "Sun", "time": "Closed"}], "id": "2770100032", "name": "USPS COLLECTION BOX - BLUE BOX", "address": {"city": "DURHAM", "state": "NC", "street": "905 W MAIN ST", "postcode": "27701"}}},
{"geometry": {"type": "Point", "coordinates": [-78.908961252, 36.016968206]}, "type": "Feature", "properties": {"collection_times": [{"days": "Mon-Fri", "time": "3:00pm"}, {"days": "Sat", "time": "10:00am"}, {"days": "Sun", "time": "Closed"}], "id": "2770100036", "name": "USPS COLLECTION BOX - BLUE BOX", "address": {"city": "DURHAM", "state": "NC", "street": "1058 W CLUB BLVD", "postcode": "27701"}}},
{"geometry": {"type": "Point", "coordinates": [-78.901517073, 35.999537848]}, "type": "Feature", "properties": {"collection_times": [{"days": "Mon-Fri", "time": "12:00pm"}, {"days": "Sat", "time": "10:00am"}, {"days": "Sun", "time": "Closed"}], "id": "2770100039", "name": "USPS COLLECTION BOX - BLUE BOX", "address": {"city": "DURHAM", "state": "NC", "street": "400 FOSTER ST", "postcode": "27701"}}},
{"geometry": {"type": "Point", "coordinates": [-78.901414507, 36.0044004]}, "type": "Feature", "properties": {"collection_times": [{"days": "Mon-Fri", "time": "12:00pm"}, {"days": "Sat", "time": "10:00am"}, {"days": "Sun", "time": "Closed"}], "id": "2770100040", "name": "USPS COLLECTION BOX - BLUE BOX", "address": {"city": "DURHAM", "state": "NC", "street": "721 FOSTER ST", "postcode": "27701"}}},
{"geometry": {"type": "Point", "coordinates": [-78.90745773, 36.018654714]}, "type": "Feature", "properties": {"collection_times": [{"days": "Mon-Fri", "time": "3:00pm"}, {"days": "Sat", "time": "10:00am"}, {"days": "Sun", "time": "Closed"}], "id": "2770100053", "name": "USPS COLLECTION BOX - BLUE BOX", "address": {"city": "DURHAM", "state": "NC", "street": "1530 N GREGSON ST", "postcode": "27701"}}},
{"geometry": {"type": "Point", "coordinates": [-78.903504285, 36.001513405]}, "type": "Feature", "properties": {"collection_times": [{"days": "Mon-Fri", "time": "3:00pm"}, {"days": "Sat", "time": "10:00am"}, {"days": "Sun", "time": "Closed"}], "id": "2770100061", "name": "USPS COLLECTION BOX - BLUE BOX", "address": {"city": "DURHAM", "state": "NC", "street": "423 MORRIS ST", "postcode": "27701"}}},
{"geometry": {"type": "Point", "coordinates": [-78.91356972, 35.996843166]}, "type": "Feature", "properties": {"collection_times": [{"days": "Mon-Fri", "time": "3:00pm"}, {"days": "Sat", "time": "10:00am"}, {"days": "Sun", "time": "Closed"}], "id": "2770100062", "name": "USPS COLLECTION BOX - BLUE BOX", "address": {"city": "DURHAM", "state": "NC", "street": "807 W CHAPEL HILL ST", "postcode": "27701"}}},
{"geometry": {"type": "Point", "coordinates": [-78.904426212, 35.997175339]}, "type": "Feature", "properties": {"collection_times": [{"days": "Mon-Fri", "time": "3:00pm"}, {"days": "Sat", "time": "10:00am"}, {"days": "Sun", "time": "Closed"}], "id": "2770100065", "name": "USPS COLLECTION BOX - BLUE BOX", "address": {"city": "DURHAM", "state": "NC", "street": "400 W MAIN ST", "postcode": "27701"}}},
{"geometry": {"type": "Point", "coordinates": [-78.902169764, 35.998188176]}, "type": "Feature", "properties": {"collection_times": [{"days": "Mon-Fri", "time": "11:00am"}, {"days": "Sat", "time": "10:00am"}, {"days": "Sun", "time": "Closed"}], "id": "2770100067", "name": "USPS COLLECTION BOX - BLUE BOX", "address": {"city": "DURHAM", "state": "NC", "street": "300 W MORGAN ST", "postcode": "27701"}}},
{"geometry": {"type": "Point", "coordinates": [-78.899887849, 35.997031832]}, "type": "Feature", "properties": {"collection_times": [{"days": "Mon-Fri", "time": "5:00pm"}, {"days": "Sat", "time": "12:00pm"}, {"days": "Sun", "time": "Closed"}], "id": "2770100070", "name": "USPS COLLECTION BOX - BLUE BOX", "address": {"city": "DURHAM", "state": "NC", "street": "200 RIGSBEE AVE", "postcode": "27701"}}},
{"geometry": {"type": "Point", "coordinates": [-78.899887849, 35.997031832]}, "type": "Feature", "properties": {"collection_times": [{"days": "Mon-Fri", "time": "5:00pm"}, {"days": "Sat", "time": "12:00pm"}, {"days": "Sun", "time": "Closed"}], "id": "2770100071", "name": "USPS COLLECTION BOX - BLUE BOX", "address": {"city": "DURHAM", "state": "NC", "street": "200 RIGSBEE AVE", "postcode": "27701"}}},
{"geometry": {"type": "Point", "coordinates": [-78.902169764, 35.998188176]}, "type": "Feature", "properties": {"collection_times": [{"days": "Mon-Fri", "time": "11:00am"}, {"days": "Sat", "time": "10:00am"}, {"days": "Sun", "time": "Closed"}], "id": "2770100073", "name": "USPS COLLECTION BOX - BLUE BOX", "address": {"city": "DURHAM", "state": "NC", "street": "300 W MORGAN ST", "postcode": "27701"}}},
{"geometry": {"type": "Point", "coordinates": [-78.900281621, 35.996958552]}, "type": "Feature", "properties": {"collection_times": [{"days": "Mon-Fri", "time": "5:00pm"}, {"days": "Sat", "time": "12:00pm"}, {"days": "Sun", "time": "Closed"}], "id": "2770100078", "name": "USPS COLLECTION BOX - PO LOBBY", "address": {"city": "DURHAM", "state": "NC", "street": "323 E CHAPEL HILL ST", "postcode": "27701"}}},
{"geometry": {"type": "Point", "coordinates": [-78.902289813, 35.992063366]}, "type": "Feature", "properties": {"collection_times": [{"days": "Mon-Fri", "time": "3:00pm"}, {"days": "Sat", "time": "10:00am"}, {"days": "Sun", "time": "Closed"}], "id": "2770100079", "name": "USPS COLLECTION BOX - BLUE BOX", "address": {"city": "DURHAM", "state": "NC", "street": "280 S MANGUM ST", "postcode": "27701"}}},
{"geometry": {"type": "Point", "coordinates": [-78.899646413, 35.994475994]}, "type": "Feature", "properties": {"collection_times": [{"days": "Mon-Fri", "time": "3:00pm"}, {"days": "Sat", "time": "10:00am"}, {"days": "Sun", "time": "Closed"}], "id": "2770100080", "name": "USPS COLLECTION BOX - BLUE BOX", "address": {"city": "DURHAM", "state": "NC", "street": "127 E MAIN ST", "postcode": "27701"}}},
{"geometry": {"type": "Point", "coordinates": [-78.902260737, 35.99610148]}, "type": "Feature", "properties": {"collection_times": [{"days": "Mon-Fri", "time": "4:00pm"}, {"days": "Sat", "time": "10:00am"}, {"days": "Sun", "time": "Closed"}], "id": "2770100084", "name": "USPS COLLECTION BOX - BLUE BOX", "address": {"city": "DURHAM", "state": "NC", "street": "102 MARKET ST", "postcode": "27701"}}},
{"geometry": {"type": "Point", "coordinates": [-78.902260737, 35.99610148]}, "type": "Feature", "properties": {"collection_times": [{"days": "Mon-Fri", "time": "4:00pm"}, {"days": "Sat", "time": "10:00am"}, {"days": "Sun", "time": "Closed"}], "id": "2770100086", "name": "USPS COLLECTION BOX - BLUE BOX", "address": {"city": "DURHAM", "state": "NC", "street": "102 MARKET ST", "postcode": "27701"}}},
{"geometry": {"type": "Point", "coordinates": [-78.871488606, 35.99515083]}, "type": "Feature", "properties": {"collection_times": [{"days": "Mon-Fri", "time": "5:00pm"}, {"days": "Sat", "time": "12:30pm"}, {"days": "Sun", "time": "Closed"}], "id": "2770300001", "name": "USPS COLLECTION BOX - BLUE BOX", "address": {"city": "DURHAM", "state": "NC", "street": "1100 N MIAMI BLVD", "postcode": "27703"}}},
{"geometry": {"type": "Point", "coordinates": [-78.871488606, 35.99515083]}, "type": "Feature", "properties": {"collection_times": [{"days": "Mon-Fri", "time": "5:00pm"}, {"days": "Sat", "time": "12:30pm"}, {"days": "Sun", "time": "Closed"}], "id": "2770300002", "name": "USPS COLLECTION BOX - BLUE BOX", "address": {"city": "DURHAM", "state": "NC", "street": "1100 N MIAMI BLVD", "postcode": "27703"}}},
{"geometry": {"type": "Point", "coordinates": [-78.867715855, 35.992417614]}, "type": "Feature", "properties": {"collection_times": [{"days": "Mon-Fri", "time": "11:30am"}, {"days": "Sat", "time": "10:00am"}, {"days": "Sun", "time": "Closed"}], "id": "2770300016", "name": "USPS COLLECTION BOX - BLUE BOX", "address": {"city": "DURHAM", "state": "NC", "street": "1935 HOLLOWAY ST", "postcode": "27703"}}},
{"geometry": {"type": "Point", "coordinates": [-78.820862811, 35.981443058]}, "type": "Feature", "properties": {"collection_times": [{"days": "Mon-Fri", "time": "11:00am"}, {"days": "Sat", "time": "10:00am"}, {"days": "Sun", "time": "Closed"}], "id": "2770300022", "name": "USPS COLLECTION BOX - BLUE BOX", "address": {"city": "DURHAM", "state": "NC", "street": "3801 WAKE FOREST RD", "postcode": "27703"}}},
{"geometry": {"type": "Point", "coordinates": [-78.870121451, 35.991238178]}, "type": "Feature", "properties": {"collection_times": [{"days": "Mon-Fri", "time": "12:00pm"}, {"days": "Sat", "time": "10:00am"}, {"days": "Sun", "time": "Closed"}], "id": "2770300024", "name": "USPS COLLECTION BOX - BLUE BOX", "address": {"city": "DURHAM", "state": "NC", "street": "622 GARY ST", "postcode": "27703"}}},
{"geometry": {"type": "Point", "coordinates": [-78.871488606, 35.99515083]}, "type": "Feature", "properties": {"collection_times": [{"days": "Mon-Fri", "time": "5:00pm"}, {"days": "Sat", "time": "12:30pm"}, {"days": "Sun", "time": "Closed"}], "id": "2770300026", "name": "USPS COLLECTION BOX - BLUE BOX", "address": {"city": "DURHAM", "state": "NC", "street": "1100 N MIAMI BLVD", "postcode": "27703"}}},
{"geometry": {"type": "Point", "coordinates": [-78.846942747, 35.882126822]}, "type": "Feature", "properties": {"collection_times": [{"days": "Mon-Fri", "time": "12:00pm"}, {"days": "Sat", "time": "10:00am"}, {"days": "Sun", "time": "Closed"}], "id": "2770300034", "name": "USPS COLLECTION BOX - BLUE BOX", "address": {"city": "DURHAM", "state": "NC", "street": "4625 CREEKSTONE DR", "postcode": "27703"}}},
{"geometry": {"type": "Point", "coordinates": [-78.850234176, 35.881506765]}, "type": "Feature", "properties": {"collection_times": [{"days": "Mon-Fri", "time": "12:00pm"}, {"days": "Sat", "time": "10:00am"}, {"days": "Sun", "time": "Closed"}], "id": "2770300035", "name": "USPS COLLECTION BOX - BLUE BOX", "address": {"city": "DURHAM", "state": "NC", "street": "5400 S MIAMI BLVD", "postcode": "27703"}}},
{"geometry": {"type": "Point", "coordinates": [-78.84678074, 35.873302668]}, "type": "Feature", "properties": {"collection_times": [{"days": "Mon-Fri", "time": "4:30pm"}, {"days": "Sat", "time": "10:00am"}, {"days": "Sun", "time": "Closed"}], "id": "2770300036", "name": "USPS COLLECTION BOX - BLUE BOX", "address": {"city": "DURHAM", "state": "NC", "street": "4222 EMPEROR BLVD", "postcode": "27703"}}},
{"geometry": {"type": "Point", "coordinates": [-78.841456643, 35.878103446]}, "type": "Feature", "properties": {"collection_times": [{"days": "Mon-Fri", "time": "4:30pm"}, {"days": "Sat", "time": "10:00am"}, {"days": "Sun", "time": "Closed"}], "id": "2770300038", "name": "USPS COLLECTION BOX - BLUE BOX", "address": {"city": "DURHAM", "state": "NC", "street": "1005 SLATER RD", "postcode": "27703"}}},
{"geometry": {"type": "Point", "coordinates": [-78.841456643, 35.878103446]}, "type": "Feature", "properties": {"collection_times": [{"days": "Mon-Fri", "time": "4:30pm"}, {"days": "Sat", "time": "10:00am"}, {"days": "Sun", "time": "Closed"}], "id": "2770300039", "name": "USPS COLLECTION BOX - BLUE BOX", "address": {"city": "DURHAM", "state": "NC", "street": "1005 SLATER RD", "postcode": "27703"}}},
{"geometry": {"type": "Point", "coordinates": [-78.884823373, 35.975852964]}, "type": "Feature", "properties": {"collection_times": [{"days": "Mon-Fri", "time": "12:00pm"}, {"days": "Sat", "time": "10:00am"}, {"days": "Sun", "time": "Closed"}], "id": "2770300040", "name": "USPS COLLECTION BOX - BLUE BOX", "address": {"city": "DURHAM", "state": "NC", "street": "800 BACON ST", "postcode": "27703"}}},
{"geometry": {"type": "Point", "coordinates": [-78.871488606, 35.99515083]}, "type": "Feature", "properties": {"collection_times": [{"days": "Mon-Fri", "time": "5:00pm"}, {"days": "Sat", "time": "12:30pm"}, {"days": "Sun", "time": "Closed"}], "id": "2770300041", "name": "USPS COLLECTION BOX - PO LOBBY", "address": {"city": "DURHAM", "state": "NC", "street": "1100 N MIAMI BLVD", "postcode": "27703"}}},
{"geometry": {"type": "Point", "coordinates": [-78.892212585, 36.034819255]}, "type": "Feature", "properties": {"collection_times": [{"days": "Mon-Fri", "time": "4:30pm"}, {"days": "Sat", "time": "11:30am"}, {"days": "Sun", "time": "Closed"}], "id": "2770400002", "name": "USPS COLLECTION BOX - BLUE BOX", "address": {"city": "DURHAM", "state": "NC", "street": "3409 N ROXBORO ST", "postcode": "27704"}}},
{"geometry": {"type": "Point", "coordinates": [-78.89573143, 36.019046329]}, "type": "Feature", "properties": {"collection_times": [{"days": "Mon-Fri", "time": "12:00pm"}, {"days": "Sat", "time": "10:00am"}, {"days": "Sun", "time": "Closed"}], "id": "2770400009", "name": "USPS COLLECTION BOX - BLUE BOX", "address": {"city": "DURHAM", "state": "NC", "street": "310 W CLUB BLVD", "postcode": "27704"}}},
{"geometry": {"type": "Point", "coordinates": [-78.907267489, 36.068079311]}, "type": "Feature", "properties": {"collection_times": [{"days": "Mon-Fri", "time": "3:00pm"}, {"days": "Sat", "time": "10:00am"}, {"days": "Sun", "time": "Closed"}], "id": "2770400011", "name": "USPS COLLECTION BOX - BLUE BOX", "address": {"city": "DURHAM", "state": "NC", "street": "5106 N ROXBORO ST", "postcode": "27704"}}},
{"geometry": {"type": "Point", "coordinates": [-78.909566157, 36.051333574]}, "type": "Feature", "properties": {"collection_times": [{"days": "Mon-Fri", "time": "12:00pm"}, {"days": "Sat", "time": "10:00am"}, {"days": "Sun", "time": "Closed"}], "id": "2770400017", "name": "USPS COLLECTION BOX - BLUE BOX", "address": {"city": "DURHAM", "state": "NC", "street": "711 HORTON RD", "postcode": "27704"}}},
{"geometry": {"type": "Point", "coordinates": [-78.905543946, 36.031040699]}, "type": "Feature", "properties": {"collection_times": [{"days": "Mon-Fri", "time": "4:00pm"}, {"days": "Sat", "time": "10:00am"}, {"days": "Sun", "time": "Closed"}], "id": "2770400018", "name": "USPS COLLECTION BOX - BLUE BOX", "address": {"city": "DURHAM", "state": "NC", "street": "2609 N DUKE ST", "postcode": "27704"}}},
{"geometry": {"type": "Point", "coordinates": [-78.893908556, 36.035976678]}, "type": "Feature", "properties": {"collection_times": [{"days": "Mon-Fri", "time": "12:00pm"}, {"days": "Sat", "time": "10:00am"}, {"days": "Sun", "time": "Closed"}], "id": "2770400020", "name": "USPS COLLECTION BOX - BLUE BOX", "address": {"city": "DURHAM", "state": "NC", "street": "3500 N ROXBORO ST", "postcode": "27704"}}},
{"geometry": {"type": "Point", "coordinates": [-78.905776248, 36.047779757]}, "type": "Feature", "properties": {"collection_times": [{"days": "Mon-Fri", "time": "3:00pm"}, {"days": "Sat", "time": "10:00am"}, {"days": "Sun", "time": "Closed"}], "id": "2770400022", "name": "USPS COLLECTION BOX - BLUE BOX", "address": {"city": "DURHAM", "state": "NC", "street": "3600 N DUKE ST", "postcode": "27704"}}},
{"geometry": {"type": "Point", "coordinates": [-78.905786374, 36.047000169]}, "type": "Feature", "properties": {"collection_times": [{"days": "Mon-Fri", "time": "4:00pm"}, {"days": "Sat", "time": "10:00am"}, {"days": "Sun", "time": "Closed"}], "id": "2770400026", "name": "USPS COLLECTION BOX - BLUE BOX", "address": {"city": "DURHAM", "state": "NC", "street": "3414 N DUKE ST", "postcode": "27704"}}},
{"geometry": {"type": "Point", "coordinates": [-78.888106596, 36.015089387]}, "type": "Feature", "properties": {"collection_times": [{"days": "Mon-Fri", "time": "12:00pm"}, {"days": "Sat", "time": "10:00am"}, {"days": "Sun", "time": "Closed"}], "id": "2770400028", "name": "USPS COLLECTION BOX - BLUE BOX", "address": {"city": "DURHAM", "state": "NC", "street": "2000 AVONDALE DR", "postcode": "27704"}}},
{"geometry": {"type": "Point", "coordinates": [-78.892212585, 36.034819255]}, "type": "Feature", "properties": {"collection_times": [{"days": "Mon-Fri", "time": "4:30pm"}, {"days": "Sat", "time": "11:30am"}, {"days": "Sun", "time": "Closed"}], "id": "2770400029", "name": "USPS COLLECTION BOX - BLUE BOX", "address": {"city": "DURHAM", "state": "NC", "street": "3409 N ROXBORO ST", "postcode": "27704"}}},
{"geometry": {"type": "Point", "coordinates": [-78.90466329, 36.064236037]}, "type": "Feature", "properties": {"collection_times": [{"days": "Mon-Fri", "time": "12:00pm"}, {"days": "Sat", "time": "10:00am"}, {"days": "Sun", "time": "Closed"}], "id": "2770400034", "name": "USPS COLLECTION BOX - BLUE BOX", "address": {"city": "DURHAM", "state": "NC", "street": "4900 N ROXBORO ST", "postcode": "27704"}}},
{"geometry": {"type": "Point", "coordinates": [-78.893908556, 36.035976678]}, "type": "Feature", "properties": {"collection_times": [{"days": "Mon-Fri", "time": "5:00pm"}, {"days": "Sat", "time": "12:30pm"}, {"days": "Sun", "time": "Closed"}], "id": "2770400037", "name": "USPS COLLECTION BOX - PO LOBBY", "address": {"city": "DURHAM", "state": "NC", "street": "3500 N ROXBORO ST", "postcode": "27704"}}},
{"geometry": {"type": "Point", "coordinates": [-78.949009698, 36.013097512]}, "type": "Feature", "properties": {"collection_times": [{"days": "Mon-Fri", "time": "5:00pm"}, {"days": "Sat", "time": "12:30pm"}, {"days": "Sun", "time": "Closed"}], "id": "2770500002", "name": "USPS COLLECTION BOX - BLUE BOX", "address": {"city": "DURHAM", "state": "NC", "street": "3520 KANGAROO DR", "postcode": "27705"}}},
{"geometry": {"type": "Point", "coordinates": [-78.922152556, 36.007432496]}, "type": "Feature", "properties": {"collection_times": [{"days": "Mon-Fri", "time": "3:00pm"}, {"days": "Sat", "time": "10:00am"}, {"days": "Sun", "time": "Closed"}], "id": "2770500005", "name": "USPS COLLECTION BOX - BLUE BOX", "address": {"city": "DURHAM", "state": "NC", "street": "626 9TH ST", "postcode": "27705"}}},
{"geometry": {"type": "Point", "coordinates": [-78.92951637, 36.038523339]}, "type": "Feature", "properties": {"collection_times": [{"days": "Mon-Fri", "time": "3:00pm"}, {"days": "Sat", "time": "10:00am"}, {"days": "Sun", "time": "Closed"}], "id": "2770500009", "name": "USPS COLLECTION BOX - BLUE BOX", "address": {"city": "DURHAM", "state": "NC", "street": "3300 GUESS RD", "postcode": "27705"}}},
{"geometry": {"type": "Point", "coordinates": [-78.929240912, 36.057487318]}, "type": "Feature", "properties": {"collection_times": [{"days": "Mon-Fri", "time": "12:00pm"}, {"days": "Sat", "time": "10:00am"}, {"days": "Sun", "time": "Closed"}], "id": "2770500011", "name": "USPS COLLECTION BOX - BLUE BOX", "address": {"city": "DURHAM", "state": "NC", "street": "1500 HORTON RD", "postcode": "27705"}}},
{"geometry": {"type": "Point", "coordinates": [-78.961396848, 35.975888275]}, "type": "Feature", "properties": {"collection_times": [{"days": "Mon-Fri", "time": "12:00pm"}, {"days": "Sat", "time": "10:00am"}, {"days": "Sun", "time": "Closed"}], "id": "2770500013", "name": "USPS COLLECTION BOX - BLUE BOX", "address": {"city": "DURHAM", "state": "NC", "street": "18 W COLONY PL", "postcode": "27705"}}},
{"geometry": {"type": "Point", "coordinates": [-78.954168291, 36.02275618]}, "type": "Feature", "properties": {"collection_times": [{"days": "Mon-Fri", "time": "3:00pm"}, {"days": "Sat", "time": "10:00am"}, {"days": "Sun", "time": "Closed"}], "id": "2770500024", "name": "USPS COLLECTION BOX - BLUE BOX", "address": {"city": "DURHAM", "state": "NC", "street": "3600 HILLSBOROUGH RD", "postcode": "27705"}}},
{"geometry": {"type": "Point", "coordinates": [-78.919406645, 36.013387727]}, "type": "Feature", "properties": {"collection_times": [{"days": "Mon-Fri", "time": "3:00pm"}, {"days": "Sat", "time": "10:00am"}, {"days": "Sun", "time": "Closed"}], "id": "2770500029", "name": "USPS COLLECTION BOX - BLUE BOX", "address": {"city": "DURHAM", "state": "NC", "street": "922 BROAD ST", "postcode": "27705"}}},
{"geometry": {"type": "Point", "coordinates": [-78.919744647, 36.008583453]}, "type": "Feature", "properties": {"collection_times": [{"days": "Mon-Fri", "time": "3:00pm"}, {"days": "Sat", "time": "10:00am"}, {"days": "Sun", "time": "Closed"}], "id": "2770500030", "name": "USPS COLLECTION BOX - BLUE BOX", "address": {"city": "DURHAM", "state": "NC", "street": "715 BROAD ST", "postcode": "27705"}}},
{"geometry": {"type": "Point", "coordinates": [-78.933183011, 36.006158346]}, "type": "Feature", "properties": {"collection_times": [{"days": "Mon-Fri", "time": "12:00pm"}, {"days": "Sat", "time": "10:00am"}, {"days": "Sun", "time": "Closed"}], "id": "2770500032", "name": "USPS COLLECTION BOX - BLUE BOX", "address": {"city": "DURHAM", "state": "NC", "street": "100 FLOWERS DR", "postcode": "27705"}}},
{"geometry": {"type": "Point", "coordinates": [-78.982428663, 36.032652614]}, "type": "Feature", "properties": {"collection_times": [{"days": "Mon-Fri", "time": "12:00pm"}, {"days": "Sat", "time": "10:00am"}, {"days": "Sun", "time": "Closed"}], "id": "2770500035", "name": "USPS COLLECTION BOX - BLUE BOX", "address": {"city": "DURHAM", "state": "NC", "street": "4701 HILLSBOROUGH RD", "postcode": "27705"}}},
{"geometry": {"type": "Point", "coordinates": [-78.962865404, 36.026767902]}, "type": "Feature", "properties": {"collection_times": [{"days": "Mon-Fri", "time": "12:00pm"}, {"days": "Sat", "time": "10:00am"}, {"days": "Sun", "time": "Closed"}], "id": "2770500038", "name": "USPS COLLECTION BOX - BLUE BOX", "address": {"city": "DURHAM", "state": "NC", "street": "4102 NEAL RD", "postcode": "27705"}}},
{"geometry": {"type": "Point", "coordinates": [-78.948404793, 36.024938034]}, "type": "Feature", "properties": {"collection_times": [{"days": "Mon-Fri", "time": "3:30pm"}, {"days": "Sat", "time": "10:00am"}, {"days": "Sun", "time": "Closed"}], "id": "2770500041", "name": "USPS COLLECTION BOX - BLUE BOX", "address": {"city": "DURHAM", "state": "NC", "street": "3200 CROASDAILE DR", "postcode": "27705"}}},
{"geometry": {"type": "Point", "coordinates": [-78.935824166, 36.030812257]}, "type": "Feature", "properties": {"collection_times": [{"days": "Mon-Fri", "time": "4:00pm"}, {"days": "Sat", "time": "10:00am"}, {"days": "Sun", "time": "Closed"}], "id": "2770500044", "name": "USPS COLLECTION BOX - BLUE BOX", "address": {"city": "DURHAM", "state": "NC", "street": "1821 HILLANDALE RD", "postcode": "27705"}}},
{"geometry": {"type": "Point", "coordinates": [-78.921470767, 36.01725508]}, "type": "Feature", "properties": {"collection_times": [{"days": "Mon-Fri", "time": "3:00pm"}, {"days": "Sat", "time": "10:00am"}, {"days": "Sun", "time": "Closed"}], "id": "2770500048", "name": "USPS COLLECTION BOX - BLUE BOX", "address": {"city": "DURHAM", "state": "NC", "street": "1912 W CLUB BLVD", "postcode": "27705"}}},
{"geometry": {"type": "Point", "coordinates": [-78.922152556, 36.007432496]}, "type": "Feature", "properties": {"collection_times": [{"days": "Mon-Fri", "time": "3:00pm"}, {"days": "Sat", "time": "10:00am"}, {"days": "Sun", "time": "Closed"}], "id": "2770500050", "name": "USPS COLLECTION BOX - BLUE BOX", "address": {"city": "DURHAM", "state": "NC", "street": "626 9TH ST", "postcode": "27705"}}},
{"geometry": {"type": "Point", "coordinates": [-78.955502812, 36.013606845]}, "type": "Feature", "properties": {"collection_times": [{"days": "Mon-Fri", "time": "3:30pm"}, {"days": "Sat", "time": "10:00am"}, {"days": "Sun", "time": "Closed"}], "id": "2770500056", "name": "USPS COLLECTION BOX - BLUE BOX", "address": {"city": "DURHAM", "state": "NC", "street": "411 ANDREWS RD", "postcode": "27705"}}},
{"geometry": {"type": "Point", "coordinates": [-78.949009698, 36.013097512]}, "type": "Feature", "properties": {"collection_times": [{"days": "Mon-Fri", "time": "5:00pm"}, {"days": "Sat", "time": "12:30pm"}, {"days": "Sun", "time": "Closed"}], "id": "2770500057", "name": "USPS COLLECTION BOX - BLUE BOX", "address": {"city": "DURHAM", "state": "NC", "street": "3520 KANGAROO DR", "postcode": "27705"}}},
{"geometry": {"type": "Point", "coordinates": [-78.937304376, 36.009760628]}, "type": "Feature", "properties": {"collection_times": [{"days": "Mon-Fri", "time": "3:00pm"}, {"days": "Sat-Sun", "time": "Closed"}], "id": "2770500059", "name": "USPS COLLECTION BOX - BLUE BOX", "address": {"city": "DURHAM", "state": "NC", "street": "508 FULTON ST", "postcode": "27705"}}},
{"geometry": {"type": "Point", "coordinates": [-78.925032613, 36.017383131]}, "type": "Feature", "properties": {"collection_times": [{"days": "Mon-Fri", "time": "12:00pm"}, {"days": "Sat", "time": "10:00am"}, {"days": "Sun", "time": "Closed"}], "id": "2770500063", "name": "USPS COLLECTION BOX - BLUE BOX", "address": {"city": "DURHAM", "state": "NC", "street": "2031 W CLUB BLVD", "postcode": "27705"}}},
{"geometry": {"type": "Point", "coordinates": [-78.949009698, 36.013097512]}, "type": "Feature", "properties": {"collection_times": [{"days": "Mon-Fri", "time": "5:00pm"}, {"days": "Sat", "time": "12:30pm"}, {"days": "Sun", "time": "Closed"}], "id": "2770500064", "name": "USPS COLLECTION BOX - PO LOBBY", "address": {"city": "DURHAM", "state": "NC", "street": "3520 KANGAROO DR", "postcode": "27705"}}},
{"geometry": {"type": "Point", "coordinates": [-78.955172969, 35.956110559]}, "type": "Feature", "properties": {"collection_times": [{"days": "Mon-Fri", "time": "5:00pm"}, {"days": "Sat", "time": "12:30pm"}, {"days": "Sun", "time": "Closed"}], "id": "2770700003", "name": "USPS COLLECTION BOX - BLUE BOX", "address": {"city": "DURHAM", "state": "NC", "street": "3710 SHANNON RD", "postcode": "27707"}}},
{"geometry": {"type": "Point", "coordinates": [-78.901088161, 35.975902261]}, "type": "Feature", "properties": {"collection_times": [{"days": "Mon-Fri", "time": "12:00pm"}, {"days": "Sat", "time": "10:00am"}, {"days": "Sun", "time": "Closed"}], "id": "2770700007", "name": "USPS COLLECTION BOX - BLUE BOX", "address": {"city": "DURHAM", "state": "NC", "street": "1801 FAYETTEVILLE ST", "postcode": "27707"}}},
{"geometry": {"type": "Point", "coordinates": [-78.901735026, 35.969752975]}, "type": "Feature", "properties": {"collection_times": [{"days": "Mon-Fri", "time": "12:00pm"}, {"days": "Sat", "time": "10:00am"}, {"days": "Sun", "time": "Closed"}], "id": "2770700009", "name": "USPS COLLECTION BOX - BLUE BOX", "address": {"city": "DURHAM", "state": "NC", "street": "2425 FAYETTEVILLE ST", "postcode": "27707"}}},
{"geometry": {"type": "Point", "coordinates": [-78.927222625, 35.986826683]}, "type": "Feature", "properties": {"collection_times": [{"days": "Mon-Fri", "time": "12:00pm"}, {"days": "Sat", "time": "10:00am"}, {"days": "Sun", "time": "Closed"}], "id": "2770700010", "name": "USPS COLLECTION BOX - BLUE BOX", "address": {"city": "DURHAM", "state": "NC", "street": "2000 CHAPEL HILL RD", "postcode": "27707"}}},
{"geometry": {"type": "Point", "coordinates": [-78.925266882, 35.988567971]}, "type": "Feature", "properties": {"collection_times": [{"days": "Mon-Fri", "time": "12:00pm"}, {"days": "Sat", "time": "10:00am"}, {"days": "Sun", "time": "Closed"}], "id": "2770700011", "name": "USPS COLLECTION BOX - BLUE BOX", "address": {"city": "DURHAM", "state": "NC", "street": "1904 CHAPEL HILL RD", "postcode": "27707"}}},
{"geometry": {"type": "Point", "coordinates": [-78.923678553, 35.974827589]}, "type": "Feature", "properties": {"collection_times": [{"days": "Mon-Fri", "time": "3:00pm"}, {"days": "Sat", "time": "10:00am"}, {"days": "Sun", "time": "Closed"}], "id": "2770700015", "name": "USPS COLLECTION BOX - BLUE BOX", "address": {"city": "DURHAM", "state": "NC", "street": "2502 UNIVERSITY DR", "postcode": "27707"}}},
{"geometry": {"type": "Point", "coordinates": [-78.955172969, 35.956110559]}, "type": "Feature", "properties": {"collection_times": [{"days": "Mon-Fri", "time": "5:00pm"}, {"days": "Sat", "time": "12:30pm"}, {"days": "Sun", "time": "Closed"}], "id": "2770700017", "name": "USPS COLLECTION BOX - BLUE BOX", "address": {"city": "DURHAM", "state": "NC", "street": "3710 SHANNON RD", "postcode": "27707"}}},
{"geometry": {"type": "Point", "coordinates": [-78.955172969, 35.956110559]}, "type": "Feature", "properties": {"collection_times": [{"days": "Mon-Fri", "time": "5:00pm"}, {"days": "Sat", "time": "12:30pm"}, {"days": "Sun", "time": "Closed"}], "id": "2770700018", "name": "USPS COLLECTION BOX - BLUE BOX", "address": {"city": "DURHAM", "state": "NC", "street": "3710 SHANNON RD", "postcode": "27707"}}},
{"geometry": {"type": "Point", "coordinates": [-78.966046109, 35.954209595]}, "type": "Feature", "properties": {"collection_times": [{"days": "Mon-Fri", "time": "12:00pm"}, {"days": "Sat", "time": "10:00am"}, {"days": "Sun", "time": "Closed"}], "id": "2770700021", "name": "USPS COLLECTION BOX - BLUE BOX", "address": {"city": "DURHAM", "state": "NC", "street": "4705 UNIVERSITY DR", "postcode": "27707"}}},
{"geometry": {"type": "Point", "coordinates": [-78.958012177, 35.972159775]}, "type": "Feature", "properties": {"collection_times": [{"days": "Mon-Fri", "time": "4:00pm"}, {"days": "Sat", "time": "10:00am"}, {"days": "Sun", "time": "Closed"}], "id": "2770700026", "name": "USPS COLLECTION BOX - BLUE BOX", "address": {"city": "DURHAM", "state": "NC", "street": "3100 TOWER BLVD", "postcode": "27707"}}},
{"geometry": {"type": "Point", "coordinates": [-78.934067726, 35.974184284]}, "type": "Feature", "properties": {"collection_times": [{"days": "Mon-Fri", "time": "3:30pm"}, {"days": "Sat", "time": "10:00am"}, {"days": "Sun", "time": "Closed"}], "id": "2770700027", "name": "USPS COLLECTION BOX - BLUE BOX", "address": {"city": "DURHAM", "state": "NC", "street": "2821 DURHAM CHAPEL HILL BLVD", "postcode": "27707"}}},
{"geometry": {"type": "Point", "coordinates": [-78.985962521, 35.941063692]}, "type": "Feature", "properties": {"collection_times": [{"days": "Mon-Fri", "time": "12:00pm"}, {"days": "Sat", "time": "10:00am"}, {"days": "Sun", "time": "Closed"}], "id": "2770700031", "name": "USPS COLLECTION BOX - BLUE BOX", "address": {"city": "DURHAM", "state": "NC", "street": "4905 PINE CONE DR", "postcode": "27707"}}},
{"geometry": {"type": "Point", "coordinates": [-78.95785017, 35.921758012]}, "type": "Feature", "properties": {"collection_times": [{"days": "Mon-Fri", "time": "3:00pm"}, {"days": "Sat", "time": "10:00am"}, {"days": "Sun", "time": "Closed"}], "id": "2770700034", "name": "USPS COLLECTION BOX - BLUE BOX", "address": {"city": "DURHAM", "state": "NC", "street": "4711 HOPE VALLEY RD", "postcode": "27707"}}},
{"geometry": {"type": "Point", "coordinates": [-78.907510645, 35.963535594]}, "type": "Feature", "properties": {"collection_times": [{"days": "Mon-Fri", "time": "12:00pm"}, {"days": "Sat", "time": "10:00am"}, {"days": "Sun", "time": "Closed"}], "id": "2770700039", "name": "USPS COLLECTION BOX - BLUE BOX", "address": {"city": "DURHAM", "state": "NC", "street": "3000 FAYETTEVILLE ST", "postcode": "27707"}}},
{"geometry": {"type": "Point", "coordinates": [-78.960593805, 35.964750562]}, "type": "Feature", "properties": {"collection_times": [{"days": "Mon-Fri", "time": "3:30pm"}, {"days": "Sat", "time": "10:00am"}, {"days": "Sun", "time": "Closed"}], "id": "2770700041", "name": "USPS COLLECTION BOX - BLUE BOX", "address": {"city": "DURHAM", "state": "NC", "street": "3500 WESTGATE DR", "postcode": "27707"}}},
{"geometry": {"type": "Point", "coordinates": [-78.978084769, 35.961115304]}, "type": "Feature", "properties": {"collection_times": [{"days": "Mon-Fri", "time": "12:00pm"}, {"days": "Sat", "time": "10:00am"}, {"days": "Sun", "time": "Closed"}], "id": "2770700045", "name": "USPS COLLECTION BOX - BLUE BOX", "address": {"city": "DURHAM", "state": "NC", "street": "4600 DURHAM CHAPEL HILL BLVD", "postcode": "27707"}}},
{"geometry": {"type": "Point", "coordinates": [-78.910771305, 35.985028285]}, "type": "Feature", "properties": {"collection_times": [{"days": "Mon-Fri", "time": "3:00pm"}, {"days": "Sat", "time": "10:00am"}, {"days": "Sun", "time": "Closed"}], "id": "2770700046", "name": "USPS COLLECTION BOX - BLUE BOX", "address": {"city": "DURHAM", "state": "NC", "street": "1201 UNIVERSITY DR", "postcode": "27707"}}},
{"geometry": {"type": "Point", "coordinates": [-78.900216352, 35.987055125]}, "type": "Feature", "properties": {"collection_times": [{"days": "Mon-Fri", "time": "12:00pm"}, {"days": "Sat", "time": "10:00am"}, {"days": "Sun", "time": "Closed"}], "id": "2770700049", "name": "USPS COLLECTION BOX - BLUE BOX", "address": {"city": "DURHAM", "state": "NC", "street": "401 E LAKEWOOD AVE", "postcode": "27707"}}},
{"geometry": {"type": "Point", "coordinates": [-78.958012177, 35.972159775]}, "type": "Feature", "properties": {"collection_times": [{"days": "Mon-Fri", "time": "4:00pm"}, {"days": "Sat", "time": "10:00am"}, {"days": "Sun", "time": "Closed"}], "id": "2770700050", "name": "USPS COLLECTION BOX - BLUE BOX", "address": {"city": "DURHAM", "state": "NC", "street": "3100 TOWER BLVD", "postcode": "27707"}}},
{"geometry": {"type": "Point", "coordinates": [-78.950343023, 35.966820842]}, "type": "Feature", "properties": {"collection_times": [{"days": "Mon-Fri", "time": "12:00pm"}, {"days": "Sat", "time": "10:00am"}, {"days": "Sun", "time": "Closed"}], "id": "2770700056", "name": "USPS COLLECTION BOX - BLUE BOX", "address": {"city": "DURHAM", "state": "NC", "street": "3713 UNIVERSITY DR", "postcode": "27707"}}},
{"geometry": {"type": "Point", "coordinates": [-78.955172969, 35.956110559]}, "type": "Feature", "properties": {"collection_times": [{"days": "Mon-Fri", "time": "5:00pm"}, {"days": "Sat", "time": "12:30pm"}, {"days": "Sun", "time": "Closed"}], "id": "2770700057", "name": "USPS COLLECTION BOX - BLUE BOX", "address": {"city": "DURHAM", "state": "NC", "street": "3710 SHANNON RD", "postcode": "27707"}}},
{"geometry": {"type": "Point", "coordinates": [-78.958012177, 35.972159775]}, "type": "Feature", "properties": {"collection_times": [{"days": "Mon-Fri", "time": "4:00pm"}, {"days": "Sat", "time": "10:00am"}, {"days": "Sun", "time": "Closed"}], "id": "2770700061", "name": "USPS COLLECTION BOX - BLUE BOX", "address": {"city": "DURHAM", "state": "NC", "street": "3100 TOWER BLVD", "postcode": "27707"}}},
{"geometry": {"type": "Point", "coordinates": [-78.959678871, 35.963439351]}, "type": "Feature", "properties": {"collection_times": [{"days": "Mon-Fri", "time": "3:30pm"}, {"days": "Sat", "time": "10:00am"}, {"days": "Sun", "time": "Closed"}], "id": "2770700065", "name": "USPS COLLECTION BOX - BLUE BOX", "address": {"city": "DURHAM", "state": "NC", "street": "4215 UNIVERSITY DR", "postcode": "27707"}}},
{"geometry": {"type": "Point", "coordinates": [-78.994531761, 35.954362388]}, "type": "Feature", "properties": {"collection_times": [{"days": "Mon-Fri", "time": "12:00pm"}, {"days": "Sat", "time": "10:00am"}, {"days": "Sun", "time": "Closed"}], "id": "2770700066", "name": "USPS COLLECTION BOX - BLUE BOX", "address": {"city": "DURHAM", "state": "NC", "street": "5400 NEW HOPE COMMONS DR", "postcode": "27707"}}},
{"geometry": {"type": "Point", "coordinates": [-78.960048341, 35.964157312]}, "type": "Feature", "properties": {"collection_times": [{"days": "Mon-Fri", "time": "3:30pm"}, {"days": "Sat", "time": "10:00am"}, {"days": "Sun", "time": "Closed"}], "id": "2770700067", "name": "USPS COLLECTION BOX - BLUE BOX", "address": {"city": "DURHAM", "state": "NC", "street": "3518 WESTGATE DR", "postcode": "27707"}}},
{"geometry": {"type": "Point", "coordinates": [-78.955172969, 35.956110559]}, "type": "Feature", "properties": {"collection_times": [{"days": "Mon-Fri", "time": "5:00pm"}, {"days": "Sat", "time": "12:30pm"}, {"days": "Sun", "time": "Closed"}], "id": "2770700069", "name": "USPS COLLECTION BOX - PO LOBBY", "address": {"city": "DURHAM", "state": "NC", "street": "3710 SHANNON RD", "postcode": "27707"}}},
{"geometry": {"type": "Point", "coordinates": [-78.877796402, 35.909893014]}, "type": "Feature", "properties": {"collection_times": [{"days": "Mon-Fri", "time": "5:00pm"}, {"days": "Sat", "time": "11:00am"}, {"days": "Sun", "time": "Closed"}], "id": "2770900005", "name": "USPS COLLECTION BOX - BLUE BOX", "address": {"city": "DURHAM", "state": "NC", "street": "65 TW ALEXANDER DR", "postcode": "27709"}}},
{"geometry": {"type": "Point", "coordinates": [-78.877796402, 35.909893014]}, "type": "Feature", "properties": {"collection_times": [{"days": "Mon-Fri", "time": "5:00pm"}, {"days": "Sat", "time": "12:30pm"}, {"days": "Sun", "time": "Closed"}], "id": "2770900007", "name": "USPS COLLECTION BOX - PO LOBBY", "address": {"city": "DURHAM", "state": "NC", "street": "65 T.W. ALEXANDER DR", "postcode": "27709"}}},
{"geometry": {"type": "Point", "coordinates": [-78.877796402, 35.909893014]}, "type": "Feature", "properties": {"collection_times": [{"days": "Mon-Fri", "time": "5:00pm"}, {"days": "Sat", "time": "12:30pm"}, {"days": "Sun", "time": "Closed"}], "id": "2770900008", "name": "USPS COLLECTION BOX - APC", "address": {"city": "DURHAM", "state": "NC", "street": "65 T. W. ALEXANDER DR", "postcode": "27709"}}},
{"geometry": {"type": "Point", "coordinates": [-78.877796402, 35.909893014]}, "type": "Feature", "properties": {"collection_times": [{"days": "Mon-Fri", "time": "5:00pm"}, {"days": "Sat", "time": "11:00am"}, {"days": "Sun", "time": "Closed"}], "id": "2770900009", "name": "USPS COLLECTION BOX - BLUE BOX", "address": {"city": "DURHAM", "state": "NC", "street": "65 TW ALEXANDER DR", "postcode": "27709"}}},
{"geometry": {"type": "Point", "coordinates": [-78.913783009, 36.08999272]}, "type": "Feature", "properties": {"collection_times": [{"days": "Mon-Fri", "time": "4:30pm"}, {"days": "Sat", "time": "10:00am"}, {"days": "Sun", "time": "Closed"}], "id": "2771200001", "name": "USPS COLLECTION BOX - BLUE BOX", "address": {"city": "DURHAM", "state": "NC", "street": "311 MILTON RD", "postcode": "27712"}}},
{"geometry": {"type": "Point", "coordinates": [-78.909813247, 36.07645287]}, "type": "Feature", "properties": {"collection_times": [{"days": "Mon-Fri", "time": "12:00pm"}, {"days": "Sat", "time": "10:00am"}, {"days": "Sun", "time": "Closed"}], "id": "2771200004", "name": "USPS COLLECTION BOX - BLUE BOX", "address": {"city": "DURHAM", "state": "NC", "street": "5279 N ROXBORO RD", "postcode": "27712"}}},
{"geometry": {"type": "Point", "coordinates": [-78.913783009, 36.08999272]}, "type": "Feature", "properties": {"collection_times": [{"days": "Mon-Fri", "time": "5:00pm"}, {"days": "Sat", "time": "12:00pm"}, {"days": "Sun", "time": "Closed"}], "id": "2771200008", "name": "USPS COLLECTION BOX - PO LOBBY", "address": {"city": "DURHAM", "state": "NC", "street": "311 MILTON RD", "postcode": "27712"}}},
{"geometry": {"type": "Point", "coordinates": [-78.909564709, 35.893468032]}, "type": "Feature", "properties": {"collection_times": [{"days": "Mon-Fri", "time": "12:00pm"}, {"days": "Sat", "time": "10:00am"}, {"days": "Sun", "time": "Closed"}], "id": "2771300002", "name": "USPS COLLECTION BOX - BLUE BOX", "address": {"city": "DURHAM", "state": "NC", "street": "5100 REVERE RD", "postcode": "27713"}}},
{"geometry": {"type": "Point", "coordinates": [-78.895266237, 35.903248664]}, "type": "Feature", "properties": {"collection_times": [{"days": "Mon-Fri", "time": "3:00pm"}, {"days": "Sat", "time": "10:00am"}, {"days": "Sun", "time": "Closed"}], "id": "2771300006", "name": "USPS COLLECTION BOX - BLUE BOX", "address": {"city": "DURHAM", "state": "NC", "street": "4621 NC HIGHWAY 55", "postcode": "27713"}}},
{"geometry": {"type": "Point", "coordinates": [-78.899430792, 35.910792796]}, "type": "Feature", "properties": {"collection_times": [{"days": "Mon-Fri", "time": "12:00pm"}, {"days": "Sat", "time": "10:00am"}, {"days": "Sun", "time": "Closed"}], "id": "2771300011", "name": "USPS COLLECTION BOX - BLUE BOX", "address": {"city": "DURHAM", "state": "NC", "street": "2525 MERIDIAN PKWY", "postcode": "27713"}}},
{"geometry": {"type": "Point", "coordinates": [-78.931088254, 35.917287977]}, "type": "Feature", "properties": {"collection_times": [{"days": "Mon-Fri", "time": "12:00pm"}, {"days": "Sat", "time": "10:00am"}, {"days": "Sun", "time": "Closed"}], "id": "2771300019", "name": "USPS COLLECTION BOX - BLUE BOX", "address": {"city": "DURHAM", "state": "NC", "street": "6011 FAYETTEVILLE RD", "postcode": "27713"}}},
{"geometry": {"type": "Point", "coordinates": [-78.939044387, 35.903168923]}, "type": "Feature", "properties": {"collection_times": [{"days": "Mon-Fri", "time": "3:30pm"}, {"days": "Sat", "time": "10:00am"}, {"days": "Sun", "time": "Closed"}], "id": "2771300020", "name": "USPS COLLECTION BOX - BLUE BOX", "address": {"city": "DURHAM", "state": "NC", "street": "6920 FAYETTEVILLE RD", "postcode": "27713"}}},
{"geometry": {"type": "Point", "coordinates": [-78.933339276, 35.913535266]}, "type": "Feature", "properties": {"collection_times": [{"days": "Mon-Fri", "time": "12:00pm"}, {"days": "Sat", "time": "10:00am"}, {"days": "Sun", "time": "Closed"}], "id": "2771300022", "name": "USPS COLLECTION BOX - BLUE BOX", "address": {"city": "DURHAM", "state": "NC", "street": "6224 FAYETTEVILLE RD", "postcode": "27713"}}},
{"geometry": {"type": "Point", "coordinates": [-78.929549751, 35.919859109]}, "type": "Feature", "properties": {"collection_times": [{"days": "Mon-Fri", "time": "3:00pm"}, {"days": "Sat", "time": "10:00am"}, {"days": "Sun", "time": "Closed"}], "id": "2771300024", "name": "USPS COLLECTION BOX - BLUE BOX", "address": {"city": "DURHAM", "state": "NC", "street": "5850 FAYETTEVILLE RD", "postcode": "27713"}}},
{"geometry": {"type": "Point", "coordinates": [-78.922851924, 35.949186203]}, "type": "Feature", "properties": {"collection_times": [{"days": "Mon-Fri", "time": "12:00pm"}, {"days": "Sat", "time": "10:00am"}, {"days": "Sun", "time": "Closed"}], "id": "2771300025", "name": "USPS COLLECTION BOX - BLUE BOX", "address": {"city": "DURHAM", "state": "NC", "street": "3825 S ROXBORO ST", "postcode": "27713"}}}
]}
