{"type": "FeatureCollection", "features": [
{"geometry": {"type": "Point", "coordinates": [-77.7745625801, 35.9323025666]}, "type": "Feature", "properties": {"collection_times": [{"days": "Mon-Fri", "time": "2:00pm"}, {"days": "Sat", "time": "2:30pm"}, {"days": "Sun", "time": "Closed"}], "id": "2780100024", "name": "USPS COLLECTION BOX - BLUE BOX", "address": {"city": "ROCKY MOUNT", "state": "NC", "street": "317 N FAIRVIEW RD", "postcode": "27801"}}},
{"geometry": {"type": "Point", "coordinates": [-77.8094008752, 35.9408498411]}, "type": "Feature", "properties": {"collection_times": [{"days": "Mon-Fri", "time": "4:00pm"}, {"days": "Sat", "time": "5:00pm"}, {"days": "Sun", "time": "Closed"}], "id": "2780300007", "name": "USPS COLLECTION BOX - BLUE BOX", "address": {"city": "ROCKY MOUNT", "state": "NC", "street": "1033 HAMMOND ST", "postcode": "27803"}}},
{"geometry": {"type": "Point", "coordinates": [-77.8107788474, 35.9327584273]}, "type": "Feature", "properties": {"collection_times": [{"days": "Mon-Sat", "time": "2:00pm"}, {"days": "Sun", "time": "Closed"}], "id": "2780300011", "name": "USPS COLLECTION BOX - BLUE BOX", "address": {"city": "ROCKY MOUNT", "state": "NC", "street": "808 RALEIGH RD", "postcode": "27803"}}},
{"geometry": {"type": "Point", "coordinates": [-77.791611286, 35.938146787]}, "type": "Feature", "properties": {"collection_times": [{"days": "Mon-Sat", "time": "5:00pm"}, {"days": "Sun", "time": "Closed"}], "id": "2780300012", "name": "USPS COLLECTION BOX - PO LOBBY", "address": {"city": "ROCKY MOUNT", "state": "NC", "street": "201 S GEORGE ST", "postcode": "27803"}}},
{"geometry": {"type": "Point", "coordinates": [-77.791611286, 35.938146787]}, "type": "Feature", "properties": {"collection_times": [{"days": "Mon-Sat", "time": "5:00pm"}, {"days": "Sun", "time": "Closed"}], "id": "2780300013", "name": "USPS COLLECTION BOX - PO LOBBY", "address": {"city": "ROCKY MOUNT", "state": "NC", "street": "201 S GEORGE ST", "postcode": "27803"}}},
{"geometry": {"type": "Point", "coordinates": [-77.791611286, 35.938146787]}, "type": "Feature", "properties": {"collection_times": [{"days": "Mon-Sat", "time": "5:00pm"}, {"days": "Sun", "time": "Closed"}], "id": "2780300015", "name": "USPS COLLECTION BOX - BLUE BOX", "address": {"city": "ROCKY MOUNT", "state": "NC", "street": "201 S GEORGE ST", "postcode": "27803"}}},
{"geometry": {"type": "Point", "coordinates": [-77.791611286, 35.938146787]}, "type": "Feature", "properties": {"collection_times": [{"days": "Mon-Sat", "time": "5:00pm"}, {"days": "Sun", "time": "Closed"}], "id": "2780300017", "name": "USPS COLLECTION BOX - BLUE BOX", "address": {"city": "ROCKY MOUNT", "state": "NC", "street": "201 S GEORGE ST", "postcode": "27803"}}},
{"geometry": {"type": "Point", "coordinates": [-77.8006299361, 35.9459173813]}, "type": "Feature", "properties": {"collection_times": [{"days": "Mon-Fri", "time": "12:00pm"}, {"days": "Sat", "time": "12:30pm"}, {"days": "Sun", "time": "Closed"}], "id": "2780400002", "name": "USPS COLLECTION BOX - BLUE BOX", "address": {"city": "ROCKY MOUNT", "state": "NC", "street": "500 W THOMAS ST", "postcode": "27804"}}},
{"geometry": {"type": "Point", "coordinates": [-77.7950524826, 35.9481029786]}, "type": "Feature", "properties": {"collection_times": [{"days": "Mon-Fri", "time": "12:00pm"}, {"days": "Sat", "time": "12:45pm"}, {"days": "Sun", "time": "Closed"}], "id": "2780400004", "name": "USPS COLLECTION BOX - BLUE BOX", "address": {"city": "ROCKY MOUNT", "state": "NC", "street": "365 FALLS RD", "postcode": "27804"}}},
{"geometry": {"type": "Point", "coordinates": [-77.7996168303, 35.9485408276]}, "type": "Feature", "properties": {"collection_times": [{"days": "Mon-Fri", "time": "12:00pm"}, {"days": "Sat", "time": "12:45pm"}, {"days": "Sun", "time": "Closed"}], "id": "2780400005", "name": "USPS COLLECTION BOX - BLUE BOX", "address": {"city": "ROCKY MOUNT", "state": "NC", "street": "500 GRACE ST", "postcode": "27804"}}},
{"geometry": {"type": "Point", "coordinates": [-77.8003098599, 35.9435555319]}, "type": "Feature", "properties": {"collection_times": [{"days": "Mon-Fri", "time": "1:30pm"}, {"days": "Sat", "time": "2:30pm"}, {"days": "Sun", "time": "Closed"}], "id": "2780400010", "name": "USPS COLLECTION BOX - BLUE BOX", "address": {"city": "ROCKY MOUNT", "state": "NC", "street": "419 SUNSET AVE", "postcode": "27804"}}},
{"geometry": {"type": "Point", "coordinates": [-77.7986845268, 35.9429302264]}, "type": "Feature", "properties": {"collection_times": [{"days": "Mon-Fri", "time": "2:00pm"}, {"days": "Sat", "time": "2:30pm"}, {"days": "Sun", "time": "Closed"}], "id": "2780400012", "name": "USPS COLLECTION BOX - BLUE BOX", "address": {"city": "ROCKY MOUNT", "state": "NC", "street": "116 S FRANKLIN ST", "postcode": "27804"}}},
{"geometry": {"type": "Point", "coordinates": [-77.8217147694, 35.9725925463]}, "type": "Feature", "properties": {"collection_times": [{"days": "Mon-Fri", "time": "11:30am"}, {"days": "Sat", "time": "12:00pm"}, {"days": "Sun", "time": "Closed"}], "id": "2780400018", "name": "USPS COLLECTION BOX - BLUE BOX", "address": {"city": "ROCKY MOUNT", "state": "NC", "street": "1400 HUNTER HILL RD", "postcode": "27804"}}},
{"geometry": {"type": "Point", "coordinates": [-77.7993430176, 35.9749886327]}, "type": "Feature", "properties": {"collection_times": [{"days": "Mon-Fri", "time": "12:15pm"}, {"days": "Sat", "time": "1:30pm"}, {"days": "Sun", "time": "Closed"}], "id": "2780400020", "name": "USPS COLLECTION BOX - BLUE BOX", "address": {"city": "ROCKY MOUNT", "state": "NC", "street": "1238 N WESLEYAN BLVD", "postcode": "27804"}}},
{"geometry": {"type": "Point", "coordinates": [-77.8024667325, 35.9805353416]}, "type": "Feature", "properties": {"collection_times": [{"days": "Mon-Fri", "time": "12:30pm"}, {"days": "Sat", "time": "1:30pm"}, {"days": "Sun", "time": "Closed"}], "id": "2780400021", "name": "USPS COLLECTION BOX - BLUE BOX", "address": {"city": "ROCKY MOUNT", "state": "NC", "street": "1131 JEFFREYS RD", "postcode": "27804"}}},
{"geometry": {"type": "Point", "coordinates": [-77.8024667325, 35.9805353416]}, "type": "Feature", "properties": {"collection_times": [{"days": "Mon-Fri", "time": "12:30pm"}, {"days": "Sat", "time": "1:30pm"}, {"days": "Sun", "time": "Closed"}], "id": "2780400022", "name": "USPS COLLECTION BOX - BLUE BOX", "address": {"city": "ROCKY MOUNT", "state": "NC", "street": "1131 JEFFREYS RD", "postcode": "27804"}}},
{"geometry": {"type": "Point", "coordinates": [-77.830602173, 35.9576639276]}, "type": "Feature", "properties": {"collection_times": [{"days": "Mon-Fri", "time": "1:00pm"}, {"days": "Sat", "time": "1:45pm"}, {"days": "Sun", "time": "Closed"}], "id": "2780400025", "name": "USPS COLLECTION BOX - BLUE BOX", "address": {"city": "ROCKY MOUNT", "state": "NC", "street": "400 FOREST HILL AVE", "postcode": "27804"}}},
{"geometry": {"type": "Point", "coordinates": [-77.8220521078, 35.956737533]}, "type": "Feature", "properties": {"collection_times": [{"days": "Mon-Sat", "time": "12:30pm"}, {"days": "Sun", "time": "Closed"}], "id": "2780400028", "name": "USPS COLLECTION BOX - BLUE BOX", "address": {"city": "ROCKY MOUNT", "state": "NC", "street": "1916 STONE ROSE DR", "postcode": "27804"}}},
{"geometry": {"type": "Point", "coordinates": [-77.8367085113, 35.9627521823]}, "type": "Feature", "properties": {"collection_times": [{"days": "Mon-Fri", "time": "3:00pm"}, {"days": "Sat", "time": "1:45pm"}, {"days": "Sun", "time": "Closed"}], "id": "2780400031", "name": "USPS COLLECTION BOX - BLUE BOX", "address": {"city": "ROCKY MOUNT", "state": "NC", "street": "3016 SUNSET AVE", "postcode": "27804"}}},
{"geometry": {"type": "Point", "coordinates": [-77.7966588331, 35.943297707]}, "type": "Feature", "properties": {"collection_times": [{"days": "Mon-Fri", "time": "1:30pm"}, {"days": "Sat", "time": "2:15pm"}, {"days": "Sun", "time": "Closed"}], "id": "2780400040", "name": "USPS COLLECTION BOX - BLUE BOX", "address": {"city": "ROCKY MOUNT", "state": "NC", "street": "131 N CHURCH ST", "postcode": "27804"}}},
{"geometry": {"type": "Point", "coordinates": [-77.8032346628, 35.9769539223]}, "type": "Feature", "properties": {"collection_times": [{"days": "Mon-Fri", "time": "12:00pm"}, {"days": "Sat", "time": "11:30am"}, {"days": "Sun", "time": "Closed"}], "id": "2780400044", "name": "USPS COLLECTION BOX - BLUE BOX", "address": {"city": "ROCKY MOUNT", "state": "NC", "street": "730 TIFFANY BLVD", "postcode": "27804"}}},
{"geometry": {"type": "Point", "coordinates": [-77.851816527, 35.9636632971]}, "type": "Feature", "properties": {"collection_times": [{"days": "Mon-Fri", "time": "4:00pm"}, {"days": "Sat", "time": "4:45pm"}, {"days": "Sun", "time": "Closed"}], "id": "2780400049", "name": "USPS COLLECTION BOX - BLUE BOX", "address": {"city": "ROCKY MOUNT", "state": "NC", "street": "3659 SUNSET AVE", "postcode": "27804"}}},
{"geometry": {"type": "Point", "coordinates": [-77.8492419854, 35.9628986195]}, "type": "Feature", "properties": {"collection_times": [{"days": "Mon-Fri", "time": "1:00pm"}, {"days": "Sat", "time": "1:30pm"}, {"days": "Sun", "time": "Closed"}], "id": "2780400053", "name": "USPS COLLECTION BOX - BLUE BOX", "address": {"city": "ROCKY MOUNT", "state": "NC", "street": "141 S WINSTEAD AVE", "postcode": "27804"}}},
{"geometry": {"type": "Point", "coordinates": [-77.7848966921, 35.9843415213]}, "type": "Feature", "properties": {"collection_times": [{"days": "Mon-Sat", "time": "11:30am"}, {"days": "Sun", "time": "Closed"}], "id": "2780400055", "name": "USPS COLLECTION BOX - BLUE BOX", "address": {"city": "ROCKY MOUNT", "state": "NC", "street": "1800 N WESLEYAN BLVD", "postcode": "27804"}}},
{"geometry": {"type": "Point", "coordinates": [-77.8050964066, 35.9725532979]}, "type": "Feature", "properties": {"collection_times": [{"days": "Mon-Fri", "time": "12:15pm"}, {"days": "Sat", "time": "1:30pm"}, {"days": "Sun", "time": "Closed"}], "id": "2780400057", "name": "USPS COLLECTION BOX - BLUE BOX", "address": {"city": "ROCKY MOUNT", "state": "NC", "street": "1100 N WESLEYAN BLVD", "postcode": "27804"}}},
{"geometry": {"type": "Point", "coordinates": [-77.7982853142, 35.9438765376]}, "type": "Feature", "properties": {"collection_times": [{"days": "Mon-Fri", "time": "1:30pm"}, {"days": "Sat", "time": "2:15pm"}, {"days": "Sun", "time": "Closed"}], "id": "2780400059", "name": "USPS COLLECTION BOX - BLUE BOX", "address": {"city": "ROCKY MOUNT", "state": "NC", "street": "136 N FRANKLIN ST", "postcode": "27804"}}},
{"geometry": {"type": "Point", "coordinates": [-77.8198381092, 35.9747243705]}, "type": "Feature", "properties": {"collection_times": [{"days": "Mon-Sat", "time": "1:45pm"}, {"days": "Sun", "time": "Closed"}], "id": "2780400064", "name": "USPS COLLECTION BOX - BLUE BOX", "address": {"city": "ROCKY MOUNT", "state": "NC", "street": "1041 NOELL LN", "postcode": "27804"}}},
{"geometry": {"type": "Point", "coordinates": [-77.7836644047, 35.9790125825]}, "type": "Feature", "properties": {"collection_times": [{"days": "Mon-Fri", "time": "12:00pm"}, {"days": "Sat", "time": "1:15pm"}, {"days": "Sun", "time": "Closed"}], "id": "2780400065", "name": "USPS COLLECTION BOX - BLUE BOX", "address": {"city": "ROCKY MOUNT", "state": "NC", "street": "2430 N CHURCH ST", "postcode": "27804"}}},
{"geometry": {"type": "Point", "coordinates": [-77.8465440894, 35.9707105598]}, "type": "Feature", "properties": {"collection_times": [{"days": "Mon-Sat", "time": "3:00pm"}, {"days": "Sun", "time": "Closed"}], "id": "2780400066", "name": "USPS COLLECTION BOX - BLUE BOX", "address": {"city": "ROCKY MOUNT", "state": "NC", "street": "2340 PROFESSIONAL DR", "postcode": "27804"}}},
{"geometry": {"type": "Point", "coordinates": [-77.8191946281, 35.9510281802]}, "type": "Feature", "properties": {"collection_times": [{"days": "Mon-Fri", "time": "4:00pm"}, {"days": "Sat", "time": "3:30pm"}, {"days": "Sun", "time": "Closed"}], "id": "2780400069", "name": "USPS COLLECTION BOX - BLUE BOX", "address": {"city": "ROCKY MOUNT", "state": "NC", "street": "1701 SUNSET AVE", "postcode": "27804"}}},
{"geometry": {"type": "Point", "coordinates": [-77.8483462456, 35.9730224881]}, "type": "Feature", "properties": {"collection_times": [{"days": "Mon-Sat", "time": "3:00pm"}, {"days": "Sun", "time": "Closed"}], "id": "2780400071", "name": "USPS COLLECTION BOX - BLUE BOX", "address": {"city": "ROCKY MOUNT", "state": "NC", "street": "2460 CURTIS ELLIS DR", "postcode": "27804"}}},
{"geometry": {"type": "Point", "coordinates": [-77.836386284, 35.9742334414]}, "type": "Feature", "properties": {"collection_times": [{"days": "Mon-Sat", "time": "12:00pm"}, {"days": "Sun", "time": "Closed"}], "id": "2780400078", "name": "USPS COLLECTION BOX - BLUE BOX", "address": {"city": "ROCKY MOUNT", "state": "NC", "street": "2443 HURT DR", "postcode": "27804"}}},
{"geometry": {"type": "Point", "coordinates": [-77.8292756627, 35.9517998056]}, "type": "Feature", "properties": {"collection_times": [{"days": "Mon-Fri", "time": "2:45pm"}, {"days": "Sat", "time": "4:15pm"}, {"days": "Sun", "time": "Closed"}], "id": "2780400079", "name": "USPS COLLECTION BOX - BLUE BOX", "address": {"city": "ROCKY MOUNT", "state": "NC", "street": "2451 POSTAL DR", "postcode": "27804"}}},
{"geometry": {"type": "Point", "coordinates": [-77.771321974, 36.0157400955]}, "type": "Feature", "properties": {"collection_times": [{"days": "Mon-Sat", "time": "11:30am"}, {"days": "Sun", "time": "Closed"}], "id": "2780400081", "name": "USPS COLLECTION BOX - BLUE BOX", "address": {"city": "ROCKY MOUNT", "state": "NC", "street": "3400 N WESLEYAN BLVD", "postcode": "27804"}}},
{"geometry": {"type": "Point", "coordinates": [-77.8363993192, 35.9742333952]}, "type": "Feature", "properties": {"collection_times": [{"days": "Mon-Sat", "time": "11:30am"}, {"days": "Sun", "time": "Closed"}], "id": "2780400082", "name": "USPS COLLECTION BOX - BLUE BOX", "address": {"city": "ROCKY MOUNT", "state": "NC", "street": "400 GOLDROCK RD", "postcode": "27804"}}},
{"geometry": {"type": "Point", "coordinates": [-77.8021099599, 35.9732579694]}, "type": "Feature", "properties": {"collection_times": [{"days": "Mon-Fri", "time": "12:30pm"}, {"days": "Sat", "time": "4:30pm"}, {"days": "Sun", "time": "Closed"}], "id": "2780400084", "name": "USPS COLLECTION BOX - BLUE BOX", "address": {"city": "ROCKY MOUNT", "state": "NC", "street": "1140 BENVENUE RD", "postcode": "27804"}}},
{"geometry": {"type": "Point", "coordinates": [-77.7949872697, 35.9488407102]}, "type": "Feature", "properties": {"collection_times": [{"days": "Mon-Fri", "time": "2:00pm"}, {"days": "Sat", "time": "2:30pm"}, {"days": "Sun", "time": "Closed"}], "id": "2780400087", "name": "USPS COLLECTION BOX - BLUE BOX", "address": {"city": "ROCKY MOUNT", "state": "NC", "street": "331 S FRANKLIN ST", "postcode": "27804"}}},
{"geometry": {"type": "Point", "coordinates": [-77.1144217638, 36.2294264025]}, "type": "Feature", "properties": {"collection_times": [{"days": "Mon-Fri", "time": "4:15pm"}, {"days": "Sat", "time": "10:30am"}, {"days": "Sun", "time": "Closed"}], "id": "2780500001", "name": "USPS COLLECTION BOX - BLUE BOX", "address": {"city": "AULANDER", "state": "NC", "street": "107 W MAIN ST", "postcode": "27805"}}},
{"geometry": {"type": "Point", "coordinates": [-77.1144217638, 36.2294264025]}, "type": "Feature", "properties": {"collection_times": [{"days": "Mon-Fri", "time": "4:15pm"}, {"days": "Sat", "time": "10:30am"}, {"days": "Sun", "time": "Closed"}], "id": "2780500003", "name": "USPS COLLECTION BOX - PO LOBBY", "address": {"city": "AULANDER", "state": "NC", "street": "107 W MAIN ST", "postcode": "27805"}}},
{"geometry": {"type": "Point", "coordinates": [-76.788557181, 35.3030888927]}, "type": "Feature", "properties": {"collection_times": [{"days": "Mon-Fri", "time": "4:00pm"}, {"days": "Sat", "time": "11:30am"}, {"days": "Sun", "time": "Closed"}], "id": "2780600001", "name": "USPS COLLECTION BOX - BLUE BOX", "address": {"city": "AURORA", "state": "NC", "street": "186 N 5TH ST", "postcode": "27806"}}},
{"geometry": {"type": "Point", "coordinates": [-76.788557181, 35.3030888927]}, "type": "Feature", "properties": {"collection_times": [{"days": "Mon-Fri", "time": "4:00pm"}, {"days": "Sat", "time": "11:30am"}, {"days": "Sun", "time": "Closed"}], "id": "2780600002", "name": "USPS COLLECTION BOX - PO LOBBY", "address": {"city": "AURORA", "state": "NC", "street": "186 N 5TH ST", "postcode": "27806"}}},
{"geometry": {"type": "Point", "coordinates": [-78.1132016763, 35.7798264823]}, "type": "Feature", "properties": {"collection_times": [{"days": "Mon-Fri", "time": "4:30pm"}, {"days": "Sat", "time": "10:00am"}, {"days": "Sun", "time": "Closed"}], "id": "2780700001", "name": "USPS COLLECTION BOX - BLUE BOX", "address": {"city": "BAILEY", "state": "NC", "street": "6171 DEANS ST", "postcode": "27807"}}},
{"geometry": {"type": "Point", "coordinates": [-78.1132016763, 35.7798264823]}, "type": "Feature", "properties": {"collection_times": [{"days": "Mon-Fri", "time": "4:30pm"}, {"days": "Sat", "time": "10:00am"}, {"days": "Sun", "time": "Closed"}], "id": "2780700002", "name": "USPS COLLECTION BOX - PO LOBBY", "address": {"city": "BAILEY", "state": "NC", "street": "6171 DEANS ST", "postcode": "27807"}}},
{"geometry": {"type": "Point", "coordinates": [-76.8146907954, 35.4776576611]}, "type": "Feature", "properties": {"collection_times": [{"days": "Mon-Fri", "time": "4:00pm"}, {"days": "Sat", "time": "11:30am"}, {"days": "Sun", "time": "Closed"}], "id": "2780800001", "name": "USPS COLLECTION BOX - BLUE BOX", "address": {"city": "BATH", "state": "NC", "street": "415 CARTERET ST", "postcode": "27808"}}},
{"geometry": {"type": "Point", "coordinates": [-76.8146907954, 35.4776576611]}, "type": "Feature", "properties": {"collection_times": [{"days": "Mon-Fri", "time": "4:00pm"}, {"days": "Sat", "time": "11:30am"}, {"days": "Sun", "time": "Closed"}], "id": "2780800002", "name": "USPS COLLECTION BOX - PO LOBBY", "address": {"city": "BATH", "state": "NC", "street": "415 CARTERET ST", "postcode": "27808"}}},
{"geometry": {"type": "Point", "coordinates": [-77.7501452772, 36.0496947148]}, "type": "Feature", "properties": {"collection_times": [{"days": "Mon-Fri", "time": "5:00pm"}, {"days": "Sat", "time": "9:00am"}, {"days": "Sun", "time": "Closed"}], "id": "2780900001", "name": "USPS COLLECTION BOX - BLUE BOX", "address": {"city": "BATTLEBORO", "state": "NC", "street": "241 W BATTLEBORO AVE", "postcode": "27809"}}},
{"geometry": {"type": "Point", "coordinates": [-77.8206704569, 36.0597091207]}, "type": "Feature", "properties": {"collection_times": [{"days": "Mon-Fri", "time": "9:30am"}, {"days": "Sat", "time": "9:00am"}, {"days": "Sun", "time": "Closed"}], "id": "2780900003", "name": "USPS COLLECTION BOX - BLUE BOX", "address": {"city": "BATTLEBORO", "state": "NC", "street": "7688 NC 48", "postcode": "27809"}}},
{"geometry": {"type": "Point", "coordinates": [-77.7501452772, 36.0496947148]}, "type": "Feature", "properties": {"collection_times": [{"days": "Mon-Fri", "time": "5:00pm"}, {"days": "Sat", "time": "9:00am"}, {"days": "Sun", "time": "Closed"}], "id": "2780900005", "name": "USPS COLLECTION BOX - PO LOBBY", "address": {"city": "BATTLEBORO", "state": "NC", "street": "241 W BATTLEBORO AVE", "postcode": "27809"}}},
{"geometry": {"type": "Point", "coordinates": [-76.627768416, 35.548957604]}, "type": "Feature", "properties": {"collection_times": [{"days": "Mon-Fri", "time": "4:30pm"}, {"days": "Sat", "time": "11:00am"}, {"days": "Sun", "time": "Closed"}], "id": "2781000001", "name": "USPS COLLECTION BOX - PO LOBBY", "address": {"city": "BELHAVEN", "state": "NC", "street": "614 W OLD COUNTY RD", "postcode": "27810"}}},
{"geometry": {"type": "Point", "coordinates": [-76.627768416, 35.548957604]}, "type": "Feature", "properties": {"collection_times": [{"days": "Mon-Fri", "time": "4:30pm"}, {"days": "Sat", "time": "11:00am"}, {"days": "Sun", "time": "Closed"}], "id": "2781000004", "name": "USPS COLLECTION BOX - BLUE BOX", "address": {"city": "BELHAVEN", "state": "NC", "street": "614 W OLD COUNTY RD", "postcode": "27810"}}},
{"geometry": {"type": "Point", "coordinates": [-77.5133949391, 35.5902532038]}, "type": "Feature", "properties": {"collection_times": [{"days": "Mon-Fri", "time": "3:15pm"}, {"days": "Sat", "time": "9:30am"}, {"days": "Sun", "time": "Closed"}], "id": "2781100001", "name": "USPS COLLECTION BOX - BLUE BOX", "address": {"city": "BELLARTHUR", "state": "NC", "street": "2643B FIREHOUSE RD", "postcode": "27811"}}},
{"geometry": {"type": "Point", "coordinates": [-77.5133949391, 35.5902532038]}, "type": "Feature", "properties": {"collection_times": [{"days": "Mon-Fri", "time": "3:15pm"}, {"days": "Sat", "time": "9:30am"}, {"days": "Sun", "time": "Closed"}], "id": "2781100002", "name": "USPS COLLECTION BOX - PO LOBBY", "address": {"city": "BELLARTHUR", "state": "NC", "street": "2643B FIREHOUSE RD", "postcode": "27811"}}},
{"geometry": {"type": "Point", "coordinates": [-77.3718869598, 35.8081302639]}, "type": "Feature", "properties": {"collection_times": [{"days": "Mon-Fri", "time": "4:30pm"}, {"days": "Sat", "time": "9:00am"}, {"days": "Sun", "time": "Closed"}], "id": "2781200001", "name": "USPS COLLECTION BOX - BLUE BOX", "address": {"city": "BETHEL", "state": "NC", "street": "3858 EAST ST", "postcode": "27812"}}},
{"geometry": {"type": "Point", "coordinates": [-77.3858908505, 35.7923698173]}, "type": "Feature", "properties": {"collection_times": [{"days": "Mon-Fri", "time": "4:30pm"}, {"days": "Sat", "time": "9:00am"}, {"days": "Sun", "time": "Closed"}], "id": "2781200002", "name": "USPS COLLECTION BOX - PO LOBBY", "address": {"city": "BETHEL", "state": "NC", "street": "3858 EAST ST", "postcode": "27812"}}},
{"geometry": {"type": "Point", "coordinates": [-77.9348742092, 35.6351475875]}, "type": "Feature", "properties": {"collection_times": [{"days": "Mon-Fri", "time": "4:30pm"}, {"days": "Sat", "time": "10:00am"}, {"days": "Sun", "time": "Closed"}], "id": "2781300001", "name": "USPS COLLECTION BOX - BLUE BOX", "address": {"city": "BLACK CREEK", "state": "NC", "street": "101 CENTRAL AVE", "postcode": "27813"}}},
{"geometry": {"type": "Point", "coordinates": [-77.9348742092, 35.6351475875]}, "type": "Feature", "properties": {"collection_times": [{"days": "Mon-Fri", "time": "4:30pm"}, {"days": "Sat", "time": "10:00am"}, {"days": "Sun", "time": "Closed"}], "id": "2781300002", "name": "USPS COLLECTION BOX - PO LOBBY", "address": {"city": "BLACK CREEK", "state": "NC", "street": "101 CENTRAL AVE", "postcode": "27813"}}},
{"geometry": {"type": "Point", "coordinates": [-76.9275129274, 35.377320154]}, "type": "Feature", "properties": {"collection_times": [{"days": "Mon-Fri", "time": "4:00pm"}, {"days": "Sat", "time": "11:00am"}, {"days": "Sun", "time": "Closed"}], "id": "2781400001", "name": "USPS COLLECTION BOX - BLUE BOX", "address": {"city": "BLOUNTS CREEK", "state": "NC", "street": "13746 NC HIGHWAY 33 E", "postcode": "27814"}}},
{"geometry": {"type": "Point", "coordinates": [-76.9275129274, 35.377320154]}, "type": "Feature", "properties": {"collection_times": [{"days": "Mon-Fri", "time": "4:00pm"}, {"days": "Sat", "time": "11:00am"}, {"days": "Sun", "time": "Closed"}], "id": "2781400002", "name": "USPS COLLECTION BOX - PO LOBBY", "address": {"city": "BLOUNTS CREEK", "state": "NC", "street": "13746 NC HIGHWAY 33 E", "postcode": "27814"}}},
{"geometry": {"type": "Point", "coordinates": [-78.0574562888, 36.0820727552]}, "type": "Feature", "properties": {"collection_times": [{"days": "Mon-Fri", "time": "4:00pm"}, {"days": "Sat", "time": "10:00am"}, {"days": "Sun", "time": "Closed"}], "id": "2781600001", "name": "USPS COLLECTION BOX - BLUE BOX", "address": {"city": "CASTALIA", "state": "NC", "street": "9512 MAIN ST", "postcode": "27816"}}},
{"geometry": {"type": "Point", "coordinates": [-78.0574562888, 36.0820727552]}, "type": "Feature", "properties": {"collection_times": [{"days": "Mon-Fri", "time": "4:00pm"}, {"days": "Sat", "time": "10:00am"}, {"days": "Sun", "time": "Closed"}], "id": "2781600002", "name": "USPS COLLECTION BOX - PO LOBBY", "address": {"city": "CASTALIA", "state": "NC", "street": "9512 MAIN ST", "postcode": "27816"}}},
{"geometry": {"type": "Point", "coordinates": [-77.0966391138, 35.5157933398]}, "type": "Feature", "properties": {"collection_times": [{"days": "Mon-Fri", "time": "4:30pm"}, {"days": "Sat", "time": "12:00pm"}, {"days": "Sun", "time": "Closed"}], "id": "2781700001", "name": "USPS COLLECTION BOX - BLUE BOX", "address": {"city": "CHOCOWINITY", "state": "NC", "street": "100 PATRICK LN", "postcode": "27817"}}},
{"geometry": {"type": "Point", "coordinates": [-77.0966391138, 35.5157933398]}, "type": "Feature", "properties": {"collection_times": [{"days": "Mon-Fri", "time": "4:30pm"}, {"days": "Sat", "time": "12:00pm"}, {"days": "Sun", "time": "Closed"}], "id": "2781700002", "name": "USPS COLLECTION BOX - PO LOBBY", "address": {"city": "CHOCOWINITY", "state": "NC", "street": "100 PATRICK LN", "postcode": "27817"}}},
{"geometry": {"type": "Point", "coordinates": [-77.0944679046, 35.4790331646]}, "type": "Feature", "properties": {"collection_times": [{"days": "Mon-Fri", "time": "4:30pm"}, {"days": "Sat", "time": "12:00pm"}, {"days": "Sun", "time": "Closed"}], "id": "2781700003", "name": "USPS COLLECTION BOX - BLUE BOX", "address": {"city": "CHOCOWINITY", "state": "NC", "street": "3620 US HIGHWAY 17 S STE 160", "postcode": "27817"}}},
{"geometry": {"type": "Point", "coordinates": [-77.001599612, 36.5058470558]}, "type": "Feature", "properties": {"collection_times": [{"days": "Mon-Fri", "time": "4:30pm"}, {"days": "Sat", "time": "11:00am"}, {"days": "Sun", "time": "Closed"}], "id": "2781800001", "name": "USPS COLLECTION BOX - BLUE BOX", "address": {"city": "COMO", "state": "NC", "street": "1226 US HIGHWAY 258 N", "postcode": "27818"}}},
{"geometry": {"type": "Point", "coordinates": [-77.001599612, 36.5058470558]}, "type": "Feature", "properties": {"collection_times": [{"days": "Mon-Fri", "time": "4:30pm"}, {"days": "Sat", "time": "11:00am"}, {"days": "Sun", "time": "Closed"}], "id": "2781800002", "name": "USPS COLLECTION BOX - PO LOBBY", "address": {"city": "COMO", "state": "NC", "street": "1226 US HIGHWAY 258 N", "postcode": "27818"}}},
{"geometry": {"type": "Point", "coordinates": [-77.4557863692, 35.8160756152]}, "type": "Feature", "properties": {"collection_times": [{"days": "Mon-Fri", "time": "5:00pm"}, {"days": "Sat", "time": "11:00am"}, {"days": "Sun", "time": "Closed"}], "id": "2781900001", "name": "USPS COLLECTION BOX - PO LOBBY", "address": {"city": "CONETOE", "state": "NC", "street": "206 W CHURCH ST", "postcode": "27819"}}},
{"geometry": {"type": "Point", "coordinates": [-77.4557863692, 35.8160756152]}, "type": "Feature", "properties": {"collection_times": [{"days": "Mon-Fri", "time": "5:00pm"}, {"days": "Sat", "time": "11:00am"}, {"days": "Sun", "time": "Closed"}], "id": "2781900002", "name": "USPS COLLECTION BOX - BLUE BOX", "address": {"city": "CONETOE", "state": "NC", "street": "206 W CHURCH ST", "postcode": "27819"}}},
{"geometry": {"type": "Point", "coordinates": [-77.2287826, 36.436604937]}, "type": "Feature", "properties": {"collection_times": [{"days": "Mon-Fri", "time": "4:15pm"}, {"days": "Sat", "time": "11:00am"}, {"days": "Sun", "time": "Closed"}], "id": "2782000001", "name": "USPS COLLECTION BOX - PO LOBBY", "address": {"city": "CONWAY", "state": "NC", "street": "205 S CHURCH ST", "postcode": "27820"}}},
{"geometry": {"type": "Point", "coordinates": [-77.2287826, 36.436604937]}, "type": "Feature", "properties": {"collection_times": [{"days": "Mon-Fri", "time": "4:15pm"}, {"days": "Sat", "time": "11:00am"}, {"days": "Sun", "time": "Closed"}], "id": "2782000002", "name": "USPS COLLECTION BOX - BLUE BOX", "address": {"city": "CONWAY", "state": "NC", "street": "205 S CHURCH ST", "postcode": "27820"}}},
{"geometry": {"type": "Point", "coordinates": [-76.8905185273, 35.3244541644]}, "type": "Feature", "properties": {"collection_times": [{"days": "Mon-Fri", "time": "4:00pm"}, {"days": "Sat", "time": "11:30am"}, {"days": "Sun", "time": "Closed"}], "id": "2782100001", "name": "USPS COLLECTION BOX - PO LOBBY", "address": {"city": "EDWARD", "state": "NC", "street": "19160 NC HIGHWAY 33 E", "postcode": "27821"}}},
{"geometry": {"type": "Point", "coordinates": [-76.8905185273, 35.3244541644]}, "type": "Feature", "properties": {"collection_times": [{"days": "Mon-Fri", "time": "4:00pm"}, {"days": "Sat", "time": "11:30am"}, {"days": "Sun", "time": "Closed"}], "id": "2782100002", "name": "USPS COLLECTION BOX - BLUE BOX", "address": {"city": "EDWARD", "state": "NC", "street": "19160 NC HIGHWAY 33 E", "postcode": "27821"}}},
{"geometry": {"type": "Point", "coordinates": [-77.8656411935, 35.8071908006]}, "type": "Feature", "properties": {"collection_times": [{"days": "Mon-Fri", "time": "4:30pm"}, {"days": "Sat", "time": "11:30am"}, {"days": "Sun", "time": "Closed"}], "id": "2782200001", "name": "USPS COLLECTION BOX - BLUE BOX", "address": {"city": "ELM CITY", "state": "NC", "street": "409 W MAIN ST", "postcode": "27822"}}},
{"geometry": {"type": "Point", "coordinates": [-77.8633693301, 35.8064812804]}, "type": "Feature", "properties": {"collection_times": [{"days": "Mon-Sat", "time": "11:00am"}, {"days": "Sun", "time": "Closed"}], "id": "2782200004", "name": "USPS COLLECTION BOX - BLUE BOX", "address": {"city": "ELM CITY", "state": "NC", "street": "200 E MAIN ST", "postcode": "27822"}}},
{"geometry": {"type": "Point", "coordinates": [-77.8656411935, 35.8071908006]}, "type": "Feature", "properties": {"collection_times": [{"days": "Mon-Fri", "time": "4:30pm"}, {"days": "Sat", "time": "11:30am"}, {"days": "Sun", "time": "Closed"}], "id": "2782200005", "name": "USPS COLLECTION BOX - PO LOBBY", "address": {"city": "ELM CITY", "state": "NC", "street": "409 W MAIN ST", "postcode": "27822"}}},
{"geometry": {"type": "Point", "coordinates": [-77.6679291245, 36.1814567288]}, "type": "Feature", "properties": {"collection_times": [{"days": "Mon-Fri", "time": "5:00pm"}, {"days": "Sat", "time": "12:00pm"}, {"days": "Sun", "time": "Closed"}], "id": "2782300002", "name": "USPS COLLECTION BOX - BLUE BOX", "address": {"city": "ENFIELD", "state": "NC", "street": "114 S DENNIS ST", "postcode": "27823"}}},
{"geometry": {"type": "Point", "coordinates": [-77.6679291245, 36.1814567288]}, "type": "Feature", "properties": {"collection_times": [{"days": "Mon-Fri", "time": "4:30pm"}, {"days": "Sat", "time": "12:00pm"}, {"days": "Sun", "time": "Closed"}], "id": "2782300011", "name": "USPS COLLECTION BOX - PO LOBBY", "address": {"city": "ENFIELD", "state": "NC", "street": "114 S DENNIS ST", "postcode": "27823"}}},
{"geometry": {"type": "Point", "coordinates": [-76.0050777135, 35.5091136795]}, "type": "Feature", "properties": {"collection_times": [{"days": "Mon-Fri", "time": "3:15pm"}, {"days": "Sat", "time": "12:00pm"}, {"days": "Sun", "time": "Closed"}], "id": "2782400001", "name": "USPS COLLECTION BOX - BLUE BOX", "address": {"city": "ENGELHARD", "state": "NC", "street": "34668 US HIGHWAY 264", "postcode": "27824"}}},
{"geometry": {"type": "Point", "coordinates": [-76.0050777135, 35.5091136795]}, "type": "Feature", "properties": {"collection_times": [{"days": "Mon-Fri", "time": "3:15pm"}, {"days": "Sat", "time": "12:00pm"}, {"days": "Sun", "time": "Closed"}], "id": "2782400002", "name": "USPS COLLECTION BOX - PO LOBBY", "address": {"city": "ENGELHARD", "state": "NC", "street": "34668 US HIGHWAY 264", "postcode": "27824"}}},
{"geometry": {"type": "Point", "coordinates": [-77.0616222456, 35.8555933296]}, "type": "Feature", "properties": {"collection_times": [{"days": "Mon-Fri", "time": "4:45pm"}, {"days": "Sat", "time": "11:45am"}, {"days": "Sun", "time": "Closed"}], "id": "2782500001", "name": "USPS COLLECTION BOX - BLUE BOX", "address": {"city": "EVERETTS", "state": "NC", "street": "106 N BROAD ST", "postcode": "27825"}}},
{"geometry": {"type": "Point", "coordinates": [-77.0616222456, 35.8555933296]}, "type": "Feature", "properties": {"collection_times": [{"days": "Mon-Fri", "time": "4:45pm"}, {"days": "Sat", "time": "11:45am"}, {"days": "Sun", "time": "Closed"}], "id": "2782500002", "name": "USPS COLLECTION BOX - PO LOBBY", "address": {"city": "EVERETTS", "state": "NC", "street": "106 N BROAD ST", "postcode": "27825"}}},
{"geometry": {"type": "Point", "coordinates": [-76.225120968, 35.54296855]}, "type": "Feature", "properties": {"collection_times": [{"days": "Mon-Fri", "time": "3:15pm"}, {"days": "Sat", "time": "10:00am"}, {"days": "Sun", "time": "Closed"}], "id": "2782600001", "name": "USPS COLLECTION BOX - PO LOBBY", "address": {"city": "FAIRFIELD", "state": "NC", "street": "7089 NC HIGHWAY 94", "postcode": "27826"}}},
{"geometry": {"type": "Point", "coordinates": [-76.2251209683, 35.54296855]}, "type": "Feature", "properties": {"collection_times": [{"days": "Mon-Fri", "time": "3:15pm"}, {"days": "Sat", "time": "10:00am"}, {"days": "Sun", "time": "Closed"}], "id": "2782600002", "name": "USPS COLLECTION BOX - BLUE BOX", "address": {"city": "FAIRFIELD", "state": "NC", "street": "7089 NC HIGHWAY 94", "postcode": "27826"}}},
{"geometry": {"type": "Point", "coordinates": [-77.5082273485, 35.6963443789]}, "type": "Feature", "properties": {"collection_times": [{"days": "Mon-Fri", "time": "4:00pm"}, {"days": "Sat", "time": "9:00am"}, {"days": "Sun", "time": "Closed"}], "id": "2782700001", "name": "USPS COLLECTION BOX - PO LOBBY", "address": {"city": "FALKLAND", "state": "NC", "street": "6063 NC HIGHWAY 43 N", "postcode": "27827"}}},
{"geometry": {"type": "Point", "coordinates": [-77.5082273485, 35.6963443789]}, "type": "Feature", "properties": {"collection_times": [{"days": "Mon-Fri", "time": "4:00pm"}, {"days": "Sat", "time": "9:00am"}, {"days": "Sun", "time": "Closed"}], "id": "2782700002", "name": "USPS COLLECTION BOX - BLUE BOX", "address": {"city": "FALKLAND", "state": "NC", "street": "6063 NC HIGHWAY 43 N", "postcode": "27827"}}},
{"geometry": {"type": "Point", "coordinates": [-77.5786643818, 35.5814699108]}, "type": "Feature", "properties": {"collection_times": [{"days": "Mon-Fri", "time": "5:00pm"}, {"days": "Sat", "time": "12:00pm"}, {"days": "Sun", "time": "Closed"}], "id": "2782800001", "name": "USPS COLLECTION BOX - BLUE BOX", "address": {"city": "FARMVILLE", "state": "NC", "street": "3703 NORTH MAIN ST", "postcode": "27828"}}},
{"geometry": {"type": "Point", "coordinates": [-77.5786643818, 35.5814699108]}, "type": "Feature", "properties": {"collection_times": [{"days": "Mon-Fri", "time": "5:00pm"}, {"days": "Sat", "time": "12:00pm"}, {"days": "Sun", "time": "Closed"}], "id": "2782800002", "name": "USPS COLLECTION BOX - BLUE BOX", "address": {"city": "FARMVILLE", "state": "NC", "street": "3703 NORTH MAIN ST", "postcode": "27828"}}},
{"geometry": {"type": "Point", "coordinates": [-77.6071531547, 35.6046410757]}, "type": "Feature", "properties": {"collection_times": [{"days": "Mon-Sat", "time": "11:30am"}, {"days": "Sun", "time": "Closed"}], "id": "2782800006", "name": "USPS COLLECTION BOX - BLUE BOX", "address": {"city": "FARMVILLE", "state": "NC", "street": "810 WEST WILSON ST", "postcode": "27828"}}},
{"geometry": {"type": "Point", "coordinates": [-77.5786643818, 35.5814699108]}, "type": "Feature", "properties": {"collection_times": [{"days": "Mon-Fri", "time": "5:00pm"}, {"days": "Sat", "time": "12:00pm"}, {"days": "Sun", "time": "Closed"}], "id": "2782800010", "name": "USPS COLLECTION BOX - PO LOBBY", "address": {"city": "FARMVILLE", "state": "NC", "street": "3703 NORTH MAIN ST", "postcode": "27828"}}},
{"geometry": {"type": "Point", "coordinates": [-77.6241891752, 35.6901045537]}, "type": "Feature", "properties": {"collection_times": [{"days": "Mon-Fri", "time": "4:30pm"}, {"days": "Sat", "time": "10:30am"}, {"days": "Sun", "time": "Closed"}], "id": "2782900001", "name": "USPS COLLECTION BOX - BLUE BOX", "address": {"city": "FOUNTAIN", "state": "NC", "street": "6738 E WILSON ST", "postcode": "27829"}}},
{"geometry": {"type": "Point", "coordinates": [-77.6241891752, 35.6901045537]}, "type": "Feature", "properties": {"collection_times": [{"days": "Mon-Fri", "time": "4:30pm"}, {"days": "Sat", "time": "10:30am"}, {"days": "Sun", "time": "Closed"}], "id": "2782900002", "name": "USPS COLLECTION BOX - PO LOBBY", "address": {"city": "FOUNTAIN", "state": "NC", "street": "6738 E WILSON ST", "postcode": "27829"}}},
{"geometry": {"type": "Point", "coordinates": [-77.9749501615, 35.5441383274]}, "type": "Feature", "properties": {"collection_times": [{"days": "Mon-Fri", "time": "4:30pm"}, {"days": "Sat", "time": "12:00pm"}, {"days": "Sun", "time": "Closed"}], "id": "2783000002", "name": "USPS COLLECTION BOX - PO LOBBY", "address": {"city": "FREMONT", "state": "NC", "street": "115 E MAIN ST", "postcode": "27830"}}},
{"geometry": {"type": "Point", "coordinates": [-77.9749501615, 35.5441383274]}, "type": "Feature", "properties": {"collection_times": [{"days": "Mon-Fri", "time": "4:30pm"}, {"days": "Sat", "time": "12:00pm"}, {"days": "Sun", "time": "Closed"}], "id": "2783000003", "name": "USPS COLLECTION BOX - BLUE BOX", "address": {"city": "FREMONT", "state": "NC", "street": "115 E MAIN ST", "postcode": "27830"}}},
{"geometry": {"type": "Point", "coordinates": [-77.5491282374, 36.4433616152]}, "type": "Feature", "properties": {"collection_times": [{"days": "Mon-Fri", "time": "5:00pm"}, {"days": "Sat", "time": "10:00am"}, {"days": "Sun", "time": "Closed"}], "id": "2783100003", "name": "USPS COLLECTION BOX - PO LOBBY", "address": {"city": "GARYSBURG", "state": "NC", "street": "213 OLD HIGHWAY RD", "postcode": "27831"}}},
{"geometry": {"type": "Point", "coordinates": [-77.5491282374, 36.4433616152]}, "type": "Feature", "properties": {"collection_times": [{"days": "Mon-Fri", "time": "5:00pm"}, {"days": "Sat", "time": "10:00am"}, {"days": "Sun", "time": "Closed"}], "id": "2783100004", "name": "USPS COLLECTION BOX - BLUE BOX", "address": {"city": "GARYSBURG", "state": "NC", "street": "213 OLD HIGHWAY RD", "postcode": "27831"}}},
{"geometry": {"type": "Point", "coordinates": [-77.645017337, 36.499715092]}, "type": "Feature", "properties": {"collection_times": [{"days": "Mon-Fri", "time": "4:00pm"}, {"days": "Sat", "time": "10:00am"}, {"days": "Sun", "time": "Closed"}], "id": "2783200001", "name": "USPS COLLECTION BOX - BLUE BOX", "address": {"city": "GASTON", "state": "NC", "street": "108 ROANOKE RAPIDS RD", "postcode": "27832"}}},
{"geometry": {"type": "Point", "coordinates": [-77.645017337, 36.499715092]}, "type": "Feature", "properties": {"collection_times": [{"days": "Mon-Fri", "time": "4:15pm"}, {"days": "Sat", "time": "10:00am"}, {"days": "Sun", "time": "Closed"}], "id": "2783200002", "name": "USPS COLLECTION BOX - PO LOBBY", "address": {"city": "GASTON", "state": "NC", "street": "108 ROANOKE RAPIDS RD", "postcode": "27832"}}},
{"geometry": {"type": "Point", "coordinates": [-77.3743211545, 35.6146594103]}, "type": "Feature", "properties": {"collection_times": [{"days": "Mon-Fri", "time": "3:00pm"}, {"days": "Sat", "time": "12:00pm"}, {"days": "Sun", "time": "Closed"}], "id": "2783400004", "name": "USPS COLLECTION BOX - BLUE BOX", "address": {"city": "GREENVILLE", "state": "NC", "street": "300 W 2ND ST", "postcode": "27834"}}},
{"geometry": {"type": "Point", "coordinates": [-77.3743211545, 35.6146594103]}, "type": "Feature", "properties": {"collection_times": [{"days": "Mon-Fri", "time": "3:00pm"}, {"days": "Sat", "time": "12:00pm"}, {"days": "Sun", "time": "Closed"}], "id": "2783400005", "name": "USPS COLLECTION BOX - BLUE BOX", "address": {"city": "GREENVILLE", "state": "NC", "street": "300 W 2ND ST", "postcode": "27834"}}},
{"geometry": {"type": "Point", "coordinates": [-77.4451570646, 35.5999428516]}, "type": "Feature", "properties": {"collection_times": [{"days": "Mon-Fri", "time": "2:00pm"}, {"days": "Sat", "time": "12:00pm"}, {"days": "Sun", "time": "Closed"}], "id": "2783400008", "name": "USPS COLLECTION BOX - BLUE BOX", "address": {"city": "GREENVILLE", "state": "NC", "street": "2800 STANTONSBURG RD", "postcode": "27834"}}},
{"geometry": {"type": "Point", "coordinates": [-77.4451570646, 35.5999428516]}, "type": "Feature", "properties": {"collection_times": [{"days": "Mon-Fri", "time": "2:00pm"}, {"days": "Sat", "time": "12:00pm"}, {"days": "Sun", "time": "Closed"}], "id": "2783400009", "name": "USPS COLLECTION BOX - BLUE BOX", "address": {"city": "GREENVILLE", "state": "NC", "street": "2800 STANTONSBURG RD", "postcode": "27834"}}},
{"geometry": {"type": "Point", "coordinates": [-77.4087535344, 35.605078226]}, "type": "Feature", "properties": {"collection_times": [{"days": "Mon-Fri", "time": "11:00am"}, {"days": "Sat-Sun", "time": "Closed"}], "id": "2783400011", "name": "USPS COLLECTION BOX - BLUE BOX", "address": {"city": "GREENVILLE", "state": "NC", "street": "2100 STANTONSBURG RD", "postcode": "27834"}}},
{"geometry": {"type": "Point", "coordinates": [-77.3943120087, 35.5753052302]}, "type": "Feature", "properties": {"collection_times": [{"days": "Mon-Fri", "time": "11:00am"}, {"days": "Sat-Sun", "time": "Closed"}], "id": "2783400020", "name": "USPS COLLECTION BOX - BLUE BOX", "address": {"city": "GREENVILLE", "state": "NC", "street": "404 SAINT ANDREWS DR", "postcode": "27834"}}},
{"geometry": {"type": "Point", "coordinates": [-77.3961729543, 35.5860293452]}, "type": "Feature", "properties": {"collection_times": [{"days": "Mon-Fri", "time": "3:00pm"}, {"days": "Sat", "time": "12:00pm"}, {"days": "Sun", "time": "Closed"}], "id": "2783400043", "name": "USPS COLLECTION BOX - BLUE BOX", "address": {"city": "GREENVILLE", "state": "NC", "street": "2728 S MEMORIAL DR", "postcode": "27834"}}},
{"geometry": {"type": "Point", "coordinates": [-77.3615400278, 35.6380111762]}, "type": "Feature", "properties": {"collection_times": [{"days": "Mon-Fri", "time": "11:00am"}, {"days": "Sat-Sun", "time": "Closed"}], "id": "2783400050", "name": "USPS COLLECTION BOX - BLUE BOX", "address": {"city": "GREENVILLE", "state": "NC", "street": "403 GOVERNMENT CIR", "postcode": "27834"}}},
{"geometry": {"type": "Point", "coordinates": [-77.383907954, 35.5666561235]}, "type": "Feature", "properties": {"collection_times": [{"days": "Mon-Fri", "time": "11:00am"}, {"days": "Sat-Sun", "time": "Closed"}], "id": "2783400051", "name": "USPS COLLECTION BOX - BLUE BOX", "address": {"city": "GREENVILLE", "state": "NC", "street": "123 W VICTORIA CT", "postcode": "27834"}}},
{"geometry": {"type": "Point", "coordinates": [-77.3743211545, 35.6146594103]}, "type": "Feature", "properties": {"collection_times": [{"days": "Mon-Fri", "time": "5:00pm"}, {"days": "Sat-Sun", "time": "Closed"}], "id": "2783400053", "name": "USPS COLLECTION BOX - PO LOBBY", "address": {"city": "GREENVILLE", "state": "NC", "street": "300 W 2ND ST", "postcode": "27834"}}},
{"geometry": {"type": "Point", "coordinates": [-77.3961729543, 35.5860293452]}, "type": "Feature", "properties": {"collection_times": [{"days": "Mon-Fri", "time": "5:00pm"}, {"days": "Sat", "time": "12:00pm"}, {"days": "Sun", "time": "Closed"}], "id": "2783400054", "name": "USPS COLLECTION BOX - PO LOBBY", "address": {"city": "GREENVILLE", "state": "NC", "street": "2728 S MEMORIAL DR", "postcode": "27834"}}},
{"geometry": {"type": "Point", "coordinates": [-77.1902228264, 35.5628181252]}, "type": "Feature", "properties": {"collection_times": [{"days": "Mon-Fri", "time": "5:00pm"}, {"days": "Sat", "time": "12:00pm"}, {"days": "Sun", "time": "Closed"}], "id": "2783700001", "name": "USPS COLLECTION BOX - PO LOBBY", "address": {"city": "GRIMESLAND", "state": "NC", "street": "7607 PITT ST", "postcode": "27837"}}},
{"geometry": {"type": "Point", "coordinates": [-77.1902228264, 35.5628181252]}, "type": "Feature", "properties": {"collection_times": [{"days": "Mon-Fri", "time": "5:00pm"}, {"days": "Sat", "time": "12:00pm"}, {"days": "Sun", "time": "Closed"}], "id": "2783700002", "name": "USPS COLLECTION BOX - BLUE BOX", "address": {"city": "GRIMESLAND", "state": "NC", "street": "7607 PITT ST", "postcode": "27837"}}},
{"geometry": {"type": "Point", "coordinates": [-77.590486135, 36.327688946]}, "type": "Feature", "properties": {"collection_times": [{"days": "Mon-Fri", "time": "4:45pm"}, {"days": "Sat", "time": "10:00am"}, {"days": "Sun", "time": "Closed"}], "id": "2783900001", "name": "USPS COLLECTION BOX - PO LOBBY", "address": {"city": "HALIFAX", "state": "NC", "street": "28 S KING ST", "postcode": "27839"}}},
{"geometry": {"type": "Point", "coordinates": [-77.590486135, 36.327688946]}, "type": "Feature", "properties": {"collection_times": [{"days": "Mon-Fri", "time": "4:30pm"}, {"days": "Sat", "time": "10:00am"}, {"days": "Sun", "time": "Closed"}], "id": "2783900002", "name": "USPS COLLECTION BOX - BLUE BOX", "address": {"city": "HALIFAX", "state": "NC", "street": "28 S KING ST", "postcode": "27839"}}},
{"geometry": {"type": "Point", "coordinates": [-77.675147205, 36.365286302]}, "type": "Feature", "properties": {"collection_times": [{"days": "Mon-Sat", "time": "10:30am"}, {"days": "Sun", "time": "Closed"}], "id": "2783900003", "name": "USPS COLLECTION BOX - BLUE BOX", "address": {"city": "HALIFAX", "state": "NC", "street": "10401 NC HIGHWAY 903", "postcode": "27839"}}},
{"geometry": {"type": "Point", "coordinates": [-77.671043407, 36.363114939]}, "type": "Feature", "properties": {"collection_times": [{"days": "Mon-Sat", "time": "10:30am"}, {"days": "Sun", "time": "Closed"}], "id": "2783900004", "name": "USPS COLLECTION BOX - BLUE BOX", "address": {"city": "HALIFAX", "state": "NC", "street": "10654 NC HIGHWAY 903", "postcode": "27839"}}},
{"geometry": {"type": "Point", "coordinates": [-77.211473873, 35.9421531307]}, "type": "Feature", "properties": {"collection_times": [{"days": "Mon-Fri", "time": "4:15pm"}, {"days": "Sat", "time": "10:00am"}, {"days": "Sun", "time": "Closed"}], "id": "2784000001", "name": "USPS COLLECTION BOX - BLUE BOX", "address": {"city": "HAMILTON", "state": "NC", "street": "104 E MAIN ST", "postcode": "27840"}}},
{"geometry": {"type": "Point", "coordinates": [-77.211473873, 35.9421531307]}, "type": "Feature", "properties": {"collection_times": [{"days": "Mon-Fri", "time": "4:15pm"}, {"days": "Sat", "time": "10:00am"}, {"days": "Sun", "time": "Closed"}], "id": "2784000002", "name": "USPS COLLECTION BOX - PO LOBBY", "address": {"city": "HAMILTON", "state": "NC", "street": "104 E MAIN ST", "postcode": "27840"}}},
{"geometry": {"type": "Point", "coordinates": [-77.2773491866, 35.9078721262]}, "type": "Feature", "properties": {"collection_times": [{"days": "Mon-Fri", "time": "4:00pm"}, {"days": "Sat", "time": "10:00am"}, {"days": "Sun", "time": "Closed"}], "id": "2784100001", "name": "USPS COLLECTION BOX - BLUE BOX", "address": {"city": "HASSELL", "state": "NC", "street": "1524 E COMMERCE ST", "postcode": "27841"}}},
{"geometry": {"type": "Point", "coordinates": [-79.1854142581, 35.5393473065]}, "type": "Feature", "properties": {"collection_times": [{"days": "Mon-Fri", "time": "4:00pm"}, {"days": "Sat", "time": "10:00am"}, {"days": "Sun", "time": "Closed"}], "id": "2784100002", "name": "USPS COLLECTION BOX - PO LOBBY", "address": {"city": "HASSELL", "state": "NC", "street": "1524 E COMMERCE ST", "postcode": "27841"}}},
{"geometry": {"type": "Point", "coordinates": [-77.838987901, 36.53263405]}, "type": "Feature", "properties": {"collection_times": [{"days": "Mon-Fri", "time": "4:00pm"}, {"days": "Sat", "time": "10:00am"}, {"days": "Sun", "time": "Closed"}], "id": "2784200001", "name": "USPS COLLECTION BOX - BLUE BOX", "address": {"city": "HENRICO", "state": "NC", "street": "1458 RIVER RD", "postcode": "27842"}}},
{"geometry": {"type": "Point", "coordinates": [-77.838987901, 36.53263405]}, "type": "Feature", "properties": {"collection_times": [{"days": "Mon-Fri", "time": "4:00pm"}, {"days": "Sat", "time": "10:00am"}, {"days": "Sun", "time": "Closed"}], "id": "2784200002", "name": "USPS COLLECTION BOX - PO LOBBY", "address": {"city": "HENRICO", "state": "NC", "street": "1458 RIVER RD", "postcode": "27842"}}},
{"geometry": {"type": "Point", "coordinates": [-77.3987553159, 36.0304029805]}, "type": "Feature", "properties": {"collection_times": [{"days": "Mon-Fri", "time": "4:30pm"}, {"days": "Sat", "time": "10:00am"}, {"days": "Sun", "time": "Closed"}], "id": "2784300001", "name": "USPS COLLECTION BOX - PO LOBBY", "address": {"city": "HOBGOOD", "state": "NC", "street": "218 COMMERCE ST", "postcode": "27843"}}},
{"geometry": {"type": "Point", "coordinates": [-77.3987553159, 36.0304029805]}, "type": "Feature", "properties": {"collection_times": [{"days": "Mon-Fri", "time": "4:30pm"}, {"days": "Sat", "time": "10:00am"}, {"days": "Sun", "time": "Closed"}], "id": "2784300002", "name": "USPS COLLECTION BOX - BLUE BOX", "address": {"city": "HOBGOOD", "state": "NC", "street": "218 COMMERCE ST", "postcode": "27843"}}},
{"geometry": {"type": "Point", "coordinates": [-77.935427804, 36.255485513]}, "type": "Feature", "properties": {"collection_times": [{"days": "Mon-Fri", "time": "4:15pm"}, {"days": "Sat", "time": "11:00am"}, {"days": "Sun", "time": "Closed"}], "id": "2784400001", "name": "USPS COLLECTION BOX - PO LOBBY", "address": {"city": "HOLLISTER", "state": "NC", "street": "231 GIBBS AVE", "postcode": "27844"}}},
{"geometry": {"type": "Point", "coordinates": [-77.935427804, 36.255485513]}, "type": "Feature", "properties": {"collection_times": [{"days": "Mon-Fri", "time": "4:15pm"}, {"days": "Sat", "time": "11:00am"}, {"days": "Sun", "time": "Closed"}], "id": "2784400002", "name": "USPS COLLECTION BOX - BLUE BOX", "address": {"city": "HOLLISTER", "state": "NC", "street": "231 GIBBS AVE", "postcode": "27844"}}},
{"geometry": {"type": "Point", "coordinates": [-77.4188705622, 36.3912168407]}, "type": "Feature", "properties": {"collection_times": [{"days": "Mon-Fri", "time": "4:15pm"}, {"days": "Sat", "time": "10:15am"}, {"days": "Sun", "time": "Closed"}], "id": "2784500002", "name": "USPS COLLECTION BOX - BLUE BOX", "address": {"city": "JACKSON", "state": "NC", "street": "104 ATHERTON ST", "postcode": "27845"}}},
{"geometry": {"type": "Point", "coordinates": [-77.4188705622, 36.3912168407]}, "type": "Feature", "properties": {"collection_times": [{"days": "Mon-Fri", "time": "4:15pm"}, {"days": "Sat", "time": "10:15am"}, {"days": "Sun", "time": "Closed"}], "id": "2784500004", "name": "USPS COLLECTION BOX - PO LOBBY", "address": {"city": "JACKSON", "state": "NC", "street": "104 ATHERTON ST", "postcode": "27845"}}},
{"geometry": {"type": "Point", "coordinates": [-76.8923686643, 35.7855819921]}, "type": "Feature", "properties": {"collection_times": [{"days": "Mon-Fri", "time": "5:00pm"}, {"days": "Sat", "time": "12:00pm"}, {"days": "Sun", "time": "Closed"}], "id": "2784600001", "name": "USPS COLLECTION BOX - BLUE BOX", "address": {"city": "JAMESVILLE", "state": "NC", "street": "1840 MAIN ST", "postcode": "27846"}}},
{"geometry": {"type": "Point", "coordinates": [-76.8923686643, 35.7855819921]}, "type": "Feature", "properties": {"collection_times": [{"days": "Mon-Fri", "time": "5:00pm"}, {"days": "Sat", "time": "12:00pm"}, {"days": "Sun", "time": "Closed"}], "id": "2784600002", "name": "USPS COLLECTION BOX - PO LOBBY", "address": {"city": "JAMESVILLE", "state": "NC", "street": "1840 MAIN ST", "postcode": "27846"}}},
{"geometry": {"type": "Point", "coordinates": [-77.223656236, 36.1796827536]}, "type": "Feature", "properties": {"collection_times": [{"days": "Mon-Fri", "time": "4:30pm"}, {"days": "Sat", "time": "10:30am"}, {"days": "Sun", "time": "Closed"}], "id": "2784700001", "name": "USPS COLLECTION BOX - BLUE BOX", "address": {"city": "KELFORD", "state": "NC", "street": "108 S MAIN ST", "postcode": "27847"}}},
{"geometry": {"type": "Point", "coordinates": [-77.223656236, 36.1796827536]}, "type": "Feature", "properties": {"collection_times": [{"days": "Mon-Fri", "time": "4:30pm"}, {"days": "Sat", "time": "10:30am"}, {"days": "Sun", "time": "Closed"}], "id": "2784700002", "name": "USPS COLLECTION BOX - PO LOBBY", "address": {"city": "KELFORD", "state": "NC", "street": "108 S MAIN ST", "postcode": "27847"}}},
{"geometry": {"type": "Point", "coordinates": [-77.1764717775, 36.1226821192]}, "type": "Feature", "properties": {"collection_times": [{"days": "Mon-Fri", "time": "4:30pm"}, {"days": "Sat", "time": "11:30am"}, {"days": "Sun", "time": "Closed"}], "id": "2784900001", "name": "USPS COLLECTION BOX - BLUE BOX", "address": {"city": "LEWISTON", "state": "NC", "street": "125 MAIN ST", "postcode": "27849"}}},
{"geometry": {"type": "Point", "coordinates": [-77.1764717775, 36.1226821192]}, "type": "Feature", "properties": {"collection_times": [{"days": "Mon-Fri", "time": "4:30pm"}, {"days": "Sat", "time": "11:30am"}, {"days": "Sun", "time": "Closed"}], "id": "2784900002", "name": "USPS COLLECTION BOX - PO LOBBY", "address": {"city": "LEWISTON", "state": "NC", "street": "125 MAIN ST", "postcode": "27849"}}},
{"geometry": {"type": "Point", "coordinates": [-77.9121063707, 36.4335318886]}, "type": "Feature", "properties": {"collection_times": [{"days": "Mon-Fri", "time": "5:00pm"}, {"days": "Sat", "time": "10:30am"}, {"days": "Sun", "time": "Closed"}], "id": "2785000002", "name": "USPS COLLECTION BOX - BLUE BOX", "address": {"city": "LITTLETON", "state": "NC", "street": "109 MOSBY AVE", "postcode": "27850"}}},
{"geometry": {"type": "Point", "coordinates": [-77.9121063707, 36.4335318886]}, "type": "Feature", "properties": {"collection_times": [{"days": "Mon-Fri", "time": "5:00pm"}, {"days": "Sat", "time": "10:30am"}, {"days": "Sun", "time": "Closed"}], "id": "2785000004", "name": "USPS COLLECTION BOX - PO LOBBY", "address": {"city": "LITTLETON", "state": "NC", "street": "109 MOSBY AVE", "postcode": "27850"}}},
{"geometry": {"type": "Point", "coordinates": [-77.9389647749, 36.53247735]}, "type": "Feature", "properties": {"collection_times": [{"days": "Mon-Sat", "time": "12:00pm"}, {"days": "Sun", "time": "Closed"}], "id": "2785000005", "name": "USPS COLLECTION BOX - BLUE BOX", "address": {"city": "LITTLETON", "state": "NC", "street": "2455 EATON FERRY RD", "postcode": "27850"}}},
{"geometry": {"type": "Point", "coordinates": [-78.0096404531, 35.6451143163]}, "type": "Feature", "properties": {"collection_times": [{"days": "Mon-Fri", "time": "4:30pm"}, {"days": "Sat", "time": "11:00am"}, {"days": "Sun", "time": "Closed"}], "id": "2785100001", "name": "USPS COLLECTION BOX - BLUE BOX", "address": {"city": "LUCAMA", "state": "NC", "street": "101 S MAIN ST", "postcode": "27851"}}},
{"geometry": {"type": "Point", "coordinates": [-78.0096404531, 35.6451143163]}, "type": "Feature", "properties": {"collection_times": [{"days": "Mon-Fri", "time": "4:30pm"}, {"days": "Sat", "time": "11:00am"}, {"days": "Sun", "time": "Closed"}], "id": "2785100002", "name": "USPS COLLECTION BOX - PO LOBBY", "address": {"city": "LUCAMA", "state": "NC", "street": "101 S MAIN ST", "postcode": "27851"}}},
{"geometry": {"type": "Point", "coordinates": [-77.6715095825, 35.7523170955]}, "type": "Feature", "properties": {"collection_times": [{"days": "Mon-Fri", "time": "4:30pm"}, {"days": "Sat", "time": "12:00pm"}, {"days": "Sun", "time": "Closed"}], "id": "2785200001", "name": "USPS COLLECTION BOX - PO LOBBY", "address": {"city": "MACCLESFIELD", "state": "NC", "street": "115 W EDGECOMBE ST", "postcode": "27852"}}},
{"geometry": {"type": "Point", "coordinates": [-77.6715095825, 35.7523170955]}, "type": "Feature", "properties": {"collection_times": [{"days": "Mon-Fri", "time": "4:30pm"}, {"days": "Sat", "time": "12:00pm"}, {"days": "Sun", "time": "Closed"}], "id": "2785200002", "name": "USPS COLLECTION BOX - BLUE BOX", "address": {"city": "MACCLESFIELD", "state": "NC", "street": "115 W EDGECOMBE ST", "postcode": "27852"}}},
{"geometry": {"type": "Point", "coordinates": [-77.2941763364, 36.5310529947]}, "type": "Feature", "properties": {"collection_times": [{"days": "Mon-Fri", "time": "4:45pm"}, {"days": "Sat", "time": "11:00am"}, {"days": "Sun", "time": "Closed"}], "id": "2785300001", "name": "USPS COLLECTION BOX - BLUE BOX", "address": {"city": "MARGARETTSVILLE", "state": "NC", "street": "2717 TOWER RD", "postcode": "27853"}}},
{"geometry": {"type": "Point", "coordinates": [-77.2941763364, 36.5310529947]}, "type": "Feature", "properties": {"collection_times": [{"days": "Mon-Fri", "time": "4:45pm"}, {"days": "Sat", "time": "11:00am"}, {"days": "Sun", "time": "Closed"}], "id": "2785300002", "name": "USPS COLLECTION BOX - PO LOBBY", "address": {"city": "MARGARETTSVILLE", "state": "NC", "street": "2717 TOWER RD", "postcode": "27853"}}},
{"geometry": {"type": "Point", "coordinates": [-77.1009677388, 36.4425819368]}, "type": "Feature", "properties": {"collection_times": [{"days": "Mon-Fri", "time": "5:00pm"}, {"days": "Sat", "time": "12:00pm"}, {"days": "Sun", "time": "Closed"}], "id": "2785500002", "name": "USPS COLLECTION BOX - PO LOBBY", "address": {"city": "MURFREESBORO", "state": "NC", "street": "115 N WYNN ST", "postcode": "27855"}}},
{"geometry": {"type": "Point", "coordinates": [-77.1009677388, 36.4425819368]}, "type": "Feature", "properties": {"collection_times": [{"days": "Mon-Fri", "time": "5:00pm"}, {"days": "Sat", "time": "12:00pm"}, {"days": "Sun", "time": "Closed"}], "id": "2785500008", "name": "USPS COLLECTION BOX - BLUE BOX", "address": {"city": "MURFREESBORO", "state": "NC", "street": "115 N WYNN ST", "postcode": "27855"}}},
{"geometry": {"type": "Point", "coordinates": [-77.9710768564, 35.971207924]}, "type": "Feature", "properties": {"collection_times": [{"days": "Mon-Fri", "time": "5:00pm"}, {"days": "Sat", "time": "12:00pm"}, {"days": "Sun", "time": "Closed"}], "id": "2785600001", "name": "USPS COLLECTION BOX - PO LOBBY", "address": {"city": "NASHVILLE", "state": "NC", "street": "504 S BARNES ST", "postcode": "27856"}}},
{"geometry": {"type": "Point", "coordinates": [-77.9710768564, 35.971207924]}, "type": "Feature", "properties": {"collection_times": [{"days": "Mon-Fri", "time": "5:00pm"}, {"days": "Sat", "time": "12:00pm"}, {"days": "Sun", "time": "Closed"}], "id": "2785600004", "name": "USPS COLLECTION BOX - BLUE BOX", "address": {"city": "NASHVILLE", "state": "NC", "street": "504 S BARNES ST", "postcode": "27856"}}},
{"geometry": {"type": "Point", "coordinates": [-77.9710768564, 35.971207924]}, "type": "Feature", "properties": {"collection_times": [{"days": "Mon-Fri", "time": "5:00pm"}, {"days": "Sat", "time": "12:00pm"}, {"days": "Sun", "time": "Closed"}], "id": "2785600005", "name": "USPS COLLECTION BOX - BLUE BOX", "address": {"city": "NASHVILLE", "state": "NC", "street": "504 S BARNES ST", "postcode": "27856"}}},
{"geometry": {"type": "Point", "coordinates": [-77.9661829126, 35.97459477]}, "type": "Feature", "properties": {"collection_times": [{"days": "Mon-Fri", "time": "1:00pm"}, {"days": "Sat", "time": "12:00pm"}, {"days": "Sun", "time": "Closed"}], "id": "2785600006", "name": "USPS COLLECTION BOX - BLUE BOX", "address": {"city": "NASHVILLE", "state": "NC", "street": "125 W WASHINGTON ST", "postcode": "27856"}}},
{"geometry": {"type": "Point", "coordinates": [-77.9548717142, 35.971496565]}, "type": "Feature", "properties": {"collection_times": [{"days": "Mon-Fri", "time": "1:00pm"}, {"days": "Sat", "time": "12:00pm"}, {"days": "Sun", "time": "Closed"}], "id": "2785600007", "name": "USPS COLLECTION BOX - BLUE BOX", "address": {"city": "NASHVILLE", "state": "NC", "street": "733 E WASHINGTON ST", "postcode": "27856"}}},
{"geometry": {"type": "Point", "coordinates": [-77.310806625, 35.9750032059]}, "type": "Feature", "properties": {"collection_times": [{"days": "Mon-Fri", "time": "4:30pm"}, {"days": "Sat", "time": "10:30am"}, {"days": "Sun", "time": "Closed"}], "id": "2785700001", "name": "USPS COLLECTION BOX - BLUE BOX", "address": {"city": "OAK CITY", "state": "NC", "street": "100 COMMERCE ST", "postcode": "27857"}}},
{"geometry": {"type": "Point", "coordinates": [-77.310806625, 35.9750032059]}, "type": "Feature", "properties": {"collection_times": [{"days": "Mon-Fri", "time": "4:30pm"}, {"days": "Sat", "time": "10:30am"}, {"days": "Sun", "time": "Closed"}], "id": "2785700002", "name": "USPS COLLECTION BOX - PO LOBBY", "address": {"city": "OAK CITY", "state": "NC", "street": "100 COMMERCE ST", "postcode": "27857"}}},
{"geometry": {"type": "Point", "coordinates": [-77.3387519349, 35.5952251447]}, "type": "Feature", "properties": {"collection_times": [{"days": "Mon-Fri", "time": "11:00am"}, {"days": "Sat-Sun", "time": "Closed"}], "id": "2785800003", "name": "USPS COLLECTION BOX - BLUE BOX", "address": {"city": "GREENVILLE", "state": "NC", "street": "1908 GREENVILLE BLVD SE", "postcode": "27858"}}},
{"geometry": {"type": "Point", "coordinates": [-77.3662670699, 35.6044719097]}, "type": "Feature", "properties": {"collection_times": [{"days": "Mon-Fri", "time": "2:00pm"}, {"days": "Sat", "time": "12:00pm"}, {"days": "Sun", "time": "Closed"}], "id": "2785800004", "name": "USPS COLLECTION BOX - BLUE BOX", "address": {"city": "GREENVILLE", "state": "NC", "street": "806 E 10TH ST", "postcode": "27858"}}},
{"geometry": {"type": "Point", "coordinates": [-77.3725268647, 35.6132636667]}, "type": "Feature", "properties": {"collection_times": [{"days": "Mon-Fri", "time": "1:00pm"}, {"days": "Sat", "time": "12:00pm"}, {"days": "Sun", "time": "Closed"}], "id": "2785800014", "name": "USPS COLLECTION BOX - BLUE BOX", "address": {"city": "GREENVILLE", "state": "NC", "street": "100 W 3RD ST", "postcode": "27858"}}},
{"geometry": {"type": "Point", "coordinates": [-77.3805697856, 35.5809582824]}, "type": "Feature", "properties": {"collection_times": [{"days": "Mon-Fri", "time": "1:00pm"}, {"days": "Sat", "time": "12:00pm"}, {"days": "Sun", "time": "Closed"}], "id": "2785800019", "name": "USPS COLLECTION BOX - BLUE BOX", "address": {"city": "GREENVILLE", "state": "NC", "street": "100 RED BANKS RD", "postcode": "27858"}}},
{"geometry": {"type": "Point", "coordinates": [-77.3763872044, 35.5899254751]}, "type": "Feature", "properties": {"collection_times": [{"days": "Mon-Fri", "time": "1:00pm"}, {"days": "Sat-Sun", "time": "Closed"}], "id": "2785800021", "name": "USPS COLLECTION BOX - BLUE BOX", "address": {"city": "GREENVILLE", "state": "NC", "street": "214 E ARLINGTON BLVD", "postcode": "27858"}}},
{"geometry": {"type": "Point", "coordinates": [-77.370402153, 35.5860015552]}, "type": "Feature", "properties": {"collection_times": [{"days": "Mon-Fri", "time": "1:00pm"}, {"days": "Sat", "time": "12:00pm"}, {"days": "Sun", "time": "Closed"}], "id": "2785800025", "name": "USPS COLLECTION BOX - BLUE BOX", "address": {"city": "GREENVILLE", "state": "NC", "street": "703 GREENVILLE BLVD SE", "postcode": "27858"}}},
{"geometry": {"type": "Point", "coordinates": [-77.3692708837, 35.5873316504]}, "type": "Feature", "properties": {"collection_times": [{"days": "Mon-Fri", "time": "1:00pm"}, {"days": "Sat", "time": "12:00pm"}, {"days": "Sun", "time": "Closed"}], "id": "2785800028", "name": "USPS COLLECTION BOX - BLUE BOX", "address": {"city": "GREENVILLE", "state": "NC", "street": "714 GREENVILLE BLVD SE", "postcode": "27858"}}},
{"geometry": {"type": "Point", "coordinates": [-77.359485958, 35.578710218]}, "type": "Feature", "properties": {"collection_times": [{"days": "Mon-Fri", "time": "11:00am"}, {"days": "Sat-Sun", "time": "Closed"}], "id": "2785800035", "name": "USPS COLLECTION BOX - BLUE BOX", "address": {"city": "GREENVILLE", "state": "NC", "street": "128 OAKMONT DR", "postcode": "27858"}}},
{"geometry": {"type": "Point", "coordinates": [-77.356666342, 35.5847927683]}, "type": "Feature", "properties": {"collection_times": [{"days": "Mon-Fri", "time": "11:00am"}, {"days": "Sat-Sun", "time": "Closed"}], "id": "2785800041", "name": "USPS COLLECTION BOX - BLUE BOX", "address": {"city": "GREENVILLE", "state": "NC", "street": "1100 RED BANKS RD", "postcode": "27858"}}},
{"geometry": {"type": "Point", "coordinates": [-77.3457228116, 35.5813140428]}, "type": "Feature", "properties": {"collection_times": [{"days": "Mon-Fri", "time": "11:00am"}, {"days": "Sat-Sun", "time": "Closed"}], "id": "2785800046", "name": "USPS COLLECTION BOX - BLUE BOX", "address": {"city": "GREENVILLE", "state": "NC", "street": "49 BARNES ST", "postcode": "27858"}}},
{"geometry": {"type": "Point", "coordinates": [-77.343623005, 35.5823096583]}, "type": "Feature", "properties": {"collection_times": [{"days": "Mon-Fri", "time": "11:00am"}, {"days": "Sat-Sun", "time": "Closed"}], "id": "2785800047", "name": "USPS COLLECTION BOX - BLUE BOX", "address": {"city": "GREENVILLE", "state": "NC", "street": "1800 QUAIL RIDGE RD", "postcode": "27858"}}},
{"geometry": {"type": "Point", "coordinates": [-77.3546390616, 35.567470059]}, "type": "Feature", "properties": {"collection_times": [{"days": "Mon-Fri", "time": "2:00pm"}, {"days": "Sat", "time": "12:00pm"}, {"days": "Sun", "time": "Closed"}], "id": "2785800052", "name": "USPS COLLECTION BOX - BLUE BOX", "address": {"city": "GREENVILLE", "state": "NC", "street": "1900 SMYTHEWYCK DR", "postcode": "27858"}}},
{"geometry": {"type": "Point", "coordinates": [-77.3631112302, 35.5753288245]}, "type": "Feature", "properties": {"collection_times": [{"days": "Mon-Fri", "time": "11:00am"}, {"days": "Sat-Sun", "time": "Closed"}], "id": "2785800060", "name": "USPS COLLECTION BOX - BLUE BOX", "address": {"city": "GREENVILLE", "state": "NC", "street": "2922 MULBERRY LN", "postcode": "27858"}}},
{"geometry": {"type": "Point", "coordinates": [-77.3695948075, 35.5850619607]}, "type": "Feature", "properties": {"collection_times": [{"days": "Mon-Fri", "time": "1:00pm"}, {"days": "Sat", "time": "12:00pm"}, {"days": "Sun", "time": "Closed"}], "id": "2785800064", "name": "USPS COLLECTION BOX - BLUE BOX", "address": {"city": "GREENVILLE", "state": "NC", "street": "698 E ARLINGTON BLVD", "postcode": "27858"}}},
{"geometry": {"type": "Point", "coordinates": [-77.3662670699, 35.6044719097]}, "type": "Feature", "properties": {"collection_times": [{"days": "Mon-Fri", "time": "2:00pm"}, {"days": "Sat-Sun", "time": "Closed"}], "id": "2785800065", "name": "USPS COLLECTION BOX - PO LOBBY", "address": {"city": "GREENVILLE", "state": "NC", "street": "806 E 10TH ST", "postcode": "27858"}}},
{"geometry": {"type": "Point", "coordinates": [-76.6576152204, 35.58848831]}, "type": "Feature", "properties": {"collection_times": [{"days": "Mon-Fri", "time": "4:30pm"}, {"days": "Sat", "time": "9:00am"}, {"days": "Sun", "time": "Closed"}], "id": "2786000001", "name": "USPS COLLECTION BOX - BLUE BOX", "address": {"city": "PANTEGO", "state": "NC", "street": "26022 US HIGHWAY 264 E", "postcode": "27860"}}},
{"geometry": {"type": "Point", "coordinates": [-76.6576152204, 35.58848831]}, "type": "Feature", "properties": {"collection_times": [{"days": "Mon-Fri", "time": "4:30pm"}, {"days": "Sat", "time": "9:00am"}, {"days": "Sun", "time": "Closed"}], "id": "2786000002", "name": "USPS COLLECTION BOX - PO LOBBY", "address": {"city": "PANTEGO", "state": "NC", "street": "26022 US HIGHWAY 264 E", "postcode": "27860"}}},
{"geometry": {"type": "Point", "coordinates": [-77.1858016972, 36.4931180349]}, "type": "Feature", "properties": {"collection_times": [{"days": "Mon-Fri", "time": "4:15pm"}, {"days": "Sat", "time": "11:30am"}, {"days": "Sun", "time": "Closed"}], "id": "2786200001", "name": "USPS COLLECTION BOX - PO LOBBY", "address": {"city": "PENDLETON", "state": "NC", "street": "7488 NC HIGHWAY 35", "postcode": "27862"}}},
{"geometry": {"type": "Point", "coordinates": [-77.198836322, 36.472453571]}, "type": "Feature", "properties": {"collection_times": [{"days": "Mon-Fri", "time": "4:15pm"}, {"days": "Sat", "time": "11:30am"}, {"days": "Sun", "time": "Closed"}], "id": "2786200002", "name": "USPS COLLECTION BOX - BLUE BOX", "address": {"city": "PENDLETON", "state": "NC", "street": "7488 NC HIGHWAY 35", "postcode": "27862"}}},
{"geometry": {"type": "Point", "coordinates": [-77.9812015044, 35.4970951643]}, "type": "Feature", "properties": {"collection_times": [{"days": "Mon-Fri", "time": "4:30pm"}, {"days": "Sat", "time": "9:30am"}, {"days": "Sun", "time": "Closed"}], "id": "2786300001", "name": "USPS COLLECTION BOX - BLUE BOX", "address": {"city": "PIKEVILLE", "state": "NC", "street": "214 BIG DADDYS RD", "postcode": "27863"}}},
{"geometry": {"type": "Point", "coordinates": [-77.9812015044, 35.4970951643]}, "type": "Feature", "properties": {"collection_times": [{"days": "Mon-Fri", "time": "4:30pm"}, {"days": "Sat", "time": "9:30am"}, {"days": "Sun", "time": "Closed"}], "id": "2786300002", "name": "USPS COLLECTION BOX - PO LOBBY", "address": {"city": "PIKEVILLE", "state": "NC", "street": "214 BIG DADDYS RD", "postcode": "27863"}}},
{"geometry": {"type": "Point", "coordinates": [-77.6401162983, 35.7875627976]}, "type": "Feature", "properties": {"collection_times": [{"days": "Mon-Fri", "time": "4:30pm"}, {"days": "Sat", "time": "9:00am"}, {"days": "Sun", "time": "Closed"}], "id": "2786400001", "name": "USPS COLLECTION BOX - PO LOBBY", "address": {"city": "PINETOPS", "state": "NC", "street": "108 SW 1ST ST", "postcode": "27864"}}},
{"geometry": {"type": "Point", "coordinates": [-77.6401162983, 35.7875627976]}, "type": "Feature", "properties": {"collection_times": [{"days": "Mon-Fri", "time": "4:30pm"}, {"days": "Sat", "time": "9:00am"}, {"days": "Sun", "time": "Closed"}], "id": "2786400003", "name": "USPS COLLECTION BOX - BLUE BOX", "address": {"city": "PINETOPS", "state": "NC", "street": "108 SW 1ST ST", "postcode": "27864"}}},
{"geometry": {"type": "Point", "coordinates": [-76.8616462762, 35.607337672]}, "type": "Feature", "properties": {"collection_times": [{"days": "Mon-Fri", "time": "4:15pm"}, {"days": "Sat", "time": "10:45am"}, {"days": "Sun", "time": "Closed"}], "id": "2786500001", "name": "USPS COLLECTION BOX - BLUE BOX", "address": {"city": "PINETOWN", "state": "NC", "street": "378 MAIN ST", "postcode": "27865"}}},
{"geometry": {"type": "Point", "coordinates": [-76.8616462762, 35.607337672]}, "type": "Feature", "properties": {"collection_times": [{"days": "Mon-Fri", "time": "4:15pm"}, {"days": "Sat", "time": "10:45am"}, {"days": "Sun", "time": "Closed"}], "id": "2786500002", "name": "USPS COLLECTION BOX - PO LOBBY", "address": {"city": "PINETOWN", "state": "NC", "street": "378 MAIN ST", "postcode": "27865"}}},
{"geometry": {"type": "Point", "coordinates": [-77.5174356517, 36.5230965986]}, "type": "Feature", "properties": {"collection_times": [{"days": "Mon-Fri", "time": "4:15pm"}, {"days": "Sat", "time": "10:15am"}, {"days": "Sun", "time": "Closed"}], "id": "2786600001", "name": "USPS COLLECTION BOX - PO LOBBY", "address": {"city": "PLEASANT HILL", "state": "NC", "street": "4366 US HIGHWAY 301", "postcode": "27866"}}},
{"geometry": {"type": "Point", "coordinates": [-77.5174356517, 36.5230965986]}, "type": "Feature", "properties": {"collection_times": [{"days": "Mon-Fri", "time": "4:15pm"}, {"days": "Sat", "time": "10:15am"}, {"days": "Sun", "time": "Closed"}], "id": "2786600002", "name": "USPS COLLECTION BOX - BLUE BOX", "address": {"city": "PLEASANT HILL", "state": "NC", "street": "4366 US HIGHWAY 301", "postcode": "27866"}}},
{"geometry": {"type": "Point", "coordinates": [-79.1854142581, 35.5393473065]}, "type": "Feature", "properties": {"collection_times": [{"days": "Mon-Fri", "time": "4:00pm"}, {"days": "Sat", "time": "10:15am"}, {"days": "Sun", "time": "Closed"}], "id": "2786700001", "name": "USPS COLLECTION BOX - BLUE BOX", "address": {"city": "POTECASI", "state": "NC", "street": "3185 NC HIGHWAY 35", "postcode": "27867"}}},
{"geometry": {"type": "Point", "coordinates": [-79.1854142581, 35.5393473065]}, "type": "Feature", "properties": {"collection_times": [{"days": "Mon-Fri", "time": "4:00pm"}, {"days": "Sat", "time": "10:15am"}, {"days": "Sun", "time": "Closed"}], "id": "2786700002", "name": "USPS COLLECTION BOX - PO LOBBY", "address": {"city": "POTECASI", "state": "NC", "street": "3185 NC HIGHWAY 35", "postcode": "27867"}}},
{"geometry": {"type": "Point", "coordinates": [-77.906900442, 36.038918451]}, "type": "Feature", "properties": {"collection_times": [{"days": "Mon-Fri", "time": "4:45pm"}, {"days": "Sat", "time": "9:30am"}, {"days": "Sun", "time": "Closed"}], "id": "2786800001", "name": "USPS COLLECTION BOX - BLUE BOX", "address": {"city": "RED OAK", "state": "NC", "street": "8382 RED OAK BLVD", "postcode": "27868"}}},
{"geometry": {"type": "Point", "coordinates": [-77.906900442, 36.038918451]}, "type": "Feature", "properties": {"collection_times": [{"days": "Mon-Fri", "time": "4:45pm"}, {"days": "Sat", "time": "9:30am"}, {"days": "Sun", "time": "Closed"}], "id": "2786800002", "name": "USPS COLLECTION BOX - PO LOBBY", "address": {"city": "RED OAK", "state": "NC", "street": "8382 RED OAK BLVD", "postcode": "27868"}}},
{"geometry": {"type": "Point", "coordinates": [-77.2847490736, 36.2737298399]}, "type": "Feature", "properties": {"collection_times": [{"days": "Mon-Fri", "time": "4:30pm"}, {"days": "Sat", "time": "11:30am"}, {"days": "Sun", "time": "Closed"}], "id": "2786900001", "name": "USPS COLLECTION BOX - PO LOBBY", "address": {"city": "RICH SQUARE", "state": "NC", "street": "113 W JACKSON ST", "postcode": "27869"}}},
{"geometry": {"type": "Point", "coordinates": [-77.2847490736, 36.2737298399]}, "type": "Feature", "properties": {"collection_times": [{"days": "Mon-Fri", "time": "4:30pm"}, {"days": "Sat", "time": "11:30am"}, {"days": "Sun", "time": "Closed"}], "id": "2786900003", "name": "USPS COLLECTION BOX - BLUE BOX", "address": {"city": "RICH SQUARE", "state": "NC", "street": "113 W JACKSON ST", "postcode": "27869"}}},
{"geometry": {"type": "Point", "coordinates": [-77.655046298, 36.4605486424]}, "type": "Feature", "properties": {"collection_times": [{"days": "Mon-Fri", "time": "5:00pm"}, {"days": "Sat", "time": "4:00pm"}, {"days": "Sun", "time": "Closed"}], "id": "2787000001", "name": "USPS COLLECTION BOX - PO LOBBY", "address": {"city": "ROANOKE RAPIDS", "state": "NC", "street": "725 ROANOKE AVE", "postcode": "27870"}}},
{"geometry": {"type": "Point", "coordinates": [-77.655046298, 36.4605486424]}, "type": "Feature", "properties": {"collection_times": [{"days": "Mon-Fri", "time": "5:00pm"}, {"days": "Sat", "time": "1:00pm"}, {"days": "Sun", "time": "Closed"}], "id": "2787000003", "name": "USPS COLLECTION BOX - BLUE BOX", "address": {"city": "ROANOKE RAPIDS", "state": "NC", "street": "725 ROANOKE AVE", "postcode": "27870"}}},
{"geometry": {"type": "Point", "coordinates": [-77.657187098, 36.4559704273]}, "type": "Feature", "properties": {"collection_times": [{"days": "Mon-Sat", "time": "2:15pm"}, {"days": "Sun", "time": "Closed"}], "id": "2787000008", "name": "USPS COLLECTION BOX - BLUE BOX", "address": {"city": "ROANOKE RAPIDS", "state": "NC", "street": "1000 ROANOKE AVE", "postcode": "27870"}}},
{"geometry": {"type": "Point", "coordinates": [-77.6448829627, 36.4518170297]}, "type": "Feature", "properties": {"collection_times": [{"days": "Mon-Sat", "time": "2:15pm"}, {"days": "Sun", "time": "Closed"}], "id": "2787000012", "name": "USPS COLLECTION BOX - BLUE BOX", "address": {"city": "ROANOKE RAPIDS", "state": "NC", "street": "946 PARK AVE", "postcode": "27870"}}},
{"geometry": {"type": "Point", "coordinates": [-77.6421049359, 36.4424084265]}, "type": "Feature", "properties": {"collection_times": [{"days": "Mon-Sat", "time": "2:15pm"}, {"days": "Sun", "time": "Closed"}], "id": "2787000014", "name": "USPS COLLECTION BOX - BLUE BOX", "address": {"city": "ROANOKE RAPIDS", "state": "NC", "street": "1600 E 10TH ST", "postcode": "27870"}}},
{"geometry": {"type": "Point", "coordinates": [-77.7146789726, 36.4230932248]}, "type": "Feature", "properties": {"collection_times": [{"days": "Mon-Sat", "time": "2:15pm"}, {"days": "Sun", "time": "Closed"}], "id": "2787000016", "name": "USPS COLLECTION BOX - BLUE BOX", "address": {"city": "ROANOKE RAPIDS", "state": "NC", "street": "1200 JULIAN ALLSBRK HWY", "postcode": "27870"}}},
{"geometry": {"type": "Point", "coordinates": [-77.7146789726, 36.4230932248]}, "type": "Feature", "properties": {"collection_times": [{"days": "Mon-Sat", "time": "2:15pm"}, {"days": "Sun", "time": "Closed"}], "id": "2787000018", "name": "USPS COLLECTION BOX - BLUE BOX", "address": {"city": "ROANOKE RAPIDS", "state": "NC", "street": "1600 JULIAN ALLSBRK HWY", "postcode": "27870"}}},
{"geometry": {"type": "Point", "coordinates": [-77.6480793203, 36.4346117307]}, "type": "Feature", "properties": {"collection_times": [{"days": "Mon-Sat", "time": "2:15pm"}, {"days": "Sun", "time": "Closed"}], "id": "2787000020", "name": "USPS COLLECTION BOX - BLUE BOX", "address": {"city": "ROANOKE RAPIDS", "state": "NC", "street": "250 SMITH CHURCH RD", "postcode": "27870"}}},
{"geometry": {"type": "Point", "coordinates": [-77.2537639017, 35.8240697769]}, "type": "Feature", "properties": {"collection_times": [{"days": "Mon-Fri", "time": "4:30pm"}, {"days": "Sat", "time": "11:30am"}, {"days": "Sun", "time": "Closed"}], "id": "2787100001", "name": "USPS COLLECTION BOX - PO LOBBY", "address": {"city": "ROBERSONVILLE", "state": "NC", "street": "113 SW RAILROAD ST", "postcode": "27871"}}},
{"geometry": {"type": "Point", "coordinates": [-77.2537639017, 35.8240697769]}, "type": "Feature", "properties": {"collection_times": [{"days": "Mon-Fri", "time": "5:00pm"}, {"days": "Sat", "time": "11:30am"}, {"days": "Sun", "time": "Closed"}], "id": "2787100002", "name": "USPS COLLECTION BOX - BLUE BOX", "address": {"city": "ROBERSONVILLE", "state": "NC", "street": "113 SW RAILROAD ST", "postcode": "27871"}}},
{"geometry": {"type": "Point", "coordinates": [-77.2544782275, 35.8305891409]}, "type": "Feature", "properties": {"collection_times": [{"days": "Mon-Sat", "time": "9:00am"}, {"days": "Sun", "time": "Closed"}], "id": "2787100004", "name": "USPS COLLECTION BOX - BLUE BOX", "address": {"city": "ROBERSONVILLE", "state": "NC", "street": "702 N MAIN ST", "postcode": "27871"}}},
{"geometry": {"type": "Point", "coordinates": [-77.2494871939, 36.2006631023]}, "type": "Feature", "properties": {"collection_times": [{"days": "Mon-Fri", "time": "5:00pm"}, {"days": "Sat", "time": "11:30am"}, {"days": "Sun", "time": "Closed"}], "id": "2787200001", "name": "USPS COLLECTION BOX - BLUE BOX", "address": {"city": "ROXOBEL", "state": "NC", "street": "106 W CHURCH ST", "postcode": "27872"}}},
{"geometry": {"type": "Point", "coordinates": [-77.2494871939, 36.2006631023]}, "type": "Feature", "properties": {"collection_times": [{"days": "Mon-Fri", "time": "5:00pm"}, {"days": "Sat", "time": "11:30am"}, {"days": "Sun", "time": "Closed"}], "id": "2787200002", "name": "USPS COLLECTION BOX - PO LOBBY", "address": {"city": "ROXOBEL", "state": "NC", "street": "106 W CHURCH ST", "postcode": "27872"}}},
{"geometry": {"type": "Point", "coordinates": [-77.7810539024, 35.6574783648]}, "type": "Feature", "properties": {"collection_times": [{"days": "Mon-Fri", "time": "4:30pm"}, {"days": "Sat", "time": "10:30am"}, {"days": "Sun", "time": "Closed"}], "id": "2787300001", "name": "USPS COLLECTION BOX - BLUE BOX", "address": {"city": "SARATOGA", "state": "NC", "street": "6744 MAIN ST", "postcode": "27873"}}},
{"geometry": {"type": "Point", "coordinates": [-77.7810539024, 35.6574783648]}, "type": "Feature", "properties": {"collection_times": [{"days": "Mon-Fri", "time": "4:30pm"}, {"days": "Sat", "time": "10:30am"}, {"days": "Sun", "time": "Closed"}], "id": "2787300002", "name": "USPS COLLECTION BOX - PO LOBBY", "address": {"city": "SARATOGA", "state": "NC", "street": "6744 MAIN ST", "postcode": "27873"}}},
{"geometry": {"type": "Point", "coordinates": [-77.4224007641, 36.128846785]}, "type": "Feature", "properties": {"collection_times": [{"days": "Mon-Fri", "time": "4:30pm"}, {"days": "Sat", "time": "11:00am"}, {"days": "Sun", "time": "Closed"}], "id": "2787400001", "name": "USPS COLLECTION BOX - BLUE BOX", "address": {"city": "SCOTLAND NECK", "state": "NC", "street": "1015 MAIN ST", "postcode": "27874"}}},
{"geometry": {"type": "Point", "coordinates": [-77.4224007641, 36.128846785]}, "type": "Feature", "properties": {"collection_times": [{"days": "Mon-Fri", "time": "4:30pm"}, {"days": "Sat", "time": "11:00am"}, {"days": "Sun", "time": "Closed"}], "id": "2787400007", "name": "USPS COLLECTION BOX - PO LOBBY", "address": {"city": "SCOTLAND NECK", "state": "NC", "street": "1015 MAIN ST", "postcode": "27874"}}},
{"geometry": {"type": "Point", "coordinates": [-76.451546613, 35.495543526]}, "type": "Feature", "properties": {"collection_times": [{"days": "Mon-Fri", "time": "4:00pm"}, {"days": "Sat", "time": "10:30am"}, {"days": "Sun", "time": "Closed"}], "id": "2787500001", "name": "USPS COLLECTION BOX - BLUE BOX", "address": {"city": "SCRANTON", "state": "NC", "street": "500 OLD US HIGHWAY 264", "postcode": "27875"}}},
{"geometry": {"type": "Point", "coordinates": [-76.4515466127, 35.4955435258]}, "type": "Feature", "properties": {"collection_times": [{"days": "Mon-Fri", "time": "4:00pm"}, {"days": "Sat", "time": "10:30am"}, {"days": "Sun", "time": "Closed"}], "id": "2787500002", "name": "USPS COLLECTION BOX - PO LOBBY", "address": {"city": "SCRANTON", "state": "NC", "street": "500 OLD US HIGHWAY 264", "postcode": "27875"}}},
{"geometry": {"type": "Point", "coordinates": [-77.4433843368, 36.4940799063]}, "type": "Feature", "properties": {"collection_times": [{"days": "Mon-Fri", "time": "4:30pm"}, {"days": "Sat", "time": "10:30am"}, {"days": "Sun", "time": "Closed"}], "id": "2787600001", "name": "USPS COLLECTION BOX - BLUE BOX", "address": {"city": "SEABOARD", "state": "NC", "street": "204 S MAIN ST", "postcode": "27876"}}},
{"geometry": {"type": "Point", "coordinates": [-77.4433843368, 36.4940799063]}, "type": "Feature", "properties": {"collection_times": [{"days": "Mon-Fri", "time": "4:30pm"}, {"days": "Sat", "time": "10:30am"}, {"days": "Sun", "time": "Closed"}], "id": "2787600002", "name": "USPS COLLECTION BOX - PO LOBBY", "address": {"city": "SEABOARD", "state": "NC", "street": "204 S MAIN ST", "postcode": "27876"}}},
{"geometry": {"type": "Point", "coordinates": [-77.1901734527, 36.5141797519]}, "type": "Feature", "properties": {"collection_times": [{"days": "Mon-Fri", "time": "4:30pm"}, {"days": "Sat", "time": "10:30am"}, {"days": "Sun", "time": "Closed"}], "id": "2787700001", "name": "USPS COLLECTION BOX - BLUE BOX", "address": {"city": "SEVERN", "state": "NC", "street": "410 MAIN ST", "postcode": "27877"}}},
{"geometry": {"type": "Point", "coordinates": [-77.1901734527, 36.5141797519]}, "type": "Feature", "properties": {"collection_times": [{"days": "Mon-Fri", "time": "4:30pm"}, {"days": "Sat", "time": "10:30am"}, {"days": "Sun", "time": "Closed"}], "id": "2787700002", "name": "USPS COLLECTION BOX - PO LOBBY", "address": {"city": "SEVERN", "state": "NC", "street": "410 MAIN ST", "postcode": "27877"}}},
{"geometry": {"type": "Point", "coordinates": [-77.8324005427, 35.8625617712]}, "type": "Feature", "properties": {"collection_times": [{"days": "Mon-Fri", "time": "4:30pm"}, {"days": "Sat", "time": "10:30am"}, {"days": "Sun", "time": "Closed"}], "id": "2787800001", "name": "USPS COLLECTION BOX - PO LOBBY", "address": {"city": "SHARPSBURG", "state": "NC", "street": "4241 S HATHAWAY BLVD", "postcode": "27878"}}},
{"geometry": {"type": "Point", "coordinates": [-77.8296787323, 35.8678191846]}, "type": "Feature", "properties": {"collection_times": [{"days": "Mon-Fri", "time": "4:30pm"}, {"days": "Sat", "time": "10:30am"}, {"days": "Sun", "time": "Closed"}], "id": "2787800002", "name": "USPS COLLECTION BOX - BLUE BOX", "address": {"city": "SHARPSBURG", "state": "NC", "street": "4241 S HATHAWAY BLVD", "postcode": "27878"}}},
{"geometry": {"type": "Point", "coordinates": [-77.2753338856, 35.5734254261]}, "type": "Feature", "properties": {"collection_times": [{"days": "Mon-Fri", "time": "5:00pm"}, {"days": "Sat", "time": "10:15am"}, {"days": "Sun", "time": "Closed"}], "id": "2787900001", "name": "USPS COLLECTION BOX - PO LOBBY", "address": {"city": "SIMPSON", "state": "NC", "street": "2806 EDWARDS DR", "postcode": "27879"}}},
{"geometry": {"type": "Point", "coordinates": [-77.2753338856, 35.5734254261]}, "type": "Feature", "properties": {"collection_times": [{"days": "Mon-Fri", "time": "5:00pm"}, {"days": "Sat", "time": "10:15am"}, {"days": "Sun", "time": "Closed"}], "id": "2787900002", "name": "USPS COLLECTION BOX - BLUE BOX", "address": {"city": "SIMPSON", "state": "NC", "street": "2806 EDWARDS DR", "postcode": "27879"}}},
{"geometry": {"type": "Point", "coordinates": [-78.0594838382, 35.7599872569]}, "type": "Feature", "properties": {"collection_times": [{"days": "Mon-Fri", "time": "4:30pm"}, {"days": "Sat", "time": "10:30am"}, {"days": "Sun", "time": "Closed"}], "id": "2788000001", "name": "USPS COLLECTION BOX - BLUE BOX", "address": {"city": "SIMS", "state": "NC", "street": "6404 MAIN ST", "postcode": "27880"}}},
{"geometry": {"type": "Point", "coordinates": [-78.0594838382, 35.7599872569]}, "type": "Feature", "properties": {"collection_times": [{"days": "Mon-Fri", "time": "4:30pm"}, {"days": "Sat", "time": "10:30am"}, {"days": "Sun", "time": "Closed"}], "id": "2788000002", "name": "USPS COLLECTION BOX - PO LOBBY", "address": {"city": "SIMS", "state": "NC", "street": "6404 MAIN ST", "postcode": "27880"}}},
{"geometry": {"type": "Point", "coordinates": [-77.444040935, 35.9693424964]}, "type": "Feature", "properties": {"collection_times": [{"days": "Mon-Fri", "time": "4:15pm"}, {"days": "Sat", "time": "8:45am"}, {"days": "Sun", "time": "Closed"}], "id": "2788100001", "name": "USPS COLLECTION BOX - PO LOBBY", "address": {"city": "SPEED", "state": "NC", "street": "100 MAIN ST", "postcode": "27881"}}},
{"geometry": {"type": "Point", "coordinates": [-77.444040935, 35.9693424964]}, "type": "Feature", "properties": {"collection_times": [{"days": "Mon-Fri", "time": "4:15pm"}, {"days": "Sat", "time": "8:45am"}, {"days": "Sun", "time": "Closed"}], "id": "2788100002", "name": "USPS COLLECTION BOX - BLUE BOX", "address": {"city": "SPEED", "state": "NC", "street": "100 MAIN ST", "postcode": "27881"}}},
{"geometry": {"type": "Point", "coordinates": [-78.1082065755, 35.9481188251]}, "type": "Feature", "properties": {"collection_times": [{"days": "Mon-Sat", "time": "12:00pm"}, {"days": "Sun", "time": "Closed"}], "id": "2788200001", "name": "USPS COLLECTION BOX - BLUE BOX", "address": {"city": "SPRING HOPE", "state": "NC", "street": "603 E NASH ST", "postcode": "27882"}}},
{"geometry": {"type": "Point", "coordinates": [-78.1103053444, 35.9434617757]}, "type": "Feature", "properties": {"collection_times": [{"days": "Mon-Fri", "time": "5:00pm"}, {"days": "Sat", "time": "12:00pm"}, {"days": "Sun", "time": "Closed"}], "id": "2788200002", "name": "USPS COLLECTION BOX - BLUE BOX", "address": {"city": "SPRING HOPE", "state": "NC", "street": "107 E BRANCH ST", "postcode": "27882"}}},
{"geometry": {"type": "Point", "coordinates": [-78.1139465561, 35.9395915603]}, "type": "Feature", "properties": {"collection_times": [{"days": "Mon-Sat", "time": "12:00pm"}, {"days": "Sun", "time": "Closed"}], "id": "2788200003", "name": "USPS COLLECTION BOX - BLUE BOX", "address": {"city": "SPRING HOPE", "state": "NC", "street": "1329 TANT RD", "postcode": "27882"}}},
{"geometry": {"type": "Point", "coordinates": [-78.1103053444, 35.9434617757]}, "type": "Feature", "properties": {"collection_times": [{"days": "Mon-Fri", "time": "5:00pm"}, {"days": "Sat", "time": "12:00pm"}, {"days": "Sun", "time": "Closed"}], "id": "2788200004", "name": "USPS COLLECTION BOX - PO LOBBY", "address": {"city": "SPRING HOPE", "state": "NC", "street": "107 E BRANCH ST", "postcode": "27882"}}},
{"geometry": {"type": "Point", "coordinates": [-77.8242941614, 35.606425525]}, "type": "Feature", "properties": {"collection_times": [{"days": "Mon-Fri", "time": "4:45pm"}, {"days": "Sat", "time": "11:00am"}, {"days": "Sun", "time": "Closed"}], "id": "2788300001", "name": "USPS COLLECTION BOX - BLUE BOX", "address": {"city": "STANTONSBURG", "state": "NC", "street": "200 S MAIN ST", "postcode": "27883"}}},
{"geometry": {"type": "Point", "coordinates": [-77.8242941614, 35.606425525]}, "type": "Feature", "properties": {"collection_times": [{"days": "Mon-Fri", "time": "5:00pm"}, {"days": "Sat", "time": "11:00am"}, {"days": "Sun", "time": "Closed"}], "id": "2788300002", "name": "USPS COLLECTION BOX - PO LOBBY", "address": {"city": "STANTONSBURG", "state": "NC", "street": "200 S MAIN ST", "postcode": "27883"}}},
{"geometry": {"type": "Point", "coordinates": [-77.2712357636, 35.7146541225]}, "type": "Feature", "properties": {"collection_times": [{"days": "Mon-Fri", "time": "4:15pm"}, {"days": "Sat", "time": "9:45am"}, {"days": "Sun", "time": "Closed"}], "id": "2788400001", "name": "USPS COLLECTION BOX - BLUE BOX", "address": {"city": "STOKES", "state": "NC", "street": "2817 NC HIGHWAY 903 N", "postcode": "27884"}}},
{"geometry": {"type": "Point", "coordinates": [-77.2712357636, 35.7146541225]}, "type": "Feature", "properties": {"collection_times": [{"days": "Mon-Fri", "time": "4:15pm"}, {"days": "Sat", "time": "9:45am"}, {"days": "Sun", "time": "Closed"}], "id": "2788400002", "name": "USPS COLLECTION BOX - PO LOBBY", "address": {"city": "STOKES", "state": "NC", "street": "2817 NC HIGHWAY 903 N", "postcode": "27884"}}},
{"geometry": {"type": "Point", "coordinates": [-76.316990781, 35.421362816]}, "type": "Feature", "properties": {"collection_times": [{"days": "Mon-Fri", "time": "3:00pm"}, {"days": "Sat-Sun", "time": "Closed"}], "id": "2788500000", "name": "USPS COLLECTION BOX - PO LOBBY", "address": {"city": "SWANQUARTER", "state": "NC", "street": "1271 MAIN ST", "postcode": "27885"}}},
{"geometry": {"type": "Point", "coordinates": [-76.316990781, 35.421362816]}, "type": "Feature", "properties": {"collection_times": [{"days": "Mon-Fri", "time": "3:00pm"}, {"days": "Sat-Sun", "time": "Closed"}], "id": "2788500001", "name": "USPS COLLECTION BOX - BLUE BOX", "address": {"city": "SWANQUARTER", "state": "NC", "street": "1271 MAIN ST", "postcode": "27885"}}},
{"geometry": {"type": "Point", "coordinates": [-77.5371571385, 35.9012090195]}, "type": "Feature", "properties": {"collection_times": [{"days": "Mon-Sat", "time": "2:00pm"}, {"days": "Sun", "time": "Closed"}], "id": "2788600003", "name": "USPS COLLECTION BOX - BLUE BOX", "address": {"city": "TARBORO", "state": "NC", "street": "909 N MAIN ST", "postcode": "27886"}}},
{"geometry": {"type": "Point", "coordinates": [-77.5434658386, 35.9109370753]}, "type": "Feature", "properties": {"collection_times": [{"days": "Mon-Sat", "time": "2:00pm"}, {"days": "Sun", "time": "Closed"}], "id": "2788600005", "name": "USPS COLLECTION BOX - BLUE BOX", "address": {"city": "TARBORO", "state": "NC", "street": "2030 N MAIN ST", "postcode": "27886"}}},
{"geometry": {"type": "Point", "coordinates": [-77.5430640516, 35.9131494826]}, "type": "Feature", "properties": {"collection_times": [{"days": "Mon-Sat", "time": "2:00pm"}, {"days": "Sun", "time": "Closed"}], "id": "2788600007", "name": "USPS COLLECTION BOX - BLUE BOX", "address": {"city": "TARBORO", "state": "NC", "street": "2200 SAINT ANDREW ST", "postcode": "27886"}}},
{"geometry": {"type": "Point", "coordinates": [-77.540808595, 35.9008810123]}, "type": "Feature", "properties": {"collection_times": [{"days": "Mon-Sat", "time": "2:00pm"}, {"days": "Sun", "time": "Closed"}], "id": "2788600009", "name": "USPS COLLECTION BOX - BLUE BOX", "address": {"city": "TARBORO", "state": "NC", "street": "2900 N MAIN ST", "postcode": "27886"}}},
{"geometry": {"type": "Point", "coordinates": [-77.540808595, 35.9008810123]}, "type": "Feature", "properties": {"collection_times": [{"days": "Mon-Sat", "time": "2:00pm"}, {"days": "Sun", "time": "Closed"}], "id": "2788600010", "name": "USPS COLLECTION BOX - BLUE BOX", "address": {"city": "TARBORO", "state": "NC", "street": "2900 N MAIN ST", "postcode": "27886"}}},
{"geometry": {"type": "Point", "coordinates": [-77.5611179871, 35.8994237568]}, "type": "Feature", "properties": {"collection_times": [{"days": "Mon-Sat", "time": "2:00pm"}, {"days": "Sun", "time": "Closed"}], "id": "2788600013", "name": "USPS COLLECTION BOX - BLUE BOX", "address": {"city": "TARBORO", "state": "NC", "street": "1600 W HOWARD AVE", "postcode": "27886"}}},
{"geometry": {"type": "Point", "coordinates": [-77.540808595, 35.9008810123]}, "type": "Feature", "properties": {"collection_times": [{"days": "Mon-Sat", "time": "2:00pm"}, {"days": "Sun", "time": "Closed"}], "id": "2788600014", "name": "USPS COLLECTION BOX - BLUE BOX", "address": {"city": "TARBORO", "state": "NC", "street": "710 W SAINT JAMES ST", "postcode": "27886"}}},
{"geometry": {"type": "Point", "coordinates": [-77.5331360581, 35.8969220273]}, "type": "Feature", "properties": {"collection_times": [{"days": "Mon-Sat", "time": "2:00pm"}, {"days": "Sun", "time": "Closed"}], "id": "2788600016", "name": "USPS COLLECTION BOX - BLUE BOX", "address": {"city": "TARBORO", "state": "NC", "street": "302 SAINT ANDREW ST", "postcode": "27886"}}},
{"geometry": {"type": "Point", "coordinates": [-77.540808595, 35.9008810123]}, "type": "Feature", "properties": {"collection_times": [{"days": "Mon-Fri", "time": "5:00pm"}, {"days": "Sat", "time": "3:30pm"}, {"days": "Sun", "time": "Closed"}], "id": "2788600020", "name": "USPS COLLECTION BOX - BLUE BOX", "address": {"city": "TARBORO", "state": "NC", "street": "525 N MAIN ST", "postcode": "27886"}}},
{"geometry": {"type": "Point", "coordinates": [-77.540808595, 35.9008810123]}, "type": "Feature", "properties": {"collection_times": [{"days": "Mon-Fri", "time": "5:00pm"}, {"days": "Sat", "time": "3:30pm"}, {"days": "Sun", "time": "Closed"}], "id": "2788600021", "name": "USPS COLLECTION BOX - BLUE BOX", "address": {"city": "TARBORO", "state": "NC", "street": "525 N MAIN ST", "postcode": "27886"}}},
{"geometry": {"type": "Point", "coordinates": [-77.5407560473, 35.9069526734]}, "type": "Feature", "properties": {"collection_times": [{"days": "Mon-Fri", "time": "5:00pm"}, {"days": "Sat", "time": "3:30pm"}, {"days": "Sun", "time": "Closed"}], "id": "2788600024", "name": "USPS COLLECTION BOX - PO LOBBY", "address": {"city": "TARBORO", "state": "NC", "street": "525 N MAIN ST", "postcode": "27886"}}},
{"geometry": {"type": "Point", "coordinates": [-77.5594661911, 35.9077238779]}, "type": "Feature", "properties": {"collection_times": [{"days": "Mon-Sat", "time": "2:00pm"}, {"days": "Sun", "time": "Closed"}], "id": "2788600026", "name": "USPS COLLECTION BOX - BLUE BOX", "address": {"city": "TARBORO", "state": "NC", "street": "308 WALKER ST", "postcode": "27886"}}},
{"geometry": {"type": "Point", "coordinates": [-77.485786241, 36.251591658]}, "type": "Feature", "properties": {"collection_times": [{"days": "Mon-Fri", "time": "4:15pm"}, {"days": "Sat", "time": "11:15am"}, {"days": "Sun", "time": "Closed"}], "id": "2788700001", "name": "USPS COLLECTION BOX - PO LOBBY", "address": {"city": "TILLERY", "state": "NC", "street": "45 NC HIGHWAY 481", "postcode": "27887"}}},
{"geometry": {"type": "Point", "coordinates": [-77.485786241, 36.251591658]}, "type": "Feature", "properties": {"collection_times": [{"days": "Mon-Fri", "time": "4:15pm"}, {"days": "Sat", "time": "11:15am"}, {"days": "Sun", "time": "Closed"}], "id": "2788700002", "name": "USPS COLLECTION BOX - BLUE BOX", "address": {"city": "TILLERY", "state": "NC", "street": "45 NC HIGHWAY 481", "postcode": "27887"}}},
{"geometry": {"type": "Point", "coordinates": [-77.6977675737, 35.5921640265]}, "type": "Feature", "properties": {"collection_times": [{"days": "Mon-Fri", "time": "4:30pm"}, {"days": "Sat", "time": "10:30am"}, {"days": "Sun", "time": "Closed"}], "id": "2788800001", "name": "USPS COLLECTION BOX - PO LOBBY", "address": {"city": "WALSTONBURG", "state": "NC", "street": "108 N WILSON ST", "postcode": "27888"}}},
{"geometry": {"type": "Point", "coordinates": [-77.6977675737, 35.5921640265]}, "type": "Feature", "properties": {"collection_times": [{"days": "Mon-Fri", "time": "4:15pm"}, {"days": "Sat", "time": "10:30am"}, {"days": "Sun", "time": "Closed"}], "id": "2788800002", "name": "USPS COLLECTION BOX - BLUE BOX", "address": {"city": "WALSTONBURG", "state": "NC", "street": "108 N WILSON ST", "postcode": "27888"}}},
{"geometry": {"type": "Point", "coordinates": [-77.0565123776, 35.5442851301]}, "type": "Feature", "properties": {"collection_times": [{"days": "Mon-Fri", "time": "5:00pm"}, {"days": "Sat", "time": "12:00pm"}, {"days": "Sun", "time": "Closed"}], "id": "2788900001", "name": "USPS COLLECTION BOX - BLUE BOX", "address": {"city": "WASHINGTON", "state": "NC", "street": "222 W 2ND ST", "postcode": "27889"}}},
{"geometry": {"type": "Point", "coordinates": [-77.0565123776, 35.5442851301]}, "type": "Feature", "properties": {"collection_times": [{"days": "Mon-Fri", "time": "5:00pm"}, {"days": "Sat", "time": "12:00pm"}, {"days": "Sun", "time": "Closed"}], "id": "2788900003", "name": "USPS COLLECTION BOX - BLUE BOX", "address": {"city": "WASHINGTON", "state": "NC", "street": "222 W 2ND ST", "postcode": "27889"}}},
{"geometry": {"type": "Point", "coordinates": [-77.0565123776, 35.5442851301]}, "type": "Feature", "properties": {"collection_times": [{"days": "Mon-Fri", "time": "5:00pm"}, {"days": "Sat", "time": "12:00pm"}, {"days": "Sun", "time": "Closed"}], "id": "2788900004", "name": "USPS COLLECTION BOX - BLUE BOX", "address": {"city": "WASHINGTON", "state": "NC", "street": "222 W 2ND ST", "postcode": "27889"}}},
{"geometry": {"type": "Point", "coordinates": [-77.0543495881, 35.5432868379]}, "type": "Feature", "properties": {"collection_times": [{"days": "Mon-Fri", "time": "9:00am"}, {"days": "Sat-Sun", "time": "Closed"}], "id": "2788900006", "name": "USPS COLLECTION BOX - BLUE BOX", "address": {"city": "WASHINGTON", "state": "NC", "street": "200 N MARKET ST", "postcode": "27889"}}},
{"geometry": {"type": "Point", "coordinates": [-77.0550124563, 35.5420995302]}, "type": "Feature", "properties": {"collection_times": [{"days": "Mon-Sat", "time": "9:00am"}, {"days": "Sun", "time": "Closed"}], "id": "2788900008", "name": "USPS COLLECTION BOX - BLUE BOX", "address": {"city": "WASHINGTON", "state": "NC", "street": "100 E MAIN ST", "postcode": "27889"}}},
{"geometry": {"type": "Point", "coordinates": [-77.0576643309, 35.5431834643]}, "type": "Feature", "properties": {"collection_times": [{"days": "Mon-Fri", "time": "9:00am"}, {"days": "Sat-Sun", "time": "Closed"}], "id": "2788900013", "name": "USPS COLLECTION BOX - BLUE BOX", "address": {"city": "WASHINGTON", "state": "NC", "street": "247 W MAIN ST", "postcode": "27889"}}},
{"geometry": {"type": "Point", "coordinates": [-77.0570352901, 35.5603344647]}, "type": "Feature", "properties": {"collection_times": [{"days": "Mon-Fri", "time": "2:00pm"}, {"days": "Sat", "time": "12:00pm"}, {"days": "Sun", "time": "Closed"}], "id": "2788900022", "name": "USPS COLLECTION BOX - BLUE BOX", "address": {"city": "WASHINGTON", "state": "NC", "street": "875 W 15TH ST", "postcode": "27889"}}},
{"geometry": {"type": "Point", "coordinates": [-77.0530604926, 35.5586292082]}, "type": "Feature", "properties": {"collection_times": [{"days": "Mon-Fri", "time": "2:00pm"}, {"days": "Sat", "time": "12:00pm"}, {"days": "Sun", "time": "Closed"}], "id": "2788900026", "name": "USPS COLLECTION BOX - BLUE BOX", "address": {"city": "WASHINGTON", "state": "NC", "street": "606 W 15TH ST", "postcode": "27889"}}},
{"geometry": {"type": "Point", "coordinates": [-77.0402457944, 35.5494977003]}, "type": "Feature", "properties": {"collection_times": [{"days": "Mon-Fri", "time": "10:00am"}, {"days": "Sat-Sun", "time": "Closed"}], "id": "2788900029", "name": "USPS COLLECTION BOX - BLUE BOX", "address": {"city": "WASHINGTON", "state": "NC", "street": "1200 BROWN ST", "postcode": "27889"}}},
{"geometry": {"type": "Point", "coordinates": [-77.0392036091, 35.5489012171]}, "type": "Feature", "properties": {"collection_times": [{"days": "Mon-Sat", "time": "9:00am"}, {"days": "Sun", "time": "Closed"}], "id": "2788900030", "name": "USPS COLLECTION BOX - BLUE BOX", "address": {"city": "WASHINGTON", "state": "NC", "street": "628 E 12TH ST", "postcode": "27889"}}},
{"geometry": {"type": "Point", "coordinates": [-77.0330540585, 35.5466237666]}, "type": "Feature", "properties": {"collection_times": [{"days": "Mon-Fri", "time": "2:00pm"}, {"days": "Sat", "time": "12:00pm"}, {"days": "Sun", "time": "Closed"}], "id": "2788900032", "name": "USPS COLLECTION BOX - BLUE BOX", "address": {"city": "WASHINGTON", "state": "NC", "street": "1300 JOHN SMALL AVE", "postcode": "27889"}}},
{"geometry": {"type": "Point", "coordinates": [-77.0594044875, 35.5501998368]}, "type": "Feature", "properties": {"collection_times": [{"days": "Mon-Fri", "time": "2:00pm"}, {"days": "Sat-Sun", "time": "Closed"}], "id": "2788900035", "name": "USPS COLLECTION BOX - BLUE BOX", "address": {"city": "WASHINGTON", "state": "NC", "street": "632 W 5TH ST", "postcode": "27889"}}},
{"geometry": {"type": "Point", "coordinates": [-77.0746307367, 35.5639665061]}, "type": "Feature", "properties": {"collection_times": [{"days": "Mon-Fri", "time": "2:00pm"}, {"days": "Sat-Sun", "time": "Closed"}], "id": "2788900038", "name": "USPS COLLECTION BOX - BLUE BOX", "address": {"city": "WASHINGTON", "state": "NC", "street": "1700 W 5TH ST", "postcode": "27889"}}},
{"geometry": {"type": "Point", "coordinates": [-77.0565123776, 35.5442851301]}, "type": "Feature", "properties": {"collection_times": [{"days": "Mon-Fri", "time": "5:00pm"}, {"days": "Sat", "time": "12:00pm"}, {"days": "Sun", "time": "Closed"}], "id": "2788900039", "name": "USPS COLLECTION BOX - PO LOBBY", "address": {"city": "WASHINGTON", "state": "NC", "street": "222 W 2ND ST", "postcode": "27889"}}},
{"geometry": {"type": "Point", "coordinates": [-77.5976843718, 36.4256294209]}, "type": "Feature", "properties": {"collection_times": [{"days": "Mon-Fri", "time": "4:30pm"}, {"days": "Sat", "time": "12:00pm"}, {"days": "Sun", "time": "Closed"}], "id": "2789000001", "name": "USPS COLLECTION BOX - BLUE BOX", "address": {"city": "WELDON", "state": "NC", "street": "401 WASHINGTON AVE", "postcode": "27890"}}},
{"geometry": {"type": "Point", "coordinates": [-77.604906116, 36.4204159048]}, "type": "Feature", "properties": {"collection_times": [{"days": "Mon-Sat", "time": "10:00am"}, {"days": "Sun", "time": "Closed"}], "id": "2789000009", "name": "USPS COLLECTION BOX - BLUE BOX", "address": {"city": "WELDON", "state": "NC", "street": "1600 ROANOKE RAPIDS RD", "postcode": "27890"}}},
{"geometry": {"type": "Point", "coordinates": [-77.5965018436, 36.4275135122]}, "type": "Feature", "properties": {"collection_times": [{"days": "Mon-Fri", "time": "9:30am"}, {"days": "Sat-Sun", "time": "Closed"}], "id": "2789000011", "name": "USPS COLLECTION BOX - BLUE BOX", "address": {"city": "WELDON", "state": "NC", "street": "100 W 2ND ST", "postcode": "27890"}}},
{"geometry": {"type": "Point", "coordinates": [-77.5976843718, 36.4256294209]}, "type": "Feature", "properties": {"collection_times": [{"days": "Mon-Fri", "time": "4:30pm"}, {"days": "Sat", "time": "12:00pm"}, {"days": "Sun", "time": "Closed"}], "id": "2789000012", "name": "USPS COLLECTION BOX - PO LOBBY", "address": {"city": "WELDON", "state": "NC", "street": "401 WASHINGTON AVE", "postcode": "27890"}}},
{"geometry": {"type": "Point", "coordinates": [-77.712817989, 36.105677128]}, "type": "Feature", "properties": {"collection_times": [{"days": "Mon-Fri", "time": "4:30pm"}, {"days": "Sat", "time": "10:00am"}, {"days": "Sun", "time": "Closed"}], "id": "2789100001", "name": "USPS COLLECTION BOX - BLUE BOX", "address": {"city": "WHITAKERS", "state": "NC", "street": "102 NW RAILROAD ST", "postcode": "27891"}}},
{"geometry": {"type": "Point", "coordinates": [-77.712817989, 36.105677128]}, "type": "Feature", "properties": {"collection_times": [{"days": "Mon-Fri", "time": "4:30pm"}, {"days": "Sat", "time": "10:00am"}, {"days": "Sun", "time": "Closed"}], "id": "2789100003", "name": "USPS COLLECTION BOX - PO LOBBY", "address": {"city": "WHITAKERS", "state": "NC", "street": "102 NW RAILROAD ST", "postcode": "27891"}}},
{"geometry": {"type": "Point", "coordinates": [-77.0547222997, 35.855330299]}, "type": "Feature", "properties": {"collection_times": [{"days": "Mon-Fri", "time": "5:00pm"}, {"days": "Sat", "time": "12:00pm"}, {"days": "Sun", "time": "Closed"}], "id": "2789200002", "name": "USPS COLLECTION BOX - BLUE BOX", "address": {"city": "WILLIAMSTON", "state": "NC", "street": "121 E MAIN ST", "postcode": "27892"}}},
{"geometry": {"type": "Point", "coordinates": [-77.0547222997, 35.855330299]}, "type": "Feature", "properties": {"collection_times": [{"days": "Mon-Fri", "time": "5:00pm"}, {"days": "Sat", "time": "12:00pm"}, {"days": "Sun", "time": "Closed"}], "id": "2789200003", "name": "USPS COLLECTION BOX - BLUE BOX", "address": {"city": "WILLIAMSTON", "state": "NC", "street": "121 E MAIN ST", "postcode": "27892"}}},
{"geometry": {"type": "Point", "coordinates": [-77.0575376028, 35.8537680816]}, "type": "Feature", "properties": {"collection_times": [{"days": "Mon-Fri", "time": "3:00pm"}, {"days": "Sat", "time": "12:00pm"}, {"days": "Sun", "time": "Closed"}], "id": "2789200006", "name": "USPS COLLECTION BOX - BLUE BOX", "address": {"city": "WILLIAMSTON", "state": "NC", "street": "300 W MAIN ST", "postcode": "27892"}}},
{"geometry": {"type": "Point", "coordinates": [-77.0522997198, 35.8566843076]}, "type": "Feature", "properties": {"collection_times": [{"days": "Mon-Fri", "time": "3:00pm"}, {"days": "Sat", "time": "12:00pm"}, {"days": "Sun", "time": "Closed"}], "id": "2789200009", "name": "USPS COLLECTION BOX - BLUE BOX", "address": {"city": "WILLIAMSTON", "state": "NC", "street": "305 E MAIN ST", "postcode": "27892"}}},
{"geometry": {"type": "Point", "coordinates": [-77.0577728184, 35.8482590732]}, "type": "Feature", "properties": {"collection_times": [{"days": "Mon-Fri", "time": "3:00pm"}, {"days": "Sat", "time": "12:00pm"}, {"days": "Sun", "time": "Closed"}], "id": "2789200016", "name": "USPS COLLECTION BOX - BLUE BOX", "address": {"city": "WILLIAMSTON", "state": "NC", "street": "712 WASHINGTON ST", "postcode": "27892"}}},
{"geometry": {"type": "Point", "coordinates": [-77.0702895361, 35.841555779]}, "type": "Feature", "properties": {"collection_times": [{"days": "Mon-Fri", "time": "3:00pm"}, {"days": "Sat", "time": "12:00pm"}, {"days": "Sun", "time": "Closed"}], "id": "2789200017", "name": "USPS COLLECTION BOX - BLUE BOX", "address": {"city": "WILLIAMSTON", "state": "NC", "street": "300 WEST BLVD", "postcode": "27892"}}},
{"geometry": {"type": "Point", "coordinates": [-77.0741463295, 35.841003099]}, "type": "Feature", "properties": {"collection_times": [{"days": "Mon-Fri", "time": "3:00pm"}, {"days": "Sat", "time": "12:00pm"}, {"days": "Sun", "time": "Closed"}], "id": "2789200018", "name": "USPS COLLECTION BOX - BLUE BOX", "address": {"city": "WILLIAMSTON", "state": "NC", "street": "310 S MCCASKEY RD", "postcode": "27892"}}},
{"geometry": {"type": "Point", "coordinates": [-77.0753817559, 35.8436237513]}, "type": "Feature", "properties": {"collection_times": [{"days": "Mon-Fri", "time": "3:00pm"}, {"days": "Sat", "time": "12:00pm"}, {"days": "Sun", "time": "Closed"}], "id": "2789200020", "name": "USPS COLLECTION BOX - BLUE BOX", "address": {"city": "WILLIAMSTON", "state": "NC", "street": "1500 W MAIN ST", "postcode": "27892"}}},
{"geometry": {"type": "Point", "coordinates": [-77.0504662155, 35.8490975917]}, "type": "Feature", "properties": {"collection_times": [{"days": "Mon-Fri", "time": "3:00pm"}, {"days": "Sat", "time": "12:00pm"}, {"days": "Sun", "time": "Closed"}], "id": "2789200023", "name": "USPS COLLECTION BOX - BLUE BOX", "address": {"city": "WILLIAMSTON", "state": "NC", "street": "800 PARK ST", "postcode": "27892"}}},
{"geometry": {"type": "Point", "coordinates": [-77.0547222997, 35.855330299]}, "type": "Feature", "properties": {"collection_times": [{"days": "Mon-Fri", "time": "3:00pm"}, {"days": "Sat", "time": "12:00pm"}, {"days": "Sun", "time": "Closed"}], "id": "2789200027", "name": "USPS COLLECTION BOX - PO LOBBY", "address": {"city": "WILLIAMSTON", "state": "NC", "street": "121 E MAIN ST", "postcode": "27892"}}},
{"geometry": {"type": "Point", "coordinates": [-77.92587614, 35.721146997]}, "type": "Feature", "properties": {"collection_times": [{"days": "Mon-Sat", "time": "10:15am"}, {"days": "Sun", "time": "Closed"}], "id": "2789300001", "name": "USPS COLLECTION BOX - BLUE BOX", "address": {"city": "WILSON", "state": "NC", "street": "806 TARBORO ST W", "postcode": "27893"}}},
{"geometry": {"type": "Point", "coordinates": [-77.939234341, 35.768999117]}, "type": "Feature", "properties": {"collection_times": [{"days": "Mon-Sat", "time": "2:30pm"}, {"days": "Sun", "time": "Closed"}], "id": "2789300002", "name": "USPS COLLECTION BOX - BLUE BOX", "address": {"city": "WILSON", "state": "NC", "street": "3710 PEPPERMILL DR N", "postcode": "27893"}}},
{"geometry": {"type": "Point", "coordinates": [-77.93562584, 35.724795645]}, "type": "Feature", "properties": {"collection_times": [{"days": "Mon-Sat", "time": "12:30pm"}, {"days": "Sun", "time": "Closed"}], "id": "2789300003", "name": "USPS COLLECTION BOX - BLUE BOX", "address": {"city": "WILSON", "state": "NC", "street": "1501 WARD BLVD", "postcode": "27893"}}},
{"geometry": {"type": "Point", "coordinates": [-77.938364831, 35.721518113]}, "type": "Feature", "properties": {"collection_times": [{"days": "Mon-Sat", "time": "4:00pm"}, {"days": "Sun", "time": "Closed"}], "id": "2789300005", "name": "USPS COLLECTION BOX - BLUE BOX", "address": {"city": "WILSON", "state": "NC", "street": "1470 TARBORO ST W", "postcode": "27893"}}},
{"geometry": {"type": "Point", "coordinates": [-77.938364831, 35.721518113]}, "type": "Feature", "properties": {"collection_times": [{"days": "Mon-Sat", "time": "4:00pm"}, {"days": "Sun", "time": "Closed"}], "id": "2789300006", "name": "USPS COLLECTION BOX - BLUE BOX", "address": {"city": "WILSON", "state": "NC", "street": "1470 TARBORO ST W", "postcode": "27893"}}},
{"geometry": {"type": "Point", "coordinates": [-77.943904549, 35.720543739]}, "type": "Feature", "properties": {"collection_times": [{"days": "Mon-Sat", "time": "12:30pm"}, {"days": "Sun", "time": "Closed"}], "id": "2789300008", "name": "USPS COLLECTION BOX - BLUE BOX", "address": {"city": "WILSON", "state": "NC", "street": "1705 TARBORO ST SW", "postcode": "27893"}}},
{"geometry": {"type": "Point", "coordinates": [-77.94848588, 35.719490774]}, "type": "Feature", "properties": {"collection_times": [{"days": "Mon-Sat", "time": "3:00pm"}, {"days": "Sun", "time": "Closed"}], "id": "2789300010", "name": "USPS COLLECTION BOX - BLUE BOX", "address": {"city": "WILSON", "state": "NC", "street": "2401 MONTGOMERY DR SW", "postcode": "27893"}}},
{"geometry": {"type": "Point", "coordinates": [-77.933960329, 35.717548351]}, "type": "Feature", "properties": {"collection_times": [{"days": "Mon-Sat", "time": "2:30pm"}, {"days": "Sun", "time": "Closed"}], "id": "2789300012", "name": "USPS COLLECTION BOX - BLUE BOX", "address": {"city": "WILSON", "state": "NC", "street": "925 WARD BLVD", "postcode": "27893"}}},
{"geometry": {"type": "Point", "coordinates": [-77.925588396, 35.710001607]}, "type": "Feature", "properties": {"collection_times": [{"days": "Mon-Sat", "time": "12:00pm"}, {"days": "Sun", "time": "Closed"}], "id": "2789300014", "name": "USPS COLLECTION BOX - BLUE BOX", "address": {"city": "WILSON", "state": "NC", "street": "1609 GOLDSBORO ST S", "postcode": "27893"}}},
{"geometry": {"type": "Point", "coordinates": [-77.91185507, 35.706133245]}, "type": "Feature", "properties": {"collection_times": [{"days": "Mon-Sat", "time": "12:00pm"}, {"days": "Sun", "time": "Closed"}], "id": "2789300016", "name": "USPS COLLECTION BOX - BLUE BOX", "address": {"city": "WILSON", "state": "NC", "street": "6685 WARD BLVD", "postcode": "27893"}}},
{"geometry": {"type": "Point", "coordinates": [-77.959719833, 35.740205611]}, "type": "Feature", "properties": {"collection_times": [{"days": "Mon-Sat", "time": "2:30pm"}, {"days": "Sun", "time": "Closed"}], "id": "2789300019", "name": "USPS COLLECTION BOX - BLUE BOX", "address": {"city": "WILSON", "state": "NC", "street": "3129 RALEIGH ROAD PKWY W", "postcode": "27893"}}},
{"geometry": {"type": "Point", "coordinates": [-77.881249624, 35.717752308]}, "type": "Feature", "properties": {"collection_times": [{"days": "Mon-Sat", "time": "12:30pm"}, {"days": "Sun", "time": "Closed"}], "id": "2789300020", "name": "USPS COLLECTION BOX - BLUE BOX", "address": {"city": "WILSON", "state": "NC", "street": "1901 LENOIR DR E", "postcode": "27893"}}},
{"geometry": {"type": "Point", "coordinates": [-77.893298858, 35.719353181]}, "type": "Feature", "properties": {"collection_times": [{"days": "Mon-Sat", "time": "12:30pm"}, {"days": "Sun", "time": "Closed"}], "id": "2789300021", "name": "USPS COLLECTION BOX - BLUE BOX", "address": {"city": "WILSON", "state": "NC", "street": "700 US HIGHWAY 301 E", "postcode": "27893"}}},
{"geometry": {"type": "Point", "coordinates": [-77.914007437, 35.750972417]}, "type": "Feature", "properties": {"collection_times": [{"days": "Mon-Sat", "time": "11:00am"}, {"days": "Sun", "time": "Closed"}], "id": "2789300027", "name": "USPS COLLECTION BOX - BLUE BOX", "address": {"city": "WILSON", "state": "NC", "street": "1707 VINEYARD DR N", "postcode": "27893"}}},
{"geometry": {"type": "Point", "coordinates": [-77.924004561, 35.743415414]}, "type": "Feature", "properties": {"collection_times": [{"days": "Mon-Sat", "time": "1:30pm"}, {"days": "Sun", "time": "Closed"}], "id": "2789300028", "name": "USPS COLLECTION BOX - BLUE BOX", "address": {"city": "WILSON", "state": "NC", "street": "1501 NASH ST NW", "postcode": "27893"}}},
{"geometry": {"type": "Point", "coordinates": [-77.92921433, 35.724489025]}, "type": "Feature", "properties": {"collection_times": [{"days": "Mon-Sat", "time": "11:00am"}, {"days": "Sun", "time": "Closed"}], "id": "2789300034", "name": "USPS COLLECTION BOX - BLUE BOX", "address": {"city": "WILSON", "state": "NC", "street": "311 FORREST RD W", "postcode": "27893"}}},
{"geometry": {"type": "Point", "coordinates": [-77.952404689, 35.713280216]}, "type": "Feature", "properties": {"collection_times": [{"days": "Mon-Sat", "time": "2:00pm"}, {"days": "Sun", "time": "Closed"}], "id": "2789300037", "name": "USPS COLLECTION BOX - BLUE BOX", "address": {"city": "WILSON", "state": "NC", "street": "2712 FOREST HILLS RD SW", "postcode": "27893"}}},
{"geometry": {"type": "Point", "coordinates": [-77.912228036, 35.725025165]}, "type": "Feature", "properties": {"collection_times": [{"days": "Mon-Sat", "time": "10:00am"}, {"days": "Sun", "time": "Closed"}], "id": "2789300042", "name": "USPS COLLECTION BOX - BLUE BOX", "address": {"city": "WILSON", "state": "NC", "street": "133 TARBORO ST SW", "postcode": "27893"}}},
{"geometry": {"type": "Point", "coordinates": [-77.903324626, 35.738617463]}, "type": "Feature", "properties": {"collection_times": [{"days": "Mon-Sat", "time": "1:00pm"}, {"days": "Sun", "time": "Closed"}], "id": "2789300043", "name": "USPS COLLECTION BOX - BLUE BOX", "address": {"city": "WILSON", "state": "NC", "street": "4000 WARD BLVD", "postcode": "27893"}}},
{"geometry": {"type": "Point", "coordinates": [-77.910960886, 35.72584847]}, "type": "Feature", "properties": {"collection_times": [{"days": "Mon-Sat", "time": "3:00pm"}, {"days": "Sun", "time": "Closed"}], "id": "2789300044", "name": "USPS COLLECTION BOX - BLUE BOX", "address": {"city": "WILSON", "state": "NC", "street": "100 TARBORO ST E", "postcode": "27893"}}},
{"geometry": {"type": "Point", "coordinates": [-77.927587264, 35.75475759]}, "type": "Feature", "properties": {"collection_times": [{"days": "Mon-Sat", "time": "4:00pm"}, {"days": "Sun", "time": "Closed"}], "id": "2789300047", "name": "USPS COLLECTION BOX - BLUE BOX", "address": {"city": "WILSON", "state": "NC", "street": "2801 WARD BLVD", "postcode": "27893"}}},
{"geometry": {"type": "Point", "coordinates": [-77.877898645, 35.705333463]}, "type": "Feature", "properties": {"collection_times": [{"days": "Mon-Sat", "time": "12:00pm"}, {"days": "Sun", "time": "Closed"}], "id": "2789300049", "name": "USPS COLLECTION BOX - BLUE BOX", "address": {"city": "WILSON", "state": "NC", "street": "2500 NASH ST N", "postcode": "27893"}}},
{"geometry": {"type": "Point", "coordinates": [-77.875568612, 35.703014182]}, "type": "Feature", "properties": {"collection_times": [{"days": "Mon-Sat", "time": "1:30pm"}, {"days": "Sun", "time": "Closed"}], "id": "2789300050", "name": "USPS COLLECTION BOX - BLUE BOX", "address": {"city": "WILSON", "state": "NC", "street": "2700 NASH ST N", "postcode": "27893"}}},
{"geometry": {"type": "Point", "coordinates": [-77.87848178, 35.706288506]}, "type": "Feature", "properties": {"collection_times": [{"days": "Mon-Sat", "time": "1:30pm"}, {"days": "Sun", "time": "Closed"}], "id": "2789300051", "name": "USPS COLLECTION BOX - BLUE BOX", "address": {"city": "WILSON", "state": "NC", "street": "2425 NASH ST NW", "postcode": "27893"}}},
{"geometry": {"type": "Point", "coordinates": [-77.916550535, 35.732429555]}, "type": "Feature", "properties": {"collection_times": [{"days": "Mon-Sat", "time": "12:00pm"}, {"days": "Sun", "time": "Closed"}], "id": "2789300054", "name": "USPS COLLECTION BOX - BLUE BOX", "address": {"city": "WILSON", "state": "NC", "street": "100 WARREN ST W", "postcode": "27893"}}},
{"geometry": {"type": "Point", "coordinates": [-77.913602096, 35.72840252]}, "type": "Feature", "properties": {"collection_times": [{"days": "Mon-Sat", "time": "2:30pm"}, {"days": "Sun", "time": "Closed"}], "id": "2789300056", "name": "USPS COLLECTION BOX - BLUE BOX", "address": {"city": "WILSON", "state": "NC", "street": "100 JACKSON ST W", "postcode": "27893"}}},
{"geometry": {"type": "Point", "coordinates": [-77.911109971, 35.725898921]}, "type": "Feature", "properties": {"collection_times": [{"days": "Mon-Sat", "time": "10:00am"}, {"days": "Sun", "time": "Closed"}], "id": "2789300058", "name": "USPS COLLECTION BOX - BLUE BOX", "address": {"city": "WILSON", "state": "NC", "street": "100 NASH ST SW", "postcode": "27893"}}},
{"geometry": {"type": "Point", "coordinates": [-77.911109971, 35.725898921]}, "type": "Feature", "properties": {"collection_times": [{"days": "Mon-Sat", "time": "3:00pm"}, {"days": "Sun", "time": "Closed"}], "id": "2789300060", "name": "USPS COLLECTION BOX - BLUE BOX", "address": {"city": "WILSON", "state": "NC", "street": "100 NASH ST NE", "postcode": "27893"}}},
{"geometry": {"type": "Point", "coordinates": [-77.939234341, 35.768999117]}, "type": "Feature", "properties": {"collection_times": [{"days": "Mon-Sat", "time": "2:30pm"}, {"days": "Sun", "time": "Closed"}], "id": "2789300062", "name": "USPS COLLECTION BOX - BLUE BOX", "address": {"city": "WILSON", "state": "NC", "street": "3710 PEPPERMILL DR N", "postcode": "27893"}}},
{"geometry": {"type": "Point", "coordinates": [-77.894890849, 35.715434728]}, "type": "Feature", "properties": {"collection_times": [{"days": "Mon-Sat", "time": "4:00pm"}, {"days": "Sun", "time": "Closed"}], "id": "2789300063", "name": "USPS COLLECTION BOX - BLUE BOX", "address": {"city": "WILSON", "state": "NC", "street": "1318 NASH ST SE", "postcode": "27893"}}},
{"geometry": {"type": "Point", "coordinates": [-77.926209829, 35.733331786]}, "type": "Feature", "properties": {"collection_times": [{"days": "Mon-Sat", "time": "2:00pm"}, {"days": "Sun", "time": "Closed"}], "id": "2789300066", "name": "USPS COLLECTION BOX - BLUE BOX", "address": {"city": "WILSON", "state": "NC", "street": "1700 RALEIGH RD. NW", "postcode": "27893"}}},
{"geometry": {"type": "Point", "coordinates": [-77.916844662, 35.721936536]}, "type": "Feature", "properties": {"collection_times": [{"days": "Mon-Sat", "time": "4:00pm"}, {"days": "Sun", "time": "Closed"}], "id": "2789300070", "name": "USPS COLLECTION BOX - BLUE BOX", "address": {"city": "WILSON", "state": "NC", "street": "501 MERCER ST SW", "postcode": "27893"}}},
{"geometry": {"type": "Point", "coordinates": [-77.916844662, 35.721936536]}, "type": "Feature", "properties": {"collection_times": [{"days": "Mon-Sat", "time": "4:00pm"}, {"days": "Sun", "time": "Closed"}], "id": "2789300071", "name": "USPS COLLECTION BOX - BLUE BOX", "address": {"city": "WILSON", "state": "NC", "street": "501 MERCER ST SW", "postcode": "27893"}}},
{"geometry": {"type": "Point", "coordinates": [-77.952096992, 35.733520643]}, "type": "Feature", "properties": {"collection_times": [{"days": "Mon-Sat", "time": "2:00pm"}, {"days": "Sun", "time": "Closed"}], "id": "2789300075", "name": "USPS COLLECTION BOX - BLUE BOX", "address": {"city": "WILSON", "state": "NC", "street": "2500 FOREST HILLS RD W", "postcode": "27893"}}},
{"geometry": {"type": "Point", "coordinates": [-77.952069437, 35.73179513]}, "type": "Feature", "properties": {"collection_times": [{"days": "Mon-Sat", "time": "2:00pm"}, {"days": "Sun", "time": "Closed"}], "id": "2789300077", "name": "USPS COLLECTION BOX - BLUE BOX", "address": {"city": "WILSON", "state": "NC", "street": "2342 FOREST HILLS RD W", "postcode": "27893"}}},
{"geometry": {"type": "Point", "coordinates": [-77.916844662, 35.721936536]}, "type": "Feature", "properties": {"collection_times": [{"days": "Mon-Sat", "time": "5:00pm"}, {"days": "Sun", "time": "Closed"}], "id": "2789300080", "name": "USPS COLLECTION BOX - PO LOBBY", "address": {"city": "WILSON", "state": "NC", "street": "501 MERCER ST SW", "postcode": "27893"}}},
{"geometry": {"type": "Point", "coordinates": [-77.938364831, 35.721518113]}, "type": "Feature", "properties": {"collection_times": [{"days": "Mon-Fri", "time": "4:30pm"}, {"days": "Sat-Sun", "time": "Closed"}], "id": "2789300081", "name": "USPS COLLECTION BOX - PO LOBBY", "address": {"city": "WILSON", "state": "NC", "street": "1470 TARBORO ST W", "postcode": "27893"}}},
{"geometry": {"type": "Point", "coordinates": [-77.947560496, 35.719615474]}, "type": "Feature", "properties": {"collection_times": [{"days": "Mon-Sat", "time": "2:00pm"}, {"days": "Sun", "time": "Closed"}], "id": "2789300084", "name": "USPS COLLECTION BOX - BLUE BOX", "address": {"city": "WILSON", "state": "NC", "street": "1901 TARBORO ST SW", "postcode": "27893"}}},
{"geometry": {"type": "Point", "coordinates": [-77.887673565, 35.728015045]}, "type": "Feature", "properties": {"collection_times": [{"days": "Mon-Sat", "time": "12:30pm"}, {"days": "Sun", "time": "Closed"}], "id": "2789300086", "name": "USPS COLLECTION BOX - BLUE BOX", "address": {"city": "WILSON", "state": "NC", "street": "1311 US HIGHWAY 301 N", "postcode": "27893"}}},
{"geometry": {"type": "Point", "coordinates": [-77.913833238, 35.745843601]}, "type": "Feature", "properties": {"collection_times": [{"days": "Mon-Sat", "time": "11:30am"}, {"days": "Sun", "time": "Closed"}], "id": "2789300088", "name": "USPS COLLECTION BOX - BLUE BOX", "address": {"city": "WILSON", "state": "NC", "street": "1601 KINCAID AVE N", "postcode": "27893"}}},
{"geometry": {"type": "Point", "coordinates": [-77.2107248273, 36.3330438496]}, "type": "Feature", "properties": {"collection_times": [{"days": "Mon-Fri", "time": "4:30pm"}, {"days": "Sat", "time": "11:15am"}, {"days": "Sun", "time": "Closed"}], "id": "2789700001", "name": "USPS COLLECTION BOX - PO LOBBY", "address": {"city": "WOODLAND", "state": "NC", "street": "106 W MAIN ST", "postcode": "27897"}}},
{"geometry": {"type": "Point", "coordinates": [-77.2107248273, 36.3330438496]}, "type": "Feature", "properties": {"collection_times": [{"days": "Mon-Fri", "time": "4:30pm"}, {"days": "Sat", "time": "11:15am"}, {"days": "Sun", "time": "Closed"}], "id": "2789700002", "name": "USPS COLLECTION BOX - BLUE BOX", "address": {"city": "WOODLAND", "state": "NC", "street": "106 W MAIN ST", "postcode": "27897"}}}
]}
