{"type": "FeatureCollection", "features": [
{"geometry": {"type": "Point", "coordinates": [-76.2426502242, 36.2940556488]}, "type": "Feature", "properties": {"collection_times": [{"days": "Mon-Sat", "time": "10:00am"}, {"days": "Sun", "time": "Closed"}], "id": "2790900002", "name": "USPS COLLECTION BOX - BLUE BOX", "address": {"city": "ELIZABETH CITY", "state": "NC", "street": "1407 W EHRINGHAUS ST", "postcode": "27909"}}},
{"geometry": {"type": "Point", "coordinates": [-76.2385266123, 36.2883275537]}, "type": "Feature", "properties": {"collection_times": [{"days": "Mon-Sat", "time": "10:00am"}, {"days": "Sun", "time": "Closed"}], "id": "2790900004", "name": "USPS COLLECTION BOX - BLUE BOX", "address": {"city": "ELIZABETH CITY", "state": "NC", "street": "1400 WALKER AVE", "postcode": "27909"}}},
{"geometry": {"type": "Point", "coordinates": [-76.2403628195, 36.2890589947]}, "type": "Feature", "properties": {"collection_times": [{"days": "Mon-Sat", "time": "10:00am"}, {"days": "Sun", "time": "Closed"}], "id": "2790900005", "name": "USPS COLLECTION BOX - BLUE BOX", "address": {"city": "ELIZABETH CITY", "state": "NC", "street": "828 WESTWAY ST", "postcode": "27909"}}},
{"geometry": {"type": "Point", "coordinates": [-76.2094556349, 36.2729216492]}, "type": "Feature", "properties": {"collection_times": [{"days": "Mon-Fri", "time": "10:00am"}, {"days": "Sat-Sun", "time": "Closed"}], "id": "2790900019", "name": "USPS COLLECTION BOX - BLUE BOX", "address": {"city": "ELIZABETH CITY", "state": "NC", "street": "1684 WEEKSVILLE RD", "postcode": "27909"}}},
{"geometry": {"type": "Point", "coordinates": [-76.247396563, 36.2945159319]}, "type": "Feature", "properties": {"collection_times": [{"days": "Mon-Fri", "time": "10:00am"}, {"days": "Sat-Sun", "time": "Closed"}], "id": "2790900023", "name": "USPS COLLECTION BOX - BLUE BOX", "address": {"city": "ELIZABETH CITY", "state": "NC", "street": "522 S HUGHES BLVD", "postcode": "27909"}}},
{"geometry": {"type": "Point", "coordinates": [-76.2195195277, 36.2997474293]}, "type": "Feature", "properties": {"collection_times": [{"days": "Mon-Fri", "time": "9:00am"}, {"days": "Sat-Sun", "time": "Closed"}], "id": "2790900031", "name": "USPS COLLECTION BOX - BLUE BOX", "address": {"city": "ELIZABETH CITY", "state": "NC", "street": "608 E MAIN ST", "postcode": "27909"}}},
{"geometry": {"type": "Point", "coordinates": [-76.2220423995, 36.3000694778]}, "type": "Feature", "properties": {"collection_times": [{"days": "Mon-Sat", "time": "9:00am"}, {"days": "Sun", "time": "Closed"}], "id": "2790900034", "name": "USPS COLLECTION BOX - BLUE BOX", "address": {"city": "ELIZABETH CITY", "state": "NC", "street": "306 E MAIN ST", "postcode": "27909"}}},
{"geometry": {"type": "Point", "coordinates": [-76.2219388754, 36.3007887481]}, "type": "Feature", "properties": {"collection_times": [{"days": "Mon-Fri", "time": "9:00am"}, {"days": "Sat-Sun", "time": "Closed"}], "id": "2790900037", "name": "USPS COLLECTION BOX - BLUE BOX", "address": {"city": "ELIZABETH CITY", "state": "NC", "street": "300 E COLONIAL AVE", "postcode": "27909"}}},
{"geometry": {"type": "Point", "coordinates": [-76.2219388754, 36.3007887481]}, "type": "Feature", "properties": {"collection_times": [{"days": "Mon-Fri", "time": "9:00am"}, {"days": "Sat-Sun", "time": "Closed"}], "id": "2790900038", "name": "USPS COLLECTION BOX - BLUE BOX", "address": {"city": "ELIZABETH CITY", "state": "NC", "street": "300 E COLONIAL AVE", "postcode": "27909"}}},
{"geometry": {"type": "Point", "coordinates": [-76.2219388754, 36.3007887481]}, "type": "Feature", "properties": {"collection_times": [{"days": "Mon-Fri", "time": "9:00am"}, {"days": "Sat-Sun", "time": "Closed"}], "id": "2790900039", "name": "USPS COLLECTION BOX - BLUE BOX", "address": {"city": "ELIZABETH CITY", "state": "NC", "street": "300 E COLONIAL AVE", "postcode": "27909"}}},
{"geometry": {"type": "Point", "coordinates": [-76.2243828429, 36.3277953532]}, "type": "Feature", "properties": {"collection_times": [{"days": "Mon-Sat", "time": "10:00am"}, {"days": "Sun", "time": "Closed"}], "id": "2790900048", "name": "USPS COLLECTION BOX - BLUE BOX", "address": {"city": "ELIZABETH CITY", "state": "NC", "street": "1313 N ROAD ST", "postcode": "27909"}}},
{"geometry": {"type": "Point", "coordinates": [-76.2358346808, 36.2953195537]}, "type": "Feature", "properties": {"collection_times": [{"days": "Mon-Fri", "time": "5:00pm"}, {"days": "Sat", "time": "12:00pm"}, {"days": "Sun", "time": "Closed"}], "id": "2790900053", "name": "USPS COLLECTION BOX - BLUE BOX", "address": {"city": "ELIZABETH CITY", "state": "NC", "street": "1001 W EHRINGHAUS ST", "postcode": "27909"}}},
{"geometry": {"type": "Point", "coordinates": [-76.2358346808, 36.2953195537]}, "type": "Feature", "properties": {"collection_times": [{"days": "Mon-Fri", "time": "5:00pm"}, {"days": "Sat", "time": "12:00pm"}, {"days": "Sun", "time": "Closed"}], "id": "2790900054", "name": "USPS COLLECTION BOX - BLUE BOX", "address": {"city": "ELIZABETH CITY", "state": "NC", "street": "1001 W EHRINGHAUS ST", "postcode": "27909"}}},
{"geometry": {"type": "Point", "coordinates": [-76.2231646682, 36.2775029055]}, "type": "Feature", "properties": {"collection_times": [{"days": "Mon-Sat", "time": "10:00am"}, {"days": "Sun", "time": "Closed"}], "id": "2790900058", "name": "USPS COLLECTION BOX - BLUE BOX", "address": {"city": "ELIZABETH CITY", "state": "NC", "street": "100 FORREST SKIPPER DR", "postcode": "27909"}}},
{"geometry": {"type": "Point", "coordinates": [-76.2275569103, 36.3322087266]}, "type": "Feature", "properties": {"collection_times": [{"days": "Mon-Fri", "time": "10:00am"}, {"days": "Sat-Sun", "time": "Closed"}], "id": "2790900061", "name": "USPS COLLECTION BOX - BLUE BOX", "address": {"city": "ELIZABETH CITY", "state": "NC", "street": "1500 EMERALD LAKE CIR", "postcode": "27909"}}},
{"geometry": {"type": "Point", "coordinates": [-76.2358346808, 36.2953195537]}, "type": "Feature", "properties": {"collection_times": [{"days": "Mon-Fri", "time": "4:30pm"}, {"days": "Sat", "time": "12:00pm"}, {"days": "Sun", "time": "Closed"}], "id": "2790900065", "name": "USPS COLLECTION BOX - PO LOBBY", "address": {"city": "ELIZABETH CITY", "state": "NC", "street": "1001 W EHRINGHAUS ST", "postcode": "27909"}}},
{"geometry": {"type": "Point", "coordinates": [-76.9739792349, 36.2741040267]}, "type": "Feature", "properties": {"collection_times": [{"days": "Mon-Sat", "time": "9:45am"}, {"days": "Sun", "time": "Closed"}], "id": "2791000006", "name": "USPS COLLECTION BOX - BLUE BOX", "address": {"city": "AHOSKIE", "state": "NC", "street": "1337 MEMORIAL DR E", "postcode": "27910"}}},
{"geometry": {"type": "Point", "coordinates": [-76.9725007973, 36.2731418796]}, "type": "Feature", "properties": {"collection_times": [{"days": "Mon-Sat", "time": "9:30am"}, {"days": "Sun", "time": "Closed"}], "id": "2791000007", "name": "USPS COLLECTION BOX - BLUE BOX", "address": {"city": "AHOSKIE", "state": "NC", "street": "1450 MEMORIAL DR E", "postcode": "27910"}}},
{"geometry": {"type": "Point", "coordinates": [-76.9868159951, 36.2847102624]}, "type": "Feature", "properties": {"collection_times": [{"days": "Mon-Fri", "time": "5:00pm"}, {"days": "Sat", "time": "12:00pm"}, {"days": "Sun", "time": "Closed"}], "id": "2791000008", "name": "USPS COLLECTION BOX - BLUE BOX", "address": {"city": "AHOSKIE", "state": "NC", "street": "115 CHURCH ST W", "postcode": "27910"}}},
{"geometry": {"type": "Point", "coordinates": [-76.9868159951, 36.2847102624]}, "type": "Feature", "properties": {"collection_times": [{"days": "Mon-Fri", "time": "5:00pm"}, {"days": "Sat", "time": "12:00pm"}, {"days": "Sun", "time": "Closed"}], "id": "2791000009", "name": "USPS COLLECTION BOX - BLUE BOX", "address": {"city": "AHOSKIE", "state": "NC", "street": "115 CHURCH ST W", "postcode": "27910"}}},
{"geometry": {"type": "Point", "coordinates": [-76.9838128835, 36.2844467946]}, "type": "Feature", "properties": {"collection_times": [{"days": "Mon-Sat", "time": "9:45am"}, {"days": "Sun", "time": "Closed"}], "id": "2791000010", "name": "USPS COLLECTION BOX - BLUE BOX", "address": {"city": "AHOSKIE", "state": "NC", "street": "301 MAIN ST E", "postcode": "27910"}}},
{"geometry": {"type": "Point", "coordinates": [-76.9824324095, 36.2862759564]}, "type": "Feature", "properties": {"collection_times": [{"days": "Mon-Sat", "time": "1:00pm"}, {"days": "Sun", "time": "Closed"}], "id": "2791000011", "name": "USPS COLLECTION BOX - BLUE BOX", "address": {"city": "AHOSKIE", "state": "NC", "street": "321 MAPLE ST N", "postcode": "27910"}}},
{"geometry": {"type": "Point", "coordinates": [-76.9861602516, 36.2890973322]}, "type": "Feature", "properties": {"collection_times": [{"days": "Mon-Sat", "time": "11:00am"}, {"days": "Sun", "time": "Closed"}], "id": "2791000014", "name": "USPS COLLECTION BOX - BLUE BOX", "address": {"city": "AHOSKIE", "state": "NC", "street": "313 HAYES ST W", "postcode": "27910"}}},
{"geometry": {"type": "Point", "coordinates": [-76.985601909, 36.294599072]}, "type": "Feature", "properties": {"collection_times": [{"days": "Mon-Sat", "time": "2:00pm"}, {"days": "Sun", "time": "Closed"}], "id": "2791000015", "name": "USPS COLLECTION BOX - BLUE BOX", "address": {"city": "AHOSKIE", "state": "NC", "street": "619 BAKER ST W", "postcode": "27910"}}},
{"geometry": {"type": "Point", "coordinates": [-76.9941743289, 36.2897693231]}, "type": "Feature", "properties": {"collection_times": [{"days": "Mon-Sat", "time": "11:00am"}, {"days": "Sun", "time": "Closed"}], "id": "2791000018", "name": "USPS COLLECTION BOX - BLUE BOX", "address": {"city": "AHOSKIE", "state": "NC", "street": "102 PEMBROKE AVE S", "postcode": "27910"}}},
{"geometry": {"type": "Point", "coordinates": [-76.982829916, 36.2782207679]}, "type": "Feature", "properties": {"collection_times": [{"days": "Mon-Sat", "time": "9:00am"}, {"days": "Sun", "time": "Closed"}], "id": "2791000019", "name": "USPS COLLECTION BOX - BLUE BOX", "address": {"city": "AHOSKIE", "state": "NC", "street": "717 MEMORIAL DR E", "postcode": "27910"}}},
{"geometry": {"type": "Point", "coordinates": [-76.9946935624, 36.2843353743]}, "type": "Feature", "properties": {"collection_times": [{"days": "Mon-Sat", "time": "2:00pm"}, {"days": "Sun", "time": "Closed"}], "id": "2791000020", "name": "USPS COLLECTION BOX - BLUE BOX", "address": {"city": "AHOSKIE", "state": "NC", "street": "703 MEMORIAL DR W", "postcode": "27910"}}},
{"geometry": {"type": "Point", "coordinates": [-76.9868159951, 36.2847102624]}, "type": "Feature", "properties": {"collection_times": [{"days": "Mon-Fri", "time": "5:00pm"}, {"days": "Sat", "time": "12:00pm"}, {"days": "Sun", "time": "Closed"}], "id": "2791000021", "name": "USPS COLLECTION BOX - PO LOBBY", "address": {"city": "AHOSKIE", "state": "NC", "street": "115 CHURCH ST W", "postcode": "27910"}}},
{"geometry": {"type": "Point", "coordinates": [-75.5041937133, 35.3441850282]}, "type": "Feature", "properties": {"collection_times": [{"days": "Mon-Fri", "time": "3:00pm"}, {"days": "Sat", "time": "12:30pm"}, {"days": "Sun", "time": "Closed"}], "id": "2791500001", "name": "USPS COLLECTION BOX - PO LOBBY", "address": {"city": "AVON", "state": "NC", "street": "41196 NC HIGHWAY 12", "postcode": "27915"}}},
{"geometry": {"type": "Point", "coordinates": [-75.9057670664, 36.3237442406]}, "type": "Feature", "properties": {"collection_times": [{"days": "Mon-Fri", "time": "4:15pm"}, {"days": "Sat", "time": "11:15am"}, {"days": "Sun", "time": "Closed"}], "id": "2791600001", "name": "USPS COLLECTION BOX - BLUE BOX", "address": {"city": "AYDLETT", "state": "NC", "street": "523 AYDLETT RD", "postcode": "27916"}}},
{"geometry": {"type": "Point", "coordinates": [-75.9057670664, 36.3237442406]}, "type": "Feature", "properties": {"collection_times": [{"days": "Mon-Fri", "time": "4:15pm"}, {"days": "Sat", "time": "11:15am"}, {"days": "Sun", "time": "Closed"}], "id": "2791600002", "name": "USPS COLLECTION BOX - PO LOBBY", "address": {"city": "AYDLETT", "state": "NC", "street": "523 AYDLETT RD", "postcode": "27916"}}},
{"geometry": {"type": "Point", "coordinates": [-75.9777808763, 36.3880877446]}, "type": "Feature", "properties": {"collection_times": [{"days": "Mon-Fri", "time": "4:30pm"}, {"days": "Sat", "time": "11:00am"}, {"days": "Sun", "time": "Closed"}], "id": "2791700001", "name": "USPS COLLECTION BOX - BLUE BOX", "address": {"city": "BARCO", "state": "NC", "street": "3929 CARATOKE HWY", "postcode": "27917"}}},
{"geometry": {"type": "Point", "coordinates": [-75.9777808763, 36.3880877446]}, "type": "Feature", "properties": {"collection_times": [{"days": "Mon-Fri", "time": "4:30pm"}, {"days": "Sat", "time": "11:00am"}, {"days": "Sun", "time": "Closed"}], "id": "2791700002", "name": "USPS COLLECTION BOX - PO LOBBY", "address": {"city": "BARCO", "state": "NC", "street": "3929 CARATOKE HWY", "postcode": "27917"}}},
{"geometry": {"type": "Point", "coordinates": [-76.5349799909, 36.2681063088]}, "type": "Feature", "properties": {"collection_times": [{"days": "Mon-Fri", "time": "4:30pm"}, {"days": "Sat", "time": "11:00am"}, {"days": "Sun", "time": "Closed"}], "id": "2791900001", "name": "USPS COLLECTION BOX - PO LOBBY", "address": {"city": "BELVIDERE", "state": "NC", "street": "1517 BELVIDERE RD", "postcode": "27919"}}},
{"geometry": {"type": "Point", "coordinates": [-76.5383158909, 36.3037543129]}, "type": "Feature", "properties": {"collection_times": [{"days": "Mon-Fri", "time": "4:30pm"}, {"days": "Sat", "time": "11:00am"}, {"days": "Sun", "time": "Closed"}], "id": "2791900002", "name": "USPS COLLECTION BOX - BLUE BOX", "address": {"city": "BELVIDERE", "state": "NC", "street": "1517 BELVIDERE RD", "postcode": "27919"}}},
{"geometry": {"type": "Point", "coordinates": [-75.54158872, 35.2682169343]}, "type": "Feature", "properties": {"collection_times": [{"days": "Mon-Fri", "time": "2:45pm"}, {"days": "Sat", "time": "12:30pm"}, {"days": "Sun", "time": "Closed"}], "id": "2792000001", "name": "USPS COLLECTION BOX - PO LOBBY", "address": {"city": "BUXTON", "state": "NC", "street": "48042 NC HIGHWAY 12", "postcode": "27920"}}},
{"geometry": {"type": "Point", "coordinates": [-76.1514060722, 36.3500685967]}, "type": "Feature", "properties": {"collection_times": [{"days": "Mon-Fri", "time": "4:30pm"}, {"days": "Sat", "time": "11:00am"}, {"days": "Sun", "time": "Closed"}], "id": "2792100001", "name": "USPS COLLECTION BOX - BLUE BOX", "address": {"city": "CAMDEN", "state": "NC", "street": "107 US HIGHWAY 158 E", "postcode": "27921"}}},
{"geometry": {"type": "Point", "coordinates": [-76.1514060722, 36.3500685967]}, "type": "Feature", "properties": {"collection_times": [{"days": "Mon-Fri", "time": "4:30pm"}, {"days": "Sat", "time": "11:00am"}, {"days": "Sun", "time": "Closed"}], "id": "2792100002", "name": "USPS COLLECTION BOX - PO LOBBY", "address": {"city": "CAMDEN", "state": "NC", "street": "107 US HIGHWAY 158 E", "postcode": "27921"}}},
{"geometry": {"type": "Point", "coordinates": [-76.8586048543, 36.3185362349]}, "type": "Feature", "properties": {"collection_times": [{"days": "Mon-Fri", "time": "4:30pm"}, {"days": "Sat", "time": "11:30am"}, {"days": "Sun", "time": "Closed"}], "id": "2792200001", "name": "USPS COLLECTION BOX - BLUE BOX", "address": {"city": "COFIELD", "state": "NC", "street": "1240 AHOSKIE COFIELD RD", "postcode": "27922"}}},
{"geometry": {"type": "Point", "coordinates": [-76.8586048543, 36.3185362349]}, "type": "Feature", "properties": {"collection_times": [{"days": "Mon-Fri", "time": "4:30pm"}, {"days": "Sat", "time": "11:30am"}, {"days": "Sun", "time": "Closed"}], "id": "2792200002", "name": "USPS COLLECTION BOX - PO LOBBY", "address": {"city": "COFIELD", "state": "NC", "street": "1240 AHOSKIE COFIELD RD", "postcode": "27922"}}},
{"geometry": {"type": "Point", "coordinates": [-75.9553969859, 36.3471492993]}, "type": "Feature", "properties": {"collection_times": [{"days": "Mon-Fri", "time": "4:30pm"}, {"days": "Sat", "time": "11:30am"}, {"days": "Sun", "time": "Closed"}], "id": "2792300001", "name": "USPS COLLECTION BOX - PO LOBBY", "address": {"city": "COINJOCK", "state": "NC", "street": "183 WORTH GUARD RD", "postcode": "27923"}}},
{"geometry": {"type": "Point", "coordinates": [-75.9553969859, 36.3471492993]}, "type": "Feature", "properties": {"collection_times": [{"days": "Mon-Fri", "time": "4:15pm"}, {"days": "Sat", "time": "11:30am"}, {"days": "Sun", "time": "Closed"}], "id": "2792300002", "name": "USPS COLLECTION BOX - BLUE BOX", "address": {"city": "COINJOCK", "state": "NC", "street": "183 WORTH GUARD RD", "postcode": "27923"}}},
{"geometry": {"type": "Point", "coordinates": [-76.7677833881, 36.2016469571]}, "type": "Feature", "properties": {"collection_times": [{"days": "Mon-Fri", "time": "4:30pm"}, {"days": "Sat", "time": "11:00am"}, {"days": "Sun", "time": "Closed"}], "id": "2792400001", "name": "USPS COLLECTION BOX - BLUE BOX", "address": {"city": "COLERAIN", "state": "NC", "street": "107 W RIVER ST", "postcode": "27924"}}},
{"geometry": {"type": "Point", "coordinates": [-76.7677833881, 36.2016469571]}, "type": "Feature", "properties": {"collection_times": [{"days": "Mon-Fri", "time": "4:30pm"}, {"days": "Sat", "time": "11:00am"}, {"days": "Sun", "time": "Closed"}], "id": "2792400003", "name": "USPS COLLECTION BOX - PO LOBBY", "address": {"city": "COLERAIN", "state": "NC", "street": "107 W RIVER ST", "postcode": "27924"}}},
{"geometry": {"type": "Point", "coordinates": [-76.2521793123, 35.9170168569]}, "type": "Feature", "properties": {"collection_times": [{"days": "Mon-Fri", "time": "4:45pm"}, {"days": "Sat", "time": "11:00am"}, {"days": "Sun", "time": "Closed"}], "id": "2792500001", "name": "USPS COLLECTION BOX - BLUE BOX", "address": {"city": "COLUMBIA", "state": "NC", "street": "114 S BROAD ST", "postcode": "27925"}}},
{"geometry": {"type": "Point", "coordinates": [-76.2521793123, 35.9170168569]}, "type": "Feature", "properties": {"collection_times": [{"days": "Mon-Fri", "time": "4:45pm"}, {"days": "Sat", "time": "11:00am"}, {"days": "Sun", "time": "Closed"}], "id": "2792500002", "name": "USPS COLLECTION BOX - PO LOBBY", "address": {"city": "COLUMBIA", "state": "NC", "street": "114 S BROAD ST", "postcode": "27925"}}},
{"geometry": {"type": "Point", "coordinates": [-76.2009135265, 35.8224805141]}, "type": "Feature", "properties": {"collection_times": [{"days": "Mon-Sat", "time": "10:00am"}, {"days": "Sun", "time": "Closed"}], "id": "2792500003", "name": "USPS COLLECTION BOX - BLUE BOX", "address": {"city": "COLUMBIA", "state": "NC", "street": "203 S LUDINGTON DR", "postcode": "27925"}}},
{"geometry": {"type": "Point", "coordinates": [-76.5744050507, 36.5181991902]}, "type": "Feature", "properties": {"collection_times": [{"days": "Mon-Fri", "time": "4:30pm"}, {"days": "Sat", "time": "12:00pm"}, {"days": "Sun", "time": "Closed"}], "id": "2792600001", "name": "USPS COLLECTION BOX - PO LOBBY", "address": {"city": "CORAPEAKE", "state": "NC", "street": "1398 NC HIGHWAY 32 N", "postcode": "27926"}}},
{"geometry": {"type": "Point", "coordinates": [-76.5744050507, 36.5181991902]}, "type": "Feature", "properties": {"collection_times": [{"days": "Mon-Fri", "time": "4:30pm"}, {"days": "Sat", "time": "12:00pm"}, {"days": "Sun", "time": "Closed"}], "id": "2792600002", "name": "USPS COLLECTION BOX - BLUE BOX", "address": {"city": "CORAPEAKE", "state": "NC", "street": "1398 NC HIGHWAY 32 N", "postcode": "27926"}}},
{"geometry": {"type": "Point", "coordinates": [-75.8177856763, 36.3270115733]}, "type": "Feature", "properties": {"collection_times": [{"days": "Mon-Sat", "time": "11:00am"}, {"days": "Sun", "time": "Closed"}], "id": "2792700003", "name": "USPS COLLECTION BOX - BLUE BOX", "address": {"city": "COROLLA", "state": "NC", "street": "803 OCEAN TRL", "postcode": "27927"}}},
{"geometry": {"type": "Point", "coordinates": [-75.7999774193, 36.2815557711]}, "type": "Feature", "properties": {"collection_times": [{"days": "Mon-Sat", "time": "11:00am"}, {"days": "Sun", "time": "Closed"}], "id": "2792700005", "name": "USPS COLLECTION BOX - BLUE BOX", "address": {"city": "COROLLA", "state": "NC", "street": "508 HUNT CLUB DR", "postcode": "27927"}}},
{"geometry": {"type": "Point", "coordinates": [-75.8305781945, 36.3800483555]}, "type": "Feature", "properties": {"collection_times": [{"days": "Mon-Fri", "time": "2:00pm"}, {"days": "Sat", "time": "11:00am"}, {"days": "Sun", "time": "Closed"}], "id": "2792700006", "name": "USPS COLLECTION BOX - BLUE BOX", "address": {"city": "COROLLA", "state": "NC", "street": "1150 OCEAN TRL", "postcode": "27927"}}},
{"geometry": {"type": "Point", "coordinates": [-76.3949532746, 35.8701999584]}, "type": "Feature", "properties": {"collection_times": [{"days": "Mon-Fri", "time": "4:30pm"}, {"days": "Sat", "time": "10:30am"}, {"days": "Sun", "time": "Closed"}], "id": "2792800001", "name": "USPS COLLECTION BOX - BLUE BOX", "address": {"city": "CRESWELL", "state": "NC", "street": "201 W MAIN ST", "postcode": "27928"}}},
{"geometry": {"type": "Point", "coordinates": [-76.3949532746, 35.8701999584]}, "type": "Feature", "properties": {"collection_times": [{"days": "Mon-Fri", "time": "4:30pm"}, {"days": "Sat", "time": "10:30am"}, {"days": "Sun", "time": "Closed"}], "id": "2792800002", "name": "USPS COLLECTION BOX - PO LOBBY", "address": {"city": "CRESWELL", "state": "NC", "street": "201 W MAIN ST", "postcode": "27928"}}},
{"geometry": {"type": "Point", "coordinates": [-76.6080992815, 36.0612108245]}, "type": "Feature", "properties": {"collection_times": [{"days": "Mon-Fri", "time": "5:00pm"}, {"days": "Sat", "time": "1:30pm"}, {"days": "Sun", "time": "Closed"}], "id": "2793200003", "name": "USPS COLLECTION BOX - BLUE BOX", "address": {"city": "EDENTON", "state": "NC", "street": "100 N BROAD ST", "postcode": "27932"}}},
{"geometry": {"type": "Point", "coordinates": [-76.6061291567, 36.0675881208]}, "type": "Feature", "properties": {"collection_times": [{"days": "Mon-Fri", "time": "11:00am"}, {"days": "Sat", "time": "1:30pm"}, {"days": "Sun", "time": "Closed"}], "id": "2793200004", "name": "USPS COLLECTION BOX - BLUE BOX", "address": {"city": "EDENTON", "state": "NC", "street": "705 N BROAD ST", "postcode": "27932"}}},
{"geometry": {"type": "Point", "coordinates": [-76.6113865359, 36.0724683162]}, "type": "Feature", "properties": {"collection_times": [{"days": "Mon-Fri", "time": "11:00am"}, {"days": "Sat", "time": "1:30pm"}, {"days": "Sun", "time": "Closed"}], "id": "2793200005", "name": "USPS COLLECTION BOX - BLUE BOX", "address": {"city": "EDENTON", "state": "NC", "street": "300 VIRGINIA RD", "postcode": "27932"}}},
{"geometry": {"type": "Point", "coordinates": [-76.5982064335, 36.0742219785]}, "type": "Feature", "properties": {"collection_times": [{"days": "Mon-Fri", "time": "11:00am"}, {"days": "Sat", "time": "1:30pm"}, {"days": "Sun", "time": "Closed"}], "id": "2793200008", "name": "USPS COLLECTION BOX - BLUE BOX", "address": {"city": "EDENTON", "state": "NC", "street": "1200 N BROAD ST", "postcode": "27932"}}},
{"geometry": {"type": "Point", "coordinates": [-76.608710799, 36.0579766197]}, "type": "Feature", "properties": {"collection_times": [{"days": "Mon-Fri", "time": "11:00am"}, {"days": "Sat", "time": "1:30pm"}, {"days": "Sun", "time": "Closed"}], "id": "2793200011", "name": "USPS COLLECTION BOX - BLUE BOX", "address": {"city": "EDENTON", "state": "NC", "street": "107 E KING ST", "postcode": "27932"}}},
{"geometry": {"type": "Point", "coordinates": [-76.6092703557, 36.0579998892]}, "type": "Feature", "properties": {"collection_times": [{"days": "Mon-Fri", "time": "11:00am"}, {"days": "Sat", "time": "1:30pm"}, {"days": "Sun", "time": "Closed"}], "id": "2793200013", "name": "USPS COLLECTION BOX - BLUE BOX", "address": {"city": "EDENTON", "state": "NC", "street": "400 S BROAD ST", "postcode": "27932"}}},
{"geometry": {"type": "Point", "coordinates": [-76.6085422061, 36.0597656566]}, "type": "Feature", "properties": {"collection_times": [{"days": "Mon-Fri", "time": "11:00am"}, {"days": "Sat", "time": "1:30pm"}, {"days": "Sun", "time": "Closed"}], "id": "2793200015", "name": "USPS COLLECTION BOX - BLUE BOX", "address": {"city": "EDENTON", "state": "NC", "street": "215 S BROAD ST", "postcode": "27932"}}},
{"geometry": {"type": "Point", "coordinates": [-76.6081883263, 36.0609466989]}, "type": "Feature", "properties": {"collection_times": [{"days": "Mon-Fri", "time": "5:00pm"}, {"days": "Sat", "time": "1:30pm"}, {"days": "Sun", "time": "Closed"}], "id": "2793200020", "name": "USPS COLLECTION BOX - PO LOBBY", "address": {"city": "EDENTON", "state": "NC", "street": "100 N BROAD ST", "postcode": "27932"}}},
{"geometry": {"type": "Point", "coordinates": [-76.84760065, 36.4269496626]}, "type": "Feature", "properties": {"collection_times": [{"days": "Mon-Fri", "time": "4:30pm"}, {"days": "Sat", "time": "10:00am"}, {"days": "Sun", "time": "Closed"}], "id": "2793500001", "name": "USPS COLLECTION BOX - BLUE BOX", "address": {"city": "EURE", "state": "NC", "street": "1203 NC 137", "postcode": "27935"}}},
{"geometry": {"type": "Point", "coordinates": [-76.8585991712, 36.4238988099]}, "type": "Feature", "properties": {"collection_times": [{"days": "Mon-Fri", "time": "4:30pm"}, {"days": "Sat", "time": "10:00am"}, {"days": "Sun", "time": "Closed"}], "id": "2793500002", "name": "USPS COLLECTION BOX - PO LOBBY", "address": {"city": "EURE", "state": "NC", "street": "1203 NC 137", "postcode": "27935"}}},
{"geometry": {"type": "Point", "coordinates": [-75.6252539639, 35.233681286]}, "type": "Feature", "properties": {"collection_times": [{"days": "Mon-Fri", "time": "2:30pm"}, {"days": "Sat", "time": "12:00pm"}, {"days": "Sun", "time": "Closed"}], "id": "2793600001", "name": "USPS COLLECTION BOX - PO LOBBY", "address": {"city": "FRISCO", "state": "NC", "street": "53590 NC HIGHWAY 12", "postcode": "27936"}}},
{"geometry": {"type": "Point", "coordinates": [-76.7797157069, 36.5080130215]}, "type": "Feature", "properties": {"collection_times": [{"days": "Mon-Fri", "time": "4:00pm"}, {"days": "Sat", "time": "11:30am"}, {"days": "Sun", "time": "Closed"}], "id": "2793700001", "name": "USPS COLLECTION BOX - BLUE BOX", "address": {"city": "GATES", "state": "NC", "street": "958 NC HIGHWAY 37 N", "postcode": "27937"}}},
{"geometry": {"type": "Point", "coordinates": [-76.7797157069, 36.5080130215]}, "type": "Feature", "properties": {"collection_times": [{"days": "Mon-Fri", "time": "4:00pm"}, {"days": "Sat", "time": "11:30am"}, {"days": "Sun", "time": "Closed"}], "id": "2793700002", "name": "USPS COLLECTION BOX - PO LOBBY", "address": {"city": "GATES", "state": "NC", "street": "958 NC HIGHWAY 37 N", "postcode": "27937"}}},
{"geometry": {"type": "Point", "coordinates": [-76.7273279755, 36.4045627861]}, "type": "Feature", "properties": {"collection_times": [{"days": "Mon-Fri", "time": "4:15pm"}, {"days": "Sat", "time": "11:30am"}, {"days": "Sun", "time": "Closed"}], "id": "2793800001", "name": "USPS COLLECTION BOX - PO LOBBY", "address": {"city": "GATESVILLE", "state": "NC", "street": "106 COURT ST", "postcode": "27938"}}},
{"geometry": {"type": "Point", "coordinates": [-76.7273366653, 36.4045714299]}, "type": "Feature", "properties": {"collection_times": [{"days": "Mon-Fri", "time": "4:15pm"}, {"days": "Sat", "time": "11:30am"}, {"days": "Sun", "time": "Closed"}], "id": "2793800002", "name": "USPS COLLECTION BOX - BLUE BOX", "address": {"city": "GATESVILLE", "state": "NC", "street": "106 COURT ST", "postcode": "27938"}}},
{"geometry": {"type": "Point", "coordinates": [-75.8773334647, 36.2389331806]}, "type": "Feature", "properties": {"collection_times": [{"days": "Mon-Fri", "time": "4:00pm"}, {"days": "Sat", "time": "12:00pm"}, {"days": "Sun", "time": "Closed"}], "id": "2793900001", "name": "USPS COLLECTION BOX - PO LOBBY", "address": {"city": "GRANDY", "state": "NC", "street": "123 FORBES LOOP UNIT C", "postcode": "27939"}}},
{"geometry": {"type": "Point", "coordinates": [-75.8773334647, 36.2389331806]}, "type": "Feature", "properties": {"collection_times": [{"days": "Mon-Fri", "time": "4:00pm"}, {"days": "Sat", "time": "12:00pm"}, {"days": "Sun", "time": "Closed"}], "id": "2793900002", "name": "USPS COLLECTION BOX - BLUE BOX", "address": {"city": "GRANDY", "state": "NC", "street": "123 FORBES LOOP UNIT C", "postcode": "27939"}}},
{"geometry": {"type": "Point", "coordinates": [-75.8138606185, 36.1010971679]}, "type": "Feature", "properties": {"collection_times": [{"days": "Mon-Fri", "time": "3:15pm"}, {"days": "Sat", "time": "11:30am"}, {"days": "Sun", "time": "Closed"}], "id": "2794100001", "name": "USPS COLLECTION BOX - BLUE BOX", "address": {"city": "HARBINGER", "state": "NC", "street": "8732 CARATOKE HWY", "postcode": "27941"}}},
{"geometry": {"type": "Point", "coordinates": [-75.8138606185, 36.1010971679]}, "type": "Feature", "properties": {"collection_times": [{"days": "Mon-Fri", "time": "3:15pm"}, {"days": "Sat", "time": "11:30am"}, {"days": "Sun", "time": "Closed"}], "id": "2794100002", "name": "USPS COLLECTION BOX - PO LOBBY", "address": {"city": "HARBINGER", "state": "NC", "street": "8732 CARATOKE HWY", "postcode": "27941"}}},
{"geometry": {"type": "Point", "coordinates": [-76.7929457935, 36.30245307]}, "type": "Feature", "properties": {"collection_times": [{"days": "Mon-Fri", "time": "4:30pm"}, {"days": "Sat", "time": "11:45am"}, {"days": "Sun", "time": "Closed"}], "id": "2794200001", "name": "USPS COLLECTION BOX - PO LOBBY", "address": {"city": "HARRELLSVILLE", "state": "NC", "street": "116 E MAIN ST", "postcode": "27942"}}},
{"geometry": {"type": "Point", "coordinates": [-76.7929457935, 36.30245307]}, "type": "Feature", "properties": {"collection_times": [{"days": "Mon-Fri", "time": "4:30pm"}, {"days": "Sat", "time": "11:45am"}, {"days": "Sun", "time": "Closed"}], "id": "2794200002", "name": "USPS COLLECTION BOX - BLUE BOX", "address": {"city": "HARRELLSVILLE", "state": "NC", "street": "116 E MAIN ST", "postcode": "27942"}}},
{"geometry": {"type": "Point", "coordinates": [-75.6899576742, 35.2190771827]}, "type": "Feature", "properties": {"collection_times": [{"days": "Mon-Fri", "time": "2:30pm"}, {"days": "Sat", "time": "12:30pm"}, {"days": "Sun", "time": "Closed"}], "id": "2794300002", "name": "USPS COLLECTION BOX - PO LOBBY", "address": {"city": "HATTERAS", "state": "NC", "street": "57689 NC HIGHWAY 12", "postcode": "27943"}}},
{"geometry": {"type": "Point", "coordinates": [-76.4661353991, 36.1887480351]}, "type": "Feature", "properties": {"collection_times": [{"days": "Mon-Fri", "time": "3:00pm"}, {"days": "Sat", "time": "11:00am"}, {"days": "Sun", "time": "Closed"}], "id": "2794400003", "name": "USPS COLLECTION BOX - BLUE BOX", "address": {"city": "HERTFORD", "state": "NC", "street": "101 N CHURCH ST", "postcode": "27944"}}},
{"geometry": {"type": "Point", "coordinates": [-76.4657300505, 36.1899441013]}, "type": "Feature", "properties": {"collection_times": [{"days": "Mon-Fri", "time": "5:00pm"}, {"days": "Sat", "time": "11:00am"}, {"days": "Sun", "time": "Closed"}], "id": "2794400006", "name": "USPS COLLECTION BOX - BLUE BOX", "address": {"city": "HERTFORD", "state": "NC", "street": "115 W GRUBB ST", "postcode": "27944"}}},
{"geometry": {"type": "Point", "coordinates": [-76.4657300505, 36.1899441013]}, "type": "Feature", "properties": {"collection_times": [{"days": "Mon-Fri", "time": "4:30pm"}, {"days": "Sat", "time": "12:00pm"}, {"days": "Sun", "time": "Closed"}], "id": "2794400009", "name": "USPS COLLECTION BOX - PO LOBBY", "address": {"city": "HERTFORD", "state": "NC", "street": "115 W GRUBB ST", "postcode": "27944"}}},
{"geometry": {"type": "Point", "coordinates": [-76.6005623617, 36.3511314609]}, "type": "Feature", "properties": {"collection_times": [{"days": "Mon-Fri", "time": "4:45pm"}, {"days": "Sat", "time": "12:00pm"}, {"days": "Sun", "time": "Closed"}], "id": "2794600001", "name": "USPS COLLECTION BOX - PO LOBBY", "address": {"city": "HOBBSVILLE", "state": "NC", "street": "385 HOBBSVILLE RD", "postcode": "27946"}}},
{"geometry": {"type": "Point", "coordinates": [-76.6005623617, 36.3511314609]}, "type": "Feature", "properties": {"collection_times": [{"days": "Mon-Fri", "time": "4:45pm"}, {"days": "Sat", "time": "12:00pm"}, {"days": "Sun", "time": "Closed"}], "id": "2794600002", "name": "USPS COLLECTION BOX - BLUE BOX", "address": {"city": "HOBBSVILLE", "state": "NC", "street": "385 HOBBSVILLE RD", "postcode": "27946"}}},
{"geometry": {"type": "Point", "coordinates": [-75.8652377093, 36.2025004104]}, "type": "Feature", "properties": {"collection_times": [{"days": "Mon-Fri", "time": "3:45pm"}, {"days": "Sat", "time": "11:30am"}, {"days": "Sun", "time": "Closed"}], "id": "2794700001", "name": "USPS COLLECTION BOX - PO LOBBY", "address": {"city": "JARVISBURG", "state": "NC", "street": "7066 CARATOKE HWY", "postcode": "27947"}}},
{"geometry": {"type": "Point", "coordinates": [-75.8652377093, 36.2025004104]}, "type": "Feature", "properties": {"collection_times": [{"days": "Mon-Fri", "time": "3:45pm"}, {"days": "Sat", "time": "11:30am"}, {"days": "Sun", "time": "Closed"}], "id": "2794700002", "name": "USPS COLLECTION BOX - BLUE BOX", "address": {"city": "JARVISBURG", "state": "NC", "street": "7066 CARATOKE HWY", "postcode": "27947"}}},
{"geometry": {"type": "Point", "coordinates": [-75.6497506116, 35.994874662]}, "type": "Feature", "properties": {"collection_times": [{"days": "Mon-Fri", "time": "4:15pm"}, {"days": "Sat", "time": "12:00pm"}, {"days": "Sun", "time": "Closed"}], "id": "2794800001", "name": "USPS COLLECTION BOX - BLUE BOX", "address": {"city": "KILL DEVIL HL", "state": "NC", "street": "302 S CROATAN HWY", "postcode": "27948"}}},
{"geometry": {"type": "Point", "coordinates": [-75.694054407, 36.0119747134]}, "type": "Feature", "properties": {"collection_times": [{"days": "Mon-Sat", "time": "11:00am"}, {"days": "Sun", "time": "Closed"}], "id": "2794800006", "name": "USPS COLLECTION BOX - BLUE BOX", "address": {"city": "KILL DEVIL HL", "state": "NC", "street": "100 WATERSEDGE DR", "postcode": "27948"}}},
{"geometry": {"type": "Point", "coordinates": [-75.680398818, 36.0241600107]}, "type": "Feature", "properties": {"collection_times": [{"days": "Mon-Sat", "time": "11:00am"}, {"days": "Sun", "time": "Closed"}], "id": "2794800011", "name": "USPS COLLECTION BOX - BLUE BOX", "address": {"city": "KILL DEVIL HL", "state": "NC", "street": "700 SKIP JACK LN", "postcode": "27948"}}},
{"geometry": {"type": "Point", "coordinates": [-75.6497506116, 35.994874662]}, "type": "Feature", "properties": {"collection_times": [{"days": "Mon-Fri", "time": "4:15pm"}, {"days": "Sat", "time": "12:00pm"}, {"days": "Sun", "time": "Closed"}], "id": "2794800013", "name": "USPS COLLECTION BOX - PO LOBBY", "address": {"city": "KILL DEVIL HL", "state": "NC", "street": "302 S CROATAN HWY", "postcode": "27948"}}},
{"geometry": {"type": "Point", "coordinates": [-75.690184334, 36.0612801738]}, "type": "Feature", "properties": {"collection_times": [{"days": "Mon-Fri", "time": "3:45pm"}, {"days": "Sat", "time": "12:00pm"}, {"days": "Sun", "time": "Closed"}], "id": "2794900001", "name": "USPS COLLECTION BOX - BLUE BOX", "address": {"city": "KITTY HAWK", "state": "NC", "street": "3841 N CROATAN HWY", "postcode": "27949"}}},
{"geometry": {"type": "Point", "coordinates": [-75.7221246808, 36.0984963179]}, "type": "Feature", "properties": {"collection_times": [{"days": "Mon-Sat", "time": "10:45am"}, {"days": "Sun", "time": "Closed"}], "id": "2794900009", "name": "USPS COLLECTION BOX - BLUE BOX", "address": {"city": "KITTY HAWK", "state": "NC", "street": "5500 N CROATAN HWY", "postcode": "27949"}}},
{"geometry": {"type": "Point", "coordinates": [-75.7563772725, 36.174166828]}, "type": "Feature", "properties": {"collection_times": [{"days": "Mon-Sat", "time": "11:30am"}, {"days": "Sun", "time": "Closed"}], "id": "2794900011", "name": "USPS COLLECTION BOX - BLUE BOX", "address": {"city": "KITTY HAWK", "state": "NC", "street": "1245 DUCK RD", "postcode": "27949"}}},
{"geometry": {"type": "Point", "coordinates": [-75.9255319447, 36.5298216071]}, "type": "Feature", "properties": {"collection_times": [{"days": "Mon-Fri", "time": "2:30pm"}, {"days": "Sat", "time": "12:30pm"}, {"days": "Sun", "time": "Closed"}], "id": "2795000001", "name": "USPS COLLECTION BOX - BLUE BOX", "address": {"city": "KNOTTS ISLAND", "state": "NC", "street": "407 KNOTTS ISLAND RD", "postcode": "27950"}}},
{"geometry": {"type": "Point", "coordinates": [-75.9255319447, 36.5298216071]}, "type": "Feature", "properties": {"collection_times": [{"days": "Mon-Fri", "time": "2:30pm"}, {"days": "Sat", "time": "12:30pm"}, {"days": "Sun", "time": "Closed"}], "id": "2795000002", "name": "USPS COLLECTION BOX - PO LOBBY", "address": {"city": "KNOTTS ISLAND", "state": "NC", "street": "407 KNOTTS ISLAND RD", "postcode": "27950"}}},
{"geometry": {"type": "Point", "coordinates": [-75.7737574665, 35.9046307432]}, "type": "Feature", "properties": {"collection_times": [{"days": "Mon-Fri", "time": "4:15pm"}, {"days": "Sat", "time": "11:15am"}, {"days": "Sun", "time": "Closed"}], "id": "2795300001", "name": "USPS COLLECTION BOX - BLUE BOX", "address": {"city": "MANNS HARBOR", "state": "NC", "street": "US HWY 64", "postcode": "27953"}}},
{"geometry": {"type": "Point", "coordinates": [-75.7737574665, 35.9046307432]}, "type": "Feature", "properties": {"collection_times": [{"days": "Mon-Fri", "time": "4:15pm"}, {"days": "Sat", "time": "11:15am"}, {"days": "Sun", "time": "Closed"}], "id": "2795300002", "name": "USPS COLLECTION BOX - PO LOBBY", "address": {"city": "MANNS HARBOR", "state": "NC", "street": "US HWY 64", "postcode": "27953"}}},
{"geometry": {"type": "Point", "coordinates": [-75.6694050703, 35.9096581363]}, "type": "Feature", "properties": {"collection_times": [{"days": "Mon-Sat", "time": "10:00am"}, {"days": "Sun", "time": "Closed"}], "id": "2795400001", "name": "USPS COLLECTION BOX - BLUE BOX", "address": {"city": "MANTEO", "state": "NC", "street": "405 QUEEN ELIZABETH AVE", "postcode": "27954"}}},
{"geometry": {"type": "Point", "coordinates": [-75.699119255, 35.9247059957]}, "type": "Feature", "properties": {"collection_times": [{"days": "Mon-Fri", "time": "4:30pm"}, {"days": "Sat", "time": "12:00pm"}, {"days": "Sun", "time": "Closed"}], "id": "2795400003", "name": "USPS COLLECTION BOX - BLUE BOX", "address": {"city": "MANTEO", "state": "NC", "street": "212B US HIGHWAY 64 AND 264", "postcode": "27954"}}},
{"geometry": {"type": "Point", "coordinates": [-75.699119255, 35.9247059957]}, "type": "Feature", "properties": {"collection_times": [{"days": "Mon-Fri", "time": "4:30pm"}, {"days": "Sat", "time": "12:00pm"}, {"days": "Sun", "time": "Closed"}], "id": "2795400004", "name": "USPS COLLECTION BOX - PO LOBBY", "address": {"city": "MANTEO", "state": "NC", "street": "212B US HIGHWAY 64 AND 264", "postcode": "27954"}}},
{"geometry": {"type": "Point", "coordinates": [-75.9946265555, 36.4070830981]}, "type": "Feature", "properties": {"collection_times": [{"days": "Mon-Fri", "time": "3:15pm"}, {"days": "Sat", "time": "10:30am"}, {"days": "Sun", "time": "Closed"}], "id": "2795600001", "name": "USPS COLLECTION BOX - BLUE BOX", "address": {"city": "MAPLE", "state": "NC", "street": "3452 CARATOKE HWY", "postcode": "27956"}}},
{"geometry": {"type": "Point", "coordinates": [-75.9946265555, 36.4070830981]}, "type": "Feature", "properties": {"collection_times": [{"days": "Mon-Fri", "time": "3:15pm"}, {"days": "Sat", "time": "10:30am"}, {"days": "Sun", "time": "Closed"}], "id": "2795600002", "name": "USPS COLLECTION BOX - PO LOBBY", "address": {"city": "MAPLE", "state": "NC", "street": "3452 CARATOKE HWY", "postcode": "27956"}}},
{"geometry": {"type": "Point", "coordinates": [-76.7716875786, 36.0114357064]}, "type": "Feature", "properties": {"collection_times": [{"days": "Mon-Fri", "time": "4:15pm"}, {"days": "Sat", "time": "10:45am"}, {"days": "Sun", "time": "Closed"}], "id": "2795700001", "name": "USPS COLLECTION BOX - BLUE BOX", "address": {"city": "MERRY HILL", "state": "NC", "street": "335 OLD MERRY HILL RD", "postcode": "27957"}}},
{"geometry": {"type": "Point", "coordinates": [-76.7721439343, 36.0153688844]}, "type": "Feature", "properties": {"collection_times": [{"days": "Mon-Fri", "time": "4:15pm"}, {"days": "Sat", "time": "10:45am"}, {"days": "Sun", "time": "Closed"}], "id": "2795700003", "name": "USPS COLLECTION BOX - PO LOBBY", "address": {"city": "MERRY HILL", "state": "NC", "street": "335 OLD MERRY HILL RD", "postcode": "27957"}}},
{"geometry": {"type": "Point", "coordinates": [-76.1746086867, 36.521550358]}, "type": "Feature", "properties": {"collection_times": [{"days": "Mon-Fri", "time": "4:00pm"}, {"days": "Sat", "time": "11:30am"}, {"days": "Sun", "time": "Closed"}], "id": "2795800002", "name": "USPS COLLECTION BOX - BLUE BOX", "address": {"city": "MOYOCK", "state": "NC", "street": "574 CARATOKE HWY", "postcode": "27958"}}},
{"geometry": {"type": "Point", "coordinates": [-76.1907891994, 36.5479149645]}, "type": "Feature", "properties": {"collection_times": [{"days": "Mon-Sat", "time": "10:30am"}, {"days": "Sun", "time": "Closed"}], "id": "2795800003", "name": "USPS COLLECTION BOX - BLUE BOX", "address": {"city": "MOYOCK", "state": "NC", "street": "141 CARATOKE HWY", "postcode": "27958"}}},
{"geometry": {"type": "Point", "coordinates": [-76.1746086867, 36.521550358]}, "type": "Feature", "properties": {"collection_times": [{"days": "Mon-Fri", "time": "4:15pm"}, {"days": "Sat", "time": "11:30am"}, {"days": "Sun", "time": "Closed"}], "id": "2795800006", "name": "USPS COLLECTION BOX - PO LOBBY", "address": {"city": "MOYOCK", "state": "NC", "street": "574 CARATOKE HWY", "postcode": "27958"}}},
{"geometry": {"type": "Point", "coordinates": [-75.6229264028, 35.951362482]}, "type": "Feature", "properties": {"collection_times": [{"days": "Mon-Fri", "time": "3:30pm"}, {"days": "Sat", "time": "10:30am"}, {"days": "Sun", "time": "Closed"}], "id": "2795900001", "name": "USPS COLLECTION BOX - PO LOBBY", "address": {"city": "NAGS HEAD", "state": "NC", "street": "100 DEERING ST", "postcode": "27959"}}},
{"geometry": {"type": "Point", "coordinates": [-75.6229264028, 35.951362482]}, "type": "Feature", "properties": {"collection_times": [{"days": "Mon-Fri", "time": "3:30pm"}, {"days": "Sat", "time": "10:30am"}, {"days": "Sun", "time": "Closed"}], "id": "2795900002", "name": "USPS COLLECTION BOX - BLUE BOX", "address": {"city": "NAGS HEAD", "state": "NC", "street": "100 DEERING ST", "postcode": "27959"}}},
{"geometry": {"type": "Point", "coordinates": [-75.597726053, 35.9103621935]}, "type": "Feature", "properties": {"collection_times": [{"days": "Mon-Sat", "time": "11:00am"}, {"days": "Sun", "time": "Closed"}], "id": "2795900003", "name": "USPS COLLECTION BOX - BLUE BOX", "address": {"city": "NAGS HEAD", "state": "NC", "street": "7213 S VIRGINIA DARE TRL", "postcode": "27959"}}},
{"geometry": {"type": "Point", "coordinates": [-75.9812079761, 35.1105835817]}, "type": "Feature", "properties": {"collection_times": [{"days": "Mon-Sat", "time": "12:30pm"}, {"days": "Sun", "time": "Closed"}], "id": "2796000004", "name": "USPS COLLECTION BOX - PO LOBBY", "address": {"city": "OCRACOKE", "state": "NC", "street": "1122 IRVIN GARRIS HWY", "postcode": "27960"}}},
{"geometry": {"type": "Point", "coordinates": [-76.7442551862, 35.858879546]}, "type": "Feature", "properties": {"collection_times": [{"days": "Mon-Sat", "time": "9:00am"}, {"days": "Sun", "time": "Closed"}], "id": "2796200004", "name": "USPS COLLECTION BOX - BLUE BOX", "address": {"city": "PLYMOUTH", "state": "NC", "street": "73 US HIGHWAY 64 E", "postcode": "27962"}}},
{"geometry": {"type": "Point", "coordinates": [-76.7386311116, 35.8601912736]}, "type": "Feature", "properties": {"collection_times": [{"days": "Mon-Sat", "time": "9:00am"}, {"days": "Sun", "time": "Closed"}], "id": "2796200007", "name": "USPS COLLECTION BOX - BLUE BOX", "address": {"city": "PLYMOUTH", "state": "NC", "street": "416 US HIGHWAY 64 E", "postcode": "27962"}}},
{"geometry": {"type": "Point", "coordinates": [-76.750449126, 35.8658148842]}, "type": "Feature", "properties": {"collection_times": [{"days": "Mon-Fri", "time": "5:00pm"}, {"days": "Sat", "time": "12:00pm"}, {"days": "Sun", "time": "Closed"}], "id": "2796200012", "name": "USPS COLLECTION BOX - BLUE BOX", "address": {"city": "PLYMOUTH", "state": "NC", "street": "113 W MAIN ST", "postcode": "27962"}}},
{"geometry": {"type": "Point", "coordinates": [-76.7495153202, 35.8674351845]}, "type": "Feature", "properties": {"collection_times": [{"days": "Mon-Fri", "time": "3:00pm"}, {"days": "Sat", "time": "9:30am"}, {"days": "Sun", "time": "Closed"}], "id": "2796200014", "name": "USPS COLLECTION BOX - BLUE BOX", "address": {"city": "PLYMOUTH", "state": "NC", "street": "120 ADAMS ST", "postcode": "27962"}}},
{"geometry": {"type": "Point", "coordinates": [-76.750449126, 35.8658148842]}, "type": "Feature", "properties": {"collection_times": [{"days": "Mon-Fri", "time": "5:00pm"}, {"days": "Sat", "time": "12:00pm"}, {"days": "Sun", "time": "Closed"}], "id": "2796200015", "name": "USPS COLLECTION BOX - PO LOBBY", "address": {"city": "PLYMOUTH", "state": "NC", "street": "113 W MAIN ST", "postcode": "27962"}}},
{"geometry": {"type": "Point", "coordinates": [-75.8001342279, 36.0857150365]}, "type": "Feature", "properties": {"collection_times": [{"days": "Mon-Fri", "time": "3:15pm"}, {"days": "Sat", "time": "11:30am"}, {"days": "Sun", "time": "Closed"}], "id": "2796400001", "name": "USPS COLLECTION BOX - PO LOBBY", "address": {"city": "POINT HARBOR", "state": "NC", "street": "9142 CARATOKE HWY", "postcode": "27964"}}},
{"geometry": {"type": "Point", "coordinates": [-75.8001342279, 36.0857150365]}, "type": "Feature", "properties": {"collection_times": [{"days": "Mon-Fri", "time": "3:15pm"}, {"days": "Sat", "time": "11:30am"}, {"days": "Sun", "time": "Closed"}], "id": "2796400002", "name": "USPS COLLECTION BOX - BLUE BOX", "address": {"city": "POINT HARBOR", "state": "NC", "street": "9142 CARATOKE HWY", "postcode": "27964"}}},
{"geometry": {"type": "Point", "coordinates": [-75.8926669788, 36.2816084252]}, "type": "Feature", "properties": {"collection_times": [{"days": "Mon-Fri", "time": "4:15pm"}, {"days": "Sat", "time": "11:00am"}, {"days": "Sun", "time": "Closed"}], "id": "2796500001", "name": "USPS COLLECTION BOX - BLUE BOX", "address": {"city": "POPLAR BRANCH", "state": "NC", "street": "227 POPLAR BRANCH RD", "postcode": "27965"}}},
{"geometry": {"type": "Point", "coordinates": [-75.8926669788, 36.2816084252]}, "type": "Feature", "properties": {"collection_times": [{"days": "Mon-Fri", "time": "4:15pm"}, {"days": "Sat", "time": "11:00am"}, {"days": "Sun", "time": "Closed"}], "id": "2796500003", "name": "USPS COLLECTION BOX - PO LOBBY", "address": {"city": "POPLAR BRANCH", "state": "NC", "street": "227 POPLAR BRANCH RD", "postcode": "27965"}}},
{"geometry": {"type": "Point", "coordinates": [-75.8339383595, 36.1290416422]}, "type": "Feature", "properties": {"collection_times": [{"days": "Mon-Fri", "time": "3:30pm"}, {"days": "Sat", "time": "11:30am"}, {"days": "Sun", "time": "Closed"}], "id": "2796600001", "name": "USPS COLLECTION BOX - BLUE BOX", "address": {"city": "POWELLS POINT", "state": "NC", "street": "7664 CARATOKE HWY", "postcode": "27966"}}},
{"geometry": {"type": "Point", "coordinates": [-75.8339383595, 36.1290416422]}, "type": "Feature", "properties": {"collection_times": [{"days": "Mon-Fri", "time": "3:30pm"}, {"days": "Sat", "time": "11:30am"}, {"days": "Sun", "time": "Closed"}], "id": "2796600002", "name": "USPS COLLECTION BOX - PO LOBBY", "address": {"city": "POWELLS POINT", "state": "NC", "street": "7664 CARATOKE HWY", "postcode": "27966"}}},
{"geometry": {"type": "Point", "coordinates": [-76.9322426383, 36.2257518716]}, "type": "Feature", "properties": {"collection_times": [{"days": "Mon-Fri", "time": "4:30pm"}, {"days": "Sat", "time": "11:30am"}, {"days": "Sun", "time": "Closed"}], "id": "2796700001", "name": "USPS COLLECTION BOX - BLUE BOX", "address": {"city": "POWELLSVILLE", "state": "NC", "street": "103 BETHLEHEM CHURCH RD", "postcode": "27967"}}},
{"geometry": {"type": "Point", "coordinates": [-76.9322426383, 36.2257518716]}, "type": "Feature", "properties": {"collection_times": [{"days": "Mon-Fri", "time": "4:30pm"}, {"days": "Sat", "time": "11:30am"}, {"days": "Sun", "time": "Closed"}], "id": "2796700002", "name": "USPS COLLECTION BOX - PO LOBBY", "address": {"city": "POWELLSVILLE", "state": "NC", "street": "103 BETHLEHEM CHURCH RD", "postcode": "27967"}}},
{"geometry": {"type": "Point", "coordinates": [-75.4679585621, 35.5932234681]}, "type": "Feature", "properties": {"collection_times": [{"days": "Mon-Fri", "time": "3:00pm"}, {"days": "Sat", "time": "11:30am"}, {"days": "Sun", "time": "Closed"}], "id": "2796800002", "name": "USPS COLLECTION BOX - PO LOBBY", "address": {"city": "RODANTHE", "state": "NC", "street": "25969 NC HIGHWAY 12", "postcode": "27968"}}},
{"geometry": {"type": "Point", "coordinates": [-79.1854142581, 35.5393473065]}, "type": "Feature", "properties": {"collection_times": [{"days": "Mon-Fri", "time": "2:15pm"}, {"days": "Sat", "time": "9:45am"}, {"days": "Sun", "time": "Closed"}], "id": "2796900001", "name": "USPS COLLECTION BOX - BLUE BOX", "address": {"city": "RODUCO", "state": "NC", "street": "1453 US HIGHWAY 158 W", "postcode": "27969"}}},
{"geometry": {"type": "Point", "coordinates": [-79.1854142581, 35.5393473065]}, "type": "Feature", "properties": {"collection_times": [{"days": "Mon-Fri", "time": "2:15pm"}, {"days": "Sat", "time": "9:45am"}, {"days": "Sun", "time": "Closed"}], "id": "2796900002", "name": "USPS COLLECTION BOX - PO LOBBY", "address": {"city": "RODUCO", "state": "NC", "street": "1453 US HIGHWAY 158 W", "postcode": "27969"}}},
{"geometry": {"type": "Point", "coordinates": [-79.1854142581, 35.5393473065]}, "type": "Feature", "properties": {"collection_times": [{"days": "Mon-Fri", "time": "4:30pm"}, {"days": "Sat", "time": "11:30am"}, {"days": "Sun", "time": "Closed"}], "id": "2797000001", "name": "USPS COLLECTION BOX - PO LOBBY", "address": {"city": "ROPER", "state": "NC", "street": "101 W HIGHWAY 64 BYP", "postcode": "27970"}}},
{"geometry": {"type": "Point", "coordinates": [-76.5794761282, 35.9128601925]}, "type": "Feature", "properties": {"collection_times": [{"days": "Mon-Fri", "time": "4:30pm"}, {"days": "Sat", "time": "11:30am"}, {"days": "Sun", "time": "Closed"}], "id": "2797000002", "name": "USPS COLLECTION BOX - BLUE BOX", "address": {"city": "ROPER", "state": "NC", "street": "101 W HIGHWAY 64 BYP", "postcode": "27970"}}},
{"geometry": {"type": "Point", "coordinates": [-76.0929963477, 36.4080584579]}, "type": "Feature", "properties": {"collection_times": [{"days": "Mon-Fri", "time": "3:30pm"}, {"days": "Sat", "time": "11:30am"}, {"days": "Sun", "time": "Closed"}], "id": "2797300001", "name": "USPS COLLECTION BOX - BLUE BOX", "address": {"city": "SHAWBORO", "state": "NC", "street": "814 SHAWBORO RD", "postcode": "27973"}}},
{"geometry": {"type": "Point", "coordinates": [-76.0929963477, 36.4080584579]}, "type": "Feature", "properties": {"collection_times": [{"days": "Mon-Fri", "time": "3:30pm"}, {"days": "Sat", "time": "11:30am"}, {"days": "Sun", "time": "Closed"}], "id": "2797300002", "name": "USPS COLLECTION BOX - PO LOBBY", "address": {"city": "SHAWBORO", "state": "NC", "street": "814 SHAWBORO RD", "postcode": "27973"}}},
{"geometry": {"type": "Point", "coordinates": [-76.0839882342, 36.2727531118]}, "type": "Feature", "properties": {"collection_times": [{"days": "Mon-Fri", "time": "3:45pm"}, {"days": "Sat", "time": "12:00pm"}, {"days": "Sun", "time": "Closed"}], "id": "2797400001", "name": "USPS COLLECTION BOX - BLUE BOX", "address": {"city": "SHILOH", "state": "NC", "street": "928 NC HIGHWAY 343 S", "postcode": "27974"}}},
{"geometry": {"type": "Point", "coordinates": [-76.3278807992, 36.4456517901]}, "type": "Feature", "properties": {"collection_times": [{"days": "Mon-Fri", "time": "4:30pm"}, {"days": "Sat", "time": "11:00am"}, {"days": "Sun", "time": "Closed"}], "id": "2797600001", "name": "USPS COLLECTION BOX - BLUE BOX", "address": {"city": "SOUTH MILLS", "state": "NC", "street": "215 MAIN ST", "postcode": "27976"}}},
{"geometry": {"type": "Point", "coordinates": [-76.3278807992, 36.4456517901]}, "type": "Feature", "properties": {"collection_times": [{"days": "Mon-Fri", "time": "4:30pm"}, {"days": "Sat", "time": "11:00am"}, {"days": "Sun", "time": "Closed"}], "id": "2797600002", "name": "USPS COLLECTION BOX - PO LOBBY", "address": {"city": "SOUTH MILLS", "state": "NC", "street": "215 MAIN ST", "postcode": "27976"}}},
{"geometry": {"type": "Point", "coordinates": [-76.6105190171, 36.4411469422]}, "type": "Feature", "properties": {"collection_times": [{"days": "Mon-Fri", "time": "4:30pm"}, {"days": "Sat", "time": "11:30am"}, {"days": "Sun", "time": "Closed"}], "id": "2797900001", "name": "USPS COLLECTION BOX - BLUE BOX", "address": {"city": "SUNBURY", "state": "NC", "street": "990 US HIGHWAY 158 E", "postcode": "27979"}}},
{"geometry": {"type": "Point", "coordinates": [-76.6105190171, 36.4411469422]}, "type": "Feature", "properties": {"collection_times": [{"days": "Mon-Fri", "time": "4:30pm"}, {"days": "Sat", "time": "11:30am"}, {"days": "Sun", "time": "Closed"}], "id": "2797900002", "name": "USPS COLLECTION BOX - PO LOBBY", "address": {"city": "SUNBURY", "state": "NC", "street": "990 US HIGHWAY 158 E", "postcode": "27979"}}},
{"geometry": {"type": "Point", "coordinates": [-76.6109679813, 36.2148304424]}, "type": "Feature", "properties": {"collection_times": [{"days": "Mon-Fri", "time": "4:30pm"}, {"days": "Sat", "time": "11:00am"}, {"days": "Sun", "time": "Closed"}], "id": "2798000001", "name": "USPS COLLECTION BOX - PO LOBBY", "address": {"city": "TYNER", "state": "NC", "street": "630 CENTER HILL RD", "postcode": "27980"}}},
{"geometry": {"type": "Point", "coordinates": [-76.6109679813, 36.2148304424]}, "type": "Feature", "properties": {"collection_times": [{"days": "Mon-Fri", "time": "4:30pm"}, {"days": "Sat", "time": "11:00am"}, {"days": "Sun", "time": "Closed"}], "id": "2798000002", "name": "USPS COLLECTION BOX - BLUE BOX", "address": {"city": "TYNER", "state": "NC", "street": "630 CENTER HILL RD", "postcode": "27980"}}},
{"geometry": {"type": "Point", "coordinates": [-75.6417077345, 35.8491549486]}, "type": "Feature", "properties": {"collection_times": [{"days": "Mon-Fri", "time": "4:15pm"}, {"days": "Sat", "time": "11:30am"}, {"days": "Sun", "time": "Closed"}], "id": "2798100002", "name": "USPS COLLECTION BOX - PO LOBBY", "address": {"city": "WANCHESE", "state": "NC", "street": "3525 MILL LANDING RD", "postcode": "27981"}}},
{"geometry": {"type": "Point", "coordinates": [-75.6417077345, 35.8491549486]}, "type": "Feature", "properties": {"collection_times": [{"days": "Mon-Fri", "time": "4:15pm"}, {"days": "Sat", "time": "11:30am"}, {"days": "Sun", "time": "Closed"}], "id": "2798100003", "name": "USPS COLLECTION BOX - BLUE BOX", "address": {"city": "WANCHESE", "state": "NC", "street": "3525 MILL LANDING RD", "postcode": "27981"}}},
{"geometry": {"type": "Point", "coordinates": [-76.9467761997, 35.9987683107]}, "type": "Feature", "properties": {"collection_times": [{"days": "Mon-Fri", "time": "4:45pm"}, {"days": "Sat", "time": "3:00pm"}, {"days": "Sun", "time": "Closed"}], "id": "2798300003", "name": "USPS COLLECTION BOX - BLUE BOX", "address": {"city": "WINDSOR", "state": "NC", "street": "130 N KING ST", "postcode": "27983"}}},
{"geometry": {"type": "Point", "coordinates": [-76.9467761997, 35.9987683107]}, "type": "Feature", "properties": {"collection_times": [{"days": "Mon-Fri", "time": "4:45pm"}, {"days": "Sat", "time": "3:00pm"}, {"days": "Sun", "time": "Closed"}], "id": "2798300011", "name": "USPS COLLECTION BOX - PO LOBBY", "address": {"city": "WINDSOR", "state": "NC", "street": "130 N KING ST", "postcode": "27983"}}},
{"geometry": {"type": "Point", "coordinates": [-76.933635944, 36.3940107087]}, "type": "Feature", "properties": {"collection_times": [{"days": "Mon-Fri", "time": "4:45pm"}, {"days": "Sat", "time": "12:00pm"}, {"days": "Sun", "time": "Closed"}], "id": "2798600001", "name": "USPS COLLECTION BOX - BLUE BOX", "address": {"city": "WINTON", "state": "NC", "street": "406 N MAIN ST", "postcode": "27986"}}},
{"geometry": {"type": "Point", "coordinates": [-76.933635944, 36.3940107087]}, "type": "Feature", "properties": {"collection_times": [{"days": "Mon-Fri", "time": "4:45pm"}, {"days": "Sat", "time": "12:00pm"}, {"days": "Sun", "time": "Closed"}], "id": "2798600002", "name": "USPS COLLECTION BOX - PO LOBBY", "address": {"city": "WINTON", "state": "NC", "street": "406 N MAIN ST", "postcode": "27986"}}}
]}
