{"type": "FeatureCollection", "features": [
{"geometry": {"type": "Point", "coordinates": [-80.1978592244, 35.3548736402]}, "type": "Feature", "properties": {"collection_times": [{"days": "Mon-Fri", "time": "5:00pm"}, {"days": "Sat", "time": "2:00pm"}, {"days": "Sun", "time": "Closed"}], "id": "2800100003", "name": "USPS COLLECTION BOX - BLUE BOX", "address": {"city": "ALBEMARLE", "state": "NC", "street": "320 S 2ND ST", "postcode": "28001"}}},
{"geometry": {"type": "Point", "coordinates": [-80.1978592244, 35.3548736402]}, "type": "Feature", "properties": {"collection_times": [{"days": "Mon-Fri", "time": "5:00pm"}, {"days": "Sat", "time": "2:00pm"}, {"days": "Sun", "time": "Closed"}], "id": "2800100004", "name": "USPS COLLECTION BOX - BLUE BOX", "address": {"city": "ALBEMARLE", "state": "NC", "street": "320 S 2ND ST", "postcode": "28001"}}},
{"geometry": {"type": "Point", "coordinates": [-80.1982548139, 35.3467150832]}, "type": "Feature", "properties": {"collection_times": [{"days": "Mon-Fri", "time": "3:00pm"}, {"days": "Sat", "time": "2:00pm"}, {"days": "Sun", "time": "Closed"}], "id": "2800100005", "name": "USPS COLLECTION BOX - BLUE BOX", "address": {"city": "ALBEMARLE", "state": "NC", "street": "SOUTH 1ST STREET", "postcode": "28001"}}},
{"geometry": {"type": "Point", "coordinates": [-80.198128939, 35.3493468559]}, "type": "Feature", "properties": {"collection_times": [{"days": "Mon-Fri", "time": "3:00pm"}, {"days": "Sat", "time": "2:00pm"}, {"days": "Sun", "time": "Closed"}], "id": "2800100009", "name": "USPS COLLECTION BOX - BLUE BOX", "address": {"city": "ALBEMARLE", "state": "NC", "street": "201 S 2ND ST", "postcode": "28001"}}},
{"geometry": {"type": "Point", "coordinates": [-80.196166012, 35.3503352177]}, "type": "Feature", "properties": {"collection_times": [{"days": "Mon-Fri", "time": "3:00pm"}, {"days": "Sat", "time": "2:00pm"}, {"days": "Sun", "time": "Closed"}], "id": "2800100010", "name": "USPS COLLECTION BOX - BLUE BOX", "address": {"city": "ALBEMARLE", "state": "NC", "street": "211 E MAIN ST", "postcode": "28001"}}},
{"geometry": {"type": "Point", "coordinates": [-80.1982548139, 35.3467150832]}, "type": "Feature", "properties": {"collection_times": [{"days": "Mon-Fri", "time": "3:00pm"}, {"days": "Sat", "time": "2:00pm"}, {"days": "Sun", "time": "Closed"}], "id": "2800100028", "name": "USPS COLLECTION BOX - BLUE BOX", "address": {"city": "ALBEMARLE", "state": "NC", "street": "1ST STREET", "postcode": "28001"}}},
{"geometry": {"type": "Point", "coordinates": [-80.1956825799, 35.3648862049]}, "type": "Feature", "properties": {"collection_times": [{"days": "Mon-Sat", "time": "2:00pm"}, {"days": "Sun", "time": "Closed"}], "id": "2800100029", "name": "USPS COLLECTION BOX - BLUE BOX", "address": {"city": "ALBEMARLE", "state": "NC", "street": "1003 N 2ND ST", "postcode": "28001"}}},
{"geometry": {"type": "Point", "coordinates": [-80.1978592244, 35.3548736402]}, "type": "Feature", "properties": {"collection_times": [{"days": "Mon-Fri", "time": "5:00pm"}, {"days": "Sat", "time": "2:00pm"}, {"days": "Sun", "time": "Closed"}], "id": "2800100035", "name": "USPS COLLECTION BOX - PO LOBBY", "address": {"city": "ALBEMARLE", "state": "NC", "street": "320 S 2ND ST", "postcode": "28001"}}},
{"geometry": {"type": "Point", "coordinates": [-80.1978592244, 35.3548736402]}, "type": "Feature", "properties": {"collection_times": [{"days": "Mon-Fri", "time": "5:00pm"}, {"days": "Sat", "time": "2:00pm"}, {"days": "Sun", "time": "Closed"}], "id": "2800100036", "name": "USPS COLLECTION BOX - PO LOBBY", "address": {"city": "ALBEMARLE", "state": "NC", "street": "320 S 2ND ST", "postcode": "28001"}}},
{"geometry": {"type": "Point", "coordinates": [-80.1978592244, 35.3548736402]}, "type": "Feature", "properties": {"collection_times": [{"days": "Mon-Fri", "time": "5:00pm"}, {"days": "Sat", "time": "2:00pm"}, {"days": "Sun", "time": "Closed"}], "id": "2800100037", "name": "USPS COLLECTION BOX - PO LOBBY", "address": {"city": "ALBEMARLE", "state": "NC", "street": "320 S 2ND ST", "postcode": "28001"}}},
{"geometry": {"type": "Point", "coordinates": [-81.1176819805, 35.399426241]}, "type": "Feature", "properties": {"collection_times": [{"days": "Mon-Fri", "time": "4:00pm"}, {"days": "Sat", "time": "11:00am"}, {"days": "Sun", "time": "Closed"}], "id": "2800600001", "name": "USPS COLLECTION BOX - BLUE BOX", "address": {"city": "ALEXIS", "state": "NC", "street": "4226 CHARLES RAPER JONAS HWY", "postcode": "28006"}}},
{"geometry": {"type": "Point", "coordinates": [-81.1176819805, 35.399426241]}, "type": "Feature", "properties": {"collection_times": [{"days": "Mon-Fri", "time": "4:00pm"}, {"days": "Sat", "time": "11:00am"}, {"days": "Sun", "time": "Closed"}], "id": "2800600002", "name": "USPS COLLECTION BOX - PO LOBBY", "address": {"city": "ALEXIS", "state": "NC", "street": "4226 CHARLES RAPER JONAS HWY", "postcode": "28006"}}},
{"geometry": {"type": "Point", "coordinates": [-80.1082726416, 35.101129493]}, "type": "Feature", "properties": {"collection_times": [{"days": "Mon-Fri", "time": "4:00pm"}, {"days": "Sat", "time": "9:30am"}, {"days": "Sun", "time": "Closed"}], "id": "2800700000", "name": "USPS COLLECTION BOX - BLUE BOX", "address": {"city": "ANSONVILLE", "state": "NC", "street": "1 HIGHWAY 52 N", "postcode": "28007"}}},
{"geometry": {"type": "Point", "coordinates": [-80.1082726413, 35.1011294928]}, "type": "Feature", "properties": {"collection_times": [{"days": "Mon-Fri", "time": "4:00pm"}, {"days": "Sat", "time": "9:30am"}, {"days": "Sun", "time": "Closed"}], "id": "2800700001", "name": "USPS COLLECTION BOX - PO LOBBY", "address": {"city": "ANSONVILLE", "state": "NC", "street": "1 HIGHWAY 52 N", "postcode": "28007"}}},
{"geometry": {"type": "Point", "coordinates": [-80.1138946785, 35.404790133]}, "type": "Feature", "properties": {"collection_times": [{"days": "Mon-Fri", "time": "4:00pm"}, {"days": "Sat", "time": "10:30am"}, {"days": "Sun", "time": "Closed"}], "id": "2800900002", "name": "USPS COLLECTION BOX - BLUE BOX", "address": {"city": "BADIN", "state": "NC", "street": "1 BOYDEN ST", "postcode": "28009"}}},
{"geometry": {"type": "Point", "coordinates": [-80.1138946784, 35.4047901332]}, "type": "Feature", "properties": {"collection_times": [{"days": "Mon-Fri", "time": "4:00pm"}, {"days": "Sat", "time": "10:30am"}, {"days": "Sun", "time": "Closed"}], "id": "2800900003", "name": "USPS COLLECTION BOX - PO LOBBY", "address": {"city": "BADIN", "state": "NC", "street": "1 BOYDEN ST", "postcode": "28009"}}},
{"geometry": {"type": "Point", "coordinates": [-80.1138946785, 35.404790133]}, "type": "Feature", "properties": {"collection_times": [{"days": "Mon-Fri", "time": "4:00pm"}, {"days": "Sat", "time": "10:30am"}, {"days": "Sun", "time": "Closed"}], "id": "2800900004", "name": "USPS COLLECTION BOX - PO LOBBY", "address": {"city": "BADIN", "state": "NC", "street": "1 BOYDEN ST", "postcode": "28009"}}},
{"geometry": {"type": "Point", "coordinates": [-80.8965113795, 35.7235967188]}, "type": "Feature", "properties": {"collection_times": [{"days": "Mon-Fri", "time": "4:30pm"}, {"days": "Sat", "time": "10:00am"}, {"days": "Sun", "time": "Closed"}], "id": "2801000003", "name": "USPS COLLECTION BOX - BLUE BOX", "address": {"city": "BARIUM SPRINGS", "state": "NC", "street": "2625 SHELTON AVE", "postcode": "28010"}}},
{"geometry": {"type": "Point", "coordinates": [-80.8965113797, 35.7235967192]}, "type": "Feature", "properties": {"collection_times": [{"days": "Mon-Fri", "time": "4:30pm"}, {"days": "Sat", "time": "10:00am"}, {"days": "Sun", "time": "Closed"}], "id": "2801000004", "name": "USPS COLLECTION BOX - PO LOBBY", "address": {"city": "BARIUM SPRINGS", "state": "NC", "street": "2625 SHELTON AVE", "postcode": "28010"}}},
{"geometry": {"type": "Point", "coordinates": [-80.8965113795, 35.7235967188]}, "type": "Feature", "properties": {"collection_times": [{"days": "Mon-Fri", "time": "4:30pm"}, {"days": "Sat", "time": "10:00am"}, {"days": "Sun", "time": "Closed"}], "id": "2801000005", "name": "USPS COLLECTION BOX - PO LOBBY", "address": {"city": "BARIUM SPRINGS", "state": "NC", "street": "2625 SHELTON AVE", "postcode": "28010"}}},
{"geometry": {"type": "Point", "coordinates": [-81.0364245289, 35.2456463072]}, "type": "Feature", "properties": {"collection_times": [{"days": "Mon-Sat", "time": "2:30pm"}, {"days": "Sun", "time": "Closed"}], "id": "2801200005", "name": "USPS COLLECTION BOX - BLUE BOX", "address": {"city": "BELMONT", "state": "NC", "street": "208 GLENWAY ST", "postcode": "28012"}}},
{"geometry": {"type": "Point", "coordinates": [-81.0394895788, 35.2347742892]}, "type": "Feature", "properties": {"collection_times": [{"days": "Mon-Sat", "time": "2:00pm"}, {"days": "Sun", "time": "Closed"}], "id": "2801200007", "name": "USPS COLLECTION BOX - BLUE BOX", "address": {"city": "BELMONT", "state": "NC", "street": "403 E CATAWBA ST", "postcode": "28012"}}},
{"geometry": {"type": "Point", "coordinates": [-81.0364245289, 35.2456463072]}, "type": "Feature", "properties": {"collection_times": [{"days": "Mon-Sat", "time": "2:30pm"}, {"days": "Sun", "time": "Closed"}], "id": "2801200012", "name": "USPS COLLECTION BOX - BLUE BOX", "address": {"city": "BELMONT", "state": "NC", "street": "208 GLENWAY ST", "postcode": "28012"}}},
{"geometry": {"type": "Point", "coordinates": [-81.0281745399, 35.2523922911]}, "type": "Feature", "properties": {"collection_times": [{"days": "Mon-Sat", "time": "2:00pm"}, {"days": "Sun", "time": "Closed"}], "id": "2801200013", "name": "USPS COLLECTION BOX - BLUE BOX", "address": {"city": "BELMONT", "state": "NC", "street": "609 PARK ST", "postcode": "28012"}}},
{"geometry": {"type": "Point", "coordinates": [-81.0470096457, 35.2805187545]}, "type": "Feature", "properties": {"collection_times": [{"days": "Mon-Sat", "time": "2:00pm"}, {"days": "Sun", "time": "Closed"}], "id": "2801200014", "name": "USPS COLLECTION BOX - BLUE BOX", "address": {"city": "BELMONT", "state": "NC", "street": "1438 PERFECTION AVE", "postcode": "28012"}}},
{"geometry": {"type": "Point", "coordinates": [-81.0379272756, 35.2423433777]}, "type": "Feature", "properties": {"collection_times": [{"days": "Mon-Sat", "time": "2:00pm"}, {"days": "Sun", "time": "Closed"}], "id": "2801200015", "name": "USPS COLLECTION BOX - BLUE BOX", "address": {"city": "BELMONT", "state": "NC", "street": "1 MAIN STREET XING", "postcode": "28012"}}},
{"geometry": {"type": "Point", "coordinates": [-81.0475175543, 35.2560422679]}, "type": "Feature", "properties": {"collection_times": [{"days": "Mon-Sat", "time": "2:00pm"}, {"days": "Sun", "time": "Closed"}], "id": "2801200016", "name": "USPS COLLECTION BOX - BLUE BOX", "address": {"city": "BELMONT", "state": "NC", "street": "77 MCADENVILLE RD", "postcode": "28012"}}},
{"geometry": {"type": "Point", "coordinates": [-81.0364245285, 35.2456463071]}, "type": "Feature", "properties": {"collection_times": [{"days": "Mon-Sat", "time": "2:30pm"}, {"days": "Sun", "time": "Closed"}], "id": "2801200017", "name": "USPS COLLECTION BOX - PO LOBBY", "address": {"city": "BELMONT", "state": "NC", "street": "208 GLENWAY ST", "postcode": "28012"}}},
{"geometry": {"type": "Point", "coordinates": [-81.0364245289, 35.2456463072]}, "type": "Feature", "properties": {"collection_times": [{"days": "Mon-Sat", "time": "2:30pm"}, {"days": "Sun", "time": "Closed"}], "id": "2801200018", "name": "USPS COLLECTION BOX - PO LOBBY", "address": {"city": "BELMONT", "state": "NC", "street": "208 GLENWAY ST", "postcode": "28012"}}},
{"geometry": {"type": "Point", "coordinates": [-81.2827615378, 35.2826681909]}, "type": "Feature", "properties": {"collection_times": [{"days": "Mon-Fri", "time": "5:00pm"}, {"days": "Sat", "time": "12:00pm"}, {"days": "Sun", "time": "Closed"}], "id": "2801600001", "name": "USPS COLLECTION BOX - BLUE BOX", "address": {"city": "BESSEMER CITY", "state": "NC", "street": "124 E ALABAMA AVE", "postcode": "28016"}}},
{"geometry": {"type": "Point", "coordinates": [-81.282761538, 35.2826681906]}, "type": "Feature", "properties": {"collection_times": [{"days": "Mon-Fri", "time": "5:00pm"}, {"days": "Sat", "time": "12:00pm"}, {"days": "Sun", "time": "Closed"}], "id": "2801600002", "name": "USPS COLLECTION BOX - PO LOBBY", "address": {"city": "BESSEMER CITY", "state": "NC", "street": "124 E ALABAMA AVE", "postcode": "28016"}}},
{"geometry": {"type": "Point", "coordinates": [-81.2827615378, 35.2826681909]}, "type": "Feature", "properties": {"collection_times": [{"days": "Mon-Fri", "time": "5:00pm"}, {"days": "Sat", "time": "12:00pm"}, {"days": "Sun", "time": "Closed"}], "id": "2801600003", "name": "USPS COLLECTION BOX - PO LOBBY", "address": {"city": "BESSEMER CITY", "state": "NC", "street": "124 E ALABAMA AVE", "postcode": "28016"}}},
{"geometry": {"type": "Point", "coordinates": [-81.6667881059, 35.2515115838]}, "type": "Feature", "properties": {"collection_times": [{"days": "Mon-Fri", "time": "4:30pm"}, {"days": "Sat", "time": "11:00am"}, {"days": "Sun", "time": "Closed"}], "id": "2801700002", "name": "USPS COLLECTION BOX - BLUE BOX", "address": {"city": "BOILING SPRINGS", "state": "NC", "street": "101 N MAIN ST", "postcode": "28017"}}},
{"geometry": {"type": "Point", "coordinates": [-81.6667881055, 35.2515115839]}, "type": "Feature", "properties": {"collection_times": [{"days": "Mon-Fri", "time": "4:30pm"}, {"days": "Sat", "time": "11:00am"}, {"days": "Sun", "time": "Closed"}], "id": "2801700004", "name": "USPS COLLECTION BOX - PO LOBBY", "address": {"city": "BOILING SPRINGS", "state": "NC", "street": "101 N MAIN ST", "postcode": "28017"}}},
{"geometry": {"type": "Point", "coordinates": [-81.6667881059, 35.2515115838]}, "type": "Feature", "properties": {"collection_times": [{"days": "Mon-Fri", "time": "4:30pm"}, {"days": "Sat", "time": "11:00am"}, {"days": "Sun", "time": "Closed"}], "id": "2801700005", "name": "USPS COLLECTION BOX - PO LOBBY", "address": {"city": "BOILING SPRINGS", "state": "NC", "street": "101 N MAIN ST", "postcode": "28017"}}},
{"geometry": {"type": "Point", "coordinates": [-81.8299569515, 35.3708199271]}, "type": "Feature", "properties": {"collection_times": [{"days": "Mon-Fri", "time": "4:15pm"}, {"days": "Sat", "time": "10:30am"}, {"days": "Sun", "time": "Closed"}], "id": "2801800003", "name": "USPS COLLECTION BOX - BLUE BOX", "address": {"city": "BOSTIC", "state": "NC", "street": "1521 BOSTIC SUNSHINE HWY", "postcode": "28018"}}},
{"geometry": {"type": "Point", "coordinates": [-81.8299569515, 35.3708199271]}, "type": "Feature", "properties": {"collection_times": [{"days": "Mon-Fri", "time": "4:15pm"}, {"days": "Sat", "time": "10:30am"}, {"days": "Sun", "time": "Closed"}], "id": "2801800005", "name": "USPS COLLECTION BOX - PO LOBBY", "address": {"city": "BOSTIC", "state": "NC", "street": "1521 BOSTIC SUNSHINE HWY", "postcode": "28018"}}},
{"geometry": {"type": "Point", "coordinates": [-81.7986786052, 35.2801597709]}, "type": "Feature", "properties": {"collection_times": [{"days": "Mon-Fri", "time": "4:15pm"}, {"days": "Sat", "time": "9:00am"}, {"days": "Sun", "time": "Closed"}], "id": "2801900003", "name": "USPS COLLECTION BOX - BLUE BOX", "address": {"city": "CAROLEEN", "state": "NC", "street": "2201 HIGHWAY 221A", "postcode": "28019"}}},
{"geometry": {"type": "Point", "coordinates": [-81.7986786052, 35.2801597709]}, "type": "Feature", "properties": {"collection_times": [{"days": "Mon-Fri", "time": "4:15pm"}, {"days": "Sat", "time": "9:00am"}, {"days": "Sun", "time": "Closed"}], "id": "2801900006", "name": "USPS COLLECTION BOX - PO LOBBY", "address": {"city": "CAROLEEN", "state": "NC", "street": "2201 HIGHWAY 221A", "postcode": "28019"}}},
{"geometry": {"type": "Point", "coordinates": [-81.6162317553, 35.5129074943]}, "type": "Feature", "properties": {"collection_times": [{"days": "Mon-Fri", "time": "4:15pm"}, {"days": "Sat", "time": "9:30am"}, {"days": "Sun", "time": "Closed"}], "id": "2802000002", "name": "USPS COLLECTION BOX - BLUE BOX", "address": {"city": "CASAR", "state": "NC", "street": "5801 CASAR RD", "postcode": "28020"}}},
{"geometry": {"type": "Point", "coordinates": [-81.6162317553, 35.5129074943]}, "type": "Feature", "properties": {"collection_times": [{"days": "Mon-Fri", "time": "4:15pm"}, {"days": "Sat", "time": "9:30am"}, {"days": "Sun", "time": "Closed"}], "id": "2802000003", "name": "USPS COLLECTION BOX - PO LOBBY", "address": {"city": "CASAR", "state": "NC", "street": "5801 CASAR RD", "postcode": "28020"}}},
{"geometry": {"type": "Point", "coordinates": [-81.618084644, 35.511586226]}, "type": "Feature", "properties": {"collection_times": [{"days": "Mon-Fri", "time": "11:00am"}, {"days": "Sat-Sun", "time": "Closed"}], "id": "2802000004", "name": "USPS COLLECTION BOX - BLUE BOX", "address": {"city": "CASAR", "state": "NC", "street": "5766 CASAR RD", "postcode": "28020"}}},
{"geometry": {"type": "Point", "coordinates": [-81.3805674021, 35.3779460719]}, "type": "Feature", "properties": {"collection_times": [{"days": "Mon-Fri", "time": "5:00pm"}, {"days": "Sat", "time": "3:00pm"}, {"days": "Sun", "time": "Closed"}], "id": "2802100004", "name": "USPS COLLECTION BOX - BLUE BOX", "address": {"city": "CHERRYVILLE", "state": "NC", "street": "107 N MULBERRY ST", "postcode": "28021"}}},
{"geometry": {"type": "Point", "coordinates": [-81.3794613355, 35.3789716973]}, "type": "Feature", "properties": {"collection_times": [{"days": "Mon-Fri", "time": "2:00pm"}, {"days": "Sat", "time": "10:00am"}, {"days": "Sun", "time": "Closed"}], "id": "2802100006", "name": "USPS COLLECTION BOX - BLUE BOX", "address": {"city": "CHERRYVILLE", "state": "NC", "street": "100 E MAIN ST", "postcode": "28021"}}},
{"geometry": {"type": "Point", "coordinates": [-81.3805674021, 35.3779460719]}, "type": "Feature", "properties": {"collection_times": [{"days": "Mon-Fri", "time": "5:00pm"}, {"days": "Sat", "time": "3:00pm"}, {"days": "Sun", "time": "Closed"}], "id": "2802100008", "name": "USPS COLLECTION BOX - PO LOBBY", "address": {"city": "CHERRYVILLE", "state": "NC", "street": "107 N MULBERRY ST", "postcode": "28021"}}},
{"geometry": {"type": "Point", "coordinates": [-81.431824049, 35.360475989]}, "type": "Feature", "properties": {"collection_times": [{"days": "Mon-Fri", "time": "11:00am"}, {"days": "Sat-Sun", "time": "Closed"}], "id": "2802100011", "name": "USPS COLLECTION BOX - BLUE BOX", "address": {"city": "CHERRYVILLE", "state": "NC", "street": "2135 CHERRYVILLE RD", "postcode": "28021"}}},
{"geometry": {"type": "Point", "coordinates": [-80.579642259, 35.5703860714]}, "type": "Feature", "properties": {"collection_times": [{"days": "Mon-Sat", "time": "11:30am"}, {"days": "Sun", "time": "Closed"}], "id": "2802300007", "name": "USPS COLLECTION BOX - BLUE BOX", "address": {"city": "CHINA GROVE", "state": "NC", "street": "120 N MAIN ST", "postcode": "28023"}}},
{"geometry": {"type": "Point", "coordinates": [-80.5789418048, 35.5687192217]}, "type": "Feature", "properties": {"collection_times": [{"days": "Mon-Fri", "time": "5:00pm"}, {"days": "Sat", "time": "12:00pm"}, {"days": "Sun", "time": "Closed"}], "id": "2802300010", "name": "USPS COLLECTION BOX - BLUE BOX", "address": {"city": "CHINA GROVE", "state": "NC", "street": "200 S BOSTIAN ST", "postcode": "28023"}}},
{"geometry": {"type": "Point", "coordinates": [-80.5789418048, 35.5687192217]}, "type": "Feature", "properties": {"collection_times": [{"days": "Mon-Fri", "time": "5:00pm"}, {"days": "Sat", "time": "12:00pm"}, {"days": "Sun", "time": "Closed"}], "id": "2802300011", "name": "USPS COLLECTION BOX - BLUE BOX", "address": {"city": "CHINA GROVE", "state": "NC", "street": "200 S BOSTIAN ST", "postcode": "28023"}}},
{"geometry": {"type": "Point", "coordinates": [-80.5789418048, 35.5687192221]}, "type": "Feature", "properties": {"collection_times": [{"days": "Mon-Fri", "time": "5:00pm"}, {"days": "Sat", "time": "12:00pm"}, {"days": "Sun", "time": "Closed"}], "id": "2802300012", "name": "USPS COLLECTION BOX - PO LOBBY", "address": {"city": "CHINA GROVE", "state": "NC", "street": "200 S BOSTIAN ST", "postcode": "28023"}}},
{"geometry": {"type": "Point", "coordinates": [-80.5789418048, 35.5687192217]}, "type": "Feature", "properties": {"collection_times": [{"days": "Mon-Fri", "time": "5:00pm"}, {"days": "Sat", "time": "12:00pm"}, {"days": "Sun", "time": "Closed"}], "id": "2802300013", "name": "USPS COLLECTION BOX - PO LOBBY", "address": {"city": "CHINA GROVE", "state": "NC", "street": "200 S BOSTIAN ST", "postcode": "28023"}}},
{"geometry": {"type": "Point", "coordinates": [-80.5789418048, 35.5687192217]}, "type": "Feature", "properties": {"collection_times": [{"days": "Mon-Fri", "time": "5:00pm"}, {"days": "Sat", "time": "12:00pm"}, {"days": "Sun", "time": "Closed"}], "id": "2802300014", "name": "USPS COLLECTION BOX - PO LOBBY", "address": {"city": "CHINA GROVE", "state": "NC", "street": "200 S BOSTIAN ST", "postcode": "28023"}}},
{"geometry": {"type": "Point", "coordinates": [-81.7670746633, 35.2450706434]}, "type": "Feature", "properties": {"collection_times": [{"days": "Mon-Fri", "time": "4:30pm"}, {"days": "Sat", "time": "9:00am"}, {"days": "Sun", "time": "Closed"}], "id": "2802400003", "name": "USPS COLLECTION BOX - BLUE BOX", "address": {"city": "CLIFFSIDE", "state": "NC", "street": "244 N MAIN ST", "postcode": "28024"}}},
{"geometry": {"type": "Point", "coordinates": [-81.7699979734, 35.2380026282]}, "type": "Feature", "properties": {"collection_times": [{"days": "Mon-Fri", "time": "4:30pm"}, {"days": "Sat", "time": "9:00am"}, {"days": "Sun", "time": "Closed"}], "id": "2802400004", "name": "USPS COLLECTION BOX - PO LOBBY", "address": {"city": "CLIFFSIDE", "state": "NC", "street": "244 N MAIN ST", "postcode": "28024"}}},
{"geometry": {"type": "Point", "coordinates": [-80.577449463, 35.4107400603]}, "type": "Feature", "properties": {"collection_times": [{"days": "Mon-Fri", "time": "5:00pm"}, {"days": "Sat", "time": "4:30pm"}, {"days": "Sun", "time": "Closed"}], "id": "2802500006", "name": "USPS COLLECTION BOX - BLUE BOX", "address": {"city": "CONCORD", "state": "NC", "street": "66 MCCACHERN BLVD SE", "postcode": "28025"}}},
{"geometry": {"type": "Point", "coordinates": [-80.577449463, 35.4107400603]}, "type": "Feature", "properties": {"collection_times": [{"days": "Mon-Fri", "time": "5:00pm"}, {"days": "Sat", "time": "4:30pm"}, {"days": "Sun", "time": "Closed"}], "id": "2802500009", "name": "USPS COLLECTION BOX - BLUE BOX", "address": {"city": "CONCORD", "state": "NC", "street": "66 MCCACHERN BLVD SE", "postcode": "28025"}}},
{"geometry": {"type": "Point", "coordinates": [-80.5819813788, 35.411096131]}, "type": "Feature", "properties": {"collection_times": [{"days": "Mon-Fri", "time": "2:00pm"}, {"days": "Sat-Sun", "time": "Closed"}], "id": "2802500011", "name": "USPS COLLECTION BOX - BLUE BOX", "address": {"city": "CONCORD", "state": "NC", "street": "27 UNION ST N", "postcode": "28025"}}},
{"geometry": {"type": "Point", "coordinates": [-80.6091581209, 35.4410828248]}, "type": "Feature", "properties": {"collection_times": [{"days": "Mon-Sat", "time": "2:00pm"}, {"days": "Sun", "time": "Closed"}], "id": "2802500014", "name": "USPS COLLECTION BOX - BLUE BOX", "address": {"city": "CONCORD", "state": "NC", "street": "2462 KANNAPOLIS HWY", "postcode": "28025"}}},
{"geometry": {"type": "Point", "coordinates": [-80.5976189134, 35.428361417]}, "type": "Feature", "properties": {"collection_times": [{"days": "Mon-Fri", "time": "2:00pm"}, {"days": "Sat-Sun", "time": "Closed"}], "id": "2802500019", "name": "USPS COLLECTION BOX - BLUE BOX", "address": {"city": "CONCORD", "state": "NC", "street": "12 PALASIDE DR NE", "postcode": "28025"}}},
{"geometry": {"type": "Point", "coordinates": [-80.5806836728, 35.4099604903]}, "type": "Feature", "properties": {"collection_times": [{"days": "Mon-Fri", "time": "2:00pm"}, {"days": "Sat-Sun", "time": "Closed"}], "id": "2802500025", "name": "USPS COLLECTION BOX - BLUE BOX", "address": {"city": "CONCORD", "state": "NC", "street": "28 UNION ST S", "postcode": "28025"}}},
{"geometry": {"type": "Point", "coordinates": [-80.5612478584, 35.3963911137]}, "type": "Feature", "properties": {"collection_times": [{"days": "Mon-Sat", "time": "2:00pm"}, {"days": "Sun", "time": "Closed"}], "id": "2802500032", "name": "USPS COLLECTION BOX - BLUE BOX", "address": {"city": "CONCORD", "state": "NC", "street": "CONCORD HWY", "postcode": "28025"}}},
{"geometry": {"type": "Point", "coordinates": [-80.5252829883, 35.3789711061]}, "type": "Feature", "properties": {"collection_times": [{"days": "Mon-Fri", "time": "2:00pm"}, {"days": "Sat-Sun", "time": "Closed"}], "id": "2802500045", "name": "USPS COLLECTION BOX - BLUE BOX", "address": {"city": "CONCORD", "state": "NC", "street": "538 LAKE CONCORD RD NE", "postcode": "28025"}}},
{"geometry": {"type": "Point", "coordinates": [-80.5737124956, 35.4204817274]}, "type": "Feature", "properties": {"collection_times": [{"days": "Mon-Fri", "time": "2:00pm"}, {"days": "Sat-Sun", "time": "Closed"}], "id": "2802500057", "name": "USPS COLLECTION BOX - BLUE BOX", "address": {"city": "CONCORD", "state": "NC", "street": "80 BRANCHVIEW DR NE", "postcode": "28025"}}},
{"geometry": {"type": "Point", "coordinates": [-80.5981867337, 35.4470190458]}, "type": "Feature", "properties": {"collection_times": [{"days": "Mon-Fri", "time": "2:00pm"}, {"days": "Sat-Sun", "time": "Closed"}], "id": "2802500058", "name": "USPS COLLECTION BOX - BLUE BOX", "address": {"city": "CONCORD", "state": "NC", "street": "349 COPPERFIELD BLVD NE", "postcode": "28025"}}},
{"geometry": {"type": "Point", "coordinates": [-80.6026819777, 35.4313282781]}, "type": "Feature", "properties": {"collection_times": [{"days": "Mon-Sat", "time": "2:00pm"}, {"days": "Sun", "time": "Closed"}], "id": "2802500059", "name": "USPS COLLECTION BOX - BLUE BOX", "address": {"city": "CONCORD", "state": "NC", "street": "819 DAVIDSON DR NW", "postcode": "28025"}}},
{"geometry": {"type": "Point", "coordinates": [-80.5774494626, 35.4107400604]}, "type": "Feature", "properties": {"collection_times": [{"days": "Mon-Fri", "time": "5:00pm"}, {"days": "Sat", "time": "4:30pm"}, {"days": "Sun", "time": "Closed"}], "id": "2802500067", "name": "USPS COLLECTION BOX - PO LOBBY", "address": {"city": "CONCORD", "state": "NC", "street": "66 MCCACHERN BLVD SE", "postcode": "28025"}}},
{"geometry": {"type": "Point", "coordinates": [-80.577449463, 35.4107400603]}, "type": "Feature", "properties": {"collection_times": [{"days": "Mon-Fri", "time": "5:00pm"}, {"days": "Sat", "time": "4:30pm"}, {"days": "Sun", "time": "Closed"}], "id": "2802500068", "name": "USPS COLLECTION BOX - PO LOBBY", "address": {"city": "CONCORD", "state": "NC", "street": "66 MCCACHERN BLVD SE", "postcode": "28025"}}},
{"geometry": {"type": "Point", "coordinates": [-80.577449463, 35.4107400603]}, "type": "Feature", "properties": {"collection_times": [{"days": "Mon-Fri", "time": "5:00pm"}, {"days": "Sat", "time": "4:30pm"}, {"days": "Sun", "time": "Closed"}], "id": "2802500069", "name": "USPS COLLECTION BOX - PO LOBBY", "address": {"city": "CONCORD", "state": "NC", "street": "66 MCCACHERN BLVD SE", "postcode": "28025"}}},
{"geometry": {"type": "Point", "coordinates": [-80.5612478584, 35.3963911137]}, "type": "Feature", "properties": {"collection_times": [{"days": "Mon-Fri", "time": "5:00pm"}, {"days": "Sat", "time": "4:30pm"}, {"days": "Sun", "time": "Closed"}], "id": "2802500070", "name": "USPS COLLECTION BOX - APC", "address": {"city": "CONCORD", "state": "NC", "street": "66 MCCACHERN BLVD SE", "postcode": "28025"}}},
{"geometry": {"type": "Point", "coordinates": [-80.6524191088, 35.4064932515]}, "type": "Feature", "properties": {"collection_times": [{"days": "Mon-Sat", "time": "2:00pm"}, {"days": "Sun", "time": "Closed"}], "id": "2802700010", "name": "USPS COLLECTION BOX - BLUE BOX", "address": {"city": "CONCORD", "state": "NC", "street": "11 CONCORD COMMONS PL SW", "postcode": "28027"}}},
{"geometry": {"type": "Point", "coordinates": [-80.6524191088, 35.4064932515]}, "type": "Feature", "properties": {"collection_times": [{"days": "Mon-Fri", "time": "5:00pm"}, {"days": "Sat", "time": "4:30pm"}, {"days": "Sun", "time": "Closed"}], "id": "2802700016", "name": "USPS COLLECTION BOX - BLUE BOX", "address": {"city": "CONCORD", "state": "NC", "street": "455 CONCORD PKWY N", "postcode": "28027"}}},
{"geometry": {"type": "Point", "coordinates": [-80.6524191088, 35.4064932515]}, "type": "Feature", "properties": {"collection_times": [{"days": "Mon-Fri", "time": "5:00pm"}, {"days": "Sat", "time": "4:30pm"}, {"days": "Sun", "time": "Closed"}], "id": "2802700021", "name": "USPS COLLECTION BOX - BLUE BOX", "address": {"city": "CONCORD", "state": "NC", "street": "455 CONCORD PKWY N", "postcode": "28027"}}},
{"geometry": {"type": "Point", "coordinates": [-80.6524191088, 35.4064932515]}, "type": "Feature", "properties": {"collection_times": [{"days": "Mon-Fri", "time": "5:00pm"}, {"days": "Sat", "time": "4:30pm"}, {"days": "Sun", "time": "Closed"}], "id": "2802700022", "name": "USPS COLLECTION BOX - PO LOBBY", "address": {"city": "CONCORD", "state": "NC", "street": "455 CONCORD PKWY N", "postcode": "28027"}}},
{"geometry": {"type": "Point", "coordinates": [-80.6524191088, 35.4064932515]}, "type": "Feature", "properties": {"collection_times": [{"days": "Mon-Fri", "time": "5:00pm"}, {"days": "Sat", "time": "4:30pm"}, {"days": "Sun", "time": "Closed"}], "id": "2802700023", "name": "USPS COLLECTION BOX - PO LOBBY", "address": {"city": "CONCORD", "state": "NC", "street": "455 CONCORD PKWY N", "postcode": "28027"}}},
{"geometry": {"type": "Point", "coordinates": [-80.6524191088, 35.4064932515]}, "type": "Feature", "properties": {"collection_times": [{"days": "Mon-Fri", "time": "5:00pm"}, {"days": "Sat", "time": "4:30pm"}, {"days": "Sun", "time": "Closed"}], "id": "2802700024", "name": "USPS COLLECTION BOX - APC", "address": {"city": "CONCORD", "state": "NC", "street": "455 CONCORD PKWY N", "postcode": "28027"}}},
{"geometry": {"type": "Point", "coordinates": [-80.8781067647, 35.4798686333]}, "type": "Feature", "properties": {"collection_times": [{"days": "Mon-Fri", "time": "5:00pm"}, {"days": "Sat", "time": "12:00pm"}, {"days": "Sun", "time": "Closed"}], "id": "2803100003", "name": "USPS COLLECTION BOX - BLUE BOX", "address": {"city": "CORNELIUS", "state": "NC", "street": "20311 CHARTWELL CENTER DR", "postcode": "28031"}}},
{"geometry": {"type": "Point", "coordinates": [-80.8781067647, 35.4798686333]}, "type": "Feature", "properties": {"collection_times": [{"days": "Mon-Fri", "time": "5:00pm"}, {"days": "Sat", "time": "12:00pm"}, {"days": "Sun", "time": "Closed"}], "id": "2803100004", "name": "USPS COLLECTION BOX - BLUE BOX", "address": {"city": "CORNELIUS", "state": "NC", "street": "20311 CHARTWELL CENTER DR", "postcode": "28031"}}},
{"geometry": {"type": "Point", "coordinates": [-80.8590765038, 35.4815981194]}, "type": "Feature", "properties": {"collection_times": [{"days": "Mon-Fri", "time": "2:00pm"}, {"days": "Sat", "time": "12:00pm"}, {"days": "Sun", "time": "Closed"}], "id": "2803100005", "name": "USPS COLLECTION BOX - BLUE BOX", "address": {"city": "CORNELIUS", "state": "NC", "street": "21445 CATAWBA AVE", "postcode": "28031"}}},
{"geometry": {"type": "Point", "coordinates": [-80.8778760877, 35.4838682176]}, "type": "Feature", "properties": {"collection_times": [{"days": "Mon-Fri", "time": "2:00pm"}, {"days": "Sat", "time": "12:00pm"}, {"days": "Sun", "time": "Closed"}], "id": "2803100007", "name": "USPS COLLECTION BOX - BLUE BOX", "address": {"city": "CORNELIUS", "state": "NC", "street": "20601 TORRENCE CHAPEL RD", "postcode": "28031"}}},
{"geometry": {"type": "Point", "coordinates": [-80.8781067647, 35.4798686333]}, "type": "Feature", "properties": {"collection_times": [{"days": "Mon-Fri", "time": "5:00pm"}, {"days": "Sat", "time": "12:00pm"}, {"days": "Sun", "time": "Closed"}], "id": "2803100009", "name": "USPS COLLECTION BOX - BLUE BOX", "address": {"city": "CORNELIUS", "state": "NC", "street": "20311 CHARTWELL CENTER DR", "postcode": "28031"}}},
{"geometry": {"type": "Point", "coordinates": [-80.891472237, 35.4755662234]}, "type": "Feature", "properties": {"collection_times": [{"days": "Mon-Fri", "time": "2:00pm"}, {"days": "Sat", "time": "12:00pm"}, {"days": "Sun", "time": "Closed"}], "id": "2803100010", "name": "USPS COLLECTION BOX - BLUE BOX", "address": {"city": "CORNELIUS", "state": "NC", "street": "8301 MAGNOLIA ESTATES DR", "postcode": "28031"}}},
{"geometry": {"type": "Point", "coordinates": [-80.8781067647, 35.4798686333]}, "type": "Feature", "properties": {"collection_times": [{"days": "Mon-Fri", "time": "5:00pm"}, {"days": "Sat", "time": "12:00pm"}, {"days": "Sun", "time": "Closed"}], "id": "2803100011", "name": "USPS COLLECTION BOX - BLUE BOX", "address": {"city": "CORNELIUS", "state": "NC", "street": "20311 CHARTWELL CENTER DR", "postcode": "28031"}}},
{"geometry": {"type": "Point", "coordinates": [-80.8781067648, 35.479868633]}, "type": "Feature", "properties": {"collection_times": [{"days": "Mon-Fri", "time": "5:00pm"}, {"days": "Sat", "time": "12:00pm"}, {"days": "Sun", "time": "Closed"}], "id": "2803100013", "name": "USPS COLLECTION BOX - PO LOBBY", "address": {"city": "CORNELIUS", "state": "NC", "street": "20311 CHARTWELL CENTER DR", "postcode": "28031"}}},
{"geometry": {"type": "Point", "coordinates": [-80.8781067647, 35.4798686333]}, "type": "Feature", "properties": {"collection_times": [{"days": "Mon-Fri", "time": "5:00pm"}, {"days": "Sat", "time": "12:00pm"}, {"days": "Sun", "time": "Closed"}], "id": "2803100014", "name": "USPS COLLECTION BOX - PO LOBBY", "address": {"city": "CORNELIUS", "state": "NC", "street": "20311 CHARTWELL CENTER DR", "postcode": "28031"}}},
{"geometry": {"type": "Point", "coordinates": [-81.072167634, 35.2358537728]}, "type": "Feature", "properties": {"collection_times": [{"days": "Mon-Fri", "time": "12:00pm"}, {"days": "Sat", "time": "11:00am"}, {"days": "Sun", "time": "Closed"}], "id": "2803200003", "name": "USPS COLLECTION BOX - BLUE BOX", "address": {"city": "CRAMERTON", "state": "NC", "street": "111 CENTER ST", "postcode": "28032"}}},
{"geometry": {"type": "Point", "coordinates": [-81.078359998, 35.2390801896]}, "type": "Feature", "properties": {"collection_times": [{"days": "Mon-Fri", "time": "12:00pm"}, {"days": "Sat", "time": "11:00am"}, {"days": "Sun", "time": "Closed"}], "id": "2803200004", "name": "USPS COLLECTION BOX - PO LOBBY", "address": {"city": "CRAMERTON", "state": "NC", "street": "111 CENTER ST", "postcode": "28032"}}},
{"geometry": {"type": "Point", "coordinates": [-81.3229794626, 35.4235430531]}, "type": "Feature", "properties": {"collection_times": [{"days": "Mon-Fri", "time": "4:15pm"}, {"days": "Sat", "time": "10:00am"}, {"days": "Sun", "time": "Closed"}], "id": "2803300001", "name": "USPS COLLECTION BOX - BLUE BOX", "address": {"city": "CROUSE", "state": "NC", "street": "W HWY 150", "postcode": "28033"}}},
{"geometry": {"type": "Point", "coordinates": [-81.3229794626, 35.4235430531]}, "type": "Feature", "properties": {"collection_times": [{"days": "Mon-Fri", "time": "4:15pm"}, {"days": "Sat", "time": "10:00am"}, {"days": "Sun", "time": "Closed"}], "id": "2803300002", "name": "USPS COLLECTION BOX - PO LOBBY", "address": {"city": "CROUSE", "state": "NC", "street": "W HWY 150", "postcode": "28033"}}},
{"geometry": {"type": "Point", "coordinates": [-81.322896908, 35.423273709]}, "type": "Feature", "properties": {"collection_times": [{"days": "Mon-Fri", "time": "10:00am"}, {"days": "Sat-Sun", "time": "Closed"}], "id": "2803300003", "name": "USPS COLLECTION BOX - BLUE BOX", "address": {"city": "CROUSE", "state": "NC", "street": "2912 W OLD NC 150 HWY", "postcode": "28033"}}},
{"geometry": {"type": "Point", "coordinates": [-81.1913211757, 35.3187460734]}, "type": "Feature", "properties": {"collection_times": [{"days": "Mon-Fri", "time": "5:00pm"}, {"days": "Sat", "time": "2:00pm"}, {"days": "Sun", "time": "Closed"}], "id": "2803400005", "name": "USPS COLLECTION BOX - BLUE BOX", "address": {"city": "DALLAS", "state": "NC", "street": "3151 DALLAS HIGH SHOALS HWY", "postcode": "28034"}}},
{"geometry": {"type": "Point", "coordinates": [-81.1797593913, 35.335800012]}, "type": "Feature", "properties": {"collection_times": [{"days": "Mon-Fri", "time": "12:00pm"}, {"days": "Sat-Sun", "time": "Closed"}], "id": "2803400006", "name": "USPS COLLECTION BOX - BLUE BOX", "address": {"city": "DALLAS", "state": "NC", "street": "210 N HOLLAND ST", "postcode": "28034"}}},
{"geometry": {"type": "Point", "coordinates": [-81.1816980811, 35.3166532247]}, "type": "Feature", "properties": {"collection_times": [{"days": "Mon-Fri", "time": "12:00pm"}, {"days": "Sat-Sun", "time": "Closed"}], "id": "2803400009", "name": "USPS COLLECTION BOX - BLUE BOX", "address": {"city": "DALLAS", "state": "NC", "street": "501 W TRADE ST", "postcode": "28034"}}},
{"geometry": {"type": "Point", "coordinates": [-81.1913211757, 35.3187460734]}, "type": "Feature", "properties": {"collection_times": [{"days": "Mon-Fri", "time": "5:00pm"}, {"days": "Sat", "time": "2:00pm"}, {"days": "Sun", "time": "Closed"}], "id": "2803400010", "name": "USPS COLLECTION BOX - PO LOBBY", "address": {"city": "DALLAS", "state": "NC", "street": "3151 DALLAS HIGH SHOALS HWY", "postcode": "28034"}}},
{"geometry": {"type": "Point", "coordinates": [-81.1913211757, 35.3187460734]}, "type": "Feature", "properties": {"collection_times": [{"days": "Mon-Fri", "time": "5:00pm"}, {"days": "Sat", "time": "2:00pm"}, {"days": "Sun", "time": "Closed"}], "id": "2803400011", "name": "USPS COLLECTION BOX - PO LOBBY", "address": {"city": "DALLAS", "state": "NC", "street": "3151 DALLAS HIGH SHOALS HWY", "postcode": "28034"}}},
{"geometry": {"type": "Point", "coordinates": [-80.850311504, 35.4988912603]}, "type": "Feature", "properties": {"collection_times": [{"days": "Mon-Fri", "time": "5:00pm"}, {"days": "Sat", "time": "12:00pm"}, {"days": "Sun", "time": "Closed"}], "id": "2803600001", "name": "USPS COLLECTION BOX - BLUE BOX", "address": {"city": "DAVIDSON", "state": "NC", "street": "99 JACKSON ST", "postcode": "28036"}}},
{"geometry": {"type": "Point", "coordinates": [-80.850311504, 35.4988912603]}, "type": "Feature", "properties": {"collection_times": [{"days": "Mon-Fri", "time": "5:00pm"}, {"days": "Sat", "time": "12:00pm"}, {"days": "Sun", "time": "Closed"}], "id": "2803600002", "name": "USPS COLLECTION BOX - BLUE BOX", "address": {"city": "DAVIDSON", "state": "NC", "street": "99 JACKSON ST", "postcode": "28036"}}},
{"geometry": {"type": "Point", "coordinates": [-80.8503115038, 35.4988912602]}, "type": "Feature", "properties": {"collection_times": [{"days": "Mon-Fri", "time": "5:00pm"}, {"days": "Sat", "time": "12:00pm"}, {"days": "Sun", "time": "Closed"}], "id": "2803600003", "name": "USPS COLLECTION BOX - PO LOBBY", "address": {"city": "DAVIDSON", "state": "NC", "street": "99 JACKSON ST", "postcode": "28036"}}},
{"geometry": {"type": "Point", "coordinates": [-80.850311504, 35.4988912603]}, "type": "Feature", "properties": {"collection_times": [{"days": "Mon-Fri", "time": "5:00pm"}, {"days": "Sat", "time": "12:00pm"}, {"days": "Sun", "time": "Closed"}], "id": "2803600004", "name": "USPS COLLECTION BOX - PO LOBBY", "address": {"city": "DAVIDSON", "state": "NC", "street": "99 JACKSON ST", "postcode": "28036"}}},
{"geometry": {"type": "Point", "coordinates": [-81.0170393803, 35.5246258858]}, "type": "Feature", "properties": {"collection_times": [{"days": "Mon-Fri", "time": "5:00pm"}, {"days": "Sat", "time": "12:00pm"}, {"days": "Sun", "time": "Closed"}], "id": "2803700002", "name": "USPS COLLECTION BOX - BLUE BOX", "address": {"city": "DENVER", "state": "NC", "street": "3593 DENVER DR", "postcode": "28037"}}},
{"geometry": {"type": "Point", "coordinates": [-81.0170393803, 35.5246258858]}, "type": "Feature", "properties": {"collection_times": [{"days": "Mon-Fri", "time": "5:00pm"}, {"days": "Sat", "time": "12:00pm"}, {"days": "Sun", "time": "Closed"}], "id": "2803700003", "name": "USPS COLLECTION BOX - BLUE BOX", "address": {"city": "DENVER", "state": "NC", "street": "3593 DENVER DR", "postcode": "28037"}}},
{"geometry": {"type": "Point", "coordinates": [-81.0209636219, 35.5072353147]}, "type": "Feature", "properties": {"collection_times": [{"days": "Mon-Fri", "time": "2:00pm"}, {"days": "Sat", "time": "12:00pm"}, {"days": "Sun", "time": "Closed"}], "id": "2803700005", "name": "USPS COLLECTION BOX - BLUE BOX", "address": {"city": "DENVER", "state": "NC", "street": "HWY 16", "postcode": "28037"}}},
{"geometry": {"type": "Point", "coordinates": [-80.9970547266, 35.4464878371]}, "type": "Feature", "properties": {"collection_times": [{"days": "Mon-Sat", "time": "12:00pm"}, {"days": "Sun", "time": "Closed"}], "id": "2803700006", "name": "USPS COLLECTION BOX - BLUE BOX", "address": {"city": "DENVER", "state": "NC", "street": "100 HWY 16", "postcode": "28037"}}},
{"geometry": {"type": "Point", "coordinates": [-81.0209636219, 35.5072353147]}, "type": "Feature", "properties": {"collection_times": [{"days": "Mon-Sat", "time": "12:00pm"}, {"days": "Sun", "time": "Closed"}], "id": "2803700007", "name": "USPS COLLECTION BOX - BLUE BOX", "address": {"city": "DENVER", "state": "NC", "street": "6097 HIGHWAY 16 S", "postcode": "28037"}}},
{"geometry": {"type": "Point", "coordinates": [-81.0105692221, 35.5042211152]}, "type": "Feature", "properties": {"collection_times": [{"days": "Mon-Sat", "time": "12:00pm"}, {"days": "Sun", "time": "Closed"}], "id": "2803700008", "name": "USPS COLLECTION BOX - EXPRESS", "address": {"city": "DENVER", "state": "NC", "street": "751 N HIGHWAY 16", "postcode": "28037"}}},
{"geometry": {"type": "Point", "coordinates": [-80.9929567017, 35.4633580751]}, "type": "Feature", "properties": {"collection_times": [{"days": "Mon-Sat", "time": "12:00pm"}, {"days": "Sun", "time": "Closed"}], "id": "2803700009", "name": "USPS COLLECTION BOX - BLUE BOX", "address": {"city": "DENVER", "state": "NC", "street": "751 N HIGHWAY 16", "postcode": "28037"}}},
{"geometry": {"type": "Point", "coordinates": [-81.0170393801, 35.5246258858]}, "type": "Feature", "properties": {"collection_times": [{"days": "Mon-Fri", "time": "5:00pm"}, {"days": "Sat", "time": "12:00pm"}, {"days": "Sun", "time": "Closed"}], "id": "2803700010", "name": "USPS COLLECTION BOX - PO LOBBY", "address": {"city": "DENVER", "state": "NC", "street": "3593 DENVER DR", "postcode": "28037"}}},
{"geometry": {"type": "Point", "coordinates": [-81.0170393803, 35.5246258858]}, "type": "Feature", "properties": {"collection_times": [{"days": "Mon-Fri", "time": "5:00pm"}, {"days": "Sat", "time": "12:00pm"}, {"days": "Sun", "time": "Closed"}], "id": "2803700011", "name": "USPS COLLECTION BOX - PO LOBBY", "address": {"city": "DENVER", "state": "NC", "street": "3593 DENVER DR", "postcode": "28037"}}},
{"geometry": {"type": "Point", "coordinates": [-81.0170393803, 35.5246258858]}, "type": "Feature", "properties": {"collection_times": [{"days": "Mon-Fri", "time": "5:00pm"}, {"days": "Sat", "time": "12:00pm"}, {"days": "Sun", "time": "Closed"}], "id": "2803700012", "name": "USPS COLLECTION BOX - PO LOBBY", "address": {"city": "DENVER", "state": "NC", "street": "3593 DENVER DR", "postcode": "28037"}}},
{"geometry": {"type": "Point", "coordinates": [-81.5337219471, 35.1957357713]}, "type": "Feature", "properties": {"collection_times": [{"days": "Mon-Fri", "time": "4:30pm"}, {"days": "Sat", "time": "9:30am"}, {"days": "Sun", "time": "Closed"}], "id": "2803800002", "name": "USPS COLLECTION BOX - BLUE BOX", "address": {"city": "EARL", "state": "NC", "street": "2719 BLACKSBURG RD", "postcode": "28038"}}},
{"geometry": {"type": "Point", "coordinates": [-81.5337219469, 35.1957357709]}, "type": "Feature", "properties": {"collection_times": [{"days": "Mon-Fri", "time": "4:30pm"}, {"days": "Sat", "time": "9:30am"}, {"days": "Sun", "time": "Closed"}], "id": "2803800003", "name": "USPS COLLECTION BOX - PO LOBBY", "address": {"city": "EARL", "state": "NC", "street": "2719 BLACKSBURG RD", "postcode": "28038"}}},
{"geometry": {"type": "Point", "coordinates": [-81.5337219471, 35.1957357713]}, "type": "Feature", "properties": {"collection_times": [{"days": "Mon-Fri", "time": "4:30pm"}, {"days": "Sat", "time": "9:30am"}, {"days": "Sun", "time": "Closed"}], "id": "2803800004", "name": "USPS COLLECTION BOX - PO LOBBY", "address": {"city": "EARL", "state": "NC", "street": "2719 BLACKSBURG RD", "postcode": "28038"}}},
{"geometry": {"type": "Point", "coordinates": [-80.4347306763, 35.6825204033]}, "type": "Feature", "properties": {"collection_times": [{"days": "Mon-Fri", "time": "4:30pm"}, {"days": "Sat", "time": "10:00am"}, {"days": "Sun", "time": "Closed"}], "id": "2803900003", "name": "USPS COLLECTION BOX - BLUE BOX", "address": {"city": "EAST SPENCER", "state": "NC", "street": "209 S LONG ST", "postcode": "28039"}}},
{"geometry": {"type": "Point", "coordinates": [-80.434569223, 35.6830832666]}, "type": "Feature", "properties": {"collection_times": [{"days": "Mon-Fri", "time": "4:30pm"}, {"days": "Sat", "time": "10:00am"}, {"days": "Sun", "time": "Closed"}], "id": "2803900004", "name": "USPS COLLECTION BOX - PO LOBBY", "address": {"city": "EAST SPENCER", "state": "NC", "street": "209 S LONG ST", "postcode": "28039"}}},
{"geometry": {"type": "Point", "coordinates": [-81.7592124565, 35.3279092736]}, "type": "Feature", "properties": {"collection_times": [{"days": "Mon-Fri", "time": "4:45pm"}, {"days": "Sat", "time": "9:45am"}, {"days": "Sun", "time": "Closed"}], "id": "2804000002", "name": "USPS COLLECTION BOX - BLUE BOX", "address": {"city": "ELLENBORO", "state": "NC", "street": "131 DEPOT ST", "postcode": "28040"}}},
{"geometry": {"type": "Point", "coordinates": [-81.7573496624, 35.3549223812]}, "type": "Feature", "properties": {"collection_times": [{"days": "Mon-Fri", "time": "4:45pm"}, {"days": "Sat", "time": "9:45am"}, {"days": "Sun", "time": "Closed"}], "id": "2804000003", "name": "USPS COLLECTION BOX - PO LOBBY", "address": {"city": "ELLENBORO", "state": "NC", "street": "131 DEPOT ST", "postcode": "28040"}}},
{"geometry": {"type": "Point", "coordinates": [-81.7573496624, 35.3549223812]}, "type": "Feature", "properties": {"collection_times": [{"days": "Mon-Fri", "time": "4:45pm"}, {"days": "Sat", "time": "9:45am"}, {"days": "Sun", "time": "Closed"}], "id": "2804000004", "name": "USPS COLLECTION BOX - PO LOBBY", "address": {"city": "ELLENBORO", "state": "NC", "street": "131 DEPOT ST", "postcode": "28040"}}},
{"geometry": {"type": "Point", "coordinates": [-80.462656158, 35.5869767447]}, "type": "Feature", "properties": {"collection_times": [{"days": "Mon-Fri", "time": "4:30pm"}, {"days": "Sat", "time": "9:45am"}, {"days": "Sun", "time": "Closed"}], "id": "2804100002", "name": "USPS COLLECTION BOX - BLUE BOX", "address": {"city": "FAITH", "state": "NC", "street": "1027 GANTT ST", "postcode": "28041"}}},
{"geometry": {"type": "Point", "coordinates": [-80.4624380883, 35.5871325102]}, "type": "Feature", "properties": {"collection_times": [{"days": "Mon-Fri", "time": "4:30pm"}, {"days": "Sat", "time": "9:45am"}, {"days": "Sun", "time": "Closed"}], "id": "2804100003", "name": "USPS COLLECTION BOX - PO LOBBY", "address": {"city": "FAITH", "state": "NC", "street": "1027 GANTT ST", "postcode": "28041"}}},
{"geometry": {"type": "Point", "coordinates": [-81.5023253603, 35.4286821552]}, "type": "Feature", "properties": {"collection_times": [{"days": "Mon-Fri", "time": "4:45pm"}, {"days": "Sat", "time": "10:00am"}, {"days": "Sun", "time": "Closed"}], "id": "2804200002", "name": "USPS COLLECTION BOX - BLUE BOX", "address": {"city": "FALLSTON", "state": "NC", "street": "771 E STAGECOACH TRL", "postcode": "28042"}}},
{"geometry": {"type": "Point", "coordinates": [-81.5023253603, 35.4286821552]}, "type": "Feature", "properties": {"collection_times": [{"days": "Mon-Fri", "time": "4:45pm"}, {"days": "Sat", "time": "10:00am"}, {"days": "Sun", "time": "Closed"}], "id": "2804200004", "name": "USPS COLLECTION BOX - PO LOBBY", "address": {"city": "FALLSTON", "state": "NC", "street": "771 E STAGECOACH TRL", "postcode": "28042"}}},
{"geometry": {"type": "Point", "coordinates": [-81.8634891063, 35.3324542019]}, "type": "Feature", "properties": {"collection_times": [{"days": "Mon-Fri", "time": "5:15pm"}, {"days": "Sat", "time": "12:00pm"}, {"days": "Sun", "time": "Closed"}], "id": "2804300003", "name": "USPS COLLECTION BOX - BLUE BOX", "address": {"city": "FOREST CITY", "state": "NC", "street": "133 S POWELL ST", "postcode": "28043"}}},
{"geometry": {"type": "Point", "coordinates": [-81.8640119742, 35.3336383438]}, "type": "Feature", "properties": {"collection_times": [{"days": "Mon-Sat", "time": "10:00am"}, {"days": "Sun", "time": "Closed"}], "id": "2804300017", "name": "USPS COLLECTION BOX - BLUE BOX", "address": {"city": "FOREST CITY", "state": "NC", "street": "139 E MAIN ST", "postcode": "28043"}}},
{"geometry": {"type": "Point", "coordinates": [-81.8634891067, 35.3324542022]}, "type": "Feature", "properties": {"collection_times": [{"days": "Mon-Fri", "time": "5:15pm"}, {"days": "Sat", "time": "12:00pm"}, {"days": "Sun", "time": "Closed"}], "id": "2804300022", "name": "USPS COLLECTION BOX - PO LOBBY", "address": {"city": "FOREST CITY", "state": "NC", "street": "133 S POWELL ST", "postcode": "28043"}}},
{"geometry": {"type": "Point", "coordinates": [-81.8634891063, 35.3324542019]}, "type": "Feature", "properties": {"collection_times": [{"days": "Mon-Fri", "time": "5:15pm"}, {"days": "Sat", "time": "12:00pm"}, {"days": "Sun", "time": "Closed"}], "id": "2804300023", "name": "USPS COLLECTION BOX - PO LOBBY", "address": {"city": "FOREST CITY", "state": "NC", "street": "133 S POWELL ST", "postcode": "28043"}}},
{"geometry": {"type": "Point", "coordinates": [-81.8634891063, 35.3324542019]}, "type": "Feature", "properties": {"collection_times": [{"days": "Mon-Fri", "time": "5:15pm"}, {"days": "Sat", "time": "12:00pm"}, {"days": "Sun", "time": "Closed"}], "id": "2804300024", "name": "USPS COLLECTION BOX - PO LOBBY", "address": {"city": "FOREST CITY", "state": "NC", "street": "133 S POWELL ST", "postcode": "28043"}}},
{"geometry": {"type": "Point", "coordinates": [-81.8971451001, 35.3353184611]}, "type": "Feature", "properties": {"collection_times": [{"days": "Mon-Sat", "time": "10:00am"}, {"days": "Sun", "time": "Closed"}], "id": "2804300025", "name": "USPS COLLECTION BOX - BLUE BOX", "address": {"city": "FOREST CITY", "state": "NC", "street": "197 PLAZA DR", "postcode": "28043"}}},
{"geometry": {"type": "Point", "coordinates": [-81.8434166586, 35.2889461541]}, "type": "Feature", "properties": {"collection_times": [{"days": "Mon-Sat", "time": "10:00am"}, {"days": "Sun", "time": "Closed"}], "id": "2804300026", "name": "USPS COLLECTION BOX - BLUE BOX", "address": {"city": "FOREST CITY", "state": "NC", "street": "710 US HIGHWAY 221A", "postcode": "28043"}}},
{"geometry": {"type": "Point", "coordinates": [-81.8643609471, 35.3238978597]}, "type": "Feature", "properties": {"collection_times": [{"days": "Mon-Sat", "time": "8:00am"}, {"days": "Sun", "time": "Closed"}], "id": "2804300027", "name": "USPS COLLECTION BOX - BLUE BOX", "address": {"city": "FOREST CITY", "state": "NC", "street": "375 HARMON ST", "postcode": "28043"}}},
{"geometry": {"type": "Point", "coordinates": [-81.1865581913, 35.2637123338]}, "type": "Feature", "properties": {"collection_times": [{"days": "Mon-Fri", "time": "5:00pm"}, {"days": "Sat", "time": "4:00pm"}, {"days": "Sun", "time": "Closed"}], "id": "2805200011", "name": "USPS COLLECTION BOX - BLUE BOX", "address": {"city": "GASTONIA", "state": "NC", "street": "357 W MAIN AVE", "postcode": "28052"}}},
{"geometry": {"type": "Point", "coordinates": [-81.2341168934, 35.2239705652]}, "type": "Feature", "properties": {"collection_times": [{"days": "Mon-Fri", "time": "5:00pm"}, {"days": "Sat", "time": "4:00pm"}, {"days": "Sun", "time": "Closed"}], "id": "2805200031", "name": "USPS COLLECTION BOX - BLUE BOX", "address": {"city": "GASTONIA", "state": "NC", "street": "301 W MAIN AVE", "postcode": "28052"}}},
{"geometry": {"type": "Point", "coordinates": [-81.2341168934, 35.2239705652]}, "type": "Feature", "properties": {"collection_times": [{"days": "Mon-Fri", "time": "5:00pm"}, {"days": "Sat", "time": "4:00pm"}, {"days": "Sun", "time": "Closed"}], "id": "2805200032", "name": "USPS COLLECTION BOX - BLUE BOX", "address": {"city": "GASTONIA", "state": "NC", "street": "301 W MAIN AVE", "postcode": "28052"}}},
{"geometry": {"type": "Point", "coordinates": [-81.1865581917, 35.2637123336]}, "type": "Feature", "properties": {"collection_times": [{"days": "Mon-Fri", "time": "5:00pm"}, {"days": "Sat", "time": "4:00pm"}, {"days": "Sun", "time": "Closed"}], "id": "2805200033", "name": "USPS COLLECTION BOX - PO LOBBY", "address": {"city": "GASTONIA", "state": "NC", "street": "357 W MAIN AVE", "postcode": "28052"}}},
{"geometry": {"type": "Point", "coordinates": [-81.1728788455, 35.2607586079]}, "type": "Feature", "properties": {"collection_times": [{"days": "Mon-Fri", "time": "1:00pm"}, {"days": "Sat-Sun", "time": "Closed"}], "id": "2805400001", "name": "USPS COLLECTION BOX - BLUE BOX", "address": {"city": "GASTONIA", "state": "NC", "street": "615 E 2ND AVE", "postcode": "28054"}}},
{"geometry": {"type": "Point", "coordinates": [-81.1311087791, 35.2853403435]}, "type": "Feature", "properties": {"collection_times": [{"days": "Mon-Fri", "time": "12:00pm"}, {"days": "Sat-Sun", "time": "Closed"}], "id": "2805400007", "name": "USPS COLLECTION BOX - BLUE BOX", "address": {"city": "GASTONIA", "state": "NC", "street": "1624 SPENCER MOUNTAIN RD", "postcode": "28054"}}},
{"geometry": {"type": "Point", "coordinates": [-81.1410259644, 35.2796484013]}, "type": "Feature", "properties": {"collection_times": [{"days": "Mon-Fri", "time": "12:00pm"}, {"days": "Sat-Sun", "time": "Closed"}], "id": "2805400008", "name": "USPS COLLECTION BOX - BLUE BOX", "address": {"city": "GASTONIA", "state": "NC", "street": "2501 E OZARK AVE", "postcode": "28054"}}},
{"geometry": {"type": "Point", "coordinates": [-81.1689731096, 35.216707597]}, "type": "Feature", "properties": {"collection_times": [{"days": "Mon-Fri", "time": "1:00pm"}, {"days": "Sat-Sun", "time": "Closed"}], "id": "2805400012", "name": "USPS COLLECTION BOX - BLUE BOX", "address": {"city": "GASTONIA", "state": "NC", "street": "1719 NEAL HAWKINS RD", "postcode": "28054"}}},
{"geometry": {"type": "Point", "coordinates": [-81.1676513498, 35.2531947683]}, "type": "Feature", "properties": {"collection_times": [{"days": "Mon-Fri", "time": "3:00pm"}, {"days": "Sat-Sun", "time": "Closed"}], "id": "2805400017", "name": "USPS COLLECTION BOX - BLUE BOX", "address": {"city": "GASTONIA", "state": "NC", "street": "930 E GARRISON BLVD", "postcode": "28054"}}},
{"geometry": {"type": "Point", "coordinates": [-81.162014782, 35.2527327147]}, "type": "Feature", "properties": {"collection_times": [{"days": "Mon-Fri", "time": "3:00pm"}, {"days": "Sat-Sun", "time": "Closed"}], "id": "2805400019", "name": "USPS COLLECTION BOX - BLUE BOX", "address": {"city": "GASTONIA", "state": "NC", "street": "1361 E GARRISON BLVD", "postcode": "28054"}}},
{"geometry": {"type": "Point", "coordinates": [-81.1318782814, 35.2426862991]}, "type": "Feature", "properties": {"collection_times": [{"days": "Mon-Fri", "time": "5:00pm"}, {"days": "Sat", "time": "3:00pm"}, {"days": "Sun", "time": "Closed"}], "id": "2805400021", "name": "USPS COLLECTION BOX - BLUE BOX", "address": {"city": "GASTONIA", "state": "NC", "street": "1882 S NEW HOPE RD", "postcode": "28054"}}},
{"geometry": {"type": "Point", "coordinates": [-81.1512078915, 35.265063594]}, "type": "Feature", "properties": {"collection_times": [{"days": "Mon-Fri", "time": "3:00pm"}, {"days": "Sat-Sun", "time": "Closed"}], "id": "2805400027", "name": "USPS COLLECTION BOX - BLUE BOX", "address": {"city": "GASTONIA", "state": "NC", "street": "246 N NEW HOPE RD", "postcode": "28054"}}},
{"geometry": {"type": "Point", "coordinates": [-81.1781250654, 35.253490596]}, "type": "Feature", "properties": {"collection_times": [{"days": "Mon-Fri", "time": "3:00pm"}, {"days": "Sat-Sun", "time": "Closed"}], "id": "2805400028", "name": "USPS COLLECTION BOX - BLUE BOX", "address": {"city": "GASTONIA", "state": "NC", "street": "300 E GARRISON BLVD", "postcode": "28054"}}},
{"geometry": {"type": "Point", "coordinates": [-81.1490226788, 35.2584779418]}, "type": "Feature", "properties": {"collection_times": [{"days": "Mon-Fri", "time": "3:00pm"}, {"days": "Sat-Sun", "time": "Closed"}], "id": "2805400039", "name": "USPS COLLECTION BOX - BLUE BOX", "address": {"city": "GASTONIA", "state": "NC", "street": "1741 COUNTRY CLUB RD", "postcode": "28054"}}},
{"geometry": {"type": "Point", "coordinates": [-81.1519416978, 35.2602945875]}, "type": "Feature", "properties": {"collection_times": [{"days": "Mon-Fri", "time": "1:00pm"}, {"days": "Sat-Sun", "time": "Closed"}], "id": "2805400041", "name": "USPS COLLECTION BOX - BLUE BOX", "address": {"city": "GASTONIA", "state": "NC", "street": "197 S NEW HOPE RD", "postcode": "28054"}}},
{"geometry": {"type": "Point", "coordinates": [-81.1335471479, 35.2613764032]}, "type": "Feature", "properties": {"collection_times": [{"days": "Mon-Fri", "time": "3:00pm"}, {"days": "Sat-Sun", "time": "Closed"}], "id": "2805400045", "name": "USPS COLLECTION BOX - BLUE BOX", "address": {"city": "GASTONIA", "state": "NC", "street": "401 COX RD", "postcode": "28054"}}},
{"geometry": {"type": "Point", "coordinates": [-81.1879163956, 35.2807161948]}, "type": "Feature", "properties": {"collection_times": [{"days": "Mon-Fri", "time": "1:00pm"}, {"days": "Sat-Sun", "time": "Closed"}], "id": "2805400048", "name": "USPS COLLECTION BOX - BLUE BOX", "address": {"city": "GASTONIA", "state": "NC", "street": "1629 N CHESTER ST", "postcode": "28054"}}},
{"geometry": {"type": "Point", "coordinates": [-81.1857056695, 35.2617676719]}, "type": "Feature", "properties": {"collection_times": [{"days": "Mon-Fri", "time": "1:00pm"}, {"days": "Sat-Sun", "time": "Closed"}], "id": "2805400049", "name": "USPS COLLECTION BOX - BLUE BOX", "address": {"city": "GASTONIA", "state": "NC", "street": "205 S YORK ST", "postcode": "28054"}}},
{"geometry": {"type": "Point", "coordinates": [-81.1796749447, 35.2606911793]}, "type": "Feature", "properties": {"collection_times": [{"days": "Mon-Fri", "time": "3:00pm"}, {"days": "Sat-Sun", "time": "Closed"}], "id": "2805400050", "name": "USPS COLLECTION BOX - BLUE BOX", "address": {"city": "GASTONIA", "state": "NC", "street": "201 E 2ND AVE", "postcode": "28054"}}},
{"geometry": {"type": "Point", "coordinates": [-81.1874280578, 35.2557830825]}, "type": "Feature", "properties": {"collection_times": [{"days": "Mon-Fri", "time": "1:00pm"}, {"days": "Sat-Sun", "time": "Closed"}], "id": "2805400055", "name": "USPS COLLECTION BOX - BLUE BOX", "address": {"city": "GASTONIA", "state": "NC", "street": "601 S YORK ST", "postcode": "28054"}}},
{"geometry": {"type": "Point", "coordinates": [-81.1530225618, 35.2592525825]}, "type": "Feature", "properties": {"collection_times": [{"days": "Mon-Fri", "time": "3:00pm"}, {"days": "Sat-Sun", "time": "Closed"}], "id": "2805400056", "name": "USPS COLLECTION BOX - BLUE BOX", "address": {"city": "GASTONIA", "state": "NC", "street": "531 COTTON BLOSSOM CIR", "postcode": "28054"}}},
{"geometry": {"type": "Point", "coordinates": [-81.1819033936, 35.2659699872]}, "type": "Feature", "properties": {"collection_times": [{"days": "Mon-Fri", "time": "3:00pm"}, {"days": "Sat-Sun", "time": "Closed"}], "id": "2805400059", "name": "USPS COLLECTION BOX - BLUE BOX", "address": {"city": "GASTONIA", "state": "NC", "street": "330 N MARIETTA ST", "postcode": "28054"}}},
{"geometry": {"type": "Point", "coordinates": [-81.171419282, 35.2444840514]}, "type": "Feature", "properties": {"collection_times": [{"days": "Mon-Fri", "time": "3:00pm"}, {"days": "Sat-Sun", "time": "Closed"}], "id": "2805400060", "name": "USPS COLLECTION BOX - BLUE BOX", "address": {"city": "GASTONIA", "state": "NC", "street": "1500 UNION RD", "postcode": "28054"}}},
{"geometry": {"type": "Point", "coordinates": [-81.1318782818, 35.2426862992]}, "type": "Feature", "properties": {"collection_times": [{"days": "Mon-Fri", "time": "5:00pm"}, {"days": "Sat", "time": "3:00pm"}, {"days": "Sun", "time": "Closed"}], "id": "2805400075", "name": "USPS COLLECTION BOX - PO LOBBY", "address": {"city": "GASTONIA", "state": "NC", "street": "1882 S NEW HOPE RD", "postcode": "28054"}}},
{"geometry": {"type": "Point", "coordinates": [-81.1318782814, 35.2426862991]}, "type": "Feature", "properties": {"collection_times": [{"days": "Mon-Fri", "time": "5:00pm"}, {"days": "Sat", "time": "3:00pm"}, {"days": "Sun", "time": "Closed"}], "id": "2805400076", "name": "USPS COLLECTION BOX - PO LOBBY", "address": {"city": "GASTONIA", "state": "NC", "street": "1882 S NEW HOPE RD", "postcode": "28054"}}},
{"geometry": {"type": "Point", "coordinates": [-81.1330202261, 35.2608520617]}, "type": "Feature", "properties": {"collection_times": [{"days": "Mon-Fri", "time": "3:00pm"}, {"days": "Sat-Sun", "time": "Closed"}], "id": "2805400081", "name": "USPS COLLECTION BOX - BLUE BOX", "address": {"city": "GASTONIA", "state": "NC", "street": "2500 W FRANKLIN BLVD", "postcode": "28054"}}},
{"geometry": {"type": "Point", "coordinates": [-81.1650834319, 35.2090552674]}, "type": "Feature", "properties": {"collection_times": [{"days": "Mon-Fri", "time": "3:00pm"}, {"days": "Sat", "time": "11:00am"}, {"days": "Sun", "time": "Closed"}], "id": "2805600001", "name": "USPS COLLECTION BOX - BLUE BOX", "address": {"city": "GASTONIA", "state": "NC", "street": "3318 UNION RD", "postcode": "28056"}}},
{"geometry": {"type": "Point", "coordinates": [-81.1650834319, 35.2090552674]}, "type": "Feature", "properties": {"collection_times": [{"days": "Mon-Fri", "time": "3:00pm"}, {"days": "Sat", "time": "11:00am"}, {"days": "Sun", "time": "Closed"}], "id": "2805600002", "name": "USPS COLLECTION BOX - BLUE BOX", "address": {"city": "GASTONIA", "state": "NC", "street": "3318 UNION RD", "postcode": "28056"}}},
{"geometry": {"type": "Point", "coordinates": [-80.3509778363, 35.5317041497]}, "type": "Feature", "properties": {"collection_times": [{"days": "Mon-Fri", "time": "4:00pm"}, {"days": "Sat", "time": "10:00am"}, {"days": "Sun", "time": "Closed"}], "id": "2807100001", "name": "USPS COLLECTION BOX - BLUE BOX", "address": {"city": "GOLD HILL", "state": "NC", "street": "14125 HIGHWAY 52", "postcode": "28071"}}},
{"geometry": {"type": "Point", "coordinates": [-80.3509778363, 35.5317041497]}, "type": "Feature", "properties": {"collection_times": [{"days": "Mon-Fri", "time": "4:00pm"}, {"days": "Sat", "time": "10:00am"}, {"days": "Sun", "time": "Closed"}], "id": "2807100002", "name": "USPS COLLECTION BOX - PO LOBBY", "address": {"city": "GOLD HILL", "state": "NC", "street": "14125 HIGHWAY 52", "postcode": "28071"}}},
{"geometry": {"type": "Point", "coordinates": [-80.4455948113, 35.6139429362]}, "type": "Feature", "properties": {"collection_times": [{"days": "Mon-Fri", "time": "4:30pm"}, {"days": "Sat", "time": "10:00am"}, {"days": "Sun", "time": "Closed"}], "id": "2807200002", "name": "USPS COLLECTION BOX - BLUE BOX", "address": {"city": "GRANITE QUARRY", "state": "NC", "street": "222 E BANK ST", "postcode": "28072"}}},
{"geometry": {"type": "Point", "coordinates": [-80.4455948114, 35.6139429361]}, "type": "Feature", "properties": {"collection_times": [{"days": "Mon-Fri", "time": "4:30pm"}, {"days": "Sat", "time": "10:00am"}, {"days": "Sun", "time": "Closed"}], "id": "2807200003", "name": "USPS COLLECTION BOX - PO LOBBY", "address": {"city": "GRANITE QUARRY", "state": "NC", "street": "222 E BANK ST", "postcode": "28072"}}},
{"geometry": {"type": "Point", "coordinates": [-80.4455948113, 35.6139429362]}, "type": "Feature", "properties": {"collection_times": [{"days": "Mon-Fri", "time": "4:30pm"}, {"days": "Sat", "time": "10:00am"}, {"days": "Sun", "time": "Closed"}], "id": "2807200004", "name": "USPS COLLECTION BOX - PO LOBBY", "address": {"city": "GRANITE QUARRY", "state": "NC", "street": "222 E BANK ST", "postcode": "28072"}}},
{"geometry": {"type": "Point", "coordinates": [-81.4487898167, 35.170704997]}, "type": "Feature", "properties": {"collection_times": [{"days": "Mon-Fri", "time": "4:45pm"}, {"days": "Sat", "time": "11:15am"}, {"days": "Sun", "time": "Closed"}], "id": "2807300001", "name": "USPS COLLECTION BOX - BLUE BOX", "address": {"city": "GROVER", "state": "NC", "street": "102 MULBERRY RD", "postcode": "28073"}}},
{"geometry": {"type": "Point", "coordinates": [-81.4487898167, 35.170704997]}, "type": "Feature", "properties": {"collection_times": [{"days": "Mon-Fri", "time": "4:45pm"}, {"days": "Sat", "time": "11:15am"}, {"days": "Sun", "time": "Closed"}], "id": "2807300002", "name": "USPS COLLECTION BOX - PO LOBBY", "address": {"city": "GROVER", "state": "NC", "street": "102 MULBERRY RD", "postcode": "28073"}}},
{"geometry": {"type": "Point", "coordinates": [-81.4487898167, 35.170704997]}, "type": "Feature", "properties": {"collection_times": [{"days": "Mon-Fri", "time": "4:45pm"}, {"days": "Sat", "time": "11:15am"}, {"days": "Sun", "time": "Closed"}], "id": "2807300003", "name": "USPS COLLECTION BOX - PO LOBBY", "address": {"city": "GROVER", "state": "NC", "street": "102 MULBERRY RD", "postcode": "28073"}}},
{"geometry": {"type": "Point", "coordinates": [-81.8752788083, 35.2424492951]}, "type": "Feature", "properties": {"collection_times": [{"days": "Mon-Fri", "time": "4:00pm"}, {"days": "Sat", "time": "9:30am"}, {"days": "Sun", "time": "Closed"}], "id": "2807400000", "name": "USPS COLLECTION BOX - BLUE BOX", "address": {"city": "HARRIS", "state": "NC", "street": "173 HOGAN RD", "postcode": "28074"}}},
{"geometry": {"type": "Point", "coordinates": [-81.874699571, 35.2427039242]}, "type": "Feature", "properties": {"collection_times": [{"days": "Mon-Fri", "time": "4:00pm"}, {"days": "Sat", "time": "9:30am"}, {"days": "Sun", "time": "Closed"}], "id": "2807400001", "name": "USPS COLLECTION BOX - PO LOBBY", "address": {"city": "HARRIS", "state": "NC", "street": "173 HOGAN RD", "postcode": "28074"}}},
{"geometry": {"type": "Point", "coordinates": [-80.6551054864, 35.3216934482]}, "type": "Feature", "properties": {"collection_times": [{"days": "Mon-Fri", "time": "5:00pm"}, {"days": "Sat", "time": "12:00pm"}, {"days": "Sun", "time": "Closed"}], "id": "2807500003", "name": "USPS COLLECTION BOX - BLUE BOX", "address": {"city": "HARRISBURG", "state": "NC", "street": "4258 HIGHWAY 49 S", "postcode": "28075"}}},
{"geometry": {"type": "Point", "coordinates": [-80.6551054864, 35.3216934482]}, "type": "Feature", "properties": {"collection_times": [{"days": "Mon-Fri", "time": "5:00pm"}, {"days": "Sat", "time": "12:00pm"}, {"days": "Sun", "time": "Closed"}], "id": "2807500004", "name": "USPS COLLECTION BOX - BLUE BOX", "address": {"city": "HARRISBURG", "state": "NC", "street": "4258 HIGHWAY 49 S", "postcode": "28075"}}},
{"geometry": {"type": "Point", "coordinates": [-80.6551054864, 35.3216934482]}, "type": "Feature", "properties": {"collection_times": [{"days": "Mon-Fri", "time": "5:00pm"}, {"days": "Sat", "time": "12:00pm"}, {"days": "Sun", "time": "Closed"}], "id": "2807500005", "name": "USPS COLLECTION BOX - BLUE BOX", "address": {"city": "HARRISBURG", "state": "NC", "street": "4258 HIGHWAY 49 S", "postcode": "28075"}}},
{"geometry": {"type": "Point", "coordinates": [-80.6551054864, 35.3216934482]}, "type": "Feature", "properties": {"collection_times": [{"days": "Mon-Fri", "time": "5:00pm"}, {"days": "Sat", "time": "12:00pm"}, {"days": "Sun", "time": "Closed"}], "id": "2807500006", "name": "USPS COLLECTION BOX - BLUE BOX", "address": {"city": "HARRISBURG", "state": "NC", "street": "4258 HIGHWAY 49 S", "postcode": "28075"}}},
{"geometry": {"type": "Point", "coordinates": [-80.6551054864, 35.3216934482]}, "type": "Feature", "properties": {"collection_times": [{"days": "Mon-Fri", "time": "5:00pm"}, {"days": "Sat", "time": "12:00pm"}, {"days": "Sun", "time": "Closed"}], "id": "2807500007", "name": "USPS COLLECTION BOX - PO LOBBY", "address": {"city": "HARRISBURG", "state": "NC", "street": "4258 HIGHWAY 49 S", "postcode": "28075"}}},
{"geometry": {"type": "Point", "coordinates": [-80.6551054864, 35.3216934482]}, "type": "Feature", "properties": {"collection_times": [{"days": "Mon-Fri", "time": "5:00pm"}, {"days": "Sat", "time": "12:00pm"}, {"days": "Sun", "time": "Closed"}], "id": "2807500008", "name": "USPS COLLECTION BOX - PO LOBBY", "address": {"city": "HARRISBURG", "state": "NC", "street": "4258 HIGHWAY 49 S", "postcode": "28075"}}},
{"geometry": {"type": "Point", "coordinates": [-80.6551054864, 35.3216934482]}, "type": "Feature", "properties": {"collection_times": [{"days": "Mon-Fri", "time": "5:00pm"}, {"days": "Sat", "time": "12:00pm"}, {"days": "Sun", "time": "Closed"}], "id": "2807500009", "name": "USPS COLLECTION BOX - PO LOBBY", "address": {"city": "HARRISBURG", "state": "NC", "street": "4258 HIGHWAY 49 S", "postcode": "28075"}}},
{"geometry": {"type": "Point", "coordinates": [-81.7958341936, 35.2584814332]}, "type": "Feature", "properties": {"collection_times": [{"days": "Mon-Fri", "time": "4:15pm"}, {"days": "Sat", "time": "9:30am"}, {"days": "Sun", "time": "Closed"}], "id": "2807600003", "name": "USPS COLLECTION BOX - BLUE BOX", "address": {"city": "HENRIETTA", "state": "NC", "street": "2946 HARRIS HENRIETTA RD", "postcode": "28076"}}},
{"geometry": {"type": "Point", "coordinates": [-81.7958341936, 35.2584814332]}, "type": "Feature", "properties": {"collection_times": [{"days": "Mon-Fri", "time": "4:15pm"}, {"days": "Sat", "time": "9:30am"}, {"days": "Sun", "time": "Closed"}], "id": "2807600004", "name": "USPS COLLECTION BOX - PO LOBBY", "address": {"city": "HENRIETTA", "state": "NC", "street": "2946 HARRIS HENRIETTA RD", "postcode": "28076"}}},
{"geometry": {"type": "Point", "coordinates": [-81.2080853515, 35.3918086518]}, "type": "Feature", "properties": {"collection_times": [{"days": "Mon-Fri", "time": "4:15pm"}, {"days": "Sat", "time": "10:00am"}, {"days": "Sun", "time": "Closed"}], "id": "2807700000", "name": "USPS COLLECTION BOX - BLUE BOX", "address": {"city": "HIGH SHOALS", "state": "NC", "street": "511 N LINCOLN ST", "postcode": "28077"}}},
{"geometry": {"type": "Point", "coordinates": [-81.2080853517, 35.3918086514]}, "type": "Feature", "properties": {"collection_times": [{"days": "Mon-Fri", "time": "4:15pm"}, {"days": "Sat", "time": "10:00am"}, {"days": "Sun", "time": "Closed"}], "id": "2807700001", "name": "USPS COLLECTION BOX - PO LOBBY", "address": {"city": "HIGH SHOALS", "state": "NC", "street": "511 N LINCOLN ST", "postcode": "28077"}}},
{"geometry": {"type": "Point", "coordinates": [-81.2080853515, 35.3918086518]}, "type": "Feature", "properties": {"collection_times": [{"days": "Mon-Fri", "time": "4:15pm"}, {"days": "Sat", "time": "10:00am"}, {"days": "Sun", "time": "Closed"}], "id": "2807700002", "name": "USPS COLLECTION BOX - PO LOBBY", "address": {"city": "HIGH SHOALS", "state": "NC", "street": "511 N LINCOLN ST", "postcode": "28077"}}},
{"geometry": {"type": "Point", "coordinates": [-80.8507472897, 35.4104940048]}, "type": "Feature", "properties": {"collection_times": [{"days": "Mon-Fri", "time": "5:00pm"}, {"days": "Sat", "time": "4:00pm"}, {"days": "Sun", "time": "Closed"}], "id": "2807800002", "name": "USPS COLLECTION BOX - BLUE BOX", "address": {"city": "HUNTERSVILLE", "state": "NC", "street": "400 GILEAD RD", "postcode": "28078"}}},
{"geometry": {"type": "Point", "coordinates": [-80.8507472897, 35.4104940048]}, "type": "Feature", "properties": {"collection_times": [{"days": "Mon-Fri", "time": "5:00pm"}, {"days": "Sat", "time": "4:00pm"}, {"days": "Sun", "time": "Closed"}], "id": "2807800003", "name": "USPS COLLECTION BOX - BLUE BOX", "address": {"city": "HUNTERSVILLE", "state": "NC", "street": "400 GILEAD RD", "postcode": "28078"}}},
{"geometry": {"type": "Point", "coordinates": [-80.8628619725, 35.4044419868]}, "type": "Feature", "properties": {"collection_times": [{"days": "Mon-Fri", "time": "4:00pm"}, {"days": "Sat", "time": "1:00pm"}, {"days": "Sun", "time": "Closed"}], "id": "2807800007", "name": "USPS COLLECTION BOX - BLUE BOX", "address": {"city": "HUNTERSVILLE", "state": "NC", "street": "9800 KINCEY AVE", "postcode": "28078"}}},
{"geometry": {"type": "Point", "coordinates": [-80.8628619725, 35.4044419868]}, "type": "Feature", "properties": {"collection_times": [{"days": "Mon-Fri", "time": "4:00pm"}, {"days": "Sat", "time": "1:00pm"}, {"days": "Sun", "time": "Closed"}], "id": "2807800009", "name": "USPS COLLECTION BOX - BLUE BOX", "address": {"city": "HUNTERSVILLE", "state": "NC", "street": "9800 KINCEY AVE", "postcode": "28078"}}},
{"geometry": {"type": "Point", "coordinates": [-80.8607622203, 35.4078926781]}, "type": "Feature", "properties": {"collection_times": [{"days": "Mon-Fri", "time": "4:00pm"}, {"days": "Sat", "time": "1:00pm"}, {"days": "Sun", "time": "Closed"}], "id": "2807800010", "name": "USPS COLLECTION BOX - BLUE BOX", "address": {"city": "HUNTERSVILLE", "state": "NC", "street": "10030 GILEAD RD", "postcode": "28078"}}},
{"geometry": {"type": "Point", "coordinates": [-80.8613288577, 35.4419264075]}, "type": "Feature", "properties": {"collection_times": [{"days": "Mon-Fri", "time": "4:00pm"}, {"days": "Sat", "time": "1:00pm"}, {"days": "Sun", "time": "Closed"}], "id": "2807800011", "name": "USPS COLLECTION BOX - BLUE BOX", "address": {"city": "HUNTERSVILLE", "state": "NC", "street": "9801 SAM FURR RD", "postcode": "28078"}}},
{"geometry": {"type": "Point", "coordinates": [-80.8629563503, 35.4165041442]}, "type": "Feature", "properties": {"collection_times": [{"days": "Mon-Fri", "time": "4:00pm"}, {"days": "Sat", "time": "1:00pm"}, {"days": "Sun", "time": "Closed"}], "id": "2807800012", "name": "USPS COLLECTION BOX - BLUE BOX", "address": {"city": "HUNTERSVILLE", "state": "NC", "street": "NORTHCROSS DR", "postcode": "28078"}}},
{"geometry": {"type": "Point", "coordinates": [-80.8507472901, 35.410494005]}, "type": "Feature", "properties": {"collection_times": [{"days": "Mon-Fri", "time": "5:00pm"}, {"days": "Sat", "time": "4:00pm"}, {"days": "Sun", "time": "Closed"}], "id": "2807800014", "name": "USPS COLLECTION BOX - PO LOBBY", "address": {"city": "HUNTERSVILLE", "state": "NC", "street": "400 GILEAD RD", "postcode": "28078"}}},
{"geometry": {"type": "Point", "coordinates": [-80.8507472897, 35.4104940048]}, "type": "Feature", "properties": {"collection_times": [{"days": "Mon-Fri", "time": "5:00pm"}, {"days": "Sat", "time": "4:00pm"}, {"days": "Sun", "time": "Closed"}], "id": "2807800015", "name": "USPS COLLECTION BOX - PO LOBBY", "address": {"city": "HUNTERSVILLE", "state": "NC", "street": "400 GILEAD RD", "postcode": "28078"}}},
{"geometry": {"type": "Point", "coordinates": [-80.8629563503, 35.4165041442]}, "type": "Feature", "properties": {"collection_times": [{"days": "Mon-Fri", "time": "5:00pm"}, {"days": "Sat", "time": "4:00pm"}, {"days": "Sun", "time": "Closed"}], "id": "2807800016", "name": "USPS COLLECTION BOX - APC", "address": {"city": "HUNTERSVILLE", "state": "NC", "street": "400 GILEAD RD", "postcode": "28078"}}},
{"geometry": {"type": "Point", "coordinates": [-80.6663369437, 35.0789136995]}, "type": "Feature", "properties": {"collection_times": [{"days": "Mon-Fri", "time": "5:00pm"}, {"days": "Sat", "time": "11:00am"}, {"days": "Sun", "time": "Closed"}], "id": "2807900002", "name": "USPS COLLECTION BOX - BLUE BOX", "address": {"city": "INDIAN TRAIL", "state": "NC", "street": "210 INDIAN TRAIL RD N", "postcode": "28079"}}},
{"geometry": {"type": "Point", "coordinates": [-80.6663369437, 35.0789136995]}, "type": "Feature", "properties": {"collection_times": [{"days": "Mon-Fri", "time": "5:00pm"}, {"days": "Sat", "time": "11:00am"}, {"days": "Sun", "time": "Closed"}], "id": "2807900003", "name": "USPS COLLECTION BOX - BLUE BOX", "address": {"city": "INDIAN TRAIL", "state": "NC", "street": "210 INDIAN TRAIL RD N", "postcode": "28079"}}},
{"geometry": {"type": "Point", "coordinates": [-80.6663369437, 35.0789136995]}, "type": "Feature", "properties": {"collection_times": [{"days": "Mon-Fri", "time": "5:00pm"}, {"days": "Sat", "time": "11:00am"}, {"days": "Sun", "time": "Closed"}], "id": "2807900004", "name": "USPS COLLECTION BOX - BLUE BOX", "address": {"city": "INDIAN TRAIL", "state": "NC", "street": "210 INDIAN TRAIL RD N", "postcode": "28079"}}},
{"geometry": {"type": "Point", "coordinates": [-80.6663369437, 35.0789136995]}, "type": "Feature", "properties": {"collection_times": [{"days": "Mon-Fri", "time": "4:45pm"}, {"days": "Sat", "time": "11:00am"}, {"days": "Sun", "time": "Closed"}], "id": "2807900005", "name": "USPS COLLECTION BOX - PO LOBBY", "address": {"city": "INDIAN TRAIL", "state": "NC", "street": "210 INDIAN TRAIL RD N", "postcode": "28079"}}},
{"geometry": {"type": "Point", "coordinates": [-80.6663369437, 35.0789136995]}, "type": "Feature", "properties": {"collection_times": [{"days": "Mon-Fri", "time": "4:45pm"}, {"days": "Sat", "time": "11:00am"}, {"days": "Sun", "time": "Closed"}], "id": "2807900006", "name": "USPS COLLECTION BOX - PO LOBBY", "address": {"city": "INDIAN TRAIL", "state": "NC", "street": "210 INDIAN TRAIL RD N", "postcode": "28079"}}},
{"geometry": {"type": "Point", "coordinates": [-80.6663369437, 35.0789136995]}, "type": "Feature", "properties": {"collection_times": [{"days": "Mon-Fri", "time": "4:45pm"}, {"days": "Sat", "time": "11:00am"}, {"days": "Sun", "time": "Closed"}], "id": "2807900008", "name": "USPS COLLECTION BOX - APC", "address": {"city": "INDIAN TRAIL", "state": "NC", "street": "210 INDIAN TRAIL RD N", "postcode": "28079"}}},
{"geometry": {"type": "Point", "coordinates": [-81.1559353242, 35.4447808875]}, "type": "Feature", "properties": {"collection_times": [{"days": "Mon-Fri", "time": "4:15pm"}, {"days": "Sat", "time": "10:00am"}, {"days": "Sun", "time": "Closed"}], "id": "2808000002", "name": "USPS COLLECTION BOX - BLUE BOX", "address": {"city": "IRON STATION", "state": "NC", "street": "4832 E HIGHWAY 27", "postcode": "28080"}}},
{"geometry": {"type": "Point", "coordinates": [-81.1559353246, 35.4447808873]}, "type": "Feature", "properties": {"collection_times": [{"days": "Mon-Fri", "time": "4:15pm"}, {"days": "Sat", "time": "10:00am"}, {"days": "Sun", "time": "Closed"}], "id": "2808000003", "name": "USPS COLLECTION BOX - PO LOBBY", "address": {"city": "IRON STATION", "state": "NC", "street": "4832 E HIGHWAY 27", "postcode": "28080"}}},
{"geometry": {"type": "Point", "coordinates": [-81.1559353242, 35.4447808875]}, "type": "Feature", "properties": {"collection_times": [{"days": "Mon-Fri", "time": "4:15pm"}, {"days": "Sat", "time": "10:00am"}, {"days": "Sun", "time": "Closed"}], "id": "2808000004", "name": "USPS COLLECTION BOX - PO LOBBY", "address": {"city": "IRON STATION", "state": "NC", "street": "4832 E HIGHWAY 27", "postcode": "28080"}}},
{"geometry": {"type": "Point", "coordinates": [-80.6499163856, 35.497703607]}, "type": "Feature", "properties": {"collection_times": [{"days": "Mon-Sat", "time": "2:30pm"}, {"days": "Sun", "time": "Closed"}], "id": "2808100011", "name": "USPS COLLECTION BOX - BLUE BOX", "address": {"city": "KANNAPOLIS", "state": "NC", "street": "2230 ROXIE ST NE", "postcode": "28081"}}},
{"geometry": {"type": "Point", "coordinates": [-80.6218778858, 35.4637600887]}, "type": "Feature", "properties": {"collection_times": [{"days": "Mon-Fri", "time": "2:30pm"}, {"days": "Sat-Sun", "time": "Closed"}], "id": "2808100019", "name": "USPS COLLECTION BOX - BLUE BOX", "address": {"city": "KANNAPOLIS", "state": "NC", "street": "2100 S MAIN ST", "postcode": "28081"}}},
{"geometry": {"type": "Point", "coordinates": [-80.6376874878, 35.4751925992]}, "type": "Feature", "properties": {"collection_times": [{"days": "Mon-Fri", "time": "2:30pm"}, {"days": "Sat-Sun", "time": "Closed"}], "id": "2808100022", "name": "USPS COLLECTION BOX - BLUE BOX", "address": {"city": "KANNAPOLIS", "state": "NC", "street": "1300 OAKWOOD AVE", "postcode": "28081"}}},
{"geometry": {"type": "Point", "coordinates": [-80.6386313201, 35.4960518159]}, "type": "Feature", "properties": {"collection_times": [{"days": "Mon-Fri", "time": "5:00pm"}, {"days": "Sat", "time": "2:30pm"}, {"days": "Sun", "time": "Closed"}], "id": "2808100026", "name": "USPS COLLECTION BOX - BLUE BOX", "address": {"city": "KANNAPOLIS", "state": "NC", "street": "1040 DALE EARNHARDT BLVD", "postcode": "28081"}}},
{"geometry": {"type": "Point", "coordinates": [-80.6386313201, 35.4960518159]}, "type": "Feature", "properties": {"collection_times": [{"days": "Mon-Fri", "time": "5:00pm"}, {"days": "Sat", "time": "2:30pm"}, {"days": "Sun", "time": "Closed"}], "id": "2808100027", "name": "USPS COLLECTION BOX - BLUE BOX", "address": {"city": "KANNAPOLIS", "state": "NC", "street": "1040 DALE EARNHARDT BLVD", "postcode": "28081"}}},
{"geometry": {"type": "Point", "coordinates": [-80.6263126783, 35.4969740099]}, "type": "Feature", "properties": {"collection_times": [{"days": "Mon-Sat", "time": "2:30pm"}, {"days": "Sun", "time": "Closed"}], "id": "2808100032", "name": "USPS COLLECTION BOX - BLUE BOX", "address": {"city": "KANNAPOLIS", "state": "NC", "street": "200 WEST AVE", "postcode": "28081"}}},
{"geometry": {"type": "Point", "coordinates": [-80.6386313199, 35.4960518154]}, "type": "Feature", "properties": {"collection_times": [{"days": "Mon-Fri", "time": "5:00pm"}, {"days": "Sat", "time": "2:30pm"}, {"days": "Sun", "time": "Closed"}], "id": "2808100033", "name": "USPS COLLECTION BOX - PO LOBBY", "address": {"city": "KANNAPOLIS", "state": "NC", "street": "1040 DALE EARNHARDT BLVD", "postcode": "28081"}}},
{"geometry": {"type": "Point", "coordinates": [-80.6386313201, 35.4960518159]}, "type": "Feature", "properties": {"collection_times": [{"days": "Mon-Fri", "time": "5:00pm"}, {"days": "Sat", "time": "2:30pm"}, {"days": "Sun", "time": "Closed"}], "id": "2808100034", "name": "USPS COLLECTION BOX - PO LOBBY", "address": {"city": "KANNAPOLIS", "state": "NC", "street": "1040 DALE EARNHARDT BLVD", "postcode": "28081"}}},
{"geometry": {"type": "Point", "coordinates": [-80.6386313201, 35.4960518159]}, "type": "Feature", "properties": {"collection_times": [{"days": "Mon-Fri", "time": "5:00pm"}, {"days": "Sat", "time": "2:30pm"}, {"days": "Sun", "time": "Closed"}], "id": "2808100035", "name": "USPS COLLECTION BOX - PO LOBBY", "address": {"city": "KANNAPOLIS", "state": "NC", "street": "1040 DALE EARNHARDT BLVD", "postcode": "28081"}}},
{"geometry": {"type": "Point", "coordinates": [-80.6111965008, 35.4770619381]}, "type": "Feature", "properties": {"collection_times": [{"days": "Mon-Sat", "time": "2:30pm"}, {"days": "Sun", "time": "Closed"}], "id": "2808300000", "name": "USPS COLLECTION BOX - BLUE BOX", "address": {"city": "KANNAPOLIS", "state": "NC", "street": "1329 S CANNON BLVD", "postcode": "28083"}}},
{"geometry": {"type": "Point", "coordinates": [-80.6104764534, 35.4704188142]}, "type": "Feature", "properties": {"collection_times": [{"days": "Mon-Sat", "time": "2:30pm"}, {"days": "Sun", "time": "Closed"}], "id": "2808300004", "name": "USPS COLLECTION BOX - BLUE BOX", "address": {"city": "KANNAPOLIS", "state": "NC", "street": "1756 S CANNON BLVD", "postcode": "28083"}}},
{"geometry": {"type": "Point", "coordinates": [-80.6077697986, 35.5052573584]}, "type": "Feature", "properties": {"collection_times": [{"days": "Mon-Fri", "time": "2:30pm"}, {"days": "Sat-Sun", "time": "Closed"}], "id": "2808300008", "name": "USPS COLLECTION BOX - BLUE BOX", "address": {"city": "KANNAPOLIS", "state": "NC", "street": "800 SLOOP AVE", "postcode": "28083"}}},
{"geometry": {"type": "Point", "coordinates": [-80.61174424, 35.4762919672]}, "type": "Feature", "properties": {"collection_times": [{"days": "Mon-Sat", "time": "2:30pm"}, {"days": "Sun", "time": "Closed"}], "id": "2808300015", "name": "USPS COLLECTION BOX - BLUE BOX", "address": {"city": "KANNAPOLIS", "state": "NC", "street": "1509 DALE EARNHARDT BLVD", "postcode": "28083"}}},
{"geometry": {"type": "Point", "coordinates": [-80.6110939989, 35.4893169266]}, "type": "Feature", "properties": {"collection_times": [{"days": "Mon-Sat", "time": "2:30pm"}, {"days": "Sun", "time": "Closed"}], "id": "2808300021", "name": "USPS COLLECTION BOX - BLUE BOX", "address": {"city": "KANNAPOLIS", "state": "NC", "street": "471 N CANNON BLVD", "postcode": "28083"}}},
{"geometry": {"type": "Point", "coordinates": [-80.6073328616, 35.4499002142]}, "type": "Feature", "properties": {"collection_times": [{"days": "Mon-Sat", "time": "2:30pm"}, {"days": "Sun", "time": "Closed"}], "id": "2808300033", "name": "USPS COLLECTION BOX - BLUE BOX", "address": {"city": "KANNAPOLIS", "state": "NC", "street": "928 CLOVERLEAF PLZ", "postcode": "28083"}}},
{"geometry": {"type": "Point", "coordinates": [-81.4246998338, 35.2728965153]}, "type": "Feature", "properties": {"collection_times": [{"days": "Mon-Sat", "time": "1:00pm"}, {"days": "Sun", "time": "Closed"}], "id": "2808600005", "name": "USPS COLLECTION BOX - BLUE BOX", "address": {"city": "KINGS MOUNTAIN", "state": "NC", "street": "1101 OAK GROVE RD", "postcode": "28086"}}},
{"geometry": {"type": "Point", "coordinates": [-81.3469287206, 35.2393240495]}, "type": "Feature", "properties": {"collection_times": [{"days": "Mon-Fri", "time": "3:00pm"}, {"days": "Sat", "time": "12:00pm"}, {"days": "Sun", "time": "Closed"}], "id": "2808600006", "name": "USPS COLLECTION BOX - BLUE BOX", "address": {"city": "KINGS MOUNTAIN", "state": "NC", "street": "300 W MOUNTAIN ST", "postcode": "28086"}}},
{"geometry": {"type": "Point", "coordinates": [-81.3346851557, 35.2408328471]}, "type": "Feature", "properties": {"collection_times": [{"days": "Mon-Fri", "time": "3:00pm"}, {"days": "Sat", "time": "12:00pm"}, {"days": "Sun", "time": "Closed"}], "id": "2808600007", "name": "USPS COLLECTION BOX - BLUE BOX", "address": {"city": "KINGS MOUNTAIN", "state": "NC", "street": "410 E KING ST", "postcode": "28086"}}},
{"geometry": {"type": "Point", "coordinates": [-81.3434935857, 35.2399957668]}, "type": "Feature", "properties": {"collection_times": [{"days": "Mon-Fri", "time": "3:00pm"}, {"days": "Sat", "time": "12:00pm"}, {"days": "Sun", "time": "Closed"}], "id": "2808600010", "name": "USPS COLLECTION BOX - BLUE BOX", "address": {"city": "KINGS MOUNTAIN", "state": "NC", "street": "100 S CHEROKEE ST", "postcode": "28086"}}},
{"geometry": {"type": "Point", "coordinates": [-81.3443754261, 35.2385120593]}, "type": "Feature", "properties": {"collection_times": [{"days": "Mon-Fri", "time": "3:00pm"}, {"days": "Sat", "time": "12:00pm"}, {"days": "Sun", "time": "Closed"}], "id": "2808600013", "name": "USPS COLLECTION BOX - BLUE BOX", "address": {"city": "KINGS MOUNTAIN", "state": "NC", "street": "225 S BATTLEGROUND AVE", "postcode": "28086"}}},
{"geometry": {"type": "Point", "coordinates": [-81.3423770603, 35.237633444]}, "type": "Feature", "properties": {"collection_times": [{"days": "Mon-Fri", "time": "5:00pm"}, {"days": "Sat", "time": "4:00pm"}, {"days": "Sun", "time": "Closed"}], "id": "2808600018", "name": "USPS COLLECTION BOX - BLUE BOX", "address": {"city": "KINGS MOUNTAIN", "state": "NC", "street": "115 E GOLD ST", "postcode": "28086"}}},
{"geometry": {"type": "Point", "coordinates": [-81.3423770603, 35.237633444]}, "type": "Feature", "properties": {"collection_times": [{"days": "Mon-Fri", "time": "5:00pm"}, {"days": "Sat", "time": "4:00pm"}, {"days": "Sun", "time": "Closed"}], "id": "2808600019", "name": "USPS COLLECTION BOX - BLUE BOX", "address": {"city": "KINGS MOUNTAIN", "state": "NC", "street": "115 E GOLD ST", "postcode": "28086"}}},
{"geometry": {"type": "Point", "coordinates": [-81.3423770605, 35.2376334439]}, "type": "Feature", "properties": {"collection_times": [{"days": "Mon-Fri", "time": "5:00pm"}, {"days": "Sat", "time": "4:00pm"}, {"days": "Sun", "time": "Closed"}], "id": "2808600020", "name": "USPS COLLECTION BOX - PO LOBBY", "address": {"city": "KINGS MOUNTAIN", "state": "NC", "street": "115 E GOLD ST", "postcode": "28086"}}},
{"geometry": {"type": "Point", "coordinates": [-81.3423770603, 35.237633444]}, "type": "Feature", "properties": {"collection_times": [{"days": "Mon-Fri", "time": "5:00pm"}, {"days": "Sat", "time": "4:00pm"}, {"days": "Sun", "time": "Closed"}], "id": "2808600021", "name": "USPS COLLECTION BOX - PO LOBBY", "address": {"city": "KINGS MOUNTAIN", "state": "NC", "street": "115 E GOLD ST", "postcode": "28086"}}},
{"geometry": {"type": "Point", "coordinates": [-80.6134337877, 35.5444238987]}, "type": "Feature", "properties": {"collection_times": [{"days": "Mon-Fri", "time": "2:00pm"}, {"days": "Sat-Sun", "time": "Closed"}], "id": "2808800001", "name": "USPS COLLECTION BOX - BLUE BOX", "address": {"city": "LANDIS", "state": "NC", "street": "108 W RICE ST", "postcode": "28088"}}},
{"geometry": {"type": "Point", "coordinates": [-80.6093323933, 35.5462566125]}, "type": "Feature", "properties": {"collection_times": [{"days": "Mon-Fri", "time": "5:00pm"}, {"days": "Sat", "time": "9:45am"}, {"days": "Sun", "time": "Closed"}], "id": "2808800010", "name": "USPS COLLECTION BOX - BLUE BOX", "address": {"city": "LANDIS", "state": "NC", "street": "230 E RYDER AVE", "postcode": "28088"}}},
{"geometry": {"type": "Point", "coordinates": [-80.6093323933, 35.5462566125]}, "type": "Feature", "properties": {"collection_times": [{"days": "Mon-Fri", "time": "5:00pm"}, {"days": "Sat-Sun", "time": "Closed"}], "id": "2808800011", "name": "USPS COLLECTION BOX - PO LOBBY", "address": {"city": "LANDIS", "state": "NC", "street": "230 E RYDER AVE", "postcode": "28088"}}},
{"geometry": {"type": "Point", "coordinates": [-80.6093323933, 35.5462566125]}, "type": "Feature", "properties": {"collection_times": [{"days": "Mon-Fri", "time": "5:00pm"}, {"days": "Sat-Sun", "time": "Closed"}], "id": "2808800012", "name": "USPS COLLECTION BOX - PO LOBBY", "address": {"city": "LANDIS", "state": "NC", "street": "230 E RYDER AVE", "postcode": "28088"}}},
{"geometry": {"type": "Point", "coordinates": [-81.6566422314, 35.3179206816]}, "type": "Feature", "properties": {"collection_times": [{"days": "Mon-Fri", "time": "4:15pm"}, {"days": "Sat", "time": "8:30am"}, {"days": "Sun", "time": "Closed"}], "id": "2808900002", "name": "USPS COLLECTION BOX - BLUE BOX", "address": {"city": "LATTIMORE", "state": "NC", "street": "306 E MAIN ST", "postcode": "28089"}}},
{"geometry": {"type": "Point", "coordinates": [-81.6551594781, 35.3177725842]}, "type": "Feature", "properties": {"collection_times": [{"days": "Mon-Fri", "time": "4:15pm"}, {"days": "Sat", "time": "8:30am"}, {"days": "Sun", "time": "Closed"}], "id": "2808900003", "name": "USPS COLLECTION BOX - PO LOBBY", "address": {"city": "LATTIMORE", "state": "NC", "street": "306 E MAIN ST", "postcode": "28089"}}},
{"geometry": {"type": "Point", "coordinates": [-81.5427976359, 35.4531325406]}, "type": "Feature", "properties": {"collection_times": [{"days": "Mon-Fri", "time": "4:30pm"}, {"days": "Sat", "time": "11:00am"}, {"days": "Sun", "time": "Closed"}], "id": "2809000002", "name": "USPS COLLECTION BOX - BLUE BOX", "address": {"city": "LAWNDALE", "state": "NC", "street": "241 E MAIN ST", "postcode": "28090"}}},
{"geometry": {"type": "Point", "coordinates": [-81.5589807749, 35.4178995115]}, "type": "Feature", "properties": {"collection_times": [{"days": "Mon-Fri", "time": "4:30pm"}, {"days": "Sat", "time": "11:00am"}, {"days": "Sun", "time": "Closed"}], "id": "2809000003", "name": "USPS COLLECTION BOX - PO LOBBY", "address": {"city": "LAWNDALE", "state": "NC", "street": "241 E MAIN ST", "postcode": "28090"}}},
{"geometry": {"type": "Point", "coordinates": [-81.5589807749, 35.4178995115]}, "type": "Feature", "properties": {"collection_times": [{"days": "Mon-Fri", "time": "4:30pm"}, {"days": "Sat", "time": "11:00am"}, {"days": "Sun", "time": "Closed"}], "id": "2809000004", "name": "USPS COLLECTION BOX - PO LOBBY", "address": {"city": "LAWNDALE", "state": "NC", "street": "241 E MAIN ST", "postcode": "28090"}}},
{"geometry": {"type": "Point", "coordinates": [-79.9508567662, 34.9974818056]}, "type": "Feature", "properties": {"collection_times": [{"days": "Mon-Fri", "time": "4:15pm"}, {"days": "Sat", "time": "10:30am"}, {"days": "Sun", "time": "Closed"}], "id": "2809100004", "name": "USPS COLLECTION BOX - PO LOBBY", "address": {"city": "LILESVILLE", "state": "NC", "street": "@ N  COWAN  ST", "postcode": "28091"}}},
{"geometry": {"type": "Point", "coordinates": [-81.2529687163, 35.4726537666]}, "type": "Feature", "properties": {"collection_times": [{"days": "Mon-Fri", "time": "5:00pm"}, {"days": "Sat", "time": "4:00pm"}, {"days": "Sun", "time": "Closed"}], "id": "2809200006", "name": "USPS COLLECTION BOX - BLUE BOX", "address": {"city": "LINCOLNTON", "state": "NC", "street": "326 E MAIN ST FRNT", "postcode": "28092"}}},
{"geometry": {"type": "Point", "coordinates": [-81.2529687163, 35.4726537666]}, "type": "Feature", "properties": {"collection_times": [{"days": "Mon-Fri", "time": "5:00pm"}, {"days": "Sat", "time": "4:00pm"}, {"days": "Sun", "time": "Closed"}], "id": "2809200007", "name": "USPS COLLECTION BOX - BLUE BOX", "address": {"city": "LINCOLNTON", "state": "NC", "street": "326 E MAIN ST", "postcode": "28092"}}},
{"geometry": {"type": "Point", "coordinates": [-81.2406198833, 35.4776209916]}, "type": "Feature", "properties": {"collection_times": [{"days": "Mon-Fri", "time": "2:30pm"}, {"days": "Sat-Sun", "time": "Closed"}], "id": "2809200012", "name": "USPS COLLECTION BOX - BLUE BOX", "address": {"city": "LINCOLNTON", "state": "NC", "street": "E MAIN ST", "postcode": "28092"}}},
{"geometry": {"type": "Point", "coordinates": [-81.2411439792, 35.4694021901]}, "type": "Feature", "properties": {"collection_times": [{"days": "Mon-Fri", "time": "2:00pm"}, {"days": "Sat-Sun", "time": "Closed"}], "id": "2809200014", "name": "USPS COLLECTION BOX - BLUE BOX", "address": {"city": "LINCOLNTON", "state": "NC", "street": "642 CENTER DR", "postcode": "28092"}}},
{"geometry": {"type": "Point", "coordinates": [-81.2406198833, 35.4776209916]}, "type": "Feature", "properties": {"collection_times": [{"days": "Mon-Fri", "time": "2:00pm"}, {"days": "Sat-Sun", "time": "Closed"}], "id": "2809200017", "name": "USPS COLLECTION BOX - BLUE BOX", "address": {"city": "LINCOLNTON", "state": "NC", "street": "E HIGHWAY 27", "postcode": "28092"}}},
{"geometry": {"type": "Point", "coordinates": [-81.2406198833, 35.4776209916]}, "type": "Feature", "properties": {"collection_times": [{"days": "Mon-Fri", "time": "2:00pm"}, {"days": "Sat-Sun", "time": "Closed"}], "id": "2809200018", "name": "USPS COLLECTION BOX - BLUE BOX", "address": {"city": "LINCOLNTON", "state": "NC", "street": "GAMBLE DR", "postcode": "28092"}}},
{"geometry": {"type": "Point", "coordinates": [-81.2406198833, 35.4776209916]}, "type": "Feature", "properties": {"collection_times": [{"days": "Mon-Fri", "time": "2:30pm"}, {"days": "Sat-Sun", "time": "Closed"}], "id": "2809200022", "name": "USPS COLLECTION BOX - BLUE BOX", "address": {"city": "LINCOLNTON", "state": "NC", "street": "E MAIN ST", "postcode": "28092"}}},
{"geometry": {"type": "Point", "coordinates": [-81.2406198833, 35.4776209916]}, "type": "Feature", "properties": {"collection_times": [{"days": "Mon-Fri", "time": "2:00pm"}, {"days": "Sat-Sun", "time": "Closed"}], "id": "2809200026", "name": "USPS COLLECTION BOX - BLUE BOX", "address": {"city": "LINCOLNTON", "state": "NC", "street": "306 N GENERALS BLVD", "postcode": "28092"}}},
{"geometry": {"type": "Point", "coordinates": [-81.2406198833, 35.4776209916]}, "type": "Feature", "properties": {"collection_times": [{"days": "Mon-Fri", "time": "2:30pm"}, {"days": "Sat-Sun", "time": "Closed"}], "id": "2809200027", "name": "USPS COLLECTION BOX - BLUE BOX", "address": {"city": "LINCOLNTON", "state": "NC", "street": "W MAIN ST", "postcode": "28092"}}},
{"geometry": {"type": "Point", "coordinates": [-81.2416383353, 35.4762215709]}, "type": "Feature", "properties": {"collection_times": [{"days": "Mon-Fri", "time": "2:00pm"}, {"days": "Sat-Sun", "time": "Closed"}], "id": "2809200032", "name": "USPS COLLECTION BOX - BLUE BOX", "address": {"city": "LINCOLNTON", "state": "NC", "street": "1203 E MAIN ST", "postcode": "28092"}}},
{"geometry": {"type": "Point", "coordinates": [-81.2529687163, 35.4726537666]}, "type": "Feature", "properties": {"collection_times": [{"days": "Mon-Fri", "time": "5:00pm"}, {"days": "Sat", "time": "4:00pm"}, {"days": "Sun", "time": "Closed"}], "id": "2809200034", "name": "USPS COLLECTION BOX - PO LOBBY", "address": {"city": "LINCOLNTON", "state": "NC", "street": "326 E MAIN ST", "postcode": "28092"}}},
{"geometry": {"type": "Point", "coordinates": [-81.2529687163, 35.4726537666]}, "type": "Feature", "properties": {"collection_times": [{"days": "Mon-Fri", "time": "5:00pm"}, {"days": "Sat", "time": "4:00pm"}, {"days": "Sun", "time": "Closed"}], "id": "2809200035", "name": "USPS COLLECTION BOX - PO LOBBY", "address": {"city": "LINCOLNTON", "state": "NC", "street": "326 E MAIN ST", "postcode": "28092"}}},
{"geometry": {"type": "Point", "coordinates": [-81.2406198833, 35.4776209916]}, "type": "Feature", "properties": {"collection_times": [{"days": "Mon-Fri", "time": "9:30am"}, {"days": "Sat-Sun", "time": "Closed"}], "id": "2809200037", "name": "USPS COLLECTION BOX - BLUE BOX", "address": {"city": "LINCOLNTON", "state": "NC", "street": "3687 GASTONIA HWY", "postcode": "28092"}}},
{"geometry": {"type": "Point", "coordinates": [-80.4228319944, 35.2606048233]}, "type": "Feature", "properties": {"collection_times": [{"days": "Mon-Fri", "time": "4:30pm"}, {"days": "Sat", "time": "11:30am"}, {"days": "Sun", "time": "Closed"}], "id": "2809700003", "name": "USPS COLLECTION BOX - BLUE BOX", "address": {"city": "LOCUST", "state": "NC", "street": "206 MAIN ST W", "postcode": "28097"}}},
{"geometry": {"type": "Point", "coordinates": [-80.4228319944, 35.2606048233]}, "type": "Feature", "properties": {"collection_times": [{"days": "Mon-Fri", "time": "4:30pm"}, {"days": "Sat", "time": "11:30am"}, {"days": "Sun", "time": "Closed"}], "id": "2809700006", "name": "USPS COLLECTION BOX - PO LOBBY", "address": {"city": "LOCUST", "state": "NC", "street": "206 MAIN ST W", "postcode": "28097"}}},
{"geometry": {"type": "Point", "coordinates": [-80.4228319944, 35.2606048233]}, "type": "Feature", "properties": {"collection_times": [{"days": "Mon-Fri", "time": "4:30pm"}, {"days": "Sat", "time": "11:30am"}, {"days": "Sun", "time": "Closed"}], "id": "2809700007", "name": "USPS COLLECTION BOX - PO LOBBY", "address": {"city": "LOCUST", "state": "NC", "street": "206 MAIN ST W", "postcode": "28097"}}},
{"geometry": {"type": "Point", "coordinates": [-81.1001664654, 35.2658779367]}, "type": "Feature", "properties": {"collection_times": [{"days": "Mon-Fri", "time": "4:55pm"}, {"days": "Sat", "time": "12:00pm"}, {"days": "Sun", "time": "Closed"}], "id": "2809800003", "name": "USPS COLLECTION BOX - BLUE BOX", "address": {"city": "LOWELL", "state": "NC", "street": "206 E 1ST ST", "postcode": "28098"}}},
{"geometry": {"type": "Point", "coordinates": [-81.1001664654, 35.2658779367]}, "type": "Feature", "properties": {"collection_times": [{"days": "Mon-Fri", "time": "4:55pm"}, {"days": "Sat", "time": "12:00pm"}, {"days": "Sun", "time": "Closed"}], "id": "2809800005", "name": "USPS COLLECTION BOX - PO LOBBY", "address": {"city": "LOWELL", "state": "NC", "street": "206 E 1ST ST", "postcode": "28098"}}},
{"geometry": {"type": "Point", "coordinates": [-81.1001664654, 35.2658779367]}, "type": "Feature", "properties": {"collection_times": [{"days": "Mon-Fri", "time": "4:55pm"}, {"days": "Sat", "time": "12:00pm"}, {"days": "Sun", "time": "Closed"}], "id": "2809800006", "name": "USPS COLLECTION BOX - PO LOBBY", "address": {"city": "LOWELL", "state": "NC", "street": "206 E 1ST ST", "postcode": "28098"}}}
]}
