{"type": "FeatureCollection", "features": [
{"geometry": {"type": "Point", "coordinates": [-81.0751356389, 35.2595493882]}, "type": "Feature", "properties": {"collection_times": [{"days": "Mon-Fri", "time": "4:30pm"}, {"days": "Sat", "time": "10:30am"}, {"days": "Sun", "time": "Closed"}], "id": "2810100003", "name": "USPS COLLECTION BOX - BLUE BOX", "address": {"city": "MCADENVILLE", "state": "NC", "street": "111 MAIN ST", "postcode": "28101"}}},
{"geometry": {"type": "Point", "coordinates": [-81.0751356391, 35.259549388]}, "type": "Feature", "properties": {"collection_times": [{"days": "Mon-Fri", "time": "4:30pm"}, {"days": "Sat", "time": "10:30am"}, {"days": "Sun", "time": "Closed"}], "id": "2810100004", "name": "USPS COLLECTION BOX - PO LOBBY", "address": {"city": "MCADENVILLE", "state": "NC", "street": "111 MAIN ST", "postcode": "28101"}}},
{"geometry": {"type": "Point", "coordinates": [-81.0751356389, 35.2595493882]}, "type": "Feature", "properties": {"collection_times": [{"days": "Mon-Fri", "time": "4:30pm"}, {"days": "Sat", "time": "10:30am"}, {"days": "Sun", "time": "Closed"}], "id": "2810100005", "name": "USPS COLLECTION BOX - PO LOBBY", "address": {"city": "MCADENVILLE", "state": "NC", "street": "111 MAIN ST", "postcode": "28101"}}},
{"geometry": {"type": "Point", "coordinates": [-79.9704183555, 34.8109407277]}, "type": "Feature", "properties": {"collection_times": [{"days": "Mon-Fri", "time": "4:00pm"}, {"days": "Sat", "time": "9:00am"}, {"days": "Sun", "time": "Closed"}], "id": "2810200003", "name": "USPS COLLECTION BOX - BLUE BOX", "address": {"city": "MCFARLAN", "state": "NC", "street": "HIGHWAY 52 S", "postcode": "28102"}}},
{"geometry": {"type": "Point", "coordinates": [-79.9704183555, 34.8109407277]}, "type": "Feature", "properties": {"collection_times": [{"days": "Mon-Fri", "time": "4:00pm"}, {"days": "Sat", "time": "9:00am"}, {"days": "Sun", "time": "Closed"}], "id": "2810200004", "name": "USPS COLLECTION BOX - PO LOBBY", "address": {"city": "MCFARLAN", "state": "NC", "street": "HIGHWAY 52 S", "postcode": "28102"}}},
{"geometry": {"type": "Point", "coordinates": [-80.3772857084, 34.987350766]}, "type": "Feature", "properties": {"collection_times": [{"days": "Mon-Fri", "time": "5:00pm"}, {"days": "Sat", "time": "12:15pm"}, {"days": "Sun", "time": "Closed"}], "id": "2810300005", "name": "USPS COLLECTION BOX - BLUE BOX", "address": {"city": "MARSHVILLE", "state": "NC", "street": "322 E UNION ST", "postcode": "28103"}}},
{"geometry": {"type": "Point", "coordinates": [-80.3772857082, 34.9873507659]}, "type": "Feature", "properties": {"collection_times": [{"days": "Mon-Fri", "time": "5:00pm"}, {"days": "Sat", "time": "12:15pm"}, {"days": "Sun", "time": "Closed"}], "id": "2810300007", "name": "USPS COLLECTION BOX - PO LOBBY", "address": {"city": "MARSHVILLE", "state": "NC", "street": "322 E UNION ST", "postcode": "28103"}}},
{"geometry": {"type": "Point", "coordinates": [-80.3772857084, 34.987350766]}, "type": "Feature", "properties": {"collection_times": [{"days": "Mon-Fri", "time": "5:00pm"}, {"days": "Sat", "time": "12:15pm"}, {"days": "Sun", "time": "Closed"}], "id": "2810300008", "name": "USPS COLLECTION BOX - PO LOBBY", "address": {"city": "MARSHVILLE", "state": "NC", "street": "322 E UNION ST", "postcode": "28103"}}},
{"geometry": {"type": "Point", "coordinates": [-80.7202882091, 35.1146300529]}, "type": "Feature", "properties": {"collection_times": [{"days": "Mon-Fri", "time": "5:00pm"}, {"days": "Sat", "time": "4:00pm"}, {"days": "Sun", "time": "Closed"}], "id": "2810500003", "name": "USPS COLLECTION BOX - BLUE BOX", "address": {"city": "MATTHEWS", "state": "NC", "street": "301 E JOHN ST", "postcode": "28105"}}},
{"geometry": {"type": "Point", "coordinates": [-80.7202882091, 35.1146300529]}, "type": "Feature", "properties": {"collection_times": [{"days": "Mon-Fri", "time": "5:00pm"}, {"days": "Sat", "time": "4:00pm"}, {"days": "Sun", "time": "Closed"}], "id": "2810500004", "name": "USPS COLLECTION BOX - BLUE BOX", "address": {"city": "MATTHEWS", "state": "NC", "street": "301 E JOHN ST", "postcode": "28105"}}},
{"geometry": {"type": "Point", "coordinates": [-80.7144910396, 35.1361920602]}, "type": "Feature", "properties": {"collection_times": [{"days": "Mon-Fri", "time": "2:00pm"}, {"days": "Sat-Sun", "time": "Closed"}], "id": "2810500008", "name": "USPS COLLECTION BOX - BLUE BOX", "address": {"city": "MATTHEWS", "state": "NC", "street": "9623 E INDEPENDENCE BLVD", "postcode": "28105"}}},
{"geometry": {"type": "Point", "coordinates": [-80.7159019438, 35.1217842261]}, "type": "Feature", "properties": {"collection_times": [{"days": "Mon-Fri", "time": "1:30pm"}, {"days": "Sat-Sun", "time": "Closed"}], "id": "2810500009", "name": "USPS COLLECTION BOX - BLUE BOX", "address": {"city": "MATTHEWS", "state": "NC", "street": "1340 MATTHEWS TOWNSHIP PKWY", "postcode": "28105"}}},
{"geometry": {"type": "Point", "coordinates": [-80.7090096804, 35.123489874]}, "type": "Feature", "properties": {"collection_times": [{"days": "Mon-Fri", "time": "1:30pm"}, {"days": "Sat-Sun", "time": "Closed"}], "id": "2810500010", "name": "USPS COLLECTION BOX - BLUE BOX", "address": {"city": "MATTHEWS", "state": "NC", "street": "1831 MATTHEWS TOWNSHIP PKWY", "postcode": "28105"}}},
{"geometry": {"type": "Point", "coordinates": [-80.7148177328, 35.1217824211]}, "type": "Feature", "properties": {"collection_times": [{"days": "Mon-Fri", "time": "1:30pm"}, {"days": "Sat-Sun", "time": "Closed"}], "id": "2810500011", "name": "USPS COLLECTION BOX - BLUE BOX", "address": {"city": "MATTHEWS", "state": "NC", "street": "3104 WEDDINGTON RD", "postcode": "28105"}}},
{"geometry": {"type": "Point", "coordinates": [-80.6828915076, 35.1391517621]}, "type": "Feature", "properties": {"collection_times": [{"days": "Mon-Fri", "time": "2:00pm"}, {"days": "Sat-Sun", "time": "Closed"}], "id": "2810500014", "name": "USPS COLLECTION BOX - BLUE BOX", "address": {"city": "MATTHEWS", "state": "NC", "street": "3601 MATTHEWS MINT HILL RD", "postcode": "28105"}}},
{"geometry": {"type": "Point", "coordinates": [-80.6959369989, 35.1195416985]}, "type": "Feature", "properties": {"collection_times": [{"days": "Mon-Fri", "time": "2:00pm"}, {"days": "Sat-Sun", "time": "Closed"}], "id": "2810500015", "name": "USPS COLLECTION BOX - BLUE BOX", "address": {"city": "MATTHEWS", "state": "NC", "street": "1600 MATTHEWS MINT HILL RD", "postcode": "28105"}}},
{"geometry": {"type": "Point", "coordinates": [-80.7130638787, 35.1176643426]}, "type": "Feature", "properties": {"collection_times": [{"days": "Mon-Fri", "time": "1:30pm"}, {"days": "Sat-Sun", "time": "Closed"}], "id": "2810500016", "name": "USPS COLLECTION BOX - BLUE BOX", "address": {"city": "MATTHEWS", "state": "NC", "street": "608 MATTHEWS MINT HILL RD", "postcode": "28105"}}},
{"geometry": {"type": "Point", "coordinates": [-80.6997704893, 35.1204066345]}, "type": "Feature", "properties": {"collection_times": [{"days": "Mon-Fri", "time": "2:00pm"}, {"days": "Sat-Sun", "time": "Closed"}], "id": "2810500017", "name": "USPS COLLECTION BOX - BLUE BOX", "address": {"city": "MATTHEWS", "state": "NC", "street": "10820 E INDEPENDENCE BLVD", "postcode": "28105"}}},
{"geometry": {"type": "Point", "coordinates": [-80.7097291174, 35.1307088312]}, "type": "Feature", "properties": {"collection_times": [{"days": "Mon-Fri", "time": "2:00pm"}, {"days": "Sat-Sun", "time": "Closed"}], "id": "2810500018", "name": "USPS COLLECTION BOX - BLUE BOX", "address": {"city": "MATTHEWS", "state": "NC", "street": "10101 E INDEPENDENCE BLVD", "postcode": "28105"}}},
{"geometry": {"type": "Point", "coordinates": [-80.713949915, 35.1218614811]}, "type": "Feature", "properties": {"collection_times": [{"days": "Mon-Fri", "time": "1:30pm"}, {"days": "Sat-Sun", "time": "Closed"}], "id": "2810500019", "name": "USPS COLLECTION BOX - BLUE BOX", "address": {"city": "MATTHEWS", "state": "NC", "street": "1500 MATTHEWS TOWNSHIP PKWY", "postcode": "28105"}}},
{"geometry": {"type": "Point", "coordinates": [-80.6936893768, 35.0872895053]}, "type": "Feature", "properties": {"collection_times": [{"days": "Mon-Fri", "time": "1:30pm"}, {"days": "Sat-Sun", "time": "Closed"}], "id": "2810500020", "name": "USPS COLLECTION BOX - BLUE BOX", "address": {"city": "MATTHEWS", "state": "NC", "street": "323 STALLINGS RD", "postcode": "28105"}}},
{"geometry": {"type": "Point", "coordinates": [-80.7148177328, 35.1217824211]}, "type": "Feature", "properties": {"collection_times": [{"days": "Mon-Fri", "time": "1:30pm"}, {"days": "Sat-Sun", "time": "Closed"}], "id": "2810500022", "name": "USPS COLLECTION BOX - BLUE BOX", "address": {"city": "MATTHEWS", "state": "NC", "street": "3104 WEDDINGTON RD", "postcode": "28105"}}},
{"geometry": {"type": "Point", "coordinates": [-80.7148177328, 35.1217824211]}, "type": "Feature", "properties": {"collection_times": [{"days": "Mon-Fri", "time": "11:00am"}, {"days": "Sat-Sun", "time": "Closed"}], "id": "2810500023", "name": "USPS COLLECTION BOX - BLUE BOX", "address": {"city": "MATTHEWS", "state": "NC", "street": "13639 PROVIDENCE RD", "postcode": "28105"}}},
{"geometry": {"type": "Point", "coordinates": [-80.7202882094, 35.1146300533]}, "type": "Feature", "properties": {"collection_times": [{"days": "Mon-Fri", "time": "5:00pm"}, {"days": "Sat", "time": "4:00pm"}, {"days": "Sun", "time": "Closed"}], "id": "2810500025", "name": "USPS COLLECTION BOX - PO LOBBY", "address": {"city": "MATTHEWS", "state": "NC", "street": "301 E JOHN ST", "postcode": "28105"}}},
{"geometry": {"type": "Point", "coordinates": [-80.7202882091, 35.1146300529]}, "type": "Feature", "properties": {"collection_times": [{"days": "Mon-Fri", "time": "5:00pm"}, {"days": "Sat", "time": "4:00pm"}, {"days": "Sun", "time": "Closed"}], "id": "2810500026", "name": "USPS COLLECTION BOX - PO LOBBY", "address": {"city": "MATTHEWS", "state": "NC", "street": "301 E JOHN ST", "postcode": "28105"}}},
{"geometry": {"type": "Point", "coordinates": [-80.7202882091, 35.1146300529]}, "type": "Feature", "properties": {"collection_times": [{"days": "Mon-Fri", "time": "5:00pm"}, {"days": "Sat", "time": "4:00pm"}, {"days": "Sun", "time": "Closed"}], "id": "2810500027", "name": "USPS COLLECTION BOX - PO LOBBY", "address": {"city": "MATTHEWS", "state": "NC", "street": "301 E JOHN ST", "postcode": "28105"}}},
{"geometry": {"type": "Point", "coordinates": [-80.7202882091, 35.1146300529]}, "type": "Feature", "properties": {"collection_times": [{"days": "Mon-Fri", "time": "5:00pm"}, {"days": "Sat", "time": "4:00pm"}, {"days": "Sun", "time": "Closed"}], "id": "2810500028", "name": "USPS COLLECTION BOX - APC", "address": {"city": "MATTHEWS", "state": "NC", "street": "301 E JOHN ST", "postcode": "28105"}}},
{"geometry": {"type": "Point", "coordinates": [-80.5077214237, 35.2303009461]}, "type": "Feature", "properties": {"collection_times": [{"days": "Mon-Fri", "time": "4:30pm"}, {"days": "Sat", "time": "10:00am"}, {"days": "Sun", "time": "Closed"}], "id": "2810700002", "name": "USPS COLLECTION BOX - BLUE BOX", "address": {"city": "MIDLAND", "state": "NC", "street": "13379 HIGHWAY 601", "postcode": "28107"}}},
{"geometry": {"type": "Point", "coordinates": [-80.5077214237, 35.2303009461]}, "type": "Feature", "properties": {"collection_times": [{"days": "Mon-Fri", "time": "4:30pm"}, {"days": "Sat", "time": "10:00am"}, {"days": "Sun", "time": "Closed"}], "id": "2810700003", "name": "USPS COLLECTION BOX - PO LOBBY", "address": {"city": "MIDLAND", "state": "NC", "street": "13379 HIGHWAY 601", "postcode": "28107"}}},
{"geometry": {"type": "Point", "coordinates": [-80.5077214237, 35.2303009461]}, "type": "Feature", "properties": {"collection_times": [{"days": "Mon-Fri", "time": "4:30pm"}, {"days": "Sat", "time": "10:00am"}, {"days": "Sun", "time": "Closed"}], "id": "2810700004", "name": "USPS COLLECTION BOX - PO LOBBY", "address": {"city": "MIDLAND", "state": "NC", "street": "13379 HIGHWAY 601", "postcode": "28107"}}},
{"geometry": {"type": "Point", "coordinates": [-80.6711869069, 34.9371698489]}, "type": "Feature", "properties": {"collection_times": [{"days": "Mon-Fri", "time": "4:00pm"}, {"days": "Sat", "time": "10:00am"}, {"days": "Sun", "time": "Closed"}], "id": "2810800003", "name": "USPS COLLECTION BOX - BLUE BOX", "address": {"city": "MINERAL SPRINGS", "state": "NC", "street": "5912 WAXHAW HWY", "postcode": "28108"}}},
{"geometry": {"type": "Point", "coordinates": [-80.667596213, 34.9388924496]}, "type": "Feature", "properties": {"collection_times": [{"days": "Mon-Fri", "time": "4:00pm"}, {"days": "Sat", "time": "10:00am"}, {"days": "Sun", "time": "Closed"}], "id": "2810800004", "name": "USPS COLLECTION BOX - PO LOBBY", "address": {"city": "MINERAL SPRINGS", "state": "NC", "street": "5912 WAXHAW HWY", "postcode": "28108"}}},
{"geometry": {"type": "Point", "coordinates": [-80.6711869069, 34.9371698489]}, "type": "Feature", "properties": {"collection_times": [{"days": "Mon-Fri", "time": "4:00pm"}, {"days": "Sat", "time": "10:00am"}, {"days": "Sun", "time": "Closed"}], "id": "2810800005", "name": "USPS COLLECTION BOX - PO LOBBY", "address": {"city": "MINERAL SPRINGS", "state": "NC", "street": "5912 WAXHAW HWY", "postcode": "28108"}}},
{"geometry": {"type": "Point", "coordinates": [-80.2879905794, 35.4851833105]}, "type": "Feature", "properties": {"collection_times": [{"days": "Mon-Fri", "time": "4:00pm"}, {"days": "Sat", "time": "9:30am"}, {"days": "Sun", "time": "Closed"}], "id": "2810900005", "name": "USPS COLLECTION BOX - BLUE BOX", "address": {"city": "MISENHEIMER", "state": "NC", "street": "48456 US HWY 52 N", "postcode": "28109"}}},
{"geometry": {"type": "Point", "coordinates": [-80.2879905794, 35.4851833105]}, "type": "Feature", "properties": {"collection_times": [{"days": "Mon-Fri", "time": "4:00pm"}, {"days": "Sat", "time": "9:30am"}, {"days": "Sun", "time": "Closed"}], "id": "2810900006", "name": "USPS COLLECTION BOX - PO LOBBY", "address": {"city": "MISENHEIMER", "state": "NC", "street": "48456 US HWY 52 N", "postcode": "28109"}}},
{"geometry": {"type": "Point", "coordinates": [-80.5458749461, 35.0006186975]}, "type": "Feature", "properties": {"collection_times": [{"days": "Mon-Fri", "time": "4:00pm"}, {"days": "Sat-Sun", "time": "Closed"}], "id": "2811000004", "name": "USPS COLLECTION BOX - BLUE BOX", "address": {"city": "MONROE", "state": "NC", "street": "1500 SKYWAY DR", "postcode": "28110"}}},
{"geometry": {"type": "Point", "coordinates": [-80.5596210884, 35.0070801556]}, "type": "Feature", "properties": {"collection_times": [{"days": "Mon-Fri", "time": "3:00pm"}, {"days": "Sat-Sun", "time": "Closed"}], "id": "2811000012", "name": "USPS COLLECTION BOX - BLUE BOX", "address": {"city": "MONROE", "state": "NC", "street": "2120 W ROOSEVELT BLVD", "postcode": "28110"}}},
{"geometry": {"type": "Point", "coordinates": [-80.6186207115, 35.0520664458]}, "type": "Feature", "properties": {"collection_times": [{"days": "Mon-Fri", "time": "3:00pm"}, {"days": "Sat-Sun", "time": "Closed"}], "id": "2811000017", "name": "USPS COLLECTION BOX - BLUE BOX", "address": {"city": "MONROE", "state": "NC", "street": "2710 CHAMBER DR", "postcode": "28110"}}},
{"geometry": {"type": "Point", "coordinates": [-80.5670796447, 35.0125619875]}, "type": "Feature", "properties": {"collection_times": [{"days": "Mon-Fri", "time": "3:00pm"}, {"days": "Sat-Sun", "time": "Closed"}], "id": "2811000021", "name": "USPS COLLECTION BOX - BLUE BOX", "address": {"city": "MONROE", "state": "NC", "street": "2406 W ROOSEVELT BLVD", "postcode": "28110"}}},
{"geometry": {"type": "Point", "coordinates": [-80.5720792489, 35.0162988322]}, "type": "Feature", "properties": {"collection_times": [{"days": "Mon-Fri", "time": "3:00pm"}, {"days": "Sat-Sun", "time": "Closed"}], "id": "2811000026", "name": "USPS COLLECTION BOX - BLUE BOX", "address": {"city": "MONROE", "state": "NC", "street": "2602 W ROOSEVELT BLVD", "postcode": "28110"}}},
{"geometry": {"type": "Point", "coordinates": [-80.6187659527, 35.0278396516]}, "type": "Feature", "properties": {"collection_times": [{"days": "Mon-Fri", "time": "3:00pm"}, {"days": "Sat-Sun", "time": "Closed"}], "id": "2811000037", "name": "USPS COLLECTION BOX - BLUE BOX", "address": {"city": "MONROE", "state": "NC", "street": "1800 AIRPORT RD", "postcode": "28110"}}},
{"geometry": {"type": "Point", "coordinates": [-80.5428080053, 34.9951794192]}, "type": "Feature", "properties": {"collection_times": [{"days": "Mon-Fri", "time": "4:00pm"}, {"days": "Sat-Sun", "time": "Closed"}], "id": "2811000038", "name": "USPS COLLECTION BOX - BLUE BOX", "address": {"city": "MONROE", "state": "NC", "street": "1325 W ROOSEVELT BLVD", "postcode": "28110"}}},
{"geometry": {"type": "Point", "coordinates": [-80.5411644103, 34.9946721039]}, "type": "Feature", "properties": {"collection_times": [{"days": "Mon-Fri", "time": "3:00pm"}, {"days": "Sat-Sun", "time": "Closed"}], "id": "2811000040", "name": "USPS COLLECTION BOX - BLUE BOX", "address": {"city": "MONROE", "state": "NC", "street": "1212 W ROOSEVELT BLVD", "postcode": "28110"}}},
{"geometry": {"type": "Point", "coordinates": [-80.5493111767, 34.9825707845]}, "type": "Feature", "properties": {"collection_times": [{"days": "Mon-Fri", "time": "4:00pm"}, {"days": "Sat-Sun", "time": "Closed"}], "id": "2811000041", "name": "USPS COLLECTION BOX - BLUE BOX", "address": {"city": "MONROE", "state": "NC", "street": "118 E FRANKLIN ST", "postcode": "28110"}}},
{"geometry": {"type": "Point", "coordinates": [-80.557933006, 35.0056345798]}, "type": "Feature", "properties": {"collection_times": [{"days": "Mon-Fri", "time": "4:00pm"}, {"days": "Sat-Sun", "time": "Closed"}], "id": "2811000045", "name": "USPS COLLECTION BOX - BLUE BOX", "address": {"city": "MONROE", "state": "NC", "street": "2115 W ROOSEVELT BLVD", "postcode": "28110"}}},
{"geometry": {"type": "Point", "coordinates": [-80.5534876786, 35.0256535194]}, "type": "Feature", "properties": {"collection_times": [{"days": "Mon-Fri", "time": "5:00pm"}, {"days": "Sat", "time": "3:55pm"}, {"days": "Sun", "time": "Closed"}], "id": "2811000046", "name": "USPS COLLECTION BOX - PO LOBBY", "address": {"city": "MONROE", "state": "NC", "street": "106 S STEWART ST", "postcode": "28110"}}},
{"geometry": {"type": "Point", "coordinates": [-80.5524408999, 34.9831486845]}, "type": "Feature", "properties": {"collection_times": [{"days": "Mon-Fri", "time": "4:00pm"}, {"days": "Sat-Sun", "time": "Closed"}], "id": "2811200003", "name": "USPS COLLECTION BOX - BLUE BOX", "address": {"city": "MONROE", "state": "NC", "street": "305 W JEFFERSON ST", "postcode": "28112"}}},
{"geometry": {"type": "Point", "coordinates": [-80.5392507257, 34.8934746595]}, "type": "Feature", "properties": {"collection_times": [{"days": "Mon-Fri", "time": "3:00pm"}, {"days": "Sat-Sun", "time": "Closed"}], "id": "2811200004", "name": "USPS COLLECTION BOX - BLUE BOX", "address": {"city": "MONROE", "state": "NC", "street": "@ MORGAN MILL RD", "postcode": "28112"}}},
{"geometry": {"type": "Point", "coordinates": [-80.5236236471, 34.9739963423]}, "type": "Feature", "properties": {"collection_times": [{"days": "Mon-Fri", "time": "3:00pm"}, {"days": "Sat-Sun", "time": "Closed"}], "id": "2811200005", "name": "USPS COLLECTION BOX - BLUE BOX", "address": {"city": "MONROE", "state": "NC", "street": "1402 E FRANKLIN ST", "postcode": "28112"}}},
{"geometry": {"type": "Point", "coordinates": [-80.5208709362, 34.9761764356]}, "type": "Feature", "properties": {"collection_times": [{"days": "Mon-Fri", "time": "3:00pm"}, {"days": "Sat-Sun", "time": "Closed"}], "id": "2811200006", "name": "USPS COLLECTION BOX - BLUE BOX", "address": {"city": "MONROE", "state": "NC", "street": "1423 DOVE ST", "postcode": "28112"}}},
{"geometry": {"type": "Point", "coordinates": [-80.550301356, 34.9830703576]}, "type": "Feature", "properties": {"collection_times": [{"days": "Mon-Fri", "time": "4:00pm"}, {"days": "Sat-Sun", "time": "Closed"}], "id": "2811200008", "name": "USPS COLLECTION BOX - BLUE BOX", "address": {"city": "MONROE", "state": "NC", "street": "500 N MAIN ST", "postcode": "28112"}}},
{"geometry": {"type": "Point", "coordinates": [-80.5544894124, 34.9757944399]}, "type": "Feature", "properties": {"collection_times": [{"days": "Mon-Fri", "time": "3:00pm"}, {"days": "Sat-Sun", "time": "Closed"}], "id": "2811200012", "name": "USPS COLLECTION BOX - BLUE BOX", "address": {"city": "MONROE", "state": "NC", "street": "106 GRIFFITH RD", "postcode": "28112"}}},
{"geometry": {"type": "Point", "coordinates": [-80.5524408999, 34.9831486845]}, "type": "Feature", "properties": {"collection_times": [{"days": "Mon-Fri", "time": "4:00pm"}, {"days": "Sat-Sun", "time": "Closed"}], "id": "2811200014", "name": "USPS COLLECTION BOX - BLUE BOX", "address": {"city": "MONROE", "state": "NC", "street": "305 W JEFFERSON ST", "postcode": "28112"}}},
{"geometry": {"type": "Point", "coordinates": [-80.5511068116, 34.9811815052]}, "type": "Feature", "properties": {"collection_times": [{"days": "Mon-Fri", "time": "5:00pm"}, {"days": "Sat", "time": "4:00pm"}, {"days": "Sun", "time": "Closed"}], "id": "2811200015", "name": "USPS COLLECTION BOX - BLUE BOX", "address": {"city": "MONROE", "state": "NC", "street": "106 S STEWART ST", "postcode": "28112"}}},
{"geometry": {"type": "Point", "coordinates": [-80.5511068116, 34.9811815052]}, "type": "Feature", "properties": {"collection_times": [{"days": "Mon-Fri", "time": "5:00pm"}, {"days": "Sat", "time": "4:00pm"}, {"days": "Sun", "time": "Closed"}], "id": "2811200016", "name": "USPS COLLECTION BOX - BLUE BOX", "address": {"city": "MONROE", "state": "NC", "street": "106 S STEWART ST", "postcode": "28112"}}},
{"geometry": {"type": "Point", "coordinates": [-80.5511068116, 34.9811815052]}, "type": "Feature", "properties": {"collection_times": [{"days": "Mon-Fri", "time": "5:00pm"}, {"days": "Sat", "time": "4:00pm"}, {"days": "Sun", "time": "Closed"}], "id": "2811200017", "name": "USPS COLLECTION BOX - BLUE BOX", "address": {"city": "MONROE", "state": "NC", "street": "106 S STEWART ST", "postcode": "28112"}}},
{"geometry": {"type": "Point", "coordinates": [-80.5511068116, 34.9811815052]}, "type": "Feature", "properties": {"collection_times": [{"days": "Mon-Fri", "time": "5:00pm"}, {"days": "Sat", "time": "4:00pm"}, {"days": "Sun", "time": "Closed"}], "id": "2811200018", "name": "USPS COLLECTION BOX - BLUE BOX", "address": {"city": "MONROE", "state": "NC", "street": "106 S STEWART ST", "postcode": "28112"}}},
{"geometry": {"type": "Point", "coordinates": [-80.519335699, 34.9768025707]}, "type": "Feature", "properties": {"collection_times": [{"days": "Mon-Fri", "time": "3:00pm"}, {"days": "Sat-Sun", "time": "Closed"}], "id": "2811200023", "name": "USPS COLLECTION BOX - BLUE BOX", "address": {"city": "MONROE", "state": "NC", "street": "351 VENUS ST", "postcode": "28112"}}},
{"geometry": {"type": "Point", "coordinates": [-80.5537179639, 34.9411214374]}, "type": "Feature", "properties": {"collection_times": [{"days": "Mon-Fri", "time": "9:30am"}, {"days": "Sat-Sun", "time": "Closed"}], "id": "2811200030", "name": "USPS COLLECTION BOX - BLUE BOX", "address": {"city": "MONROE", "state": "NC", "street": "5602 WAXHAW HWY", "postcode": "28112"}}},
{"geometry": {"type": "Point", "coordinates": [-81.6991308628, 35.2985329757]}, "type": "Feature", "properties": {"collection_times": [{"days": "Mon-Fri", "time": "4:45pm"}, {"days": "Sat", "time": "9:00am"}, {"days": "Sun", "time": "Closed"}], "id": "2811400002", "name": "USPS COLLECTION BOX - BLUE BOX", "address": {"city": "MOORESBORO", "state": "NC", "street": "104 W CHURCH ST", "postcode": "28114"}}},
{"geometry": {"type": "Point", "coordinates": [-81.6888680307, 35.1963427155]}, "type": "Feature", "properties": {"collection_times": [{"days": "Mon-Fri", "time": "4:45pm"}, {"days": "Sat", "time": "9:00am"}, {"days": "Sun", "time": "Closed"}], "id": "2811400004", "name": "USPS COLLECTION BOX - PO LOBBY", "address": {"city": "MOORESBORO", "state": "NC", "street": "104 W CHURCH ST", "postcode": "28114"}}},
{"geometry": {"type": "Point", "coordinates": [-81.6888680307, 35.1963427155]}, "type": "Feature", "properties": {"collection_times": [{"days": "Mon-Sat", "time": "10:00am"}, {"days": "Sun", "time": "Closed"}], "id": "2811400005", "name": "USPS COLLECTION BOX - BLUE BOX", "address": {"city": "MOORESBORO", "state": "NC", "street": "2684 HARRIS HENRIETTA RD", "postcode": "28114"}}},
{"geometry": {"type": "Point", "coordinates": [-80.814301507, 35.5818243177]}, "type": "Feature", "properties": {"collection_times": [{"days": "Mon-Fri", "time": "3:00pm"}, {"days": "Sat", "time": "1:00pm"}, {"days": "Sun", "time": "Closed"}], "id": "2811500008", "name": "USPS COLLECTION BOX - BLUE BOX", "address": {"city": "MOORESVILLE", "state": "NC", "street": "207 S BROAD ST", "postcode": "28115"}}},
{"geometry": {"type": "Point", "coordinates": [-80.8126429985, 35.5990860549]}, "type": "Feature", "properties": {"collection_times": [{"days": "Mon-Fri", "time": "3:00pm"}, {"days": "Sat", "time": "1:00pm"}, {"days": "Sun", "time": "Closed"}], "id": "2811500011", "name": "USPS COLLECTION BOX - BLUE BOX", "address": {"city": "MOORESVILLE", "state": "NC", "street": "529 E PLAZA DR", "postcode": "28115"}}},
{"geometry": {"type": "Point", "coordinates": [-80.8064218173, 35.5853235103]}, "type": "Feature", "properties": {"collection_times": [{"days": "Mon-Fri", "time": "5:00pm"}, {"days": "Sat", "time": "1:00pm"}, {"days": "Sun", "time": "Closed"}], "id": "2811500029", "name": "USPS COLLECTION BOX - BLUE BOX", "address": {"city": "MOORESVILLE", "state": "NC", "street": "123 INSTITUTE ST", "postcode": "28115"}}},
{"geometry": {"type": "Point", "coordinates": [-80.8064218173, 35.5853235103]}, "type": "Feature", "properties": {"collection_times": [{"days": "Mon-Fri", "time": "5:00pm"}, {"days": "Sat", "time": "1:00pm"}, {"days": "Sun", "time": "Closed"}], "id": "2811500030", "name": "USPS COLLECTION BOX - BLUE BOX", "address": {"city": "MOORESVILLE", "state": "NC", "street": "123 INSTITUTE ST", "postcode": "28115"}}},
{"geometry": {"type": "Point", "coordinates": [-80.8064218171, 35.5853235103]}, "type": "Feature", "properties": {"collection_times": [{"days": "Mon-Fri", "time": "5:00pm"}, {"days": "Sat", "time": "1:00pm"}, {"days": "Sun", "time": "Closed"}], "id": "2811500031", "name": "USPS COLLECTION BOX - PO LOBBY", "address": {"city": "MOORESVILLE", "state": "NC", "street": "123 INSTITUTE ST", "postcode": "28115"}}},
{"geometry": {"type": "Point", "coordinates": [-80.8064218173, 35.5853235103]}, "type": "Feature", "properties": {"collection_times": [{"days": "Mon-Fri", "time": "5:00pm"}, {"days": "Sat", "time": "1:00pm"}, {"days": "Sun", "time": "Closed"}], "id": "2811500032", "name": "USPS COLLECTION BOX - PO LOBBY", "address": {"city": "MOORESVILLE", "state": "NC", "street": "123 INSTITUTE ST", "postcode": "28115"}}},
{"geometry": {"type": "Point", "coordinates": [-80.811387879, 35.5835467059]}, "type": "Feature", "properties": {"collection_times": [{"days": "Mon-Fri", "time": "3:00pm"}, {"days": "Sat", "time": "1:00pm"}, {"days": "Sun", "time": "Closed"}], "id": "2811500033", "name": "USPS COLLECTION BOX - BLUE BOX", "address": {"city": "MOORESVILLE", "state": "NC", "street": "183 N MAIN ST", "postcode": "28115"}}},
{"geometry": {"type": "Point", "coordinates": [-80.8811271633, 35.5757616308]}, "type": "Feature", "properties": {"collection_times": [{"days": "Mon-Fri", "time": "3:00pm"}, {"days": "Sat", "time": "1:00pm"}, {"days": "Sun", "time": "Closed"}], "id": "2811700004", "name": "USPS COLLECTION BOX - BLUE BOX", "address": {"city": "MOORESVILLE", "state": "NC", "street": "390 W PLAZA DR", "postcode": "28117"}}},
{"geometry": {"type": "Point", "coordinates": [-80.8627676663, 35.5916463007]}, "type": "Feature", "properties": {"collection_times": [{"days": "Mon-Fri", "time": "3:00pm"}, {"days": "Sat", "time": "1:00pm"}, {"days": "Sun", "time": "Closed"}], "id": "2811700005", "name": "USPS COLLECTION BOX - BLUE BOX", "address": {"city": "MOORESVILLE", "state": "NC", "street": "100 ROLLING HILL RD", "postcode": "28117"}}},
{"geometry": {"type": "Point", "coordinates": [-80.853046962, 35.5503162056]}, "type": "Feature", "properties": {"collection_times": [{"days": "Mon-Fri", "time": "3:00pm"}, {"days": "Sat", "time": "1:00pm"}, {"days": "Sun", "time": "Closed"}], "id": "2811700010", "name": "USPS COLLECTION BOX - BLUE BOX", "address": {"city": "MOORESVILLE", "state": "NC", "street": "131 MEDICAL PARK RD", "postcode": "28117"}}},
{"geometry": {"type": "Point", "coordinates": [-80.8477054263, 35.6049623735]}, "type": "Feature", "properties": {"collection_times": [{"days": "Mon-Fri", "time": "3:00pm"}, {"days": "Sat", "time": "1:00pm"}, {"days": "Sun", "time": "Closed"}], "id": "2811700011", "name": "USPS COLLECTION BOX - BLUE BOX", "address": {"city": "MOORESVILLE", "state": "NC", "street": "210 TALBERT POINTE DR", "postcode": "28117"}}},
{"geometry": {"type": "Point", "coordinates": [-80.8811271633, 35.5757616308]}, "type": "Feature", "properties": {"collection_times": [{"days": "Mon-Fri", "time": "3:00pm"}, {"days": "Sat", "time": "1:00pm"}, {"days": "Sun", "time": "Closed"}], "id": "2811700012", "name": "USPS COLLECTION BOX - BLUE BOX", "address": {"city": "MOORESVILLE", "state": "NC", "street": "133 INFIELD CT", "postcode": "28117"}}},
{"geometry": {"type": "Point", "coordinates": [-80.8512745583, 35.5477150651]}, "type": "Feature", "properties": {"collection_times": [{"days": "Mon-Fri", "time": "3:00pm"}, {"days": "Sat", "time": "1:00pm"}, {"days": "Sun", "time": "Closed"}], "id": "2811700013", "name": "USPS COLLECTION BOX - BLUE BOX", "address": {"city": "MOORESVILLE", "state": "NC", "street": "1000 LOWES BLVD", "postcode": "28117"}}},
{"geometry": {"type": "Point", "coordinates": [-80.8811271633, 35.5757616308]}, "type": "Feature", "properties": {"collection_times": [{"days": "Mon-Fri", "time": "5:00pm"}, {"days": "Sat", "time": "1:00pm"}, {"days": "Sun", "time": "Closed"}], "id": "2811700015", "name": "USPS COLLECTION BOX - BLUE BOX", "address": {"city": "MOORESVILLE", "state": "NC", "street": "172 WILLIAMSON RD", "postcode": "28117"}}},
{"geometry": {"type": "Point", "coordinates": [-80.8811271633, 35.5757616308]}, "type": "Feature", "properties": {"collection_times": [{"days": "Mon-Fri", "time": "5:00pm"}, {"days": "Sat", "time": "1:00pm"}, {"days": "Sun", "time": "Closed"}], "id": "2811700016", "name": "USPS COLLECTION BOX - BLUE BOX", "address": {"city": "MOORESVILLE", "state": "NC", "street": "172 WILLIAMSON RD", "postcode": "28117"}}},
{"geometry": {"type": "Point", "coordinates": [-79.1854142581, 35.5393473065]}, "type": "Feature", "properties": {"collection_times": [{"days": "Mon-Sat", "time": "1:00pm"}, {"days": "Sun", "time": "Closed"}], "id": "2811700017", "name": "USPS COLLECTION BOX - BLUE BOX", "address": {"city": "MOORESVILLE", "state": "NC", "street": "120 TRUMP SQ", "postcode": "28117"}}},
{"geometry": {"type": "Point", "coordinates": [-80.8811271633, 35.5757616308]}, "type": "Feature", "properties": {"collection_times": [{"days": "Mon-Fri", "time": "5:00pm"}, {"days": "Sat", "time": "1:00pm"}, {"days": "Sun", "time": "Closed"}], "id": "2811700018", "name": "USPS COLLECTION BOX - PO LOBBY", "address": {"city": "MOORESVILLE", "state": "NC", "street": "172 WILLIAMSON RD", "postcode": "28117"}}},
{"geometry": {"type": "Point", "coordinates": [-80.8811271633, 35.5757616308]}, "type": "Feature", "properties": {"collection_times": [{"days": "Mon-Fri", "time": "5:00pm"}, {"days": "Sat", "time": "1:00pm"}, {"days": "Sun", "time": "Closed"}], "id": "2811700019", "name": "USPS COLLECTION BOX - PO LOBBY", "address": {"city": "MOORESVILLE", "state": "NC", "street": "172 WILLIAMSON RD", "postcode": "28117"}}},
{"geometry": {"type": "Point", "coordinates": [-80.8811271633, 35.5757616308]}, "type": "Feature", "properties": {"collection_times": [{"days": "Mon-Fri", "time": "5:00pm"}, {"days": "Sat", "time": "1:00pm"}, {"days": "Sun", "time": "Closed"}], "id": "2811700020", "name": "USPS COLLECTION BOX - PO LOBBY", "address": {"city": "MOORESVILLE", "state": "NC", "street": "172 WILLIAMSON RD", "postcode": "28117"}}},
{"geometry": {"type": "Point", "coordinates": [-80.8811271633, 35.5757616308]}, "type": "Feature", "properties": {"collection_times": [{"days": "Mon-Fri", "time": "5:00pm"}, {"days": "Sat", "time": "1:00pm"}, {"days": "Sun", "time": "Closed"}], "id": "2811700023", "name": "USPS COLLECTION BOX - APC", "address": {"city": "MOORESVILLE", "state": "NC", "street": "172 WILLIAMSON RD", "postcode": "28117"}}},
{"geometry": {"type": "Point", "coordinates": [-79.9743033806, 34.8129867581]}, "type": "Feature", "properties": {"collection_times": [{"days": "Mon-Fri", "time": "4:30pm"}, {"days": "Sat", "time": "8:00am"}, {"days": "Sun", "time": "Closed"}], "id": "2811900002", "name": "USPS COLLECTION BOX - BLUE BOX", "address": {"city": "MORVEN", "state": "NC", "street": "108 E MAIN ST", "postcode": "28119"}}},
{"geometry": {"type": "Point", "coordinates": [-80.0305097816, 34.8460223021]}, "type": "Feature", "properties": {"collection_times": [{"days": "Mon-Fri", "time": "4:30pm"}, {"days": "Sat", "time": "8:00am"}, {"days": "Sun", "time": "Closed"}], "id": "2811900003", "name": "USPS COLLECTION BOX - PO LOBBY", "address": {"city": "MORVEN", "state": "NC", "street": "108 E MAIN ST", "postcode": "28119"}}},
{"geometry": {"type": "Point", "coordinates": [-81.0318405626, 35.3036041983]}, "type": "Feature", "properties": {"collection_times": [{"days": "Mon-Fri", "time": "2:00pm"}, {"days": "Sat", "time": "1:00pm"}, {"days": "Sun", "time": "Closed"}], "id": "2812000003", "name": "USPS COLLECTION BOX - BLUE BOX", "address": {"city": "MOUNT HOLLY", "state": "NC", "street": "806 W CENTRAL AVE", "postcode": "28120"}}},
{"geometry": {"type": "Point", "coordinates": [-81.0162053942, 35.2970009217]}, "type": "Feature", "properties": {"collection_times": [{"days": "Mon-Sat", "time": "1:00pm"}, {"days": "Sun", "time": "Closed"}], "id": "2812000004", "name": "USPS COLLECTION BOX - BLUE BOX", "address": {"city": "MOUNT HOLLY", "state": "NC", "street": "110 N MAIN ST", "postcode": "28120"}}},
{"geometry": {"type": "Point", "coordinates": [-81.0162846525, 35.2962319984]}, "type": "Feature", "properties": {"collection_times": [{"days": "Mon-Sat", "time": "1:00pm"}, {"days": "Sun", "time": "Closed"}], "id": "2812000006", "name": "USPS COLLECTION BOX - BLUE BOX", "address": {"city": "MOUNT HOLLY", "state": "NC", "street": "130 S MAIN ST", "postcode": "28120"}}},
{"geometry": {"type": "Point", "coordinates": [-81.0318405629, 35.3036041987]}, "type": "Feature", "properties": {"collection_times": [{"days": "Mon-Fri", "time": "2:00pm"}, {"days": "Sat", "time": "1:00pm"}, {"days": "Sun", "time": "Closed"}], "id": "2812000015", "name": "USPS COLLECTION BOX - BLUE BOX", "address": {"city": "MOUNT HOLLY", "state": "NC", "street": "806 W CENTRAL AVE", "postcode": "28120"}}},
{"geometry": {"type": "Point", "coordinates": [-81.0318405626, 35.3036041983]}, "type": "Feature", "properties": {"collection_times": [{"days": "Mon-Fri", "time": "2:00pm"}, {"days": "Sat", "time": "1:00pm"}, {"days": "Sun", "time": "Closed"}], "id": "2812000017", "name": "USPS COLLECTION BOX - PO LOBBY", "address": {"city": "MOUNT HOLLY", "state": "NC", "street": "806 W CENTRAL AVE", "postcode": "28120"}}},
{"geometry": {"type": "Point", "coordinates": [-81.0318405629, 35.3036041987]}, "type": "Feature", "properties": {"collection_times": [{"days": "Mon-Fri", "time": "2:00pm"}, {"days": "Sat", "time": "1:00pm"}, {"days": "Sun", "time": "Closed"}], "id": "2812000018", "name": "USPS COLLECTION BOX - PO LOBBY", "address": {"city": "MOUNT HOLLY", "state": "NC", "street": "806 W CENTRAL AVE", "postcode": "28120"}}},
{"geometry": {"type": "Point", "coordinates": [-81.0318405629, 35.3036041987]}, "type": "Feature", "properties": {"collection_times": [{"days": "Mon-Fri", "time": "2:00pm"}, {"days": "Sat", "time": "1:00pm"}, {"days": "Sun", "time": "Closed"}], "id": "2812000019", "name": "USPS COLLECTION BOX - PO LOBBY", "address": {"city": "MOUNT HOLLY", "state": "NC", "street": "806 W CENTRAL AVE", "postcode": "28120"}}},
{"geometry": {"type": "Point", "coordinates": [-80.8476335335, 35.543310467]}, "type": "Feature", "properties": {"collection_times": [{"days": "Mon-Fri", "time": "4:30pm"}, {"days": "Sat", "time": "9:30am"}, {"days": "Sun", "time": "Closed"}], "id": "2812300003", "name": "USPS COLLECTION BOX - BLUE BOX", "address": {"city": "MOUNT MOURNE", "state": "NC", "street": "1519 MECKLENBURG HWY", "postcode": "28123"}}},
{"geometry": {"type": "Point", "coordinates": [-80.844546562, 35.5503911437]}, "type": "Feature", "properties": {"collection_times": [{"days": "Mon-Fri", "time": "4:30pm"}, {"days": "Sat", "time": "9:30am"}, {"days": "Sun", "time": "Closed"}], "id": "2812300004", "name": "USPS COLLECTION BOX - PO LOBBY", "address": {"city": "MOUNT MOURNE", "state": "NC", "street": "1519 MECKLENBURG HWY", "postcode": "28123"}}},
{"geometry": {"type": "Point", "coordinates": [-80.4386453512, 35.3987560148]}, "type": "Feature", "properties": {"collection_times": [{"days": "Mon-Fri", "time": "4:30pm"}, {"days": "Sat", "time": "9:30am"}, {"days": "Sun", "time": "Closed"}], "id": "2812400007", "name": "USPS COLLECTION BOX - BLUE BOX", "address": {"city": "MOUNT PLEASANT", "state": "NC", "street": "8285 BARRINGER DR", "postcode": "28124"}}},
{"geometry": {"type": "Point", "coordinates": [-80.4386453512, 35.3987560148]}, "type": "Feature", "properties": {"collection_times": [{"days": "Mon-Fri", "time": "4:30pm"}, {"days": "Sat", "time": "9:30am"}, {"days": "Sun", "time": "Closed"}], "id": "2812400009", "name": "USPS COLLECTION BOX - PO LOBBY", "address": {"city": "MOUNT PLEASANT", "state": "NC", "street": "8285 BARRINGER DR", "postcode": "28124"}}},
{"geometry": {"type": "Point", "coordinates": [-80.7200635098, 35.6659865789]}, "type": "Feature", "properties": {"collection_times": [{"days": "Mon-Fri", "time": "4:30pm"}, {"days": "Sat", "time": "9:00am"}, {"days": "Sun", "time": "Closed"}], "id": "2812500002", "name": "USPS COLLECTION BOX - BLUE BOX", "address": {"city": "MOUNT ULLA", "state": "NC", "street": "775 GRAMPIAN RD", "postcode": "28125"}}},
{"geometry": {"type": "Point", "coordinates": [-80.7200635098, 35.6659865789]}, "type": "Feature", "properties": {"collection_times": [{"days": "Mon-Fri", "time": "4:30pm"}, {"days": "Sat", "time": "9:00am"}, {"days": "Sun", "time": "Closed"}], "id": "2812500004", "name": "USPS COLLECTION BOX - PO LOBBY", "address": {"city": "MOUNT ULLA", "state": "NC", "street": "775 GRAMPIAN RD", "postcode": "28125"}}},
{"geometry": {"type": "Point", "coordinates": [-80.7362559899, 35.2787240198]}, "type": "Feature", "properties": {"collection_times": [{"days": "Mon-Fri", "time": "4:30pm"}, {"days": "Sat", "time": "11:00am"}, {"days": "Sun", "time": "Closed"}], "id": "2812600001", "name": "USPS COLLECTION BOX - BLUE BOX", "address": {"city": "NEWELL", "state": "NC", "street": "8105 OLD CONCORD RD", "postcode": "28126"}}},
{"geometry": {"type": "Point", "coordinates": [-80.7358532726, 35.2793627105]}, "type": "Feature", "properties": {"collection_times": [{"days": "Mon-Fri", "time": "4:30pm"}, {"days": "Sat", "time": "11:00am"}, {"days": "Sun", "time": "Closed"}], "id": "2812600002", "name": "USPS COLLECTION BOX - BLUE BOX", "address": {"city": "NEWELL", "state": "NC", "street": "8105 OLD CONCORD RD", "postcode": "28126"}}},
{"geometry": {"type": "Point", "coordinates": [-80.7362559899, 35.2787240198]}, "type": "Feature", "properties": {"collection_times": [{"days": "Mon-Fri", "time": "4:30pm"}, {"days": "Sat", "time": "11:00am"}, {"days": "Sun", "time": "Closed"}], "id": "2812600004", "name": "USPS COLLECTION BOX - PO LOBBY", "address": {"city": "NEWELL", "state": "NC", "street": "8105 OLD CONCORD RD", "postcode": "28126"}}},
{"geometry": {"type": "Point", "coordinates": [-80.2190057988, 35.4427497469]}, "type": "Feature", "properties": {"collection_times": [{"days": "Mon-Fri", "time": "4:00pm"}, {"days": "Sat", "time": "10:30am"}, {"days": "Sun", "time": "Closed"}], "id": "2812700001", "name": "USPS COLLECTION BOX - BLUE BOX", "address": {"city": "NEW LONDON", "state": "NC", "street": "212 S MAIN ST", "postcode": "28127"}}},
{"geometry": {"type": "Point", "coordinates": [-80.2190057988, 35.4427497469]}, "type": "Feature", "properties": {"collection_times": [{"days": "Mon-Fri", "time": "4:00pm"}, {"days": "Sat", "time": "10:30am"}, {"days": "Sun", "time": "Closed"}], "id": "2812700003", "name": "USPS COLLECTION BOX - PO LOBBY", "address": {"city": "NEW LONDON", "state": "NC", "street": "212 S MAIN ST", "postcode": "28127"}}},
{"geometry": {"type": "Point", "coordinates": [-80.1177960141, 35.2242234522]}, "type": "Feature", "properties": {"collection_times": [{"days": "Mon-Fri", "time": "4:30pm"}, {"days": "Sat", "time": "12:00pm"}, {"days": "Sun", "time": "Closed"}], "id": "2812800004", "name": "USPS COLLECTION BOX - BLUE BOX", "address": {"city": "NORWOOD", "state": "NC", "street": "243 S MAIN ST", "postcode": "28128"}}},
{"geometry": {"type": "Point", "coordinates": [-80.1177960141, 35.2242234522]}, "type": "Feature", "properties": {"collection_times": [{"days": "Mon-Fri", "time": "4:30pm"}, {"days": "Sat", "time": "12:00pm"}, {"days": "Sun", "time": "Closed"}], "id": "2812800006", "name": "USPS COLLECTION BOX - PO LOBBY", "address": {"city": "NORWOOD", "state": "NC", "street": "243 S MAIN ST", "postcode": "28128"}}},
{"geometry": {"type": "Point", "coordinates": [-80.3269602681, 35.2243790709]}, "type": "Feature", "properties": {"collection_times": [{"days": "Mon-Fri", "time": "4:30pm"}, {"days": "Sat", "time": "11:00am"}, {"days": "Sun", "time": "Closed"}], "id": "2812900003", "name": "USPS COLLECTION BOX - BLUE BOX", "address": {"city": "OAKBORO", "state": "NC", "street": "302 N MAIN ST", "postcode": "28129"}}},
{"geometry": {"type": "Point", "coordinates": [-80.3269602679, 35.224379071]}, "type": "Feature", "properties": {"collection_times": [{"days": "Mon-Fri", "time": "4:30pm"}, {"days": "Sat", "time": "11:00am"}, {"days": "Sun", "time": "Closed"}], "id": "2812900004", "name": "USPS COLLECTION BOX - PO LOBBY", "address": {"city": "OAKBORO", "state": "NC", "street": "302 N MAIN ST", "postcode": "28129"}}},
{"geometry": {"type": "Point", "coordinates": [-80.3269602681, 35.2243790709]}, "type": "Feature", "properties": {"collection_times": [{"days": "Mon-Fri", "time": "4:30pm"}, {"days": "Sat", "time": "11:00am"}, {"days": "Sun", "time": "Closed"}], "id": "2812900005", "name": "USPS COLLECTION BOX - PO LOBBY", "address": {"city": "OAKBORO", "state": "NC", "street": "302 N MAIN ST", "postcode": "28129"}}},
{"geometry": {"type": "Point", "coordinates": [-80.92983902, 35.2786414647]}, "type": "Feature", "properties": {"collection_times": [{"days": "Mon-Fri", "time": "5:00pm"}, {"days": "Sat", "time": "11:00am"}, {"days": "Sun", "time": "Closed"}], "id": "2813000003", "name": "USPS COLLECTION BOX - BLUE BOX", "address": {"city": "PAW CREEK", "state": "NC", "street": "7400 OLD MOUNT HOLLY RD", "postcode": "28130"}}},
{"geometry": {"type": "Point", "coordinates": [-80.92983902, 35.2786414647]}, "type": "Feature", "properties": {"collection_times": [{"days": "Mon-Fri", "time": "5:00pm"}, {"days": "Sat", "time": "11:00am"}, {"days": "Sun", "time": "Closed"}], "id": "2813000006", "name": "USPS COLLECTION BOX - PO LOBBY", "address": {"city": "PAW CREEK", "state": "NC", "street": "7400 OLD MOUNT HOLLY RD", "postcode": "28130"}}},
{"geometry": {"type": "Point", "coordinates": [-80.2470748126, 34.8596628178]}, "type": "Feature", "properties": {"collection_times": [{"days": "Mon-Fri", "time": "4:30pm"}, {"days": "Sat", "time": "10:30am"}, {"days": "Sun", "time": "Closed"}], "id": "2813300003", "name": "USPS COLLECTION BOX - BLUE BOX", "address": {"city": "PEACHLAND", "state": "NC", "street": "1 PASSIAC ST", "postcode": "28133"}}},
{"geometry": {"type": "Point", "coordinates": [-80.2470748126, 34.8596628178]}, "type": "Feature", "properties": {"collection_times": [{"days": "Mon-Fri", "time": "4:30pm"}, {"days": "Sat", "time": "10:30am"}, {"days": "Sun", "time": "Closed"}], "id": "2813300004", "name": "USPS COLLECTION BOX - PO LOBBY", "address": {"city": "PEACHLAND", "state": "NC", "street": "1 PASSIAC  ST", "postcode": "28133"}}},
{"geometry": {"type": "Point", "coordinates": [-80.2470748126, 34.8596628178]}, "type": "Feature", "properties": {"collection_times": [{"days": "Mon-Fri", "time": "4:30pm"}, {"days": "Sat", "time": "10:30am"}, {"days": "Sun", "time": "Closed"}], "id": "2813300005", "name": "USPS COLLECTION BOX - PO LOBBY", "address": {"city": "PEACHLAND", "state": "NC", "street": "1 PASSIAC ST", "postcode": "28133"}}},
{"geometry": {"type": "Point", "coordinates": [-80.2470748126, 34.8596628178]}, "type": "Feature", "properties": {"collection_times": [{"days": "Mon-Fri", "time": "4:30pm"}, {"days": "Sat", "time": "10:30am"}, {"days": "Sun", "time": "Closed"}], "id": "2813300006", "name": "USPS COLLECTION BOX - PO LOBBY", "address": {"city": "PEACHLAND", "state": "NC", "street": "1 PASSIAC ST", "postcode": "28133"}}},
{"geometry": {"type": "Point", "coordinates": [-80.8895083533, 35.0865509353]}, "type": "Feature", "properties": {"collection_times": [{"days": "Mon-Fri", "time": "5:00pm"}, {"days": "Sat", "time": "12:00pm"}, {"days": "Sun", "time": "Closed"}], "id": "2813400003", "name": "USPS COLLECTION BOX - BLUE BOX", "address": {"city": "PINEVILLE", "state": "NC", "street": "206 COLLEGE ST", "postcode": "28134"}}},
{"geometry": {"type": "Point", "coordinates": [-80.8796056335, 35.082857023]}, "type": "Feature", "properties": {"collection_times": [{"days": "Mon-Fri", "time": "11:00am"}, {"days": "Sat-Sun", "time": "Closed"}], "id": "2813400006", "name": "USPS COLLECTION BOX - BLUE BOX", "address": {"city": "PINEVILLE", "state": "NC", "street": "11025 CAROLINA PLACE PKWY", "postcode": "28134"}}},
{"geometry": {"type": "Point", "coordinates": [-80.8862368898, 35.0787407966]}, "type": "Feature", "properties": {"collection_times": [{"days": "Mon-Fri", "time": "5:00pm"}, {"days": "Sat", "time": "12:00pm"}, {"days": "Sun", "time": "Closed"}], "id": "2813400007", "name": "USPS COLLECTION BOX - PO LOBBY", "address": {"city": "PINEVILLE", "state": "NC", "street": "206 COLLEGE ST", "postcode": "28134"}}},
{"geometry": {"type": "Point", "coordinates": [-80.185539193, 34.9994311226]}, "type": "Feature", "properties": {"collection_times": [{"days": "Mon-Fri", "time": "4:30pm"}, {"days": "Sat", "time": "9:50am"}, {"days": "Sun", "time": "Closed"}], "id": "2813500002", "name": "USPS COLLECTION BOX - BLUE BOX", "address": {"city": "POLKTON", "state": "NC", "street": "45 W POLK ST", "postcode": "28135"}}},
{"geometry": {"type": "Point", "coordinates": [-80.215728676, 35.0530922292]}, "type": "Feature", "properties": {"collection_times": [{"days": "Mon-Fri", "time": "4:30pm"}, {"days": "Sat", "time": "9:50am"}, {"days": "Sun", "time": "Closed"}], "id": "2813500003", "name": "USPS COLLECTION BOX - PO LOBBY", "address": {"city": "POLKTON", "state": "NC", "street": "45 W POLK ST", "postcode": "28135"}}},
{"geometry": {"type": "Point", "coordinates": [-81.6441447084, 35.419327686]}, "type": "Feature", "properties": {"collection_times": [{"days": "Mon-Fri", "time": "4:00pm"}, {"days": "Sat", "time": "10:00am"}, {"days": "Sun", "time": "Closed"}], "id": "2813600002", "name": "USPS COLLECTION BOX - BLUE BOX", "address": {"city": "POLKVILLE", "state": "NC", "street": "4418 POLKVILLE RD", "postcode": "28136"}}},
{"geometry": {"type": "Point", "coordinates": [-81.6441447088, 35.4193276857]}, "type": "Feature", "properties": {"collection_times": [{"days": "Mon-Fri", "time": "4:00pm"}, {"days": "Sat", "time": "10:00am"}, {"days": "Sun", "time": "Closed"}], "id": "2813600003", "name": "USPS COLLECTION BOX - PO LOBBY", "address": {"city": "POLKVILLE", "state": "NC", "street": "4418 POLKVILLE RD", "postcode": "28136"}}},
{"geometry": {"type": "Point", "coordinates": [-81.6441447084, 35.419327686]}, "type": "Feature", "properties": {"collection_times": [{"days": "Mon-Fri", "time": "4:00pm"}, {"days": "Sat", "time": "10:00am"}, {"days": "Sun", "time": "Closed"}], "id": "2813600004", "name": "USPS COLLECTION BOX - PO LOBBY", "address": {"city": "POLKVILLE", "state": "NC", "street": "4418 POLKVILLE RD", "postcode": "28136"}}},
{"geometry": {"type": "Point", "coordinates": [-80.2721602701, 35.4722570507]}, "type": "Feature", "properties": {"collection_times": [{"days": "Mon-Fri", "time": "4:30pm"}, {"days": "Sat", "time": "11:00am"}, {"days": "Sun", "time": "Closed"}], "id": "2813700002", "name": "USPS COLLECTION BOX - BLUE BOX", "address": {"city": "RICHFIELD", "state": "NC", "street": "212 W HWY 49", "postcode": "28137"}}},
{"geometry": {"type": "Point", "coordinates": [-80.2721602701, 35.4722570507]}, "type": "Feature", "properties": {"collection_times": [{"days": "Mon-Fri", "time": "4:30pm"}, {"days": "Sat", "time": "11:00am"}, {"days": "Sun", "time": "Closed"}], "id": "2813700003", "name": "USPS COLLECTION BOX - BLUE BOX", "address": {"city": "RICHFIELD", "state": "NC", "street": "212 W HWY 49", "postcode": "28137"}}},
{"geometry": {"type": "Point", "coordinates": [-80.2721602701, 35.4722570507]}, "type": "Feature", "properties": {"collection_times": [{"days": "Mon-Fri", "time": "4:30pm"}, {"days": "Sat", "time": "11:00am"}, {"days": "Sun", "time": "Closed"}], "id": "2813700004", "name": "USPS COLLECTION BOX - PO LOBBY", "address": {"city": "RICHFIELD", "state": "NC", "street": "212 W  HWY 49", "postcode": "28137"}}},
{"geometry": {"type": "Point", "coordinates": [-80.2721602701, 35.4722570507]}, "type": "Feature", "properties": {"collection_times": [{"days": "Mon-Fri", "time": "4:30pm"}, {"days": "Sat", "time": "11:00am"}, {"days": "Sun", "time": "Closed"}], "id": "2813700005", "name": "USPS COLLECTION BOX - PO LOBBY", "address": {"city": "RICHFIELD", "state": "NC", "street": "212 W HWY 49", "postcode": "28137"}}},
{"geometry": {"type": "Point", "coordinates": [-80.4065939908, 35.5511199173]}, "type": "Feature", "properties": {"collection_times": [{"days": "Mon-Fri", "time": "4:00pm"}, {"days": "Sat", "time": "10:30am"}, {"days": "Sun", "time": "Closed"}], "id": "2813800001", "name": "USPS COLLECTION BOX - BLUE BOX", "address": {"city": "ROCKWELL", "state": "NC", "street": "100 BROAD ST", "postcode": "28138"}}},
{"geometry": {"type": "Point", "coordinates": [-80.4065939904, 35.5511199169]}, "type": "Feature", "properties": {"collection_times": [{"days": "Mon-Fri", "time": "4:00pm"}, {"days": "Sat", "time": "10:30am"}, {"days": "Sun", "time": "Closed"}], "id": "2813800003", "name": "USPS COLLECTION BOX - PO LOBBY", "address": {"city": "ROCKWELL", "state": "NC", "street": "100 BROAD ST", "postcode": "28138"}}},
{"geometry": {"type": "Point", "coordinates": [-80.4065939908, 35.5511199173]}, "type": "Feature", "properties": {"collection_times": [{"days": "Mon-Fri", "time": "4:00pm"}, {"days": "Sat", "time": "10:30am"}, {"days": "Sun", "time": "Closed"}], "id": "2813800004", "name": "USPS COLLECTION BOX - PO LOBBY", "address": {"city": "ROCKWELL", "state": "NC", "street": "100 BROAD ST", "postcode": "28138"}}},
{"geometry": {"type": "Point", "coordinates": [-81.9565218182, 35.3705135139]}, "type": "Feature", "properties": {"collection_times": [{"days": "Mon-Fri", "time": "1:00pm"}, {"days": "Sat-Sun", "time": "Closed"}], "id": "2813900002", "name": "USPS COLLECTION BOX - BLUE BOX", "address": {"city": "RUTHERFORDTON", "state": "NC", "street": "100 W 5TH ST", "postcode": "28139"}}},
{"geometry": {"type": "Point", "coordinates": [-81.9568825336, 35.3688988017]}, "type": "Feature", "properties": {"collection_times": [{"days": "Mon-Fri", "time": "1:00pm"}, {"days": "Sat-Sun", "time": "Closed"}], "id": "2813900004", "name": "USPS COLLECTION BOX - BLUE BOX", "address": {"city": "RUTHERFORDTON", "state": "NC", "street": "229 N MAIN ST", "postcode": "28139"}}},
{"geometry": {"type": "Point", "coordinates": [-81.957213782, 35.3673327517]}, "type": "Feature", "properties": {"collection_times": [{"days": "Mon-Fri", "time": "1:00pm"}, {"days": "Sat-Sun", "time": "Closed"}], "id": "2813900005", "name": "USPS COLLECTION BOX - BLUE BOX", "address": {"city": "RUTHERFORDTON", "state": "NC", "street": "112 N MAIN ST", "postcode": "28139"}}},
{"geometry": {"type": "Point", "coordinates": [-81.9563123474, 35.3668972351]}, "type": "Feature", "properties": {"collection_times": [{"days": "Mon-Fri", "time": "5:00pm"}, {"days": "Sat", "time": "4:30pm"}, {"days": "Sun", "time": "Closed"}], "id": "2813900006", "name": "USPS COLLECTION BOX - BLUE BOX", "address": {"city": "RUTHERFORDTON", "state": "NC", "street": "130 E COURT ST", "postcode": "28139"}}},
{"geometry": {"type": "Point", "coordinates": [-81.9563123474, 35.3668972351]}, "type": "Feature", "properties": {"collection_times": [{"days": "Mon-Fri", "time": "5:00pm"}, {"days": "Sat", "time": "4:30pm"}, {"days": "Sun", "time": "Closed"}], "id": "2813900007", "name": "USPS COLLECTION BOX - BLUE BOX", "address": {"city": "RUTHERFORDTON", "state": "NC", "street": "130 E COURT ST", "postcode": "28139"}}},
{"geometry": {"type": "Point", "coordinates": [-81.981509576, 35.297786186]}, "type": "Feature", "properties": {"collection_times": [{"days": "Mon-Sat", "time": "11:45am"}, {"days": "Sun", "time": "Closed"}], "id": "2813900008", "name": "USPS COLLECTION BOX - BLUE BOX", "address": {"city": "RUTHERFORDTON", "state": "NC", "street": "183 GOLF CIR", "postcode": "28139"}}},
{"geometry": {"type": "Point", "coordinates": [-81.9563123475, 35.3668972347]}, "type": "Feature", "properties": {"collection_times": [{"days": "Mon-Fri", "time": "5:00pm"}, {"days": "Sat", "time": "4:30pm"}, {"days": "Sun", "time": "Closed"}], "id": "2813900009", "name": "USPS COLLECTION BOX - PO LOBBY", "address": {"city": "RUTHERFORDTON", "state": "NC", "street": "130 E COURT ST", "postcode": "28139"}}},
{"geometry": {"type": "Point", "coordinates": [-81.9563123474, 35.3668972351]}, "type": "Feature", "properties": {"collection_times": [{"days": "Mon-Fri", "time": "5:00pm"}, {"days": "Sat", "time": "4:30pm"}, {"days": "Sun", "time": "Closed"}], "id": "2813900010", "name": "USPS COLLECTION BOX - PO LOBBY", "address": {"city": "RUTHERFORDTON", "state": "NC", "street": "130 E COURT ST", "postcode": "28139"}}},
{"geometry": {"type": "Point", "coordinates": [-80.4647133395, 35.6627725693]}, "type": "Feature", "properties": {"collection_times": [{"days": "Mon-Fri", "time": "5:00pm"}, {"days": "Sat", "time": "2:00pm"}, {"days": "Sun", "time": "Closed"}], "id": "2814400004", "name": "USPS COLLECTION BOX - BLUE BOX", "address": {"city": "SALISBURY", "state": "NC", "street": "605 E INNES ST", "postcode": "28144"}}},
{"geometry": {"type": "Point", "coordinates": [-80.4647133395, 35.6627725693]}, "type": "Feature", "properties": {"collection_times": [{"days": "Mon-Fri", "time": "5:00pm"}, {"days": "Sat", "time": "2:00pm"}, {"days": "Sun", "time": "Closed"}], "id": "2814400005", "name": "USPS COLLECTION BOX - BLUE BOX", "address": {"city": "SALISBURY", "state": "NC", "street": "605 E INNES ST", "postcode": "28144"}}},
{"geometry": {"type": "Point", "coordinates": [-80.4710694548, 35.6683437681]}, "type": "Feature", "properties": {"collection_times": [{"days": "Mon-Fri", "time": "3:00pm"}, {"days": "Sat", "time": "2:00pm"}, {"days": "Sun", "time": "Closed"}], "id": "2814400011", "name": "USPS COLLECTION BOX - BLUE BOX", "address": {"city": "SALISBURY", "state": "NC", "street": "100 S CHURCH ST", "postcode": "28144"}}},
{"geometry": {"type": "Point", "coordinates": [-80.4686595681, 35.6684209622]}, "type": "Feature", "properties": {"collection_times": [{"days": "Mon-Fri", "time": "2:30pm"}, {"days": "Sat-Sun", "time": "Closed"}], "id": "2814400014", "name": "USPS COLLECTION BOX - BLUE BOX", "address": {"city": "SALISBURY", "state": "NC", "street": "210 N MAIN ST", "postcode": "28144"}}},
{"geometry": {"type": "Point", "coordinates": [-80.4651655932, 35.6709704002]}, "type": "Feature", "properties": {"collection_times": [{"days": "Mon-Fri", "time": "2:00pm"}, {"days": "Sat-Sun", "time": "Closed"}], "id": "2814400017", "name": "USPS COLLECTION BOX - BLUE BOX", "address": {"city": "SALISBURY", "state": "NC", "street": "523 N MAIN ST", "postcode": "28144"}}},
{"geometry": {"type": "Point", "coordinates": [-80.4991793974, 35.6647072128]}, "type": "Feature", "properties": {"collection_times": [{"days": "Mon-Fri", "time": "2:30pm"}, {"days": "Sat", "time": "2:00pm"}, {"days": "Sun", "time": "Closed"}], "id": "2814400022", "name": "USPS COLLECTION BOX - BLUE BOX", "address": {"city": "SALISBURY", "state": "NC", "street": "706 JAKE ALEXANDER BLVD W STE A", "postcode": "28144"}}},
{"geometry": {"type": "Point", "coordinates": [-80.4804865898, 35.6786989951]}, "type": "Feature", "properties": {"collection_times": [{"days": "Mon-Fri", "time": "2:00pm"}, {"days": "Sat-Sun", "time": "Closed"}], "id": "2814400024", "name": "USPS COLLECTION BOX - BLUE BOX", "address": {"city": "SALISBURY", "state": "NC", "street": "1237 W INNES ST", "postcode": "28144"}}},
{"geometry": {"type": "Point", "coordinates": [-80.4812833928, 35.6805554568]}, "type": "Feature", "properties": {"collection_times": [{"days": "Mon-Fri", "time": "2:00pm"}, {"days": "Sat-Sun", "time": "Closed"}], "id": "2814400025", "name": "USPS COLLECTION BOX - BLUE BOX", "address": {"city": "SALISBURY", "state": "NC", "street": "1400 W INNES ST", "postcode": "28144"}}},
{"geometry": {"type": "Point", "coordinates": [-80.483072848, 35.6850283937]}, "type": "Feature", "properties": {"collection_times": [{"days": "Mon-Sat", "time": "2:00pm"}, {"days": "Sun", "time": "Closed"}], "id": "2814400028", "name": "USPS COLLECTION BOX - BLUE BOX", "address": {"city": "SALISBURY", "state": "NC", "street": "1706 W INNES ST", "postcode": "28144"}}},
{"geometry": {"type": "Point", "coordinates": [-80.469818632, 35.6822294755]}, "type": "Feature", "properties": {"collection_times": [{"days": "Mon-Sat", "time": "2:00pm"}, {"days": "Sun", "time": "Closed"}], "id": "2814400033", "name": "USPS COLLECTION BOX - BLUE BOX", "address": {"city": "SALISBURY", "state": "NC", "street": "911 W HENDERSON ST", "postcode": "28144"}}},
{"geometry": {"type": "Point", "coordinates": [-80.5169326399, 35.69481998]}, "type": "Feature", "properties": {"collection_times": [{"days": "Mon-Sat", "time": "2:00pm"}, {"days": "Sun", "time": "Closed"}], "id": "2814400044", "name": "USPS COLLECTION BOX - BLUE BOX", "address": {"city": "SALISBURY", "state": "NC", "street": "2114 STATESVILLE BLVD", "postcode": "28144"}}},
{"geometry": {"type": "Point", "coordinates": [-80.4647133395, 35.6627725693]}, "type": "Feature", "properties": {"collection_times": [{"days": "Mon-Fri", "time": "5:00pm"}, {"days": "Sat", "time": "12:00pm"}, {"days": "Sun", "time": "Closed"}], "id": "2814400057", "name": "USPS COLLECTION BOX - PO LOBBY", "address": {"city": "SALISBURY", "state": "NC", "street": "605 E INNES ST", "postcode": "28144"}}},
{"geometry": {"type": "Point", "coordinates": [-80.4647133395, 35.6627725693]}, "type": "Feature", "properties": {"collection_times": [{"days": "Mon-Fri", "time": "5:00pm"}, {"days": "Sat", "time": "12:00pm"}, {"days": "Sun", "time": "Closed"}], "id": "2814400058", "name": "USPS COLLECTION BOX - PO LOBBY", "address": {"city": "SALISBURY", "state": "NC", "street": "605 E INNES ST", "postcode": "28144"}}},
{"geometry": {"type": "Point", "coordinates": [-80.4647133395, 35.6627725693]}, "type": "Feature", "properties": {"collection_times": [{"days": "Mon-Fri", "time": "5:00pm"}, {"days": "Sat", "time": "2:00pm"}, {"days": "Sun", "time": "Closed"}], "id": "2814400061", "name": "USPS COLLECTION BOX - APC", "address": {"city": "SALISBURY", "state": "NC", "street": "605 E INNES ST", "postcode": "28144"}}},
{"geometry": {"type": "Point", "coordinates": [-80.5004144642, 35.6594308948]}, "type": "Feature", "properties": {"collection_times": [{"days": "Mon-Fri", "time": "2:30pm"}, {"days": "Sat", "time": "2:00pm"}, {"days": "Sun", "time": "Closed"}], "id": "2814400062", "name": "USPS COLLECTION BOX - BLUE BOX", "address": {"city": "SALISBURY", "state": "NC", "street": "475 JAKE ALEXANDER BLVD W", "postcode": "28144"}}},
{"geometry": {"type": "Point", "coordinates": [-81.5370274685, 35.3126020277]}, "type": "Feature", "properties": {"collection_times": [{"days": "Mon-Fri", "time": "5:00pm"}, {"days": "Sat", "time": "4:00pm"}, {"days": "Sun", "time": "Closed"}], "id": "2815000006", "name": "USPS COLLECTION BOX - BLUE BOX", "address": {"city": "SHELBY", "state": "NC", "street": "JUAN PL", "postcode": "28150"}}},
{"geometry": {"type": "Point", "coordinates": [-81.5364419476, 35.2917049688]}, "type": "Feature", "properties": {"collection_times": [{"days": "Mon-Sat", "time": "2:00pm"}, {"days": "Sun", "time": "Closed"}], "id": "2815000008", "name": "USPS COLLECTION BOX - BLUE BOX", "address": {"city": "SHELBY", "state": "NC", "street": "100 JUSTICE PL", "postcode": "28150"}}},
{"geometry": {"type": "Point", "coordinates": [-81.5402840125, 35.2909432525]}, "type": "Feature", "properties": {"collection_times": [{"days": "Mon-Fri", "time": "1:00pm"}, {"days": "Sat", "time": "2:00pm"}, {"days": "Sun", "time": "Closed"}], "id": "2815000011", "name": "USPS COLLECTION BOX - BLUE BOX", "address": {"city": "SHELBY", "state": "NC", "street": "114 W WARREN ST", "postcode": "28150"}}},
{"geometry": {"type": "Point", "coordinates": [-81.5401367369, 35.2930794128]}, "type": "Feature", "properties": {"collection_times": [{"days": "Mon-Fri", "time": "1:00pm"}, {"days": "Sat", "time": "2:00pm"}, {"days": "Sun", "time": "Closed"}], "id": "2815000015", "name": "USPS COLLECTION BOX - BLUE BOX", "address": {"city": "SHELBY", "state": "NC", "street": "131 N LAFAYETTE ST", "postcode": "28150"}}},
{"geometry": {"type": "Point", "coordinates": [-81.5151490947, 35.2958546345]}, "type": "Feature", "properties": {"collection_times": [{"days": "Mon-Fri", "time": "1:30pm"}, {"days": "Sat", "time": "2:00pm"}, {"days": "Sun", "time": "Closed"}], "id": "2815000016", "name": "USPS COLLECTION BOX - BLUE BOX", "address": {"city": "SHELBY", "state": "NC", "street": "1145 E MARION ST", "postcode": "28150"}}},
{"geometry": {"type": "Point", "coordinates": [-81.5423417724, 35.2920419578]}, "type": "Feature", "properties": {"collection_times": [{"days": "Mon-Fri", "time": "1:00pm"}, {"days": "Sat", "time": "2:00pm"}, {"days": "Sun", "time": "Closed"}], "id": "2815000018", "name": "USPS COLLECTION BOX - BLUE BOX", "address": {"city": "SHELBY", "state": "NC", "street": "200 W MARION ST", "postcode": "28150"}}},
{"geometry": {"type": "Point", "coordinates": [-81.5370274685, 35.3126020277]}, "type": "Feature", "properties": {"collection_times": [{"days": "Mon-Fri", "time": "5:00pm"}, {"days": "Sat", "time": "4:00pm"}, {"days": "Sun", "time": "Closed"}], "id": "2815000019", "name": "USPS COLLECTION BOX - BLUE BOX", "address": {"city": "SHELBY", "state": "NC", "street": "JUAN PL", "postcode": "28150"}}},
{"geometry": {"type": "Point", "coordinates": [-81.5348903139, 35.3019930086]}, "type": "Feature", "properties": {"collection_times": [{"days": "Mon-Fri", "time": "1:00pm"}, {"days": "Sat", "time": "2:00pm"}, {"days": "Sun", "time": "Closed"}], "id": "2815000020", "name": "USPS COLLECTION BOX - BLUE BOX", "address": {"city": "SHELBY", "state": "NC", "street": "201 E GROVER ST", "postcode": "28150"}}},
{"geometry": {"type": "Point", "coordinates": [-81.5270088724, 35.2948674303]}, "type": "Feature", "properties": {"collection_times": [{"days": "Mon-Sat", "time": "2:00pm"}, {"days": "Sun", "time": "Closed"}], "id": "2815000025", "name": "USPS COLLECTION BOX - BLUE BOX", "address": {"city": "SHELBY", "state": "NC", "street": "100 BELVEDERE AVE", "postcode": "28150"}}},
{"geometry": {"type": "Point", "coordinates": [-81.5391099285, 35.2885143741]}, "type": "Feature", "properties": {"collection_times": [{"days": "Mon-Fri", "time": "1:30pm"}, {"days": "Sat", "time": "2:00pm"}, {"days": "Sun", "time": "Closed"}], "id": "2815000026", "name": "USPS COLLECTION BOX - BLUE BOX", "address": {"city": "SHELBY", "state": "NC", "street": "318 S WASHINGTON ST", "postcode": "28150"}}},
{"geometry": {"type": "Point", "coordinates": [-81.5370274685, 35.3126020277]}, "type": "Feature", "properties": {"collection_times": [{"days": "Mon-Fri", "time": "5:00pm"}, {"days": "Sat", "time": "4:00pm"}, {"days": "Sun", "time": "Closed"}], "id": "2815000027", "name": "USPS COLLECTION BOX - BLUE BOX", "address": {"city": "SHELBY", "state": "NC", "street": "JUAN PL", "postcode": "28150"}}},
{"geometry": {"type": "Point", "coordinates": [-81.5370274685, 35.3126020277]}, "type": "Feature", "properties": {"collection_times": [{"days": "Mon-Fri", "time": "5:00pm"}, {"days": "Sat", "time": "4:00pm"}, {"days": "Sun", "time": "Closed"}], "id": "2815000028", "name": "USPS COLLECTION BOX - BLUE BOX", "address": {"city": "SHELBY", "state": "NC", "street": "JUAN PL", "postcode": "28150"}}},
{"geometry": {"type": "Point", "coordinates": [-81.5293705977, 35.2746349492]}, "type": "Feature", "properties": {"collection_times": [{"days": "Mon-Fri", "time": "1:00pm"}, {"days": "Sat", "time": "2:00pm"}, {"days": "Sun", "time": "Closed"}], "id": "2815000029", "name": "USPS COLLECTION BOX - BLUE BOX", "address": {"city": "SHELBY", "state": "NC", "street": "705 E DIXON BLVD", "postcode": "28150"}}},
{"geometry": {"type": "Point", "coordinates": [-81.5370274685, 35.3126020277]}, "type": "Feature", "properties": {"collection_times": [{"days": "Mon-Fri", "time": "5:00pm"}, {"days": "Sat", "time": "4:00pm"}, {"days": "Sun", "time": "Closed"}], "id": "2815000037", "name": "USPS COLLECTION BOX - PO LOBBY", "address": {"city": "SHELBY", "state": "NC", "street": "JUAN  PL", "postcode": "28150"}}},
{"geometry": {"type": "Point", "coordinates": [-81.5370274685, 35.3126020277]}, "type": "Feature", "properties": {"collection_times": [{"days": "Mon-Fri", "time": "5:00pm"}, {"days": "Sat", "time": "4:00pm"}, {"days": "Sun", "time": "Closed"}], "id": "2815000038", "name": "USPS COLLECTION BOX - PO LOBBY", "address": {"city": "SHELBY", "state": "NC", "street": "JUAN PL", "postcode": "28150"}}},
{"geometry": {"type": "Point", "coordinates": [-81.5370274685, 35.3126020277]}, "type": "Feature", "properties": {"collection_times": [{"days": "Mon-Fri", "time": "5:00pm"}, {"days": "Sat", "time": "4:00pm"}, {"days": "Sun", "time": "Closed"}], "id": "2815000039", "name": "USPS COLLECTION BOX - PO LOBBY", "address": {"city": "SHELBY", "state": "NC", "street": "JUAN PL", "postcode": "28150"}}},
{"geometry": {"type": "Point", "coordinates": [-81.5366718501, 35.3004681745]}, "type": "Feature", "properties": {"collection_times": [{"days": "Mon-Fri", "time": "1:00pm"}, {"days": "Sat", "time": "2:00pm"}, {"days": "Sun", "time": "Closed"}], "id": "2815000041", "name": "USPS COLLECTION BOX - BLUE BOX", "address": {"city": "SHELBY", "state": "NC", "street": "808 SCHENCK ST", "postcode": "28150"}}},
{"geometry": {"type": "Point", "coordinates": [-81.645694468, 35.422571303]}, "type": "Feature", "properties": {"collection_times": [{"days": "Mon-Fri", "time": "11:00am"}, {"days": "Sat-Sun", "time": "Closed"}], "id": "2815000043", "name": "USPS COLLECTION BOX - BLUE BOX", "address": {"city": "SHELBY", "state": "NC", "street": "4601 POLKVILLE RD", "postcode": "28150"}}},
{"geometry": {"type": "Point", "coordinates": [-81.5027284625, 35.273019679]}, "type": "Feature", "properties": {"collection_times": [{"days": "Mon-Fri", "time": "1:30pm"}, {"days": "Sat", "time": "2:00pm"}, {"days": "Sun", "time": "Closed"}], "id": "2815200005", "name": "USPS COLLECTION BOX - BLUE BOX", "address": {"city": "SHELBY", "state": "NC", "street": "1730 E DIXON BLVD", "postcode": "28152"}}},
{"geometry": {"type": "Point", "coordinates": [-81.4852237817, 35.2678847527]}, "type": "Feature", "properties": {"collection_times": [{"days": "Mon-Fri", "time": "1:30pm"}, {"days": "Sat", "time": "2:00pm"}, {"days": "Sun", "time": "Closed"}], "id": "2815200006", "name": "USPS COLLECTION BOX - BLUE BOX", "address": {"city": "SHELBY", "state": "NC", "street": "2001 E DIXON BLVD", "postcode": "28152"}}},
{"geometry": {"type": "Point", "coordinates": [-81.5463878238, 35.2801189085]}, "type": "Feature", "properties": {"collection_times": [{"days": "Mon-Fri", "time": "1:00pm"}, {"days": "Sat", "time": "2:00pm"}, {"days": "Sun", "time": "Closed"}], "id": "2815200007", "name": "USPS COLLECTION BOX - BLUE BOX", "address": {"city": "SHELBY", "state": "NC", "street": "300 W DIXON BLVD", "postcode": "28152"}}},
{"geometry": {"type": "Point", "coordinates": [-81.5109712777, 35.2734966902]}, "type": "Feature", "properties": {"collection_times": [{"days": "Mon-Fri", "time": "1:30pm"}, {"days": "Sat", "time": "2:00pm"}, {"days": "Sun", "time": "Closed"}], "id": "2815200009", "name": "USPS COLLECTION BOX - BLUE BOX", "address": {"city": "SHELBY", "state": "NC", "street": "1635 E DIXON BLVD", "postcode": "28152"}}},
{"geometry": {"type": "Point", "coordinates": [-80.4335124634, 35.6890320104]}, "type": "Feature", "properties": {"collection_times": [{"days": "Mon-Fri", "time": "5:00pm"}, {"days": "Sat", "time": "12:00pm"}, {"days": "Sun", "time": "Closed"}], "id": "2815900007", "name": "USPS COLLECTION BOX - BLUE BOX", "address": {"city": "SPENCER", "state": "NC", "street": "110 4TH ST", "postcode": "28159"}}},
{"geometry": {"type": "Point", "coordinates": [-80.4335124634, 35.6890320104]}, "type": "Feature", "properties": {"collection_times": [{"days": "Mon-Fri", "time": "5:00pm"}, {"days": "Sat", "time": "12:00pm"}, {"days": "Sun", "time": "Closed"}], "id": "2815900009", "name": "USPS COLLECTION BOX - PO LOBBY", "address": {"city": "SPENCER", "state": "NC", "street": "110 4TH ST", "postcode": "28159"}}},
{"geometry": {"type": "Point", "coordinates": [-81.9313984044, 35.3560775602]}, "type": "Feature", "properties": {"collection_times": [{"days": "Mon-Fri", "time": "5:15pm"}, {"days": "Sat", "time": "12:45pm"}, {"days": "Sun", "time": "Closed"}], "id": "2816000003", "name": "USPS COLLECTION BOX - BLUE BOX", "address": {"city": "SPINDALE", "state": "NC", "street": "202 TANNER ST", "postcode": "28160"}}},
{"geometry": {"type": "Point", "coordinates": [-81.9313984044, 35.3560775602]}, "type": "Feature", "properties": {"collection_times": [{"days": "Mon-Fri", "time": "5:15pm"}, {"days": "Sat", "time": "12:45pm"}, {"days": "Sun", "time": "Closed"}], "id": "2816000005", "name": "USPS COLLECTION BOX - BLUE BOX", "address": {"city": "SPINDALE", "state": "NC", "street": "202 TANNER ST", "postcode": "28160"}}},
{"geometry": {"type": "Point", "coordinates": [-81.9068014628, 35.3401927386]}, "type": "Feature", "properties": {"collection_times": [{"days": "Mon-Sat", "time": "9:00am"}, {"days": "Sun", "time": "Closed"}], "id": "2816000006", "name": "USPS COLLECTION BOX - BLUE BOX", "address": {"city": "SPINDALE", "state": "NC", "street": "1639 US HIGHWAY 74A BYP", "postcode": "28160"}}},
{"geometry": {"type": "Point", "coordinates": [-81.9313984046, 35.3560775604]}, "type": "Feature", "properties": {"collection_times": [{"days": "Mon-Fri", "time": "5:10pm"}, {"days": "Sat", "time": "12:45pm"}, {"days": "Sun", "time": "Closed"}], "id": "2816000007", "name": "USPS COLLECTION BOX - PO LOBBY", "address": {"city": "SPINDALE", "state": "NC", "street": "202 TANNER ST", "postcode": "28160"}}},
{"geometry": {"type": "Point", "coordinates": [-81.9313984044, 35.3560775602]}, "type": "Feature", "properties": {"collection_times": [{"days": "Mon-Fri", "time": "5:10pm"}, {"days": "Sat", "time": "12:45pm"}, {"days": "Sun", "time": "Closed"}], "id": "2816000008", "name": "USPS COLLECTION BOX - PO LOBBY", "address": {"city": "SPINDALE", "state": "NC", "street": "202 TANNER ST", "postcode": "28160"}}},
{"geometry": {"type": "Point", "coordinates": [-80.4237422568, 35.2346774271]}, "type": "Feature", "properties": {"collection_times": [{"days": "Mon-Fri", "time": "4:00pm"}, {"days": "Sat", "time": "11:00am"}, {"days": "Sun", "time": "Closed"}], "id": "2816300002", "name": "USPS COLLECTION BOX - BLUE BOX", "address": {"city": "STANFIELD", "state": "NC", "street": "213 W STANLY ST", "postcode": "28163"}}},
{"geometry": {"type": "Point", "coordinates": [-80.4237422569, 35.2346774272]}, "type": "Feature", "properties": {"collection_times": [{"days": "Mon-Fri", "time": "4:00pm"}, {"days": "Sat", "time": "11:00am"}, {"days": "Sun", "time": "Closed"}], "id": "2816300003", "name": "USPS COLLECTION BOX - PO LOBBY", "address": {"city": "STANFIELD", "state": "NC", "street": "213 W STANLY ST", "postcode": "28163"}}},
{"geometry": {"type": "Point", "coordinates": [-81.0109286457, 35.4169392775]}, "type": "Feature", "properties": {"collection_times": [{"days": "Mon-Fri", "time": "11:00am"}, {"days": "Sat-Sun", "time": "Closed"}], "id": "2816400004", "name": "USPS COLLECTION BOX - BLUE BOX", "address": {"city": "STANLEY", "state": "NC", "street": "1301 S HIGHWAY 16", "postcode": "28164"}}},
{"geometry": {"type": "Point", "coordinates": [-81.0706954689, 35.3486664556]}, "type": "Feature", "properties": {"collection_times": [{"days": "Mon-Fri", "time": "4:45pm"}, {"days": "Sat", "time": "11:30am"}, {"days": "Sun", "time": "Closed"}], "id": "2816400005", "name": "USPS COLLECTION BOX - BLUE BOX", "address": {"city": "STANLEY", "state": "NC", "street": "301 OLD MOUNT HOLLY RD", "postcode": "28164"}}},
{"geometry": {"type": "Point", "coordinates": [-81.0706954689, 35.3486664556]}, "type": "Feature", "properties": {"collection_times": [{"days": "Mon-Fri", "time": "4:45pm"}, {"days": "Sat", "time": "11:30am"}, {"days": "Sun", "time": "Closed"}], "id": "2816400006", "name": "USPS COLLECTION BOX - BLUE BOX", "address": {"city": "STANLEY", "state": "NC", "street": "301 OLD MOUNT HOLLY RD", "postcode": "28164"}}},
{"geometry": {"type": "Point", "coordinates": [-81.0706954685, 35.3486664552]}, "type": "Feature", "properties": {"collection_times": [{"days": "Mon-Fri", "time": "4:45pm"}, {"days": "Sat", "time": "11:30am"}, {"days": "Sun", "time": "Closed"}], "id": "2816400007", "name": "USPS COLLECTION BOX - PO LOBBY", "address": {"city": "STANLEY", "state": "NC", "street": "301 OLD MOUNT HOLLY RD", "postcode": "28164"}}},
{"geometry": {"type": "Point", "coordinates": [-81.0706954689, 35.3486664556]}, "type": "Feature", "properties": {"collection_times": [{"days": "Mon-Fri", "time": "4:45pm"}, {"days": "Sat", "time": "11:30am"}, {"days": "Sun", "time": "Closed"}], "id": "2816400008", "name": "USPS COLLECTION BOX - PO LOBBY", "address": {"city": "STANLEY", "state": "NC", "street": "301 OLD MOUNT HOLLY RD", "postcode": "28164"}}},
{"geometry": {"type": "Point", "coordinates": [-80.8886350785, 35.7001463582]}, "type": "Feature", "properties": {"collection_times": [{"days": "Mon-Sat", "time": "10:30am"}, {"days": "Sun", "time": "Closed"}], "id": "2816600002", "name": "USPS COLLECTION BOX - BLUE BOX", "address": {"city": "TROUTMAN", "state": "NC", "street": "146 WAGNER ST", "postcode": "28166"}}},
{"geometry": {"type": "Point", "coordinates": [-80.8886350785, 35.7001463582]}, "type": "Feature", "properties": {"collection_times": [{"days": "Mon-Sat", "time": "10:30am"}, {"days": "Sun", "time": "Closed"}], "id": "2816600003", "name": "USPS COLLECTION BOX - BLUE BOX", "address": {"city": "TROUTMAN", "state": "NC", "street": "146 WAGNER ST", "postcode": "28166"}}},
{"geometry": {"type": "Point", "coordinates": [-80.8885026081, 35.6996718727]}, "type": "Feature", "properties": {"collection_times": [{"days": "Mon-Fri", "time": "4:15pm"}, {"days": "Sat", "time": "12:15pm"}, {"days": "Sun", "time": "Closed"}], "id": "2816600004", "name": "USPS COLLECTION BOX - PO LOBBY", "address": {"city": "TROUTMAN", "state": "NC", "street": "189 WAGNER ST", "postcode": "28166"}}},
{"geometry": {"type": "Point", "coordinates": [-80.8885026081, 35.6996718727]}, "type": "Feature", "properties": {"collection_times": [{"days": "Mon-Fri", "time": "4:15pm"}, {"days": "Sat", "time": "12:15pm"}, {"days": "Sun", "time": "Closed"}], "id": "2816600005", "name": "USPS COLLECTION BOX - PO LOBBY", "address": {"city": "TROUTMAN", "state": "NC", "street": "189 WAGNER ST", "postcode": "28166"}}},
{"geometry": {"type": "Point", "coordinates": [-81.9628286147, 35.4877275458]}, "type": "Feature", "properties": {"collection_times": [{"days": "Mon-Fri", "time": "4:15pm"}, {"days": "Sat", "time": "9:00am"}, {"days": "Sun", "time": "Closed"}], "id": "2816700001", "name": "USPS COLLECTION BOX - BLUE BOX", "address": {"city": "UNION MILLS", "state": "NC", "street": "6269 HUDLOW RD", "postcode": "28167"}}},
{"geometry": {"type": "Point", "coordinates": [-81.3971477549, 35.5398079811]}, "type": "Feature", "properties": {"collection_times": [{"days": "Mon-Fri", "time": "4:30pm"}, {"days": "Sat", "time": "10:30am"}, {"days": "Sun", "time": "Closed"}], "id": "2816800000", "name": "USPS COLLECTION BOX - BLUE BOX", "address": {"city": "VALE", "state": "NC", "street": "6070 REEPSVILLE RD", "postcode": "28168"}}},
{"geometry": {"type": "Point", "coordinates": [-81.419647145, 35.549874088]}, "type": "Feature", "properties": {"collection_times": [{"days": "Mon-Fri", "time": "4:30pm"}, {"days": "Sat", "time": "10:30am"}, {"days": "Sun", "time": "Closed"}], "id": "2816800001", "name": "USPS COLLECTION BOX - PO LOBBY", "address": {"city": "VALE", "state": "NC", "street": "6070 REEPSVILLE RD", "postcode": "28168"}}},
{"geometry": {"type": "Point", "coordinates": [-81.4284431723, 35.3618167782]}, "type": "Feature", "properties": {"collection_times": [{"days": "Mon-Fri", "time": "4:15pm"}, {"days": "Sat", "time": "9:15am"}, {"days": "Sun", "time": "Closed"}], "id": "2816900003", "name": "USPS COLLECTION BOX - BLUE BOX", "address": {"city": "WACO", "state": "NC", "street": "100 N MAIN ST", "postcode": "28169"}}},
{"geometry": {"type": "Point", "coordinates": [-81.4288194516, 35.3625826259]}, "type": "Feature", "properties": {"collection_times": [{"days": "Mon-Fri", "time": "4:15pm"}, {"days": "Sat", "time": "9:15am"}, {"days": "Sun", "time": "Closed"}], "id": "2816900004", "name": "USPS COLLECTION BOX - PO LOBBY", "address": {"city": "WACO", "state": "NC", "street": "100 N MAIN ST", "postcode": "28169"}}},
{"geometry": {"type": "Point", "coordinates": [-81.4284431723, 35.3618167782]}, "type": "Feature", "properties": {"collection_times": [{"days": "Mon-Fri", "time": "4:15pm"}, {"days": "Sat", "time": "9:15am"}, {"days": "Sun", "time": "Closed"}], "id": "2816900005", "name": "USPS COLLECTION BOX - PO LOBBY", "address": {"city": "WACO", "state": "NC", "street": "100 N MAIN ST", "postcode": "28169"}}},
{"geometry": {"type": "Point", "coordinates": [-80.0765892058, 34.9673538798]}, "type": "Feature", "properties": {"collection_times": [{"days": "Mon-Fri", "time": "4:30pm"}, {"days": "Sat", "time": "3:00pm"}, {"days": "Sun", "time": "Closed"}], "id": "2817000002", "name": "USPS COLLECTION BOX - BLUE BOX", "address": {"city": "WADESBORO", "state": "NC", "street": "105 E MARTIN ST", "postcode": "28170"}}},
{"geometry": {"type": "Point", "coordinates": [-80.0755336969, 34.966378224]}, "type": "Feature", "properties": {"collection_times": [{"days": "Mon-Fri", "time": "4:30pm"}, {"days": "Sat-Sun", "time": "Closed"}], "id": "2817000006", "name": "USPS COLLECTION BOX - BLUE BOX", "address": {"city": "WADESBORO", "state": "NC", "street": "118 N WASHINGTON ST", "postcode": "28170"}}},
{"geometry": {"type": "Point", "coordinates": [-80.0768823511, 34.9663241461]}, "type": "Feature", "properties": {"collection_times": [{"days": "Mon-Fri", "time": "4:30pm"}, {"days": "Sat-Sun", "time": "Closed"}], "id": "2817000010", "name": "USPS COLLECTION BOX - BLUE BOX", "address": {"city": "WADESBORO", "state": "NC", "street": "101 E GREEN ST", "postcode": "28170"}}},
{"geometry": {"type": "Point", "coordinates": [-80.0765892054, 34.9673538798]}, "type": "Feature", "properties": {"collection_times": [{"days": "Mon-Fri", "time": "4:30pm"}, {"days": "Sat", "time": "12:00pm"}, {"days": "Sun", "time": "Closed"}], "id": "2817000016", "name": "USPS COLLECTION BOX - PO LOBBY", "address": {"city": "WADESBORO", "state": "NC", "street": "105 E MARTIN ST", "postcode": "28170"}}},
{"geometry": {"type": "Point", "coordinates": [-80.0765892058, 34.9673538798]}, "type": "Feature", "properties": {"collection_times": [{"days": "Mon-Fri", "time": "4:30pm"}, {"days": "Sat", "time": "12:00pm"}, {"days": "Sun", "time": "Closed"}], "id": "2817000017", "name": "USPS COLLECTION BOX - PO LOBBY", "address": {"city": "WADESBORO", "state": "NC", "street": "105 E MARTIN ST", "postcode": "28170"}}},
{"geometry": {"type": "Point", "coordinates": [-80.0755139944, 34.9608068682]}, "type": "Feature", "properties": {"collection_times": [{"days": "Mon-Fri", "time": "4:30pm"}, {"days": "Sat-Sun", "time": "Closed"}], "id": "2817000019", "name": "USPS COLLECTION BOX - BLUE BOX", "address": {"city": "WADESBORO", "state": "NC", "street": "500 MORVEN RD", "postcode": "28170"}}},
{"geometry": {"type": "Point", "coordinates": [-80.7481362461, 34.9332221127]}, "type": "Feature", "properties": {"collection_times": [{"days": "Mon-Fri", "time": "4:00pm"}, {"days": "Sat", "time": "10:00am"}, {"days": "Sun", "time": "Closed"}], "id": "2817300001", "name": "USPS COLLECTION BOX - BLUE BOX", "address": {"city": "WAXHAW", "state": "NC", "street": "100 WAXHAW PKWY", "postcode": "28173"}}},
{"geometry": {"type": "Point", "coordinates": [-80.7481362461, 34.9332221127]}, "type": "Feature", "properties": {"collection_times": [{"days": "Mon-Fri", "time": "4:00pm"}, {"days": "Sat", "time": "10:00am"}, {"days": "Sun", "time": "Closed"}], "id": "2817300002", "name": "USPS COLLECTION BOX - BLUE BOX", "address": {"city": "WAXHAW", "state": "NC", "street": "100 WAXHAW PKWY", "postcode": "28173"}}},
{"geometry": {"type": "Point", "coordinates": [-80.7481362461, 34.9332221127]}, "type": "Feature", "properties": {"collection_times": [{"days": "Mon-Fri", "time": "4:00pm"}, {"days": "Sat", "time": "10:00am"}, {"days": "Sun", "time": "Closed"}], "id": "2817300003", "name": "USPS COLLECTION BOX - BLUE BOX", "address": {"city": "WAXHAW", "state": "NC", "street": "100 WAXHAW PKWY", "postcode": "28173"}}},
{"geometry": {"type": "Point", "coordinates": [-80.7481362463, 34.9332221125]}, "type": "Feature", "properties": {"collection_times": [{"days": "Mon-Fri", "time": "4:00pm"}, {"days": "Sat", "time": "10:00am"}, {"days": "Sun", "time": "Closed"}], "id": "2817300004", "name": "USPS COLLECTION BOX - PO LOBBY", "address": {"city": "WAXHAW", "state": "NC", "street": "100 WAXHAW PKWY", "postcode": "28173"}}},
{"geometry": {"type": "Point", "coordinates": [-80.7481362461, 34.9332221127]}, "type": "Feature", "properties": {"collection_times": [{"days": "Mon-Fri", "time": "4:00pm"}, {"days": "Sat", "time": "10:00am"}, {"days": "Sun", "time": "Closed"}], "id": "2817300005", "name": "USPS COLLECTION BOX - PO LOBBY", "address": {"city": "WAXHAW", "state": "NC", "street": "100 WAXHAW PKWY", "postcode": "28173"}}},
{"geometry": {"type": "Point", "coordinates": [-80.4488999559, 34.984230101]}, "type": "Feature", "properties": {"collection_times": [{"days": "Mon-Fri", "time": "5:00pm"}, {"days": "Sat", "time": "12:30pm"}, {"days": "Sun", "time": "Closed"}], "id": "2817400004", "name": "USPS COLLECTION BOX - BLUE BOX", "address": {"city": "WINGATE", "state": "NC", "street": "212 N MAIN ST", "postcode": "28174"}}},
{"geometry": {"type": "Point", "coordinates": [-80.4488999559, 34.984230101]}, "type": "Feature", "properties": {"collection_times": [{"days": "Mon-Fri", "time": "5:00pm"}, {"days": "Sat", "time": "12:30pm"}, {"days": "Sun", "time": "Closed"}], "id": "2817400005", "name": "USPS COLLECTION BOX - PO LOBBY", "address": {"city": "WINGATE", "state": "NC", "street": "212 N MAIN ST", "postcode": "28174"}}}
]}
