{"type": "FeatureCollection", "features": [
{"geometry": {"type": "Point", "coordinates": [-80.8435926138, 35.2152215536]}, "type": "Feature", "properties": {"collection_times": [{"days": "Mon-Fri", "time": "4:00pm"}, {"days": "Sat-Sun", "time": "Closed"}], "id": "2820200003", "name": "USPS COLLECTION BOX - BLUE BOX", "address": {"city": "CHARLOTTE", "state": "NC", "street": "842 BAXTER ST", "postcode": "28202"}}},
{"geometry": {"type": "Point", "coordinates": [-80.8396937212, 35.2312390499]}, "type": "Feature", "properties": {"collection_times": [{"days": "Mon-Fri", "time": "11:00am"}, {"days": "Sat-Sun", "time": "Closed"}], "id": "2820200009", "name": "USPS COLLECTION BOX - BLUE BOX", "address": {"city": "CHARLOTTE", "state": "NC", "street": "501 N CHURCH ST", "postcode": "28202"}}},
{"geometry": {"type": "Point", "coordinates": [-80.8353066315, 35.2310411744]}, "type": "Feature", "properties": {"collection_times": [{"days": "Mon-Fri", "time": "1:30pm"}, {"days": "Sat-Sun", "time": "Closed"}], "id": "2820200017", "name": "USPS COLLECTION BOX - BLUE BOX", "address": {"city": "CHARLOTTE", "state": "NC", "street": "COLLEGE ST", "postcode": "28202"}}},
{"geometry": {"type": "Point", "coordinates": [-80.8436270597, 35.2250722848]}, "type": "Feature", "properties": {"collection_times": [{"days": "Mon-Fri", "time": "2:30pm"}, {"days": "Sat-Sun", "time": "Closed"}], "id": "2820200019", "name": "USPS COLLECTION BOX - BLUE BOX", "address": {"city": "CHARLOTTE", "state": "NC", "street": "200 S COLLEGE ST", "postcode": "28202"}}},
{"geometry": {"type": "Point", "coordinates": [-80.8388573692, 35.2218073181]}, "type": "Feature", "properties": {"collection_times": [{"days": "Mon-Fri", "time": "4:15pm"}, {"days": "Sat-Sun", "time": "Closed"}], "id": "2820200024", "name": "USPS COLLECTION BOX - BLUE BOX", "address": {"city": "CHARLOTTE", "state": "NC", "street": "600 E 4TH ST", "postcode": "28202"}}},
{"geometry": {"type": "Point", "coordinates": [-80.8397064873, 35.2261949465]}, "type": "Feature", "properties": {"collection_times": [{"days": "Mon-Fri", "time": "1:00pm"}, {"days": "Sat-Sun", "time": "Closed"}], "id": "2820200029", "name": "USPS COLLECTION BOX - BLUE BOX", "address": {"city": "CHARLOTTE", "state": "NC", "street": "301 E 5TH ST", "postcode": "28202"}}},
{"geometry": {"type": "Point", "coordinates": [-80.8378706747, 35.2209387658]}, "type": "Feature", "properties": {"collection_times": [{"days": "Mon-Fri", "time": "4:15pm"}, {"days": "Sat-Sun", "time": "Closed"}], "id": "2820200030", "name": "USPS COLLECTION BOX - BLUE BOX", "address": {"city": "CHARLOTTE", "state": "NC", "street": "800 E 4TH ST", "postcode": "28202"}}},
{"geometry": {"type": "Point", "coordinates": [-80.8378706747, 35.2209387658]}, "type": "Feature", "properties": {"collection_times": [{"days": "Mon-Fri", "time": "4:15pm"}, {"days": "Sat-Sun", "time": "Closed"}], "id": "2820200031", "name": "USPS COLLECTION BOX - BLUE BOX", "address": {"city": "CHARLOTTE", "state": "NC", "street": "800 E 4TH ST", "postcode": "28202"}}},
{"geometry": {"type": "Point", "coordinates": [-80.8474681275, 35.2169181487]}, "type": "Feature", "properties": {"collection_times": [{"days": "Mon-Fri", "time": "4:30pm"}, {"days": "Sat-Sun", "time": "Closed"}], "id": "2820200041", "name": "USPS COLLECTION BOX - BLUE BOX", "address": {"city": "CHARLOTTE", "state": "NC", "street": "521 E MOREHEAD ST", "postcode": "28202"}}},
{"geometry": {"type": "Point", "coordinates": [-80.8423033286, 35.2179449571]}, "type": "Feature", "properties": {"collection_times": [{"days": "Mon-Fri", "time": "3:00pm"}, {"days": "Sat-Sun", "time": "Closed"}], "id": "2820200049", "name": "USPS COLLECTION BOX - BLUE BOX", "address": {"city": "CHARLOTTE", "state": "NC", "street": "700 E STONEWALL ST", "postcode": "28202"}}},
{"geometry": {"type": "Point", "coordinates": [-80.8434399392, 35.2274408653]}, "type": "Feature", "properties": {"collection_times": [{"days": "Mon-Fri", "time": "12:30pm"}, {"days": "Sat-Sun", "time": "Closed"}], "id": "2820200053", "name": "USPS COLLECTION BOX - BLUE BOX", "address": {"city": "CHARLOTTE", "state": "NC", "street": "129 W TRADE ST", "postcode": "28202"}}},
{"geometry": {"type": "Point", "coordinates": [-80.8433574738, 35.2273686653]}, "type": "Feature", "properties": {"collection_times": [{"days": "Mon-Fri", "time": "4:30pm"}, {"days": "Sat-Sun", "time": "Closed"}], "id": "2820200055", "name": "USPS COLLECTION BOX - BLUE BOX", "address": {"city": "CHARLOTTE", "state": "NC", "street": "121 W TRADE ST", "postcode": "28202"}}},
{"geometry": {"type": "Point", "coordinates": [-80.8433574738, 35.2273686653]}, "type": "Feature", "properties": {"collection_times": [{"days": "Mon-Fri", "time": "4:30pm"}, {"days": "Sat-Sun", "time": "Closed"}], "id": "2820200056", "name": "USPS COLLECTION BOX - BLUE BOX", "address": {"city": "CHARLOTTE", "state": "NC", "street": "121 W TRADE ST", "postcode": "28202"}}},
{"geometry": {"type": "Point", "coordinates": [-80.8435478015, 35.2268573699]}, "type": "Feature", "properties": {"collection_times": [{"days": "Mon-Fri", "time": "4:00pm"}, {"days": "Sat-Sun", "time": "Closed"}], "id": "2820200072", "name": "USPS COLLECTION BOX - BLUE BOX", "address": {"city": "CHARLOTTE", "state": "NC", "street": "112 S TRYON ST", "postcode": "28202"}}},
{"geometry": {"type": "Point", "coordinates": [-80.8438364435, 35.226651535]}, "type": "Feature", "properties": {"collection_times": [{"days": "Mon-Fri", "time": "4:30pm"}, {"days": "Sat-Sun", "time": "Closed"}], "id": "2820200073", "name": "USPS COLLECTION BOX - BLUE BOX", "address": {"city": "CHARLOTTE", "state": "NC", "street": "128 S TRYON ST", "postcode": "28202"}}},
{"geometry": {"type": "Point", "coordinates": [-80.8438364435, 35.226651535]}, "type": "Feature", "properties": {"collection_times": [{"days": "Mon-Fri", "time": "4:30pm"}, {"days": "Sat-Sun", "time": "Closed"}], "id": "2820200074", "name": "USPS COLLECTION BOX - BLUE BOX", "address": {"city": "CHARLOTTE", "state": "NC", "street": "128 S TRYON ST", "postcode": "28202"}}},
{"geometry": {"type": "Point", "coordinates": [-80.844656234, 35.2260813488]}, "type": "Feature", "properties": {"collection_times": [{"days": "Mon-Fri", "time": "3:15pm"}, {"days": "Sat-Sun", "time": "Closed"}], "id": "2820200083", "name": "USPS COLLECTION BOX - BLUE BOX", "address": {"city": "CHARLOTTE", "state": "NC", "street": "212 S TRYON ST", "postcode": "28202"}}},
{"geometry": {"type": "Point", "coordinates": [-80.844656234, 35.2260813488]}, "type": "Feature", "properties": {"collection_times": [{"days": "Mon-Fri", "time": "2:00pm"}, {"days": "Sat-Sun", "time": "Closed"}], "id": "2820200084", "name": "USPS COLLECTION BOX - BLUE BOX", "address": {"city": "CHARLOTTE", "state": "NC", "street": "212 S TRYON ST", "postcode": "28202"}}},
{"geometry": {"type": "Point", "coordinates": [-80.8466270436, 35.224720946]}, "type": "Feature", "properties": {"collection_times": [{"days": "Mon-Fri", "time": "3:45pm"}, {"days": "Sat-Sun", "time": "Closed"}], "id": "2820200111", "name": "USPS COLLECTION BOX - BLUE BOX", "address": {"city": "CHARLOTTE", "state": "NC", "street": "401 N TRYON ST", "postcode": "28202"}}},
{"geometry": {"type": "Point", "coordinates": [-80.8506136154, 35.2335682961]}, "type": "Feature", "properties": {"collection_times": [{"days": "Mon-Fri", "time": "12:30pm"}, {"days": "Sat-Sun", "time": "Closed"}], "id": "2820200117", "name": "USPS COLLECTION BOX - BLUE BOX", "address": {"city": "CHARLOTTE", "state": "NC", "street": "800 W TRADE ST", "postcode": "28202"}}},
{"geometry": {"type": "Point", "coordinates": [-80.8334536122, 35.221517493]}, "type": "Feature", "properties": {"collection_times": [{"days": "Mon-Fri", "time": "5:00pm"}, {"days": "Sat", "time": "1:00pm"}, {"days": "Sun", "time": "Closed"}], "id": "2820200120", "name": "USPS COLLECTION BOX - PO LOBBY", "address": {"city": "CHARLOTTE", "state": "NC", "street": "201 N MCDOWELL ST", "postcode": "28202"}}},
{"geometry": {"type": "Point", "coordinates": [-80.8334536122, 35.221517493]}, "type": "Feature", "properties": {"collection_times": [{"days": "Mon-Fri", "time": "5:00pm"}, {"days": "Sat", "time": "1:00pm"}, {"days": "Sun", "time": "Closed"}], "id": "2820200121", "name": "USPS COLLECTION BOX - PO LOBBY", "address": {"city": "CHARLOTTE", "state": "NC", "street": "201 N MCDOWELL ST", "postcode": "28202"}}},
{"geometry": {"type": "Point", "coordinates": [-80.8435776258, 35.2277310352]}, "type": "Feature", "properties": {"collection_times": [{"days": "Mon-Fri", "time": "5:00pm"}, {"days": "Sat", "time": "1:00pm"}, {"days": "Sun", "time": "Closed"}], "id": "2820200127", "name": "USPS COLLECTION BOX - APC", "address": {"city": "CHARLOTTE", "state": "NC", "street": "201 N MCDOWELL ST", "postcode": "28202"}}},
{"geometry": {"type": "Point", "coordinates": [-80.8488263707, 35.2249415519]}, "type": "Feature", "properties": {"collection_times": [{"days": "Mon-Fri", "time": "12:30pm"}, {"days": "Sat-Sun", "time": "Closed"}], "id": "2820200130", "name": "USPS COLLECTION BOX - BLUE BOX", "address": {"city": "CHARLOTTE", "state": "NC", "street": "526 CHURCH", "postcode": "28202"}}},
{"geometry": {"type": "Point", "coordinates": [-80.8443758727, 35.2092300984]}, "type": "Feature", "properties": {"collection_times": [{"days": "Mon-Fri", "time": "10:30am"}, {"days": "Sat-Sun", "time": "Closed"}], "id": "2820300004", "name": "USPS COLLECTION BOX - BLUE BOX", "address": {"city": "CHARLOTTE", "state": "NC", "street": "1326 DILWORTH RD", "postcode": "28203"}}},
{"geometry": {"type": "Point", "coordinates": [-80.8502298044, 35.2016520766]}, "type": "Feature", "properties": {"collection_times": [{"days": "Mon-Fri", "time": "12:30pm"}, {"days": "Sat-Sun", "time": "Closed"}], "id": "2820300006", "name": "USPS COLLECTION BOX - BLUE BOX", "address": {"city": "CHARLOTTE", "state": "NC", "street": "1001 IDEAL WAY", "postcode": "28203"}}},
{"geometry": {"type": "Point", "coordinates": [-80.8559203693, 35.2104142403]}, "type": "Feature", "properties": {"collection_times": [{"days": "Mon-Fri", "time": "4:00pm"}, {"days": "Sat-Sun", "time": "Closed"}], "id": "2820300009", "name": "USPS COLLECTION BOX - BLUE BOX", "address": {"city": "CHARLOTTE", "state": "NC", "street": "316 EAST BLVD", "postcode": "28203"}}},
{"geometry": {"type": "Point", "coordinates": [-80.8488533724, 35.205118133]}, "type": "Feature", "properties": {"collection_times": [{"days": "Mon-Fri", "time": "4:00pm"}, {"days": "Sat-Sun", "time": "Closed"}], "id": "2820300010", "name": "USPS COLLECTION BOX - BLUE BOX", "address": {"city": "CHARLOTTE", "state": "NC", "street": "922 EAST BLVD", "postcode": "28203"}}},
{"geometry": {"type": "Point", "coordinates": [-80.841341583, 35.1995369326]}, "type": "Feature", "properties": {"collection_times": [{"days": "Mon-Fri", "time": "1:00pm"}, {"days": "Sat-Sun", "time": "Closed"}], "id": "2820300014", "name": "USPS COLLECTION BOX - BLUE BOX", "address": {"city": "CHARLOTTE", "state": "NC", "street": "1600 EAST BLVD", "postcode": "28203"}}},
{"geometry": {"type": "Point", "coordinates": [-80.8485412897, 35.2159506103]}, "type": "Feature", "properties": {"collection_times": [{"days": "Mon-Fri", "time": "4:00pm"}, {"days": "Sat-Sun", "time": "Closed"}], "id": "2820300017", "name": "USPS COLLECTION BOX - BLUE BOX", "address": {"city": "CHARLOTTE", "state": "NC", "street": "601 LEXINGTON AVE", "postcode": "28203"}}},
{"geometry": {"type": "Point", "coordinates": [-80.8588867807, 35.2202883884]}, "type": "Feature", "properties": {"collection_times": [{"days": "Mon-Fri", "time": "4:30pm"}, {"days": "Sat-Sun", "time": "Closed"}], "id": "2820300020", "name": "USPS COLLECTION BOX - BLUE BOX", "address": {"city": "CHARLOTTE", "state": "NC", "street": "1400 S MINT ST", "postcode": "28203"}}},
{"geometry": {"type": "Point", "coordinates": [-80.8518971608, 35.1981531785]}, "type": "Feature", "properties": {"collection_times": [{"days": "Mon-Fri", "time": "10:30am"}, {"days": "Sat-Sun", "time": "Closed"}], "id": "2820300024", "name": "USPS COLLECTION BOX - BLUE BOX", "address": {"city": "CHARLOTTE", "state": "NC", "street": "2410 PARK RD", "postcode": "28203"}}},
{"geometry": {"type": "Point", "coordinates": [-80.8667290653, 35.2041516555]}, "type": "Feature", "properties": {"collection_times": [{"days": "Mon-Fri", "time": "3:30pm"}, {"days": "Sat-Sun", "time": "Closed"}], "id": "2820300026", "name": "USPS COLLECTION BOX - BLUE BOX", "address": {"city": "CHARLOTTE", "state": "NC", "street": "2518 DUNAVANT ST", "postcode": "28203"}}},
{"geometry": {"type": "Point", "coordinates": [-80.8563450515, 35.212988359]}, "type": "Feature", "properties": {"collection_times": [{"days": "Mon-Fri", "time": "4:00pm"}, {"days": "Sat-Sun", "time": "Closed"}], "id": "2820300028", "name": "USPS COLLECTION BOX - BLUE BOX", "address": {"city": "CHARLOTTE", "state": "NC", "street": "1625 SOUTH BLVD", "postcode": "28203"}}},
{"geometry": {"type": "Point", "coordinates": [-80.8581175061, 35.2117844921]}, "type": "Feature", "properties": {"collection_times": [{"days": "Mon-Fri", "time": "3:30pm"}, {"days": "Sat-Sun", "time": "Closed"}], "id": "2820300044", "name": "USPS COLLECTION BOX - BLUE BOX", "address": {"city": "CHARLOTTE", "state": "NC", "street": "1808 CAMDEN RD", "postcode": "28203"}}},
{"geometry": {"type": "Point", "coordinates": [-80.8437075009, 35.2128605994]}, "type": "Feature", "properties": {"collection_times": [{"days": "Mon-Fri", "time": "3:30pm"}, {"days": "Sat-Sun", "time": "Closed"}], "id": "2820300045", "name": "USPS COLLECTION BOX - BLUE BOX", "address": {"city": "CHARLOTTE", "state": "NC", "street": "1001 E MOREHEAD ST", "postcode": "28203"}}},
{"geometry": {"type": "Point", "coordinates": [-80.8381617893, 35.2101114028]}, "type": "Feature", "properties": {"collection_times": [{"days": "Mon-Fri", "time": "3:00pm"}, {"days": "Sat-Sun", "time": "Closed"}], "id": "2820400001", "name": "USPS COLLECTION BOX - BLUE BOX", "address": {"city": "CHARLOTTE", "state": "NC", "street": "1229 GREENWOOD CLFS", "postcode": "28204"}}},
{"geometry": {"type": "Point", "coordinates": [-80.8334536126, 35.2215174931]}, "type": "Feature", "properties": {"collection_times": [{"days": "Mon-Fri", "time": "5:00pm"}, {"days": "Sat", "time": "3:00pm"}, {"days": "Sun", "time": "Closed"}], "id": "2820400003", "name": "USPS COLLECTION BOX - BLUE BOX", "address": {"city": "CHARLOTTE", "state": "NC", "street": "201 N MCDOWELL ST", "postcode": "28204"}}},
{"geometry": {"type": "Point", "coordinates": [-80.8334536126, 35.2215174931]}, "type": "Feature", "properties": {"collection_times": [{"days": "Mon-Fri", "time": "5:00pm"}, {"days": "Sat", "time": "3:00pm"}, {"days": "Sun", "time": "Closed"}], "id": "2820400004", "name": "USPS COLLECTION BOX - BLUE BOX", "address": {"city": "CHARLOTTE", "state": "NC", "street": "201 N MCDOWELL ST", "postcode": "28204"}}},
{"geometry": {"type": "Point", "coordinates": [-80.8334536126, 35.2215174931]}, "type": "Feature", "properties": {"collection_times": [{"days": "Mon-Fri", "time": "5:00pm"}, {"days": "Sat", "time": "3:00pm"}, {"days": "Sun", "time": "Closed"}], "id": "2820400005", "name": "USPS COLLECTION BOX - BLUE BOX", "address": {"city": "CHARLOTTE", "state": "NC", "street": "201 N MCDOWELL ST", "postcode": "28204"}}},
{"geometry": {"type": "Point", "coordinates": [-80.8334536126, 35.2215174931]}, "type": "Feature", "properties": {"collection_times": [{"days": "Mon-Fri", "time": "5:00pm"}, {"days": "Sat", "time": "3:00pm"}, {"days": "Sun", "time": "Closed"}], "id": "2820400006", "name": "USPS COLLECTION BOX - BLUE BOX", "address": {"city": "CHARLOTTE", "state": "NC", "street": "201 N MCDOWELL ST", "postcode": "28204"}}},
{"geometry": {"type": "Point", "coordinates": [-80.8350115696, 35.2109087171]}, "type": "Feature", "properties": {"collection_times": [{"days": "Mon-Fri", "time": "3:00pm"}, {"days": "Sat-Sun", "time": "Closed"}], "id": "2820400017", "name": "USPS COLLECTION BOX - BLUE BOX", "address": {"city": "CHARLOTTE", "state": "NC", "street": "1300 BAXTER ST", "postcode": "28204"}}},
{"geometry": {"type": "Point", "coordinates": [-80.8407323591, 35.2095778883]}, "type": "Feature", "properties": {"collection_times": [{"days": "Mon-Fri", "time": "3:00pm"}, {"days": "Sat-Sun", "time": "Closed"}], "id": "2820400021", "name": "USPS COLLECTION BOX - BLUE BOX", "address": {"city": "CHARLOTTE", "state": "NC", "street": "1200 E MOREHEAD ST", "postcode": "28204"}}},
{"geometry": {"type": "Point", "coordinates": [-80.8411937131, 35.2100806459]}, "type": "Feature", "properties": {"collection_times": [{"days": "Mon-Fri", "time": "3:00pm"}, {"days": "Sat-Sun", "time": "Closed"}], "id": "2820400024", "name": "USPS COLLECTION BOX - BLUE BOX", "address": {"city": "CHARLOTTE", "state": "NC", "street": "1125 E MOREHEAD ST", "postcode": "28204"}}},
{"geometry": {"type": "Point", "coordinates": [-80.8280758812, 35.2149023866]}, "type": "Feature", "properties": {"collection_times": [{"days": "Mon-Fri", "time": "1:00pm"}, {"days": "Sat-Sun", "time": "Closed"}], "id": "2820400029", "name": "USPS COLLECTION BOX - BLUE BOX", "address": {"city": "CHARLOTTE", "state": "NC", "street": "1431 ELIZABETH AVE", "postcode": "28204"}}},
{"geometry": {"type": "Point", "coordinates": [-80.8229595836, 35.2128759779]}, "type": "Feature", "properties": {"collection_times": [{"days": "Mon-Fri", "time": "1:00pm"}, {"days": "Sat-Sun", "time": "Closed"}], "id": "2820400032", "name": "USPS COLLECTION BOX - BLUE BOX", "address": {"city": "CHARLOTTE", "state": "NC", "street": "1801 E 5TH ST", "postcode": "28204"}}},
{"geometry": {"type": "Point", "coordinates": [-80.8254674566, 35.2130025545]}, "type": "Feature", "properties": {"collection_times": [{"days": "Mon-Fri", "time": "1:00pm"}, {"days": "Sat-Sun", "time": "Closed"}], "id": "2820400033", "name": "USPS COLLECTION BOX - BLUE BOX", "address": {"city": "CHARLOTTE", "state": "NC", "street": "200 HAWTHORNE LN", "postcode": "28204"}}},
{"geometry": {"type": "Point", "coordinates": [-80.8374336042, 35.218617049]}, "type": "Feature", "properties": {"collection_times": [{"days": "Mon-Fri", "time": "4:30pm"}, {"days": "Sat-Sun", "time": "Closed"}], "id": "2820400045", "name": "USPS COLLECTION BOX - BLUE BOX", "address": {"city": "CHARLOTTE", "state": "NC", "street": "301 S MCDOWELL ST", "postcode": "28204"}}},
{"geometry": {"type": "Point", "coordinates": [-80.8374336042, 35.218617049]}, "type": "Feature", "properties": {"collection_times": [{"days": "Mon-Fri", "time": "4:30pm"}, {"days": "Sat-Sun", "time": "Closed"}], "id": "2820400046", "name": "USPS COLLECTION BOX - BLUE BOX", "address": {"city": "CHARLOTTE", "state": "NC", "street": "301 S MCDOWELL ST", "postcode": "28204"}}},
{"geometry": {"type": "Point", "coordinates": [-80.8425458352, 35.2115664423]}, "type": "Feature", "properties": {"collection_times": [{"days": "Mon-Fri", "time": "4:30pm"}, {"days": "Sat-Sun", "time": "Closed"}], "id": "2820400048", "name": "USPS COLLECTION BOX - BLUE BOX", "address": {"city": "CHARLOTTE", "state": "NC", "street": "1051 E MOREHEAD ST", "postcode": "28204"}}},
{"geometry": {"type": "Point", "coordinates": [-80.8250202982, 35.2178231123]}, "type": "Feature", "properties": {"collection_times": [{"days": "Mon-Fri", "time": "4:00pm"}, {"days": "Sat-Sun", "time": "Closed"}], "id": "2820400060", "name": "USPS COLLECTION BOX - BLUE BOX", "address": {"city": "CHARLOTTE", "state": "NC", "street": "1420 E 7TH ST", "postcode": "28204"}}},
{"geometry": {"type": "Point", "coordinates": [-80.8337292421, 35.215814448]}, "type": "Feature", "properties": {"collection_times": [{"days": "Mon-Fri", "time": "1:00pm"}, {"days": "Sat-Sun", "time": "Closed"}], "id": "2820400062", "name": "USPS COLLECTION BOX - BLUE BOX", "address": {"city": "CHARLOTTE", "state": "NC", "street": "1130 E 3RD ST", "postcode": "28204"}}},
{"geometry": {"type": "Point", "coordinates": [-80.8282635547, 35.2112208742]}, "type": "Feature", "properties": {"collection_times": [{"days": "Mon-Fri", "time": "4:00pm"}, {"days": "Sat-Sun", "time": "Closed"}], "id": "2820400063", "name": "USPS COLLECTION BOX - BLUE BOX", "address": {"city": "CHARLOTTE", "state": "NC", "street": "1700 E 3RD ST", "postcode": "28204"}}},
{"geometry": {"type": "Point", "coordinates": [-80.826177232, 35.2099658988]}, "type": "Feature", "properties": {"collection_times": [{"days": "Mon-Fri", "time": "4:00pm"}, {"days": "Sat-Sun", "time": "Closed"}], "id": "2820400066", "name": "USPS COLLECTION BOX - BLUE BOX", "address": {"city": "CHARLOTTE", "state": "NC", "street": "1850 E 3RD ST", "postcode": "28204"}}},
{"geometry": {"type": "Point", "coordinates": [-80.8254934817, 35.2113889985]}, "type": "Feature", "properties": {"collection_times": [{"days": "Mon-Fri", "time": "1:00pm"}, {"days": "Sat-Sun", "time": "Closed"}], "id": "2820400067", "name": "USPS COLLECTION BOX - BLUE BOX", "address": {"city": "CHARLOTTE", "state": "NC", "street": "1718 E 4TH ST", "postcode": "28204"}}},
{"geometry": {"type": "Point", "coordinates": [-80.8262009916, 35.2179080755]}, "type": "Feature", "properties": {"collection_times": [{"days": "Mon-Fri", "time": "12:00pm"}, {"days": "Sat-Sun", "time": "Closed"}], "id": "2820400076", "name": "USPS COLLECTION BOX - BLUE BOX", "address": {"city": "CHARLOTTE", "state": "NC", "street": "BREVARD", "postcode": "28204"}}},
{"geometry": {"type": "Point", "coordinates": [-80.7644386036, 35.20041942]}, "type": "Feature", "properties": {"collection_times": [{"days": "Mon-Fri", "time": "2:30pm"}, {"days": "Sat-Sun", "time": "Closed"}], "id": "2820500004", "name": "USPS COLLECTION BOX - BLUE BOX", "address": {"city": "CHARLOTTE", "state": "NC", "street": "4913 ALBEMARLE RD", "postcode": "28205"}}},
{"geometry": {"type": "Point", "coordinates": [-80.7685955214, 35.2135266053]}, "type": "Feature", "properties": {"collection_times": [{"days": "Mon-Fri", "time": "10:00am"}, {"days": "Sat-Sun", "time": "Closed"}], "id": "2820500013", "name": "USPS COLLECTION BOX - BLUE BOX", "address": {"city": "CHARLOTTE", "state": "NC", "street": "4439 CENTRAL AVE", "postcode": "28205"}}},
{"geometry": {"type": "Point", "coordinates": [-80.7810154076, 35.2136614627]}, "type": "Feature", "properties": {"collection_times": [{"days": "Mon-Fri", "time": "4:00pm"}, {"days": "Sat-Sun", "time": "Closed"}], "id": "2820500022", "name": "USPS COLLECTION BOX - BLUE BOX", "address": {"city": "CHARLOTTE", "state": "NC", "street": "3056 EASTWAY DR", "postcode": "28205"}}},
{"geometry": {"type": "Point", "coordinates": [-80.8197052635, 35.2348364281]}, "type": "Feature", "properties": {"collection_times": [{"days": "Mon-Fri", "time": "12:00pm"}, {"days": "Sat-Sun", "time": "Closed"}], "id": "2820500046", "name": "USPS COLLECTION BOX - BLUE BOX", "address": {"city": "CHARLOTTE", "state": "NC", "street": "700 PARKWOOD AVE", "postcode": "28205"}}},
{"geometry": {"type": "Point", "coordinates": [-80.8148007157, 35.2173250866]}, "type": "Feature", "properties": {"collection_times": [{"days": "Mon-Fri", "time": "1:30pm"}, {"days": "Sat-Sun", "time": "Closed"}], "id": "2820500047", "name": "USPS COLLECTION BOX - BLUE BOX", "address": {"city": "CHARLOTTE", "state": "NC", "street": "916 PECAN AVE", "postcode": "28205"}}},
{"geometry": {"type": "Point", "coordinates": [-80.7875666344, 35.2348506236]}, "type": "Feature", "properties": {"collection_times": [{"days": "Mon-Fri", "time": "12:00pm"}, {"days": "Sat-Sun", "time": "Closed"}], "id": "2820500049", "name": "USPS COLLECTION BOX - BLUE BOX", "address": {"city": "CHARLOTTE", "state": "NC", "street": "2133 SHAMROCK DR", "postcode": "28205"}}},
{"geometry": {"type": "Point", "coordinates": [-80.8109564579, 35.2194159627]}, "type": "Feature", "properties": {"collection_times": [{"days": "Mon-Fri", "time": "4:00pm"}, {"days": "Sat", "time": "3:00pm"}, {"days": "Sun", "time": "Closed"}], "id": "2820500057", "name": "USPS COLLECTION BOX - BLUE BOX", "address": {"city": "CHARLOTTE", "state": "NC", "street": "1233 THE PLAZA", "postcode": "28205"}}},
{"geometry": {"type": "Point", "coordinates": [-80.8109564579, 35.2194159627]}, "type": "Feature", "properties": {"collection_times": [{"days": "Mon-Fri", "time": "5:00pm"}, {"days": "Sat", "time": "1:00pm"}, {"days": "Sun", "time": "Closed"}], "id": "2820500068", "name": "USPS COLLECTION BOX - PO LOBBY", "address": {"city": "CHARLOTTE", "state": "NC", "street": "1233 THE PLAZA", "postcode": "28205"}}},
{"geometry": {"type": "Point", "coordinates": [-80.8109564581, 35.2194159631]}, "type": "Feature", "properties": {"collection_times": [{"days": "Mon-Fri", "time": "5:00pm"}, {"days": "Sat", "time": "1:00pm"}, {"days": "Sun", "time": "Closed"}], "id": "2820500069", "name": "USPS COLLECTION BOX - PO LOBBY", "address": {"city": "CHARLOTTE", "state": "NC", "street": "1233 THE PLAZA", "postcode": "28205"}}},
{"geometry": {"type": "Point", "coordinates": [-80.8227693944, 35.2527017818]}, "type": "Feature", "properties": {"collection_times": [{"days": "Mon-Fri", "time": "3:00pm"}, {"days": "Sat-Sun", "time": "Closed"}], "id": "2820600033", "name": "USPS COLLECTION BOX - BLUE BOX", "address": {"city": "CHARLOTTE", "state": "NC", "street": "1000 UPPER ASBURY AVE", "postcode": "28206"}}},
{"geometry": {"type": "Point", "coordinates": [-80.8337843268, 35.2421769739]}, "type": "Feature", "properties": {"collection_times": [{"days": "Mon-Fri", "time": "11:00am"}, {"days": "Sat-Sun", "time": "Closed"}], "id": "2820600034", "name": "USPS COLLECTION BOX - BLUE BOX", "address": {"city": "CHARLOTTE", "state": "NC", "street": "1504 N GRAHAM ST", "postcode": "28206"}}},
{"geometry": {"type": "Point", "coordinates": [-80.8215805987, 35.2564028247]}, "type": "Feature", "properties": {"collection_times": [{"days": "Mon-Fri", "time": "3:00pm"}, {"days": "Sat-Sun", "time": "Closed"}], "id": "2820600035", "name": "USPS COLLECTION BOX - BLUE BOX", "address": {"city": "CHARLOTTE", "state": "NC", "street": "@ REAGON DR", "postcode": "28206"}}},
{"geometry": {"type": "Point", "coordinates": [-80.8215805987, 35.2564028247]}, "type": "Feature", "properties": {"collection_times": [{"days": "Mon-Fri", "time": "3:00pm"}, {"days": "Sat-Sun", "time": "Closed"}], "id": "2820600036", "name": "USPS COLLECTION BOX - BLUE BOX", "address": {"city": "CHARLOTTE", "state": "NC", "street": "1901 STARITA RD", "postcode": "28206"}}},
{"geometry": {"type": "Point", "coordinates": [-80.8019486306, 35.2545293031]}, "type": "Feature", "properties": {"collection_times": [{"days": "Mon-Fri", "time": "3:00pm"}, {"days": "Sat", "time": "12:30pm"}, {"days": "Sun", "time": "Closed"}], "id": "2820600038", "name": "USPS COLLECTION BOX - BLUE BOX", "address": {"city": "CHARLOTTE", "state": "NC", "street": "3720 N TRYON ST", "postcode": "28206"}}},
{"geometry": {"type": "Point", "coordinates": [-80.8019486306, 35.2545293031]}, "type": "Feature", "properties": {"collection_times": [{"days": "Mon-Fri", "time": "5:00pm"}, {"days": "Sat", "time": "12:00pm"}, {"days": "Sun", "time": "Closed"}], "id": "2820600039", "name": "USPS COLLECTION BOX - PO LOBBY", "address": {"city": "CHARLOTTE", "state": "NC", "street": "3720 N TRYON ST", "postcode": "28206"}}},
{"geometry": {"type": "Point", "coordinates": [-80.8211886941, 35.1888406177]}, "type": "Feature", "properties": {"collection_times": [{"days": "Mon-Fri", "time": "12:00pm"}, {"days": "Sat-Sun", "time": "Closed"}], "id": "2820700005", "name": "USPS COLLECTION BOX - BLUE BOX", "address": {"city": "CHARLOTTE", "state": "NC", "street": "1401 BILTMORE DR", "postcode": "28207"}}},
{"geometry": {"type": "Point", "coordinates": [-80.8304024368, 35.1892284687]}, "type": "Feature", "properties": {"collection_times": [{"days": "Mon-Fri", "time": "12:30pm"}, {"days": "Sat-Sun", "time": "Closed"}], "id": "2820700007", "name": "USPS COLLECTION BOX - BLUE BOX", "address": {"city": "CHARLOTTE", "state": "NC", "street": "1900 SELWYN AVE", "postcode": "28207"}}},
{"geometry": {"type": "Point", "coordinates": [-80.8130535325, 35.199930545]}, "type": "Feature", "properties": {"collection_times": [{"days": "Mon-Fri", "time": "3:30pm"}, {"days": "Sat-Sun", "time": "Closed"}], "id": "2820700009", "name": "USPS COLLECTION BOX - BLUE BOX", "address": {"city": "CHARLOTTE", "state": "NC", "street": "2711 RANDOLPH RD", "postcode": "28207"}}},
{"geometry": {"type": "Point", "coordinates": [-80.8217435018, 35.2097162945]}, "type": "Feature", "properties": {"collection_times": [{"days": "Mon-Fri", "time": "1:00pm"}, {"days": "Sat-Sun", "time": "Closed"}], "id": "2820700017", "name": "USPS COLLECTION BOX - BLUE BOX", "address": {"city": "CHARLOTTE", "state": "NC", "street": "2001 VAIL AVE", "postcode": "28207"}}},
{"geometry": {"type": "Point", "coordinates": [-80.8254627248, 35.2001047529]}, "type": "Feature", "properties": {"collection_times": [{"days": "Mon-Fri", "time": "3:30pm"}, {"days": "Sat-Sun", "time": "Closed"}], "id": "2820700025", "name": "USPS COLLECTION BOX - BLUE BOX", "address": {"city": "CHARLOTTE", "state": "NC", "street": "725 PROVIDENCE RD", "postcode": "28207"}}},
{"geometry": {"type": "Point", "coordinates": [-80.8242218009, 35.2104308017]}, "type": "Feature", "properties": {"collection_times": [{"days": "Mon-Fri", "time": "4:00pm"}, {"days": "Sat-Sun", "time": "Closed"}], "id": "2820700036", "name": "USPS COLLECTION BOX - BLUE BOX", "address": {"city": "CHARLOTTE", "state": "NC", "street": "1900 RANDOLPH RD", "postcode": "28207"}}},
{"geometry": {"type": "Point", "coordinates": [-80.820614959, 35.2066725411]}, "type": "Feature", "properties": {"collection_times": [{"days": "Mon-Fri", "time": "3:30pm"}, {"days": "Sat-Sun", "time": "Closed"}], "id": "2820700038", "name": "USPS COLLECTION BOX - BLUE BOX", "address": {"city": "CHARLOTTE", "state": "NC", "street": "2200 RANDOLPH RD", "postcode": "28207"}}},
{"geometry": {"type": "Point", "coordinates": [-80.8250402607, 35.2017822647]}, "type": "Feature", "properties": {"collection_times": [{"days": "Mon-Fri", "time": "12:00pm"}, {"days": "Sat-Sun", "time": "Closed"}], "id": "2820700043", "name": "USPS COLLECTION BOX - BLUE BOX", "address": {"city": "CHARLOTTE", "state": "NC", "street": "601 ARDSLEY RD", "postcode": "28207"}}},
{"geometry": {"type": "Point", "coordinates": [-80.9402383382, 35.1978330909]}, "type": "Feature", "properties": {"collection_times": [{"days": "Mon-Fri", "time": "2:30pm"}, {"days": "Sat-Sun", "time": "Closed"}], "id": "2820800001", "name": "USPS COLLECTION BOX - BLUE BOX", "address": {"city": "CHARLOTTE", "state": "NC", "street": "4814 WEST BLVD", "postcode": "28208"}}},
{"geometry": {"type": "Point", "coordinates": [-80.9088622636, 35.2301325098]}, "type": "Feature", "properties": {"collection_times": [{"days": "Mon-Fri", "time": "4:00pm"}, {"days": "Sat", "time": "3:45pm"}, {"days": "Sun", "time": "Closed"}], "id": "2820800008", "name": "USPS COLLECTION BOX - BLUE BOX", "address": {"city": "CHARLOTTE", "state": "NC", "street": "5501 R. C. \"JOSH\" BIRMINGHAM PKWY", "postcode": "28208"}}},
{"geometry": {"type": "Point", "coordinates": [-80.8932498336, 35.2244583382]}, "type": "Feature", "properties": {"collection_times": [{"days": "Mon-Fri", "time": "5:00pm"}, {"days": "Sat", "time": "11:00am"}, {"days": "Sun", "time": "Closed"}], "id": "2820800012", "name": "USPS COLLECTION BOX - BLUE BOX", "address": {"city": "CHARLOTTE", "state": "NC", "street": "3202 WILKINSON BLVD", "postcode": "28208"}}},
{"geometry": {"type": "Point", "coordinates": [-80.8748500786, 35.2323746905]}, "type": "Feature", "properties": {"collection_times": [{"days": "Mon-Fri", "time": "3:30pm"}, {"days": "Sat-Sun", "time": "Closed"}], "id": "2820800018", "name": "USPS COLLECTION BOX - BLUE BOX", "address": {"city": "CHARLOTTE", "state": "NC", "street": "2100 FREEDOM DR", "postcode": "28208"}}},
{"geometry": {"type": "Point", "coordinates": [-80.8880069482, 35.2414302414]}, "type": "Feature", "properties": {"collection_times": [{"days": "Mon-Fri", "time": "10:00am"}, {"days": "Sat-Sun", "time": "Closed"}], "id": "2820800020", "name": "USPS COLLECTION BOX - BLUE BOX", "address": {"city": "CHARLOTTE", "state": "NC", "street": "3045 FREEDOM DR", "postcode": "28208"}}},
{"geometry": {"type": "Point", "coordinates": [-80.8920881567, 35.2445520701]}, "type": "Feature", "properties": {"collection_times": [{"days": "Mon-Fri", "time": "9:30am"}, {"days": "Sat-Sun", "time": "Closed"}], "id": "2820800024", "name": "USPS COLLECTION BOX - BLUE BOX", "address": {"city": "CHARLOTTE", "state": "NC", "street": "3205 FREEDOM DR", "postcode": "28208"}}},
{"geometry": {"type": "Point", "coordinates": [-80.912883746, 35.2389705604]}, "type": "Feature", "properties": {"collection_times": [{"days": "Mon-Fri", "time": "12:00pm"}, {"days": "Sat-Sun", "time": "Closed"}], "id": "2820800031", "name": "USPS COLLECTION BOX - BLUE BOX", "address": {"city": "CHARLOTTE", "state": "NC", "street": "2838 QUEEN CITY DR", "postcode": "28208"}}},
{"geometry": {"type": "Point", "coordinates": [-80.9220075548, 35.2285454524]}, "type": "Feature", "properties": {"collection_times": [{"days": "Mon-Fri", "time": "4:00pm"}, {"days": "Sat-Sun", "time": "Closed"}], "id": "2820800052", "name": "USPS COLLECTION BOX - BLUE BOX", "address": {"city": "CHARLOTTE", "state": "NC", "street": "4424 TAGGART CREEK RD", "postcode": "28208"}}},
{"geometry": {"type": "Point", "coordinates": [-80.8980621119, 35.2246349326]}, "type": "Feature", "properties": {"collection_times": [{"days": "Mon-Fri", "time": "10:00am"}, {"days": "Sat-Sun", "time": "Closed"}], "id": "2820800060", "name": "USPS COLLECTION BOX - BLUE BOX", "address": {"city": "CHARLOTTE", "state": "NC", "street": "3440 WILKINSON BLVD", "postcode": "28208"}}},
{"geometry": {"type": "Point", "coordinates": [-80.8932498336, 35.2244583382]}, "type": "Feature", "properties": {"collection_times": [{"days": "Mon-Fri", "time": "5:00pm"}, {"days": "Sat", "time": "1:00pm"}, {"days": "Sun", "time": "Closed"}], "id": "2820800086", "name": "USPS COLLECTION BOX - PO LOBBY", "address": {"city": "CHARLOTTE", "state": "NC", "street": "3202 WILKINSON BLVD", "postcode": "28208"}}},
{"geometry": {"type": "Point", "coordinates": [-80.8509803326, 35.1757287005]}, "type": "Feature", "properties": {"collection_times": [{"days": "Mon-Fri", "time": "4:30pm"}, {"days": "Sat", "time": "2:00pm"}, {"days": "Sun", "time": "Closed"}], "id": "2820900008", "name": "USPS COLLECTION BOX - BLUE BOX", "address": {"city": "CHARLOTTE", "state": "NC", "street": "4117 PARK RD", "postcode": "28209"}}},
{"geometry": {"type": "Point", "coordinates": [-80.8509803326, 35.1757287005]}, "type": "Feature", "properties": {"collection_times": [{"days": "Mon-Fri", "time": "4:30pm"}, {"days": "Sat", "time": "2:00pm"}, {"days": "Sun", "time": "Closed"}], "id": "2820900009", "name": "USPS COLLECTION BOX - BLUE BOX", "address": {"city": "CHARLOTTE", "state": "NC", "street": "4117 PARK RD", "postcode": "28209"}}},
{"geometry": {"type": "Point", "coordinates": [-80.8402520909, 35.1734823309]}, "type": "Feature", "properties": {"collection_times": [{"days": "Mon-Fri", "time": "12:00pm"}, {"days": "Sat-Sun", "time": "Closed"}], "id": "2820900013", "name": "USPS COLLECTION BOX - BLUE BOX", "address": {"city": "CHARLOTTE", "state": "NC", "street": "2909 SELWYN AVE", "postcode": "28209"}}},
{"geometry": {"type": "Point", "coordinates": [-80.8374591117, 35.1558289648]}, "type": "Feature", "properties": {"collection_times": [{"days": "Mon-Fri", "time": "3:45pm"}, {"days": "Sat-Sun", "time": "Closed"}], "id": "2820900014", "name": "USPS COLLECTION BOX - BLUE BOX", "address": {"city": "CHARLOTTE", "state": "NC", "street": "6101 CARNEGIE BLVD", "postcode": "28209"}}},
{"geometry": {"type": "Point", "coordinates": [-80.8419094033, 35.1517489393]}, "type": "Feature", "properties": {"collection_times": [{"days": "Mon-Fri", "time": "3:30pm"}, {"days": "Sat-Sun", "time": "Closed"}], "id": "2820900018", "name": "USPS COLLECTION BOX - BLUE BOX", "address": {"city": "CHARLOTTE", "state": "NC", "street": "5821 FAIRVIEW RD", "postcode": "28209"}}},
{"geometry": {"type": "Point", "coordinates": [-80.8474977014, 35.1665950743]}, "type": "Feature", "properties": {"collection_times": [{"days": "Mon-Fri", "time": "1:00pm"}, {"days": "Sat-Sun", "time": "Closed"}], "id": "2820900022", "name": "USPS COLLECTION BOX - BLUE BOX", "address": {"city": "CHARLOTTE", "state": "NC", "street": "4701 HEDGEMORE DR", "postcode": "28209"}}},
{"geometry": {"type": "Point", "coordinates": [-80.8492721399, 35.1672125789]}, "type": "Feature", "properties": {"collection_times": [{"days": "Mon-Fri", "time": "4:00pm"}, {"days": "Sat-Sun", "time": "Closed"}], "id": "2820900026", "name": "USPS COLLECTION BOX - BLUE BOX", "address": {"city": "CHARLOTTE", "state": "NC", "street": "1515 MOCKINGBIRD LN", "postcode": "28209"}}},
{"geometry": {"type": "Point", "coordinates": [-80.850682227, 35.1683221944]}, "type": "Feature", "properties": {"collection_times": [{"days": "Mon-Fri", "time": "11:45am"}, {"days": "Sat-Sun", "time": "Closed"}], "id": "2820900029", "name": "USPS COLLECTION BOX - BLUE BOX", "address": {"city": "CHARLOTTE", "state": "NC", "street": "4600 PARK RD", "postcode": "28209"}}},
{"geometry": {"type": "Point", "coordinates": [-80.8753090667, 35.188802763]}, "type": "Feature", "properties": {"collection_times": [{"days": "Mon-Fri", "time": "3:30pm"}, {"days": "Sat-Sun", "time": "Closed"}], "id": "2820900043", "name": "USPS COLLECTION BOX - BLUE BOX", "address": {"city": "CHARLOTTE", "state": "NC", "street": "101 SCALEYBARK RD", "postcode": "28209"}}},
{"geometry": {"type": "Point", "coordinates": [-80.8509803326, 35.1757287005]}, "type": "Feature", "properties": {"collection_times": [{"days": "Mon-Fri", "time": "4:30pm"}, {"days": "Sat", "time": "2:00pm"}, {"days": "Sun", "time": "Closed"}], "id": "2820900055", "name": "USPS COLLECTION BOX - BLUE BOX", "address": {"city": "CHARLOTTE", "state": "NC", "street": "4117 PARK RD", "postcode": "28209"}}},
{"geometry": {"type": "Point", "coordinates": [-80.8487622846, 35.159453551]}, "type": "Feature", "properties": {"collection_times": [{"days": "Mon-Fri", "time": "2:30pm"}, {"days": "Sat-Sun", "time": "Closed"}], "id": "2820900059", "name": "USPS COLLECTION BOX - BLUE BOX", "address": {"city": "CHARLOTTE", "state": "NC", "street": "5200 PARK RD", "postcode": "28209"}}},
{"geometry": {"type": "Point", "coordinates": [-80.8509803323, 35.1757287008]}, "type": "Feature", "properties": {"collection_times": [{"days": "Mon-Fri", "time": "5:00pm"}, {"days": "Sat", "time": "1:00pm"}, {"days": "Sun", "time": "Closed"}], "id": "2820900061", "name": "USPS COLLECTION BOX - PO LOBBY", "address": {"city": "CHARLOTTE", "state": "NC", "street": "4117 PARK RD", "postcode": "28209"}}},
{"geometry": {"type": "Point", "coordinates": [-80.8509803326, 35.1757287005]}, "type": "Feature", "properties": {"collection_times": [{"days": "Mon-Fri", "time": "5:00pm"}, {"days": "Sat", "time": "1:00pm"}, {"days": "Sun", "time": "Closed"}], "id": "2820900062", "name": "USPS COLLECTION BOX - PO LOBBY", "address": {"city": "CHARLOTTE", "state": "NC", "street": "4117 PARK RD", "postcode": "28209"}}},
{"geometry": {"type": "Point", "coordinates": [-80.8509803326, 35.1757287005]}, "type": "Feature", "properties": {"collection_times": [{"days": "Mon-Fri", "time": "5:00pm"}, {"days": "Sat", "time": "1:00pm"}, {"days": "Sun", "time": "Closed"}], "id": "2820900063", "name": "USPS COLLECTION BOX - APC", "address": {"city": "CHARLOTTE", "state": "NC", "street": "4117 PARK RD", "postcode": "28209"}}},
{"geometry": {"type": "Point", "coordinates": [-80.8508289139, 35.1693904063]}, "type": "Feature", "properties": {"collection_times": [{"days": "Mon-Fri", "time": "10:00am"}, {"days": "Sat-Sun", "time": "Closed"}], "id": "2820900064", "name": "USPS COLLECTION BOX - BLUE BOX", "address": {"city": "CHARLOTTE", "state": "NC", "street": "4530 PARK RD", "postcode": "28209"}}},
{"geometry": {"type": "Point", "coordinates": [-80.8316566979, 35.1470395797]}, "type": "Feature", "properties": {"collection_times": [{"days": "Mon-Fri", "time": "10:00am"}, {"days": "Sat-Sun", "time": "Closed"}], "id": "2821000001", "name": "USPS COLLECTION BOX - BLUE BOX", "address": {"city": "CHARLOTTE", "state": "NC", "street": "4716 SHARON RD", "postcode": "28210"}}},
{"geometry": {"type": "Point", "coordinates": [-80.8562119572, 35.1165357799]}, "type": "Feature", "properties": {"collection_times": [{"days": "Mon-Fri", "time": "3:00pm"}, {"days": "Sat", "time": "1:30pm"}, {"days": "Sun", "time": "Closed"}], "id": "2821000002", "name": "USPS COLLECTION BOX - BLUE BOX", "address": {"city": "CHARLOTTE", "state": "NC", "street": "8514 PARK RD", "postcode": "28210"}}},
{"geometry": {"type": "Point", "coordinates": [-80.8411345652, 35.1513964175]}, "type": "Feature", "properties": {"collection_times": [{"days": "Mon-Fri", "time": "3:15pm"}, {"days": "Sat-Sun", "time": "Closed"}], "id": "2821000009", "name": "USPS COLLECTION BOX - BLUE BOX", "address": {"city": "CHARLOTTE", "state": "NC", "street": "5950 FAIRVIEW RD", "postcode": "28210"}}},
{"geometry": {"type": "Point", "coordinates": [-80.8286486027, 35.1479188333]}, "type": "Feature", "properties": {"collection_times": [{"days": "Mon-Fri", "time": "4:00pm"}, {"days": "Sat-Sun", "time": "Closed"}], "id": "2821000010", "name": "USPS COLLECTION BOX - BLUE BOX", "address": {"city": "CHARLOTTE", "state": "NC", "street": "6739 FAIRVIEW RD", "postcode": "28210"}}},
{"geometry": {"type": "Point", "coordinates": [-80.8371243343, 35.1507942914]}, "type": "Feature", "properties": {"collection_times": [{"days": "Mon-Fri", "time": "4:00pm"}, {"days": "Sat-Sun", "time": "Closed"}], "id": "2821000014", "name": "USPS COLLECTION BOX - BLUE BOX", "address": {"city": "CHARLOTTE", "state": "NC", "street": "6100 FAIRVIEW RD", "postcode": "28210"}}},
{"geometry": {"type": "Point", "coordinates": [-80.840217772, 35.1511704724]}, "type": "Feature", "properties": {"collection_times": [{"days": "Mon-Fri", "time": "12:00pm"}, {"days": "Sat-Sun", "time": "Closed"}], "id": "2821000021", "name": "USPS COLLECTION BOX - BLUE BOX", "address": {"city": "CHARLOTTE", "state": "NC", "street": "5970 FAIRVIEW RD", "postcode": "28210"}}},
{"geometry": {"type": "Point", "coordinates": [-80.840217772, 35.1511704724]}, "type": "Feature", "properties": {"collection_times": [{"days": "Mon-Fri", "time": "12:00pm"}, {"days": "Sat-Sun", "time": "Closed"}], "id": "2821000022", "name": "USPS COLLECTION BOX - BLUE BOX", "address": {"city": "CHARLOTTE", "state": "NC", "street": "5970 FAIRVIEW RD", "postcode": "28210"}}},
{"geometry": {"type": "Point", "coordinates": [-80.8435915709, 35.1476961219]}, "type": "Feature", "properties": {"collection_times": [{"days": "Mon-Fri", "time": "3:00pm"}, {"days": "Sat-Sun", "time": "Closed"}], "id": "2821000025", "name": "USPS COLLECTION BOX - BLUE BOX", "address": {"city": "CHARLOTTE", "state": "NC", "street": "6135 PARK SOUTH DR", "postcode": "28210"}}},
{"geometry": {"type": "Point", "coordinates": [-80.8729975649, 35.1165381657]}, "type": "Feature", "properties": {"collection_times": [{"days": "Mon-Fri", "time": "10:30am"}, {"days": "Sat-Sun", "time": "Closed"}], "id": "2821000028", "name": "USPS COLLECTION BOX - BLUE BOX", "address": {"city": "CHARLOTTE", "state": "NC", "street": "8095 REGENT PARK LN", "postcode": "28210"}}},
{"geometry": {"type": "Point", "coordinates": [-80.8365606511, 35.1505333981]}, "type": "Feature", "properties": {"collection_times": [{"days": "Mon-Fri", "time": "4:00pm"}, {"days": "Sat-Sun", "time": "Closed"}], "id": "2821000030", "name": "USPS COLLECTION BOX - BLUE BOX", "address": {"city": "CHARLOTTE", "state": "NC", "street": "6230 FAIRVIEW RD", "postcode": "28210"}}},
{"geometry": {"type": "Point", "coordinates": [-80.8561694517, 35.1301639367]}, "type": "Feature", "properties": {"collection_times": [{"days": "Mon-Fri", "time": "3:00pm"}, {"days": "Sat-Sun", "time": "Closed"}], "id": "2821000035", "name": "USPS COLLECTION BOX - BLUE BOX", "address": {"city": "CHARLOTTE", "state": "NC", "street": "PIEDMONT ROW", "postcode": "28210"}}},
{"geometry": {"type": "Point", "coordinates": [-80.8561694517, 35.1301639367]}, "type": "Feature", "properties": {"collection_times": [{"days": "Mon-Fri", "time": "10:30am"}, {"days": "Sat-Sun", "time": "Closed"}], "id": "2821000036", "name": "USPS COLLECTION BOX - BLUE BOX", "address": {"city": "CHARLOTTE", "state": "NC", "street": "WHISTLESTOP RD", "postcode": "28210"}}},
{"geometry": {"type": "Point", "coordinates": [-80.7968922366, 35.1909206229]}, "type": "Feature", "properties": {"collection_times": [{"days": "Mon-Fri", "time": "3:00pm"}, {"days": "Sat-Sun", "time": "Closed"}], "id": "2821100010", "name": "USPS COLLECTION BOX - BLUE BOX", "address": {"city": "CHARLOTTE", "state": "NC", "street": "921 N WENDOVER RD", "postcode": "28211"}}},
{"geometry": {"type": "Point", "coordinates": [-80.8264895332, 35.1492895676]}, "type": "Feature", "properties": {"collection_times": [{"days": "Mon-Fri", "time": "4:15pm"}, {"days": "Sat-Sun", "time": "Closed"}], "id": "2821100022", "name": "USPS COLLECTION BOX - BLUE BOX", "address": {"city": "CHARLOTTE", "state": "NC", "street": "2701 COLTSGATE RD", "postcode": "28211"}}},
{"geometry": {"type": "Point", "coordinates": [-80.8038549444, 35.1775867444]}, "type": "Feature", "properties": {"collection_times": [{"days": "Mon-Fri", "time": "9:30am"}, {"days": "Sat-Sun", "time": "Closed"}], "id": "2821100023", "name": "USPS COLLECTION BOX - BLUE BOX", "address": {"city": "CHARLOTTE", "state": "NC", "street": "4600 WOODLARK LN", "postcode": "28211"}}},
{"geometry": {"type": "Point", "coordinates": [-80.80003029, 35.1786730853]}, "type": "Feature", "properties": {"collection_times": [{"days": "Mon-Fri", "time": "4:00pm"}, {"days": "Sat-Sun", "time": "Closed"}], "id": "2821100024", "name": "USPS COLLECTION BOX - BLUE BOX", "address": {"city": "CHARLOTTE", "state": "NC", "street": "121 GREENWICH RD", "postcode": "28211"}}},
{"geometry": {"type": "Point", "coordinates": [-80.7498958153, 35.1537406052]}, "type": "Feature", "properties": {"collection_times": [{"days": "Mon-Fri", "time": "4:00pm"}, {"days": "Sat-Sun", "time": "Closed"}], "id": "2821100032", "name": "USPS COLLECTION BOX - BLUE BOX", "address": {"city": "CHARLOTTE", "state": "NC", "street": "8514 MCALPINE PARK DR", "postcode": "28211"}}},
{"geometry": {"type": "Point", "coordinates": [-80.829251908, 35.1540782149]}, "type": "Feature", "properties": {"collection_times": [{"days": "Mon-Fri", "time": "3:00pm"}, {"days": "Sat-Sun", "time": "Closed"}], "id": "2821100033", "name": "USPS COLLECTION BOX - BLUE BOX", "address": {"city": "CHARLOTTE", "state": "NC", "street": "6525 MORRISON BLVD", "postcode": "28211"}}},
{"geometry": {"type": "Point", "coordinates": [-80.8103764491, 35.1886761864]}, "type": "Feature", "properties": {"collection_times": [{"days": "Mon-Fri", "time": "10:00am"}, {"days": "Sat-Sun", "time": "Closed"}], "id": "2821100041", "name": "USPS COLLECTION BOX - BLUE BOX", "address": {"city": "CHARLOTTE", "state": "NC", "street": "3535 RANDOLPH RD", "postcode": "28211"}}},
{"geometry": {"type": "Point", "coordinates": [-80.8322682877, 35.1581522962]}, "type": "Feature", "properties": {"collection_times": [{"days": "Mon-Fri", "time": "3:45pm"}, {"days": "Sat-Sun", "time": "Closed"}], "id": "2821100046", "name": "USPS COLLECTION BOX - BLUE BOX", "address": {"city": "CHARLOTTE", "state": "NC", "street": "2101 REXFORD RD", "postcode": "28211"}}},
{"geometry": {"type": "Point", "coordinates": [-80.7976136007, 35.1903963034]}, "type": "Feature", "properties": {"collection_times": [{"days": "Mon-Fri", "time": "5:00pm"}, {"days": "Sat", "time": "1:00pm"}, {"days": "Sun", "time": "Closed"}], "id": "2821100060", "name": "USPS COLLECTION BOX - PO LOBBY", "address": {"city": "CHARLOTTE", "state": "NC", "street": "819 N WENDOVER RD", "postcode": "28211"}}},
{"geometry": {"type": "Point", "coordinates": [-80.7976136007, 35.1903963034]}, "type": "Feature", "properties": {"collection_times": [{"days": "Mon-Fri", "time": "5:00pm"}, {"days": "Sat", "time": "1:00pm"}, {"days": "Sun", "time": "Closed"}], "id": "2821100061", "name": "USPS COLLECTION BOX - PO LOBBY", "address": {"city": "CHARLOTTE", "state": "NC", "street": "819 N WENDOVER RD", "postcode": "28211"}}},
{"geometry": {"type": "Point", "coordinates": [-80.7991395219, 35.1768477797]}, "type": "Feature", "properties": {"collection_times": [{"days": "Mon-Fri", "time": "1:15pm"}, {"days": "Sat-Sun", "time": "Closed"}], "id": "2821100065", "name": "USPS COLLECTION BOX - BLUE BOX", "address": {"city": "CHARLOTTE", "state": "NC", "street": "4456 RANDOLPH RD", "postcode": "28211"}}},
{"geometry": {"type": "Point", "coordinates": [-80.7340483878, 35.2028231926]}, "type": "Feature", "properties": {"collection_times": [{"days": "Mon-Fri", "time": "4:30pm"}, {"days": "Sat", "time": "2:00pm"}, {"days": "Sun", "time": "Closed"}], "id": "2821200002", "name": "USPS COLLECTION BOX - BLUE BOX", "address": {"city": "CHARLOTTE", "state": "NC", "street": "6501 ALBEMARLE RD", "postcode": "28212"}}},
{"geometry": {"type": "Point", "coordinates": [-80.7627824611, 35.1850989184]}, "type": "Feature", "properties": {"collection_times": [{"days": "Mon-Fri", "time": "3:30pm"}, {"days": "Sat-Sun", "time": "Closed"}], "id": "2821200015", "name": "USPS COLLECTION BOX - BLUE BOX", "address": {"city": "CHARLOTTE", "state": "NC", "street": "6000 MONROE RD", "postcode": "28212"}}},
{"geometry": {"type": "Point", "coordinates": [-80.7637453897, 35.192002667]}, "type": "Feature", "properties": {"collection_times": [{"days": "Mon-Fri", "time": "4:00pm"}, {"days": "Sat-Sun", "time": "Closed"}], "id": "2821200027", "name": "USPS COLLECTION BOX - BLUE BOX", "address": {"city": "CHARLOTTE", "state": "NC", "street": "4801 E INDEPENDENCE BLVD", "postcode": "28212"}}},
{"geometry": {"type": "Point", "coordinates": [-80.7441650529, 35.2017254067]}, "type": "Feature", "properties": {"collection_times": [{"days": "Mon-Fri", "time": "2:00pm"}, {"days": "Sat-Sun", "time": "Closed"}], "id": "2821200032", "name": "USPS COLLECTION BOX - BLUE BOX", "address": {"city": "CHARLOTTE", "state": "NC", "street": "5600 EXECUTIVE CENTER DR", "postcode": "28212"}}},
{"geometry": {"type": "Point", "coordinates": [-80.7441756995, 35.2015089252]}, "type": "Feature", "properties": {"collection_times": [{"days": "Mon-Fri", "time": "2:30pm"}, {"days": "Sat-Sun", "time": "Closed"}], "id": "2821200035", "name": "USPS COLLECTION BOX - BLUE BOX", "address": {"city": "CHARLOTTE", "state": "NC", "street": "5601 EXECUTIVE CENTER DR", "postcode": "28212"}}},
{"geometry": {"type": "Point", "coordinates": [-80.734048388, 35.202823193]}, "type": "Feature", "properties": {"collection_times": [{"days": "Mon-Fri", "time": "5:00pm"}, {"days": "Sat", "time": "12:00pm"}, {"days": "Sun", "time": "Closed"}], "id": "2821200049", "name": "USPS COLLECTION BOX - PO LOBBY", "address": {"city": "CHARLOTTE", "state": "NC", "street": "6501 ALBEMARLE RD", "postcode": "28212"}}},
{"geometry": {"type": "Point", "coordinates": [-80.7340483878, 35.2028231926]}, "type": "Feature", "properties": {"collection_times": [{"days": "Mon-Fri", "time": "5:00pm"}, {"days": "Sat", "time": "12:00pm"}, {"days": "Sun", "time": "Closed"}], "id": "2821200050", "name": "USPS COLLECTION BOX - PO LOBBY", "address": {"city": "CHARLOTTE", "state": "NC", "street": "6501 ALBEMARLE RD", "postcode": "28212"}}},
{"geometry": {"type": "Point", "coordinates": [-80.7340483878, 35.2028231926]}, "type": "Feature", "properties": {"collection_times": [{"days": "Mon-Fri", "time": "5:00pm"}, {"days": "Sat", "time": "12:00pm"}, {"days": "Sun", "time": "Closed"}], "id": "2821200051", "name": "USPS COLLECTION BOX - APC", "address": {"city": "CHARLOTTE", "state": "NC", "street": "6501 ALBEMARLE RD", "postcode": "28212"}}},
{"geometry": {"type": "Point", "coordinates": [-80.7657374926, 35.2796918662]}, "type": "Feature", "properties": {"collection_times": [{"days": "Mon-Fri", "time": "3:30pm"}, {"days": "Sat", "time": "12:30pm"}, {"days": "Sun", "time": "Closed"}], "id": "2821300004", "name": "USPS COLLECTION BOX - BLUE BOX", "address": {"city": "CHARLOTTE", "state": "NC", "street": "6700 N TRYON ST", "postcode": "28213"}}},
{"geometry": {"type": "Point", "coordinates": [-80.7400909422, 35.2971511575]}, "type": "Feature", "properties": {"collection_times": [{"days": "Mon-Fri", "time": "10:30am"}, {"days": "Sat-Sun", "time": "Closed"}], "id": "2821300026", "name": "USPS COLLECTION BOX - BLUE BOX", "address": {"city": "CHARLOTTE", "state": "NC", "street": "8558 UNIVERSITY CITY BLVD", "postcode": "28213"}}},
{"geometry": {"type": "Point", "coordinates": [-80.7657374923, 35.2796918663]}, "type": "Feature", "properties": {"collection_times": [{"days": "Mon-Fri", "time": "5:00pm"}, {"days": "Sat", "time": "1:00pm"}, {"days": "Sun", "time": "Closed"}], "id": "2821300028", "name": "USPS COLLECTION BOX - PO LOBBY", "address": {"city": "CHARLOTTE", "state": "NC", "street": "6700 N TRYON ST", "postcode": "28213"}}},
{"geometry": {"type": "Point", "coordinates": [-80.7657374926, 35.2796918662]}, "type": "Feature", "properties": {"collection_times": [{"days": "Mon-Fri", "time": "5:00pm"}, {"days": "Sat", "time": "1:00pm"}, {"days": "Sun", "time": "Closed"}], "id": "2821300029", "name": "USPS COLLECTION BOX - PO LOBBY", "address": {"city": "CHARLOTTE", "state": "NC", "street": "6700 N TRYON ST", "postcode": "28213"}}},
{"geometry": {"type": "Point", "coordinates": [-80.9578078204, 35.2802317367]}, "type": "Feature", "properties": {"collection_times": [{"days": "Mon-Fri", "time": "10:30am"}, {"days": "Sat-Sun", "time": "Closed"}], "id": "2821400001", "name": "USPS COLLECTION BOX - BLUE BOX", "address": {"city": "CHARLOTTE", "state": "NC", "street": "8420 BELLHAVEN BLVD", "postcode": "28214"}}},
{"geometry": {"type": "Point", "coordinates": [-80.9369081059, 35.2456699663]}, "type": "Feature", "properties": {"collection_times": [{"days": "Mon-Fri", "time": "10:00am"}, {"days": "Sat-Sun", "time": "Closed"}], "id": "2821400003", "name": "USPS COLLECTION BOX - BLUE BOX", "address": {"city": "CHARLOTTE", "state": "NC", "street": "2500 LITTLE ROCK RD", "postcode": "28214"}}},
{"geometry": {"type": "Point", "coordinates": [-80.9375457208, 35.2753208328]}, "type": "Feature", "properties": {"collection_times": [{"days": "Mon-Fri", "time": "11:00am"}, {"days": "Sat-Sun", "time": "Closed"}], "id": "2821400004", "name": "USPS COLLECTION BOX - BLUE BOX", "address": {"city": "CHARLOTTE", "state": "NC", "street": "7917 MOORES CHAPEL RD", "postcode": "28214"}}},
{"geometry": {"type": "Point", "coordinates": [-80.7523147787, 35.2478374004]}, "type": "Feature", "properties": {"collection_times": [{"days": "Mon-Fri", "time": "8:00am"}, {"days": "Sat-Sun", "time": "Closed"}], "id": "2821500000", "name": "USPS COLLECTION BOX - BLUE BOX", "address": {"city": "CHARLOTTE", "state": "NC", "street": "6123 THE PLAZA", "postcode": "28215"}}},
{"geometry": {"type": "Point", "coordinates": [-80.8435548992, 35.3474695001]}, "type": "Feature", "properties": {"collection_times": [{"days": "Mon-Fri", "time": "11:00am"}, {"days": "Sat-Sun", "time": "Closed"}], "id": "2821500002", "name": "USPS COLLECTION BOX - BLUE BOX", "address": {"city": "CHARLOTTE", "state": "NC", "street": "7000 E WT HARRIS BLVD", "postcode": "28215"}}},
{"geometry": {"type": "Point", "coordinates": [-80.7362439596, 35.2565792142]}, "type": "Feature", "properties": {"collection_times": [{"days": "Mon-Fri", "time": "3:45pm"}, {"days": "Sat", "time": "1:00pm"}, {"days": "Sun", "time": "Closed"}], "id": "2821500007", "name": "USPS COLLECTION BOX - BLUE BOX", "address": {"city": "CHARLOTTE", "state": "NC", "street": "4325 E W T HARRIS BLVD", "postcode": "28215"}}},
{"geometry": {"type": "Point", "coordinates": [-80.7362439597, 35.2565792139]}, "type": "Feature", "properties": {"collection_times": [{"days": "Mon-Fri", "time": "5:00pm"}, {"days": "Sat", "time": "1:00pm"}, {"days": "Sun", "time": "Closed"}], "id": "2821500008", "name": "USPS COLLECTION BOX - PO LOBBY", "address": {"city": "CHARLOTTE", "state": "NC", "street": "4325 E WT HARRIS BLVD", "postcode": "28215"}}},
{"geometry": {"type": "Point", "coordinates": [-80.7362439597, 35.2565792139]}, "type": "Feature", "properties": {"collection_times": [{"days": "Mon-Fri", "time": "5:00pm"}, {"days": "Sat", "time": "1:00pm"}, {"days": "Sun", "time": "Closed"}], "id": "2821500009", "name": "USPS COLLECTION BOX - PO LOBBY", "address": {"city": "CHARLOTTE", "state": "NC", "street": "4325 E WT HARRIS BLVD", "postcode": "28215"}}},
{"geometry": {"type": "Point", "coordinates": [-80.7362439597, 35.2565792139]}, "type": "Feature", "properties": {"collection_times": [{"days": "Mon-Fri", "time": "5:00pm"}, {"days": "Sat", "time": "1:00pm"}, {"days": "Sun", "time": "Closed"}], "id": "2821500010", "name": "USPS COLLECTION BOX - PO LOBBY", "address": {"city": "CHARLOTTE", "state": "NC", "street": "4325 E WT HARRIS BLVD", "postcode": "28215"}}},
{"geometry": {"type": "Point", "coordinates": [-80.854689933, 35.2633403752]}, "type": "Feature", "properties": {"collection_times": [{"days": "Mon-Fri", "time": "2:15pm"}, {"days": "Sat", "time": "11:30am"}, {"days": "Sun", "time": "Closed"}], "id": "2821600001", "name": "USPS COLLECTION BOX - BLUE BOX", "address": {"city": "CHARLOTTE", "state": "NC", "street": "2127 BEATTIES FORD RD", "postcode": "28216"}}},
{"geometry": {"type": "Point", "coordinates": [-80.8622768253, 35.3050391467]}, "type": "Feature", "properties": {"collection_times": [{"days": "Mon-Fri", "time": "10:00am"}, {"days": "Sat-Sun", "time": "Closed"}], "id": "2821600002", "name": "USPS COLLECTION BOX - BLUE BOX", "address": {"city": "CHARLOTTE", "state": "NC", "street": "4005 SUNSET RD", "postcode": "28216"}}},
{"geometry": {"type": "Point", "coordinates": [-80.8554933211, 35.2769355718]}, "type": "Feature", "properties": {"collection_times": [{"days": "Mon-Fri", "time": "12:30pm"}, {"days": "Sat-Sun", "time": "Closed"}], "id": "2821600004", "name": "USPS COLLECTION BOX - BLUE BOX", "address": {"city": "CHARLOTTE", "state": "NC", "street": "3101 BEATTIES FORD RD", "postcode": "28216"}}},
{"geometry": {"type": "Point", "coordinates": [-80.9469620742, 35.3241746721]}, "type": "Feature", "properties": {"collection_times": [{"days": "Mon-Fri", "time": "10:30am"}, {"days": "Sat-Sun", "time": "Closed"}], "id": "2821600008", "name": "USPS COLLECTION BOX - BLUE BOX", "address": {"city": "CHARLOTTE", "state": "NC", "street": "3530 MOUNT HOLLY HUNTERSVILLE RD STE A", "postcode": "28216"}}},
{"geometry": {"type": "Point", "coordinates": [-80.8741803472, 35.2731544496]}, "type": "Feature", "properties": {"collection_times": [{"days": "Mon-Fri", "time": "12:30pm"}, {"days": "Sat-Sun", "time": "Closed"}], "id": "2821600011", "name": "USPS COLLECTION BOX - BLUE BOX", "address": {"city": "CHARLOTTE", "state": "NC", "street": "800 N HOSKINS RD", "postcode": "28216"}}},
{"geometry": {"type": "Point", "coordinates": [-80.8789372805, 35.3020219393]}, "type": "Feature", "properties": {"collection_times": [{"days": "Mon-Fri", "time": "4:00pm"}, {"days": "Sat-Sun", "time": "Closed"}], "id": "2821600017", "name": "USPS COLLECTION BOX - BLUE BOX", "address": {"city": "CHARLOTTE", "state": "NC", "street": "6600 NORTHPARK BLVD", "postcode": "28216"}}},
{"geometry": {"type": "Point", "coordinates": [-80.8958996505, 35.3006456183]}, "type": "Feature", "properties": {"collection_times": [{"days": "Mon-Fri", "time": "11:00am"}, {"days": "Sat-Sun", "time": "Closed"}], "id": "2821600019", "name": "USPS COLLECTION BOX - BLUE BOX", "address": {"city": "CHARLOTTE", "state": "NC", "street": "1825 OAKDALE RD", "postcode": "28216"}}},
{"geometry": {"type": "Point", "coordinates": [-80.9056062471, 35.2853237757]}, "type": "Feature", "properties": {"collection_times": [{"days": "Mon-Fri", "time": "4:00pm"}, {"days": "Sat-Sun", "time": "Closed"}], "id": "2821600025", "name": "USPS COLLECTION BOX - BLUE BOX", "address": {"city": "CHARLOTTE", "state": "NC", "street": "6148 BROOKSHIRE BLVD", "postcode": "28216"}}},
{"geometry": {"type": "Point", "coordinates": [-80.8516498874, 35.3441300069]}, "type": "Feature", "properties": {"collection_times": [{"days": "Mon-Fri", "time": "4:00pm"}, {"days": "Sat-Sun", "time": "Closed"}], "id": "2821600030", "name": "USPS COLLECTION BOX - BLUE BOX", "address": {"city": "CHARLOTTE", "state": "NC", "street": "9100 PERIMETER WOODS DR", "postcode": "28216"}}},
{"geometry": {"type": "Point", "coordinates": [-80.9012146851, 35.3225705798]}, "type": "Feature", "properties": {"collection_times": [{"days": "Mon-Fri", "time": "4:00pm"}, {"days": "Sat", "time": "11:30am"}, {"days": "Sun", "time": "Closed"}], "id": "2821600031", "name": "USPS COLLECTION BOX - BLUE BOX", "address": {"city": "CHARLOTTE", "state": "NC", "street": "1101 SUNSET RD", "postcode": "28216"}}},
{"geometry": {"type": "Point", "coordinates": [-80.9012146851, 35.3225705798]}, "type": "Feature", "properties": {"collection_times": [{"days": "Mon-Fri", "time": "4:00pm"}, {"days": "Sat", "time": "11:30am"}, {"days": "Sun", "time": "Closed"}], "id": "2821600032", "name": "USPS COLLECTION BOX - BLUE BOX", "address": {"city": "CHARLOTTE", "state": "NC", "street": "1101 SUNSET RD", "postcode": "28216"}}},
{"geometry": {"type": "Point", "coordinates": [-80.8789372805, 35.3020219393]}, "type": "Feature", "properties": {"collection_times": [{"days": "Mon-Fri", "time": "4:00pm"}, {"days": "Sat-Sun", "time": "Closed"}], "id": "2821600033", "name": "USPS COLLECTION BOX - BLUE BOX", "address": {"city": "CHARLOTTE", "state": "NC", "street": "6600 NORTHPARK BLVD", "postcode": "28216"}}},
{"geometry": {"type": "Point", "coordinates": [-80.9012146847, 35.3225705801]}, "type": "Feature", "properties": {"collection_times": [{"days": "Mon-Fri", "time": "5:00pm"}, {"days": "Sat", "time": "1:00pm"}, {"days": "Sun", "time": "Closed"}], "id": "2821600035", "name": "USPS COLLECTION BOX - PO LOBBY", "address": {"city": "CHARLOTTE", "state": "NC", "street": "1101 SUNSET RD", "postcode": "28216"}}},
{"geometry": {"type": "Point", "coordinates": [-80.9012146851, 35.3225705798]}, "type": "Feature", "properties": {"collection_times": [{"days": "Mon-Fri", "time": "5:00pm"}, {"days": "Sat", "time": "1:00pm"}, {"days": "Sun", "time": "Closed"}], "id": "2821600036", "name": "USPS COLLECTION BOX - PO LOBBY", "address": {"city": "CHARLOTTE", "state": "NC", "street": "1101 SUNSET RD", "postcode": "28216"}}},
{"geometry": {"type": "Point", "coordinates": [-80.9012146851, 35.3225705798]}, "type": "Feature", "properties": {"collection_times": [{"days": "Mon-Fri", "time": "5:00pm"}, {"days": "Sat", "time": "1:00pm"}, {"days": "Sun", "time": "Closed"}], "id": "2821600037", "name": "USPS COLLECTION BOX - PO LOBBY", "address": {"city": "CHARLOTTE", "state": "NC", "street": "1101 SUNSET RD", "postcode": "28216"}}},
{"geometry": {"type": "Point", "coordinates": [-80.8546899332, 35.2633403749]}, "type": "Feature", "properties": {"collection_times": [{"days": "Mon-Fri", "time": "5:00pm"}, {"days": "Sat", "time": "1:00pm"}, {"days": "Sun", "time": "Closed"}], "id": "2821600038", "name": "USPS COLLECTION BOX - PO LOBBY", "address": {"city": "CHARLOTTE", "state": "NC", "street": "2127 BEATTIES FORD RD", "postcode": "28216"}}},
{"geometry": {"type": "Point", "coordinates": [-80.854689933, 35.2633403752]}, "type": "Feature", "properties": {"collection_times": [{"days": "Mon-Fri", "time": "5:00pm"}, {"days": "Sat", "time": "1:00pm"}, {"days": "Sun", "time": "Closed"}], "id": "2821600039", "name": "USPS COLLECTION BOX - PO LOBBY", "address": {"city": "CHARLOTTE", "state": "NC", "street": "2127 BEATTIES FORD RD", "postcode": "28216"}}},
{"geometry": {"type": "Point", "coordinates": [-80.9087616605, 35.1405250624]}, "type": "Feature", "properties": {"collection_times": [{"days": "Mon-Fri", "time": "4:00pm"}, {"days": "Sat-Sun", "time": "Closed"}], "id": "2821700001", "name": "USPS COLLECTION BOX - BLUE BOX", "address": {"city": "CHARLOTTE", "state": "NC", "street": "8900 RED OAK BLVD", "postcode": "28217"}}},
{"geometry": {"type": "Point", "coordinates": [-80.8925826335, 35.151526543]}, "type": "Feature", "properties": {"collection_times": [{"days": "Mon-Fri", "time": "2:30pm"}, {"days": "Sat-Sun", "time": "Closed"}], "id": "2821700005", "name": "USPS COLLECTION BOX - BLUE BOX", "address": {"city": "CHARLOTTE", "state": "NC", "street": "501 ARCHDALE DR", "postcode": "28217"}}},
{"geometry": {"type": "Point", "coordinates": [-80.8763477047, 35.1496551019]}, "type": "Feature", "properties": {"collection_times": [{"days": "Mon-Fri", "time": "3:15pm"}, {"days": "Sat", "time": "1:30pm"}, {"days": "Sun", "time": "Closed"}], "id": "2821700007", "name": "USPS COLLECTION BOX - BLUE BOX", "address": {"city": "CHARLOTTE", "state": "NC", "street": "6241 SOUTH BLVD", "postcode": "28217"}}},
{"geometry": {"type": "Point", "coordinates": [-80.8937525799, 35.135180416]}, "type": "Feature", "properties": {"collection_times": [{"days": "Mon-Fri", "time": "11:30am"}, {"days": "Sat-Sun", "time": "Closed"}], "id": "2821700013", "name": "USPS COLLECTION BOX - BLUE BOX", "address": {"city": "CHARLOTTE", "state": "NC", "street": "201 W ARROWOOD RD", "postcode": "28217"}}},
{"geometry": {"type": "Point", "coordinates": [-80.8861854251, 35.1978893281]}, "type": "Feature", "properties": {"collection_times": [{"days": "Mon-Fri", "time": "1:30pm"}, {"days": "Sat-Sun", "time": "Closed"}], "id": "2821700017", "name": "USPS COLLECTION BOX - BLUE BOX", "address": {"city": "CHARLOTTE", "state": "NC", "street": "900 BLAIRHILL RD", "postcode": "28217"}}},
{"geometry": {"type": "Point", "coordinates": [-80.8867044976, 35.1687478826]}, "type": "Feature", "properties": {"collection_times": [{"days": "Mon-Fri", "time": "12:00pm"}, {"days": "Sat-Sun", "time": "Closed"}], "id": "2821700018", "name": "USPS COLLECTION BOX - BLUE BOX", "address": {"city": "CHARLOTTE", "state": "NC", "street": "5250 77 CENTER DR", "postcode": "28217"}}},
{"geometry": {"type": "Point", "coordinates": [-80.8847513076, 35.1650832273]}, "type": "Feature", "properties": {"collection_times": [{"days": "Mon-Fri", "time": "2:30pm"}, {"days": "Sat-Sun", "time": "Closed"}], "id": "2821700022", "name": "USPS COLLECTION BOX - BLUE BOX", "address": {"city": "CHARLOTTE", "state": "NC", "street": "5600 77 CENTER DR", "postcode": "28217"}}},
{"geometry": {"type": "Point", "coordinates": [-80.875041718, 35.1950996535]}, "type": "Feature", "properties": {"collection_times": [{"days": "Mon-Fri", "time": "1:15pm"}, {"days": "Sat-Sun", "time": "Closed"}], "id": "2821700026", "name": "USPS COLLECTION BOX - BLUE BOX", "address": {"city": "CHARLOTTE", "state": "NC", "street": "200 CLANTON RD", "postcode": "28217"}}},
{"geometry": {"type": "Point", "coordinates": [-80.8851240772, 35.1595576514]}, "type": "Feature", "properties": {"collection_times": [{"days": "Mon-Fri", "time": "12:00pm"}, {"days": "Sat-Sun", "time": "Closed"}], "id": "2821700036", "name": "USPS COLLECTION BOX - BLUE BOX", "address": {"city": "CHARLOTTE", "state": "NC", "street": "540 GRIFFITH RD", "postcode": "28217"}}},
{"geometry": {"type": "Point", "coordinates": [-80.8796635387, 35.1700232894]}, "type": "Feature", "properties": {"collection_times": [{"days": "Mon-Fri", "time": "2:15pm"}, {"days": "Sat-Sun", "time": "Closed"}], "id": "2821700038", "name": "USPS COLLECTION BOX - BLUE BOX", "address": {"city": "CHARLOTTE", "state": "NC", "street": "610 MINUET LN", "postcode": "28217"}}},
{"geometry": {"type": "Point", "coordinates": [-80.8978307618, 35.1522505501]}, "type": "Feature", "properties": {"collection_times": [{"days": "Mon-Fri", "time": "12:00pm"}, {"days": "Sat-Sun", "time": "Closed"}], "id": "2821700039", "name": "USPS COLLECTION BOX - BLUE BOX", "address": {"city": "CHARLOTTE", "state": "NC", "street": "7400 NATIONS FORD RD", "postcode": "28217"}}},
{"geometry": {"type": "Point", "coordinates": [-80.9011674405, 35.1858738644]}, "type": "Feature", "properties": {"collection_times": [{"days": "Mon-Fri", "time": "2:45pm"}, {"days": "Sat-Sun", "time": "Closed"}], "id": "2821700042", "name": "USPS COLLECTION BOX - BLUE BOX", "address": {"city": "CHARLOTTE", "state": "NC", "street": "4800 PARKWAY PLAZA BLVD", "postcode": "28217"}}},
{"geometry": {"type": "Point", "coordinates": [-80.8979075745, 35.1665620478]}, "type": "Feature", "properties": {"collection_times": [{"days": "Mon-Fri", "time": "1:45pm"}, {"days": "Sat-Sun", "time": "Closed"}], "id": "2821700047", "name": "USPS COLLECTION BOX - BLUE BOX", "address": {"city": "CHARLOTTE", "state": "NC", "street": "587 PRESSLEY RD", "postcode": "28217"}}},
{"geometry": {"type": "Point", "coordinates": [-80.8935443792, 35.1897455813]}, "type": "Feature", "properties": {"collection_times": [{"days": "Mon-Fri", "time": "1:30pm"}, {"days": "Sat-Sun", "time": "Closed"}], "id": "2821700052", "name": "USPS COLLECTION BOX - BLUE BOX", "address": {"city": "CHARLOTTE", "state": "NC", "street": "803 PRESSLEY RD", "postcode": "28217"}}},
{"geometry": {"type": "Point", "coordinates": [-80.879947112, 35.198544487]}, "type": "Feature", "properties": {"collection_times": [{"days": "Mon-Fri", "time": "1:30pm"}, {"days": "Sat-Sun", "time": "Closed"}], "id": "2821700055", "name": "USPS COLLECTION BOX - BLUE BOX", "address": {"city": "CHARLOTTE", "state": "NC", "street": "3410 SAINT VARDELL LN", "postcode": "28217"}}},
{"geometry": {"type": "Point", "coordinates": [-80.876022391, 35.1674219626]}, "type": "Feature", "properties": {"collection_times": [{"days": "Mon-Fri", "time": "11:00am"}, {"days": "Sat-Sun", "time": "Closed"}], "id": "2821700057", "name": "USPS COLLECTION BOX - BLUE BOX", "address": {"city": "CHARLOTTE", "state": "NC", "street": "5101 SOUTH BLVD", "postcode": "28217"}}},
{"geometry": {"type": "Point", "coordinates": [-80.8833413581, 35.1646053373]}, "type": "Feature", "properties": {"collection_times": [{"days": "Mon-Fri", "time": "2:30pm"}, {"days": "Sat-Sun", "time": "Closed"}], "id": "2821700062", "name": "USPS COLLECTION BOX - BLUE BOX", "address": {"city": "CHARLOTTE", "state": "NC", "street": "756 TYVOLA RD", "postcode": "28217"}}},
{"geometry": {"type": "Point", "coordinates": [-80.8979075745, 35.1665620478]}, "type": "Feature", "properties": {"collection_times": [{"days": "Mon-Fri", "time": "4:00pm"}, {"days": "Sat-Sun", "time": "Closed"}], "id": "2821700065", "name": "USPS COLLECTION BOX - BLUE BOX", "address": {"city": "CHARLOTTE", "state": "NC", "street": "WATER RIDGE PKWY", "postcode": "28217"}}},
{"geometry": {"type": "Point", "coordinates": [-80.882016444, 35.1786423284]}, "type": "Feature", "properties": {"collection_times": [{"days": "Mon-Fri", "time": "12:00pm"}, {"days": "Sat-Sun", "time": "Closed"}], "id": "2821700070", "name": "USPS COLLECTION BOX - BLUE BOX", "address": {"city": "CHARLOTTE", "state": "NC", "street": "202 E WOODLAWN RD", "postcode": "28217"}}},
{"geometry": {"type": "Point", "coordinates": [-80.899804598, 35.187101668]}, "type": "Feature", "properties": {"collection_times": [{"days": "Mon-Fri", "time": "1:45pm"}, {"days": "Sat-Sun", "time": "Closed"}], "id": "2821700077", "name": "USPS COLLECTION BOX - BLUE BOX", "address": {"city": "CHARLOTTE", "state": "NC", "street": "1101 WOODRIDGE CENTER DR", "postcode": "28217"}}},
{"geometry": {"type": "Point", "coordinates": [-80.9196534665, 35.1896556764]}, "type": "Feature", "properties": {"collection_times": [{"days": "Mon-Fri", "time": "2:45pm"}, {"days": "Sat-Sun", "time": "Closed"}], "id": "2821700080", "name": "USPS COLLECTION BOX - BLUE BOX", "address": {"city": "CHARLOTTE", "state": "NC", "street": "2400 YORKMONT RD", "postcode": "28217"}}},
{"geometry": {"type": "Point", "coordinates": [-80.9200115077, 35.1845120358]}, "type": "Feature", "properties": {"collection_times": [{"days": "Mon-Fri", "time": "2:45pm"}, {"days": "Sat-Sun", "time": "Closed"}], "id": "2821700098", "name": "USPS COLLECTION BOX - BLUE BOX", "address": {"city": "CHARLOTTE", "state": "NC", "street": "2550 W TYVOLA RD", "postcode": "28217"}}},
{"geometry": {"type": "Point", "coordinates": [-80.8763477044, 35.1496551019]}, "type": "Feature", "properties": {"collection_times": [{"days": "Mon-Fri", "time": "5:00pm"}, {"days": "Sat", "time": "1:00pm"}, {"days": "Sun", "time": "Closed"}], "id": "2821700109", "name": "USPS COLLECTION BOX - PO LOBBY", "address": {"city": "CHARLOTTE", "state": "NC", "street": "6241 SOUTH BLVD", "postcode": "28217"}}},
{"geometry": {"type": "Point", "coordinates": [-80.8763477047, 35.1496551019]}, "type": "Feature", "properties": {"collection_times": [{"days": "Mon-Fri", "time": "5:00pm"}, {"days": "Sat", "time": "1:00pm"}, {"days": "Sun", "time": "Closed"}], "id": "2821700110", "name": "USPS COLLECTION BOX - PO LOBBY", "address": {"city": "CHARLOTTE", "state": "NC", "street": "6241 SOUTH BLVD", "postcode": "28217"}}},
{"geometry": {"type": "Point", "coordinates": [-80.9395555681, 35.2089698474]}, "type": "Feature", "properties": {"collection_times": [{"days": "Mon-Fri", "time": "4:30pm"}, {"days": "Sat", "time": "3:45pm"}, {"days": "Sun", "time": "Closed"}], "id": "2821900003", "name": "USPS COLLECTION BOX - BLUE BOX", "address": {"city": "CHARLOTTE", "state": "NC", "street": "4800 EXPRESS DR", "postcode": "28219"}}},
{"geometry": {"type": "Point", "coordinates": [-80.9395555681, 35.2089698474]}, "type": "Feature", "properties": {"collection_times": [{"days": "Mon-Fri", "time": "5:00pm"}, {"days": "Sat", "time": "1:00pm"}, {"days": "Sun", "time": "Closed"}], "id": "2821900007", "name": "USPS COLLECTION BOX - PO LOBBY", "address": {"city": "CHARLOTTE", "state": "NC", "street": "4800 EXPRESS DR", "postcode": "28219"}}},
{"geometry": {"type": "Point", "coordinates": [-80.9403669683, 35.2093342819]}, "type": "Feature", "properties": {"collection_times": [{"days": "Mon-Fri", "time": "5:00pm"}, {"days": "Sat", "time": "1:00pm"}, {"days": "Sun", "time": "Closed"}], "id": "2821900008", "name": "USPS COLLECTION BOX - PO LOBBY", "address": {"city": "CHARLOTTE", "state": "NC", "street": "4800 EXPRESS DR", "postcode": "28219"}}},
{"geometry": {"type": "Point", "coordinates": [-80.8612250916, 35.0875706967]}, "type": "Feature", "properties": {"collection_times": [{"days": "Mon-Fri", "time": "4:15pm"}, {"days": "Sat", "time": "12:00pm"}, {"days": "Sun", "time": "Closed"}], "id": "2822600005", "name": "USPS COLLECTION BOX - BLUE BOX", "address": {"city": "CHARLOTTE", "state": "NC", "street": "8336 PINEVILLE MATTHEWS RD", "postcode": "28226"}}},
{"geometry": {"type": "Point", "coordinates": [-80.8612250916, 35.0875706967]}, "type": "Feature", "properties": {"collection_times": [{"days": "Mon-Fri", "time": "4:15pm"}, {"days": "Sat", "time": "12:00pm"}, {"days": "Sun", "time": "Closed"}], "id": "2822600006", "name": "USPS COLLECTION BOX - BLUE BOX", "address": {"city": "CHARLOTTE", "state": "NC", "street": "8336 PINEVILLE MATTHEWS RD", "postcode": "28226"}}},
{"geometry": {"type": "Point", "coordinates": [-80.8612250916, 35.0875706967]}, "type": "Feature", "properties": {"collection_times": [{"days": "Mon-Fri", "time": "4:15pm"}, {"days": "Sat", "time": "12:00pm"}, {"days": "Sun", "time": "Closed"}], "id": "2822600007", "name": "USPS COLLECTION BOX - BLUE BOX", "address": {"city": "CHARLOTTE", "state": "NC", "street": "8336 PINEVILLE MATTHEWS RD", "postcode": "28226"}}},
{"geometry": {"type": "Point", "coordinates": [-80.8480464653, 35.0885635724]}, "type": "Feature", "properties": {"collection_times": [{"days": "Mon-Fri", "time": "2:00pm"}, {"days": "Sat-Sun", "time": "Closed"}], "id": "2822600016", "name": "USPS COLLECTION BOX - BLUE BOX", "address": {"city": "CHARLOTTE", "state": "NC", "street": "6500 MCMAHAN DR", "postcode": "28226"}}},
{"geometry": {"type": "Point", "coordinates": [-80.8671537476, 35.0885753817]}, "type": "Feature", "properties": {"collection_times": [{"days": "Mon-Fri", "time": "2:00pm"}, {"days": "Sat-Sun", "time": "Closed"}], "id": "2822600020", "name": "USPS COLLECTION BOX - BLUE BOX", "address": {"city": "CHARLOTTE", "state": "NC", "street": "8706 PINEVILLE MATTHEWS RD", "postcode": "28226"}}},
{"geometry": {"type": "Point", "coordinates": [-80.7790256706, 35.1011608821]}, "type": "Feature", "properties": {"collection_times": [{"days": "Mon-Fri", "time": "3:30pm"}, {"days": "Sat-Sun", "time": "Closed"}], "id": "2822600021", "name": "USPS COLLECTION BOX - BLUE BOX", "address": {"city": "CHARLOTTE", "state": "NC", "street": "7800 PROVIDENCE RD", "postcode": "28226"}}},
{"geometry": {"type": "Point", "coordinates": [-80.8096259586, 35.1474527561]}, "type": "Feature", "properties": {"collection_times": [{"days": "Mon-Fri", "time": "11:00am"}, {"days": "Sat-Sun", "time": "Closed"}], "id": "2822600026", "name": "USPS COLLECTION BOX - BLUE BOX", "address": {"city": "CHARLOTTE", "state": "NC", "street": "7812 FAIRVIEW RD", "postcode": "28226"}}},
{"geometry": {"type": "Point", "coordinates": [-80.8612250916, 35.0875706967]}, "type": "Feature", "properties": {"collection_times": [{"days": "Mon-Fri", "time": "5:00pm"}, {"days": "Sat", "time": "1:00pm"}, {"days": "Sun", "time": "Closed"}], "id": "2822600032", "name": "USPS COLLECTION BOX - PO LOBBY", "address": {"city": "CHARLOTTE", "state": "NC", "street": "8336 PINEVILLE MATTHEWS RD", "postcode": "28226"}}},
{"geometry": {"type": "Point", "coordinates": [-80.8612250916, 35.0875706967]}, "type": "Feature", "properties": {"collection_times": [{"days": "Mon-Fri", "time": "5:00pm"}, {"days": "Sat", "time": "1:00pm"}, {"days": "Sun", "time": "Closed"}], "id": "2822600037", "name": "USPS COLLECTION BOX - APC", "address": {"city": "CHARLOTTE", "state": "NC", "street": "8336 PINEVILLE MATTHEWS RD", "postcode": "28226"}}},
{"geometry": {"type": "Point", "coordinates": [-80.8211487074, 35.1099640062]}, "type": "Feature", "properties": {"collection_times": [{"days": "Mon-Fri", "time": "2:00pm"}, {"days": "Sat-Sun", "time": "Closed"}], "id": "2822600039", "name": "USPS COLLECTION BOX - BLUE BOX", "address": {"city": "CHARLOTTE", "state": "NC", "street": "6600 CARMEL RD", "postcode": "28226"}}},
{"geometry": {"type": "Point", "coordinates": [-80.689101862, 35.2117237759]}, "type": "Feature", "properties": {"collection_times": [{"days": "Mon-Fri", "time": "10:30am"}, {"days": "Sat-Sun", "time": "Closed"}], "id": "2822700000", "name": "USPS COLLECTION BOX - BLUE BOX", "address": {"city": "MINT HILL", "state": "NC", "street": "9101 ALBEMARLE RD", "postcode": "28227"}}},
{"geometry": {"type": "Point", "coordinates": [-80.7367266069, 35.1599338324]}, "type": "Feature", "properties": {"collection_times": [{"days": "Mon-Fri", "time": "3:30pm"}, {"days": "Sat-Sun", "time": "Closed"}], "id": "2822700001", "name": "USPS COLLECTION BOX - BLUE BOX", "address": {"city": "MINT HILL", "state": "NC", "street": "7520 E INDEPENDENCE BLVD", "postcode": "28227"}}},
{"geometry": {"type": "Point", "coordinates": [-80.6579782116, 35.1743730295]}, "type": "Feature", "properties": {"collection_times": [{"days": "Mon-Sat", "time": "1:30pm"}, {"days": "Sun", "time": "Closed"}], "id": "2822700005", "name": "USPS COLLECTION BOX - BLUE BOX", "address": {"city": "MINT HILL", "state": "NC", "street": "11211 LAWYERS RD", "postcode": "28227"}}},
{"geometry": {"type": "Point", "coordinates": [-80.68059757, 35.1526278778]}, "type": "Feature", "properties": {"collection_times": [{"days": "Mon-Fri", "time": "4:00pm"}, {"days": "Sat-Sun", "time": "Closed"}], "id": "2822700009", "name": "USPS COLLECTION BOX - BLUE BOX", "address": {"city": "MINT HILL", "state": "NC", "street": "4400 MORRIS PARK DR", "postcode": "28227"}}},
{"geometry": {"type": "Point", "coordinates": [-80.7286037023, 35.1444910083]}, "type": "Feature", "properties": {"collection_times": [{"days": "Mon-Fri", "time": "3:45pm"}, {"days": "Sat-Sun", "time": "Closed"}], "id": "2822700011", "name": "USPS COLLECTION BOX - BLUE BOX", "address": {"city": "MINT HILL", "state": "NC", "street": "2300 SARDIS RD N", "postcode": "28227"}}},
{"geometry": {"type": "Point", "coordinates": [-80.7387471008, 35.1620418653]}, "type": "Feature", "properties": {"collection_times": [{"days": "Mon-Fri", "time": "1:00pm"}, {"days": "Sat-Sun", "time": "Closed"}], "id": "2822700017", "name": "USPS COLLECTION BOX - BLUE BOX", "address": {"city": "MINT HILL", "state": "NC", "street": "7323 E INDEPENDENCE BLVD", "postcode": "28227"}}},
{"geometry": {"type": "Point", "coordinates": [-80.6928667315, 35.188395596]}, "type": "Feature", "properties": {"collection_times": [{"days": "Mon-Fri", "time": "4:30pm"}, {"days": "Sat", "time": "1:30pm"}, {"days": "Sun", "time": "Closed"}], "id": "2822700018", "name": "USPS COLLECTION BOX - BLUE BOX", "address": {"city": "MINT HILL", "state": "NC", "street": "8920 LAWYERS RD", "postcode": "28227"}}},
{"geometry": {"type": "Point", "coordinates": [-80.6928667315, 35.188395596]}, "type": "Feature", "properties": {"collection_times": [{"days": "Mon-Fri", "time": "4:30pm"}, {"days": "Sat", "time": "1:30pm"}, {"days": "Sun", "time": "Closed"}], "id": "2822700019", "name": "USPS COLLECTION BOX - BLUE BOX", "address": {"city": "MINT HILL", "state": "NC", "street": "8920 LAWYERS RD", "postcode": "28227"}}},
{"geometry": {"type": "Point", "coordinates": [-80.6928667315, 35.188395596]}, "type": "Feature", "properties": {"collection_times": [{"days": "Mon-Fri", "time": "5:00pm"}, {"days": "Sat", "time": "1:00pm"}, {"days": "Sun", "time": "Closed"}], "id": "2822700024", "name": "USPS COLLECTION BOX - PO LOBBY", "address": {"city": "MINT HILL", "state": "NC", "street": "8920 LAWYERS RD", "postcode": "28227"}}},
{"geometry": {"type": "Point", "coordinates": [-80.6928667315, 35.188395596]}, "type": "Feature", "properties": {"collection_times": [{"days": "Mon-Fri", "time": "5:00pm"}, {"days": "Sat", "time": "1:00pm"}, {"days": "Sun", "time": "Closed"}], "id": "2822700025", "name": "USPS COLLECTION BOX - PO LOBBY", "address": {"city": "MINT HILL", "state": "NC", "street": "8920 LAWYERS RD", "postcode": "28227"}}},
{"geometry": {"type": "Point", "coordinates": [-80.6928667315, 35.188395596]}, "type": "Feature", "properties": {"collection_times": [{"days": "Mon-Fri", "time": "5:00pm"}, {"days": "Sat", "time": "1:00pm"}, {"days": "Sun", "time": "Closed"}], "id": "2822700026", "name": "USPS COLLECTION BOX - PO LOBBY", "address": {"city": "MINT HILL", "state": "NC", "street": "8920 LAWYERS RD", "postcode": "28227"}}},
{"geometry": {"type": "Point", "coordinates": [-80.6928667315, 35.188395596]}, "type": "Feature", "properties": {"collection_times": [{"days": "Mon-Fri", "time": "5:00pm"}, {"days": "Sat", "time": "1:00pm"}, {"days": "Sun", "time": "Closed"}], "id": "2822700027", "name": "USPS COLLECTION BOX - APC", "address": {"city": "MINT HILL", "state": "NC", "street": "8920 LAWYERS RD", "postcode": "28227"}}},
{"geometry": {"type": "Point", "coordinates": [-80.9142780882, 35.2378587943]}, "type": "Feature", "properties": {"collection_times": [{"days": "Mon-Sat", "time": "7:30pm"}, {"days": "Sun", "time": "Closed"}], "id": "2822800001", "name": "USPS COLLECTION BOX - BLUE BOX", "address": {"city": "CHARLOTTE", "state": "NC", "street": "2901 SCOTT FUTRELL DR", "postcode": "28228"}}},
{"geometry": {"type": "Point", "coordinates": [-80.9142780882, 35.2378587943]}, "type": "Feature", "properties": {"collection_times": [{"days": "Mon-Sat", "time": "7:30pm"}, {"days": "Sun", "time": "Closed"}], "id": "2822800003", "name": "USPS COLLECTION BOX - BLUE BOX", "address": {"city": "CHARLOTTE", "state": "NC", "street": "2901 SCOTT FUTRELL DR", "postcode": "28228"}}},
{"geometry": {"type": "Point", "coordinates": [-80.7418745595, 35.3255495897]}, "type": "Feature", "properties": {"collection_times": [{"days": "Mon-Fri", "time": "10:00am"}, {"days": "Sat-Sun", "time": "Closed"}], "id": "2826200002", "name": "USPS COLLECTION BOX - BLUE BOX", "address": {"city": "CHARLOTTE", "state": "NC", "street": "9201 UNIVERSITY CITY BLVD", "postcode": "28262"}}},
{"geometry": {"type": "Point", "coordinates": [-80.7418745595, 35.3255495897]}, "type": "Feature", "properties": {"collection_times": [{"days": "Mon-Fri", "time": "1:00pm"}, {"days": "Sat-Sun", "time": "Closed"}], "id": "2826200007", "name": "USPS COLLECTION BOX - BLUE BOX", "address": {"city": "CHARLOTTE", "state": "NC", "street": "528 MCCULLOUGH DR", "postcode": "28262"}}},
{"geometry": {"type": "Point", "coordinates": [-80.7270168797, 35.2775140387]}, "type": "Feature", "properties": {"collection_times": [{"days": "Mon-Fri", "time": "1:30pm"}, {"days": "Sat-Sun", "time": "Closed"}], "id": "2826200012", "name": "USPS COLLECTION BOX - BLUE BOX", "address": {"city": "CHARLOTTE", "state": "NC", "street": "2730 E WT HARRIS BLVD", "postcode": "28262"}}},
{"geometry": {"type": "Point", "coordinates": [-80.7661367469, 35.3385066723]}, "type": "Feature", "properties": {"collection_times": [{"days": "Mon-Fri", "time": "3:30pm"}, {"days": "Sat-Sun", "time": "Closed"}], "id": "2826200013", "name": "USPS COLLECTION BOX - BLUE BOX", "address": {"city": "CHARLOTTE", "state": "NC", "street": "10925 DAVID TAYLOR DR", "postcode": "28262"}}},
{"geometry": {"type": "Point", "coordinates": [-80.7719628919, 35.3161584805]}, "type": "Feature", "properties": {"collection_times": [{"days": "Mon-Fri", "time": "1:00pm"}, {"days": "Sat-Sun", "time": "Closed"}], "id": "2826200014", "name": "USPS COLLECTION BOX - BLUE BOX", "address": {"city": "CHARLOTTE", "state": "NC", "street": "1525 W W T HARRIS BLVD", "postcode": "28262"}}},
{"geometry": {"type": "Point", "coordinates": [-80.7010284542, 35.3163990828]}, "type": "Feature", "properties": {"collection_times": [{"days": "Mon-Fri", "time": "3:30pm"}, {"days": "Sat", "time": "1:00pm"}, {"days": "Sun", "time": "Closed"}], "id": "2826200017", "name": "USPS COLLECTION BOX - BLUE BOX", "address": {"city": "CHARLOTTE", "state": "NC", "street": "1820 HARRIS HOUSTON RD", "postcode": "28262"}}},
{"geometry": {"type": "Point", "coordinates": [-80.7010284542, 35.3163990828]}, "type": "Feature", "properties": {"collection_times": [{"days": "Mon-Fri", "time": "5:00pm"}, {"days": "Sat", "time": "1:00pm"}, {"days": "Sun", "time": "Closed"}], "id": "2826200019", "name": "USPS COLLECTION BOX - PO LOBBY", "address": {"city": "CHARLOTTE", "state": "NC", "street": "1820 HARRIS HOUSTON RD", "postcode": "28262"}}},
{"geometry": {"type": "Point", "coordinates": [-80.7010284542, 35.3163990828]}, "type": "Feature", "properties": {"collection_times": [{"days": "Mon-Fri", "time": "5:00pm"}, {"days": "Sat", "time": "1:00pm"}, {"days": "Sun", "time": "Closed"}], "id": "2826200020", "name": "USPS COLLECTION BOX - PO LOBBY", "address": {"city": "CHARLOTTE", "state": "NC", "street": "1820 HARRIS HOUSTON RD", "postcode": "28262"}}},
{"geometry": {"type": "Point", "coordinates": [-80.7010284542, 35.3163990828]}, "type": "Feature", "properties": {"collection_times": [{"days": "Mon-Fri", "time": "5:00pm"}, {"days": "Sat", "time": "1:00pm"}, {"days": "Sun", "time": "Closed"}], "id": "2826200021", "name": "USPS COLLECTION BOX - PO LOBBY", "address": {"city": "CHARLOTTE", "state": "NC", "street": "1820 HARRIS HOUSTON RD", "postcode": "28262"}}},
{"geometry": {"type": "Point", "coordinates": [-80.8364536385, 35.3603711671]}, "type": "Feature", "properties": {"collection_times": [{"days": "Mon-Fri", "time": "4:00pm"}, {"days": "Sat-Sun", "time": "Closed"}], "id": "2826900001", "name": "USPS COLLECTION BOX - BLUE BOX", "address": {"city": "CHARLOTTE", "state": "NC", "street": "11800 VANCE DAVIS DR", "postcode": "28269"}}},
{"geometry": {"type": "Point", "coordinates": [-80.7800962485, 35.3220962132]}, "type": "Feature", "properties": {"collection_times": [{"days": "Mon-Fri", "time": "3:30pm"}, {"days": "Sat-Sun", "time": "Closed"}], "id": "2826900004", "name": "USPS COLLECTION BOX - BLUE BOX", "address": {"city": "CHARLOTTE", "state": "NC", "street": "8535 CLIFF CAMERON DR", "postcode": "28269"}}},
{"geometry": {"type": "Point", "coordinates": [-80.7372743169, 35.2473343896]}, "type": "Feature", "properties": {"collection_times": [{"days": "Mon-Fri", "time": "2:45pm"}, {"days": "Sat-Sun", "time": "Closed"}], "id": "2826900005", "name": "USPS COLLECTION BOX - BLUE BOX", "address": {"city": "CHARLOTTE", "state": "NC", "street": "5001 W WT HARRIS BLVD", "postcode": "28269"}}},
{"geometry": {"type": "Point", "coordinates": [-80.8017180242, 35.338367912]}, "type": "Feature", "properties": {"collection_times": [{"days": "Mon-Fri", "time": "2:45pm"}, {"days": "Sat-Sun", "time": "Closed"}], "id": "2826900006", "name": "USPS COLLECTION BOX - BLUE BOX", "address": {"city": "CHARLOTTE", "state": "NC", "street": "9010 HARRIS CORNERS PKWY", "postcode": "28269"}}},
{"geometry": {"type": "Point", "coordinates": [-80.7992933066, 35.2970849118]}, "type": "Feature", "properties": {"collection_times": [{"days": "Mon-Fri", "time": "3:00pm"}, {"days": "Sat", "time": "12:00pm"}, {"days": "Sun", "time": "Closed"}], "id": "2826900012", "name": "USPS COLLECTION BOX - BLUE BOX", "address": {"city": "CHARLOTTE", "state": "NC", "street": "2505 DERITA AVE", "postcode": "28269"}}},
{"geometry": {"type": "Point", "coordinates": [-80.8372106903, 35.3356659355]}, "type": "Feature", "properties": {"collection_times": [{"days": "Mon-Fri", "time": "2:45pm"}, {"days": "Sat-Sun", "time": "Closed"}], "id": "2826900019", "name": "USPS COLLECTION BOX - BLUE BOX", "address": {"city": "CHARLOTTE", "state": "NC", "street": "6001 HARRIS TECHNOLOGY BLVD", "postcode": "28269"}}},
{"geometry": {"type": "Point", "coordinates": [-80.791872605, 35.3357250835]}, "type": "Feature", "properties": {"collection_times": [{"days": "Mon-Fri", "time": "4:00pm"}, {"days": "Sat", "time": "11:30am"}, {"days": "Sun", "time": "Closed"}], "id": "2826900023", "name": "USPS COLLECTION BOX - BLUE BOX", "address": {"city": "CHARLOTTE", "state": "NC", "street": "3515 DAVID COX RD", "postcode": "28269"}}},
{"geometry": {"type": "Point", "coordinates": [-80.791872605, 35.3357250835]}, "type": "Feature", "properties": {"collection_times": [{"days": "Mon-Fri", "time": "4:00pm"}, {"days": "Sat", "time": "11:30am"}, {"days": "Sun", "time": "Closed"}], "id": "2826900024", "name": "USPS COLLECTION BOX - BLUE BOX", "address": {"city": "CHARLOTTE", "state": "NC", "street": "3515 DAVID COX RD", "postcode": "28269"}}},
{"geometry": {"type": "Point", "coordinates": [-80.8001188808, 35.331453246]}, "type": "Feature", "properties": {"collection_times": [{"days": "Mon-Fri", "time": "11:30am"}, {"days": "Sat-Sun", "time": "Closed"}], "id": "2826900026", "name": "USPS COLLECTION BOX - BLUE BOX", "address": {"city": "CHARLOTTE", "state": "NC", "street": "5810 HIGHLAND SHOPPES DR", "postcode": "28269"}}},
{"geometry": {"type": "Point", "coordinates": [-80.7992933066, 35.2970849118]}, "type": "Feature", "properties": {"collection_times": [{"days": "Mon-Fri", "time": "5:00pm"}, {"days": "Sat", "time": "1:00pm"}, {"days": "Sun", "time": "Closed"}], "id": "2826900032", "name": "USPS COLLECTION BOX - PO LOBBY", "address": {"city": "CHARLOTTE", "state": "NC", "street": "2505 DERITA  AVE", "postcode": "28269"}}},
{"geometry": {"type": "Point", "coordinates": [-80.791872605, 35.3357250835]}, "type": "Feature", "properties": {"collection_times": [{"days": "Mon-Fri", "time": "5:00pm"}, {"days": "Sat", "time": "1:00pm"}, {"days": "Sun", "time": "Closed"}], "id": "2826900034", "name": "USPS COLLECTION BOX - PO LOBBY", "address": {"city": "CHARLOTTE", "state": "NC", "street": "3515 DAVID COX RD", "postcode": "28269"}}},
{"geometry": {"type": "Point", "coordinates": [-80.791872605, 35.3357250835]}, "type": "Feature", "properties": {"collection_times": [{"days": "Mon-Fri", "time": "5:00pm"}, {"days": "Sat", "time": "1:00pm"}, {"days": "Sun", "time": "Closed"}], "id": "2826900035", "name": "USPS COLLECTION BOX - PO LOBBY", "address": {"city": "CHARLOTTE", "state": "NC", "street": "3515 DAVID COX RD", "postcode": "28269"}}},
{"geometry": {"type": "Point", "coordinates": [-80.791872605, 35.3357250835]}, "type": "Feature", "properties": {"collection_times": [{"days": "Mon-Fri", "time": "5:00pm"}, {"days": "Sat", "time": "1:00pm"}, {"days": "Sun", "time": "Closed"}], "id": "2826900036", "name": "USPS COLLECTION BOX - PO LOBBY", "address": {"city": "CHARLOTTE", "state": "NC", "street": "3515 DAVID COX RD", "postcode": "28269"}}},
{"geometry": {"type": "Point", "coordinates": [-80.791872605, 35.3357250835]}, "type": "Feature", "properties": {"collection_times": [{"days": "Mon-Fri", "time": "5:00pm"}, {"days": "Sat", "time": "1:00pm"}, {"days": "Sun", "time": "Closed"}], "id": "2826900037", "name": "USPS COLLECTION BOX - APC", "address": {"city": "CHARLOTTE", "state": "NC", "street": "3515 DAVID COX RD", "postcode": "28269"}}},
{"geometry": {"type": "Point", "coordinates": [-80.7419495789, 35.1445044726]}, "type": "Feature", "properties": {"collection_times": [{"days": "Mon-Fri", "time": "4:00pm"}, {"days": "Sat-Sun", "time": "Closed"}], "id": "2827000002", "name": "USPS COLLECTION BOX - BLUE BOX", "address": {"city": "CHARLOTTE", "state": "NC", "street": "9317 MONROE RD", "postcode": "28270"}}},
{"geometry": {"type": "Point", "coordinates": [-80.7350054016, 35.1408692657]}, "type": "Feature", "properties": {"collection_times": [{"days": "Mon-Fri", "time": "12:30pm"}, {"days": "Sat-Sun", "time": "Closed"}], "id": "2827000004", "name": "USPS COLLECTION BOX - BLUE BOX", "address": {"city": "CHARLOTTE", "state": "NC", "street": "1811 SARDIS RD N", "postcode": "28270"}}},
{"geometry": {"type": "Point", "coordinates": [-80.7388344769, 35.1384723434]}, "type": "Feature", "properties": {"collection_times": [{"days": "Mon-Fri", "time": "12:45pm"}, {"days": "Sat-Sun", "time": "Closed"}], "id": "2827000007", "name": "USPS COLLECTION BOX - BLUE BOX", "address": {"city": "CHARLOTTE", "state": "NC", "street": "9824 MONROE RD", "postcode": "28270"}}},
{"geometry": {"type": "Point", "coordinates": [-80.7780380686, 35.1351905812]}, "type": "Feature", "properties": {"collection_times": [{"days": "Mon-Fri", "time": "11:45am"}, {"days": "Sat-Sun", "time": "Closed"}], "id": "2827000008", "name": "USPS COLLECTION BOX - BLUE BOX", "address": {"city": "CHARLOTTE", "state": "NC", "street": "5672 INTERNATIONAL DR", "postcode": "28270"}}},
{"geometry": {"type": "Point", "coordinates": [-80.7887105557, 35.1456839087]}, "type": "Feature", "properties": {"collection_times": [{"days": "Mon-Fri", "time": "11:45am"}, {"days": "Sat-Sun", "time": "Closed"}], "id": "2827000009", "name": "USPS COLLECTION BOX - BLUE BOX", "address": {"city": "CHARLOTTE", "state": "NC", "street": "5007 PROVIDENCE RD", "postcode": "28270"}}},
{"geometry": {"type": "Point", "coordinates": [-80.9294590133, 35.115349292]}, "type": "Feature", "properties": {"collection_times": [{"days": "Mon-Fri", "time": "1:00pm"}, {"days": "Sat-Sun", "time": "Closed"}], "id": "2827300004", "name": "USPS COLLECTION BOX - BLUE BOX", "address": {"city": "CHARLOTTE", "state": "NC", "street": "11333 GRANITE ST", "postcode": "28273"}}},
{"geometry": {"type": "Point", "coordinates": [-80.9062844513, 35.1362425086]}, "type": "Feature", "properties": {"collection_times": [{"days": "Mon-Fri", "time": "12:00pm"}, {"days": "Sat-Sun", "time": "Closed"}], "id": "2827300009", "name": "USPS COLLECTION BOX - BLUE BOX", "address": {"city": "CHARLOTTE", "state": "NC", "street": "7901 ARROWRIDGE BLVD", "postcode": "28273"}}},
{"geometry": {"type": "Point", "coordinates": [-80.9584959241, 35.1295388847]}, "type": "Feature", "properties": {"collection_times": [{"days": "Mon-Fri", "time": "1:00pm"}, {"days": "Sat-Sun", "time": "Closed"}], "id": "2827300012", "name": "USPS COLLECTION BOX - BLUE BOX", "address": {"city": "CHARLOTTE", "state": "NC", "street": "11600 FRUEHAUF DR", "postcode": "28273"}}},
{"geometry": {"type": "Point", "coordinates": [-80.9445990036, 35.1303333919]}, "type": "Feature", "properties": {"collection_times": [{"days": "Mon-Fri", "time": "4:00pm"}, {"days": "Sat-Sun", "time": "Closed"}], "id": "2827300013", "name": "USPS COLLECTION BOX - BLUE BOX", "address": {"city": "CHARLOTTE", "state": "NC", "street": "NATIONS FORD RD", "postcode": "28273"}}},
{"geometry": {"type": "Point", "coordinates": [-80.9445990036, 35.1303333919]}, "type": "Feature", "properties": {"collection_times": [{"days": "Mon-Fri", "time": "3:45pm"}, {"days": "Sat-Sun", "time": "Closed"}], "id": "2827300014", "name": "USPS COLLECTION BOX - BLUE BOX", "address": {"city": "CHARLOTTE", "state": "NC", "street": "S RIDGE DR", "postcode": "28273"}}},
{"geometry": {"type": "Point", "coordinates": [-80.9109929928, 35.1370052139]}, "type": "Feature", "properties": {"collection_times": [{"days": "Mon-Fri", "time": "4:00pm"}, {"days": "Sat-Sun", "time": "Closed"}], "id": "2827300015", "name": "USPS COLLECTION BOX - BLUE BOX", "address": {"city": "CHARLOTTE", "state": "NC", "street": "9200 SOUTHERN PINE BLVD", "postcode": "28273"}}},
{"geometry": {"type": "Point", "coordinates": [-80.9323287885, 35.1193662823]}, "type": "Feature", "properties": {"collection_times": [{"days": "Mon-Fri", "time": "1:00pm"}, {"days": "Sat-Sun", "time": "Closed"}], "id": "2827300019", "name": "USPS COLLECTION BOX - BLUE BOX", "address": {"city": "CHARLOTTE", "state": "NC", "street": "1200 WESTINGHOUSE BLVD", "postcode": "28273"}}},
{"geometry": {"type": "Point", "coordinates": [-80.9395345889, 35.1344409119]}, "type": "Feature", "properties": {"collection_times": [{"days": "Mon-Fri", "time": "1:00pm"}, {"days": "Sat-Sun", "time": "Closed"}], "id": "2827300021", "name": "USPS COLLECTION BOX - BLUE BOX", "address": {"city": "CHARLOTTE", "state": "NC", "street": "9112 YORK RD", "postcode": "28273"}}},
{"geometry": {"type": "Point", "coordinates": [-80.9158656319, 35.138958787]}, "type": "Feature", "properties": {"collection_times": [{"days": "Mon-Fri", "time": "12:00pm"}, {"days": "Sat-Sun", "time": "Closed"}], "id": "2827300028", "name": "USPS COLLECTION BOX - BLUE BOX", "address": {"city": "CHARLOTTE", "state": "NC", "street": "9140 ARROWPOINT BLVD", "postcode": "28273"}}},
{"geometry": {"type": "Point", "coordinates": [-80.9445990036, 35.1303333919]}, "type": "Feature", "properties": {"collection_times": [{"days": "Mon-Fri", "time": "3:45pm"}, {"days": "Sat-Sun", "time": "Closed"}], "id": "2827300029", "name": "USPS COLLECTION BOX - BLUE BOX", "address": {"city": "CHARLOTTE", "state": "NC", "street": "SOUTH RIDGE BLVD", "postcode": "28273"}}},
{"geometry": {"type": "Point", "coordinates": [-80.8827061091, 35.1297281582]}, "type": "Feature", "properties": {"collection_times": [{"days": "Mon-Fri", "time": "3:00pm"}, {"days": "Sat-Sun", "time": "Closed"}], "id": "2827300030", "name": "USPS COLLECTION BOX - BLUE BOX", "address": {"city": "CHARLOTTE", "state": "NC", "street": "8100 ENGLAND ST", "postcode": "28273"}}},
{"geometry": {"type": "Point", "coordinates": [-80.9226002173, 35.1396318906]}, "type": "Feature", "properties": {"collection_times": [{"days": "Mon-Fri", "time": "12:00pm"}, {"days": "Sat-Sun", "time": "Closed"}], "id": "2827300039", "name": "USPS COLLECTION BOX - BLUE BOX", "address": {"city": "CHARLOTTE", "state": "NC", "street": "8055 MICROSOFT WAY", "postcode": "28273"}}},
{"geometry": {"type": "Point", "coordinates": [-80.9414944378, 35.1451220032]}, "type": "Feature", "properties": {"collection_times": [{"days": "Mon-Fri", "time": "1:00pm"}, {"days": "Sat-Sun", "time": "Closed"}], "id": "2827300042", "name": "USPS COLLECTION BOX - BLUE BOX", "address": {"city": "CHARLOTTE", "state": "NC", "street": "2915 WHITEHALL PARK DR", "postcode": "28273"}}},
{"geometry": {"type": "Point", "coordinates": [-80.81927601, 35.0543435908]}, "type": "Feature", "properties": {"collection_times": [{"days": "Mon-Fri", "time": "3:30pm"}, {"days": "Sat", "time": "1:00pm"}, {"days": "Sun", "time": "Closed"}], "id": "2827700001", "name": "USPS COLLECTION BOX - BLUE BOX", "address": {"city": "CHARLOTTE", "state": "NC", "street": "8206 PROVIDENCE RD", "postcode": "28277"}}},
{"geometry": {"type": "Point", "coordinates": [-80.8302761848, 35.0797138361]}, "type": "Feature", "properties": {"collection_times": [{"days": "Mon-Fri", "time": "2:00pm"}, {"days": "Sat-Sun", "time": "Closed"}], "id": "2827700004", "name": "USPS COLLECTION BOX - BLUE BOX", "address": {"city": "CHARLOTTE", "state": "NC", "street": "9201 BAYBROOK LN", "postcode": "28277"}}},
{"geometry": {"type": "Point", "coordinates": [-80.787778384, 35.0938667571]}, "type": "Feature", "properties": {"collection_times": [{"days": "Mon-Fri", "time": "12:00pm"}, {"days": "Sat-Sun", "time": "Closed"}], "id": "2827700006", "name": "USPS COLLECTION BOX - BLUE BOX", "address": {"city": "CHARLOTTE", "state": "NC", "street": "8001 RAINTREE LN", "postcode": "28277"}}},
{"geometry": {"type": "Point", "coordinates": [-80.7715944143, 35.0680656244]}, "type": "Feature", "properties": {"collection_times": [{"days": "Mon-Fri", "time": "12:15pm"}, {"days": "Sat", "time": "1:00pm"}, {"days": "Sun", "time": "Closed"}], "id": "2827700008", "name": "USPS COLLECTION BOX - BLUE BOX", "address": {"city": "CHARLOTTE", "state": "NC", "street": "10416 PROVIDENCE RD", "postcode": "28277"}}},
{"geometry": {"type": "Point", "coordinates": [-80.8155353332, 35.052301128]}, "type": "Feature", "properties": {"collection_times": [{"days": "Mon-Fri", "time": "1:00pm"}, {"days": "Sat-Sun", "time": "Closed"}], "id": "2827700009", "name": "USPS COLLECTION BOX - BLUE BOX", "address": {"city": "CHARLOTTE", "state": "NC", "street": "8610 CAMFIELD ST", "postcode": "28277"}}},
{"geometry": {"type": "Point", "coordinates": [-80.8110933223, 35.0585140285]}, "type": "Feature", "properties": {"collection_times": [{"days": "Mon-Fri", "time": "12:30pm"}, {"days": "Sat-Sun", "time": "Closed"}], "id": "2827700010", "name": "USPS COLLECTION BOX - BLUE BOX", "address": {"city": "CHARLOTTE", "state": "NC", "street": "7810 BALLANTYNE COMMONS PKWY", "postcode": "28277"}}},
{"geometry": {"type": "Point", "coordinates": [-80.81927601, 35.0543435908]}, "type": "Feature", "properties": {"collection_times": [{"days": "Mon-Fri", "time": "3:45pm"}, {"days": "Sat-Sun", "time": "Closed"}], "id": "2827700012", "name": "USPS COLLECTION BOX - BLUE BOX", "address": {"city": "CHARLOTTE", "state": "NC", "street": "15800 JOHN J DELANEY DR", "postcode": "28277"}}},
{"geometry": {"type": "Point", "coordinates": [-80.8172813033, 35.0526523084]}, "type": "Feature", "properties": {"collection_times": [{"days": "Mon-Fri", "time": "12:30pm"}, {"days": "Sat-Sun", "time": "Closed"}], "id": "2827700013", "name": "USPS COLLECTION BOX - BLUE BOX", "address": {"city": "CHARLOTTE", "state": "NC", "street": "10800 SIKES PL", "postcode": "28277"}}},
{"geometry": {"type": "Point", "coordinates": [-80.8170648888, 35.0571439124]}, "type": "Feature", "properties": {"collection_times": [{"days": "Mon-Fri", "time": "5:00pm"}, {"days": "Sat", "time": "1:00pm"}, {"days": "Sun", "time": "Closed"}], "id": "2827700014", "name": "USPS COLLECTION BOX - BLUE BOX", "address": {"city": "CHARLOTTE", "state": "NC", "street": "8240 BALLANTYNE COMMONS PKWY", "postcode": "28277"}}},
{"geometry": {"type": "Point", "coordinates": [-80.8172813033, 35.0526523084]}, "type": "Feature", "properties": {"collection_times": [{"days": "Mon-Fri", "time": "1:30pm"}, {"days": "Sat-Sun", "time": "Closed"}], "id": "2827700020", "name": "USPS COLLECTION BOX - BLUE BOX", "address": {"city": "CHARLOTTE", "state": "NC", "street": "14120 BALNTYN CORP PL", "postcode": "28277"}}},
{"geometry": {"type": "Point", "coordinates": [-80.7703763111, 35.0542499432]}, "type": "Feature", "properties": {"collection_times": [{"days": "Mon-Fri", "time": "3:45pm"}, {"days": "Sat", "time": "1:00pm"}, {"days": "Sun", "time": "Closed"}], "id": "2827700022", "name": "USPS COLLECTION BOX - BLUE BOX", "address": {"city": "CHARLOTTE", "state": "NC", "street": "11035 GOLF LINKS DR N", "postcode": "28277"}}},
{"geometry": {"type": "Point", "coordinates": [-80.81927601, 35.0543435908]}, "type": "Feature", "properties": {"collection_times": [{"days": "Mon-Fri", "time": "5:00pm"}, {"days": "Sat", "time": "1:00pm"}, {"days": "Sun", "time": "Closed"}], "id": "2827700025", "name": "USPS COLLECTION BOX - PO LOBBY", "address": {"city": "CHARLOTTE", "state": "NC", "street": "8240 BALLANTYNE COMMONS PKWY", "postcode": "28277"}}},
{"geometry": {"type": "Point", "coordinates": [-80.81927601, 35.0543435908]}, "type": "Feature", "properties": {"collection_times": [{"days": "Mon-Fri", "time": "5:00pm"}, {"days": "Sat", "time": "1:00pm"}, {"days": "Sun", "time": "Closed"}], "id": "2827700026", "name": "USPS COLLECTION BOX - PO LOBBY", "address": {"city": "CHARLOTTE", "state": "NC", "street": "8240 BALLANTYNE COMMONS PKWY", "postcode": "28277"}}},
{"geometry": {"type": "Point", "coordinates": [-80.7703763111, 35.0542499432]}, "type": "Feature", "properties": {"collection_times": [{"days": "Mon-Fri", "time": "5:00pm"}, {"days": "Sat", "time": "1:00pm"}, {"days": "Sun", "time": "Closed"}], "id": "2827700027", "name": "USPS COLLECTION BOX - PO LOBBY", "address": {"city": "CHARLOTTE", "state": "NC", "street": "11035 GOLF LINKS DR N", "postcode": "28277"}}},
{"geometry": {"type": "Point", "coordinates": [-80.7703763111, 35.0542499432]}, "type": "Feature", "properties": {"collection_times": [{"days": "Mon-Fri", "time": "5:00pm"}, {"days": "Sat", "time": "1:00pm"}, {"days": "Sun", "time": "Closed"}], "id": "2827700028", "name": "USPS COLLECTION BOX - PO LOBBY", "address": {"city": "CHARLOTTE", "state": "NC", "street": "11035 GOLF LINKS DR N", "postcode": "28277"}}},
{"geometry": {"type": "Point", "coordinates": [-80.7703763111, 35.0542499432]}, "type": "Feature", "properties": {"collection_times": [{"days": "Mon-Fri", "time": "5:00pm"}, {"days": "Sat", "time": "1:00pm"}, {"days": "Sun", "time": "Closed"}], "id": "2827700029", "name": "USPS COLLECTION BOX - APC", "address": {"city": "CHARLOTTE", "state": "NC", "street": "11035 GOLF LINKS DR N", "postcode": "28277"}}},
{"geometry": {"type": "Point", "coordinates": [-80.81927601, 35.0543435908]}, "type": "Feature", "properties": {"collection_times": [{"days": "Mon-Fri", "time": "5:00pm"}, {"days": "Sat", "time": "1:00pm"}, {"days": "Sun", "time": "Closed"}], "id": "2827700030", "name": "USPS COLLECTION BOX - APC", "address": {"city": "CHARLOTTE", "state": "NC", "street": "8240 BALLANTYNE COMMONS PKWY", "postcode": "28277"}}},
{"geometry": {"type": "Point", "coordinates": [-80.9863741044, 35.1388973375]}, "type": "Feature", "properties": {"collection_times": [{"days": "Mon-Fri", "time": "3:30pm"}, {"days": "Sat", "time": "1:30pm"}, {"days": "Sun", "time": "Closed"}], "id": "2827800000", "name": "USPS COLLECTION BOX - BLUE BOX", "address": {"city": "CHARLOTTE", "state": "NC", "street": "10926 QUALITY DR", "postcode": "28278"}}},
{"geometry": {"type": "Point", "coordinates": [-81.0050988602, 35.1223516168]}, "type": "Feature", "properties": {"collection_times": [{"days": "Mon-Fri", "time": "5:00pm"}, {"days": "Sat", "time": "1:00pm"}, {"days": "Sun", "time": "Closed"}], "id": "2827800004", "name": "USPS COLLECTION BOX - PO LOBBY", "address": {"city": "CHARLOTTE", "state": "NC", "street": "10926 QUALITY DR", "postcode": "28278"}}}
]}
