{"type": "FeatureCollection", "features": [
{"geometry": {"type": "Point", "coordinates": [-78.8848665266, 35.0709415576]}, "type": "Feature", "properties": {"collection_times": [{"days": "Mon-Fri", "time": "5:00pm"}, {"days": "Sat", "time": "1:00pm"}, {"days": "Sun", "time": "Closed"}], "id": "2830100113", "name": "USPS COLLECTION BOX - PO LOBBY", "address": {"city": "FAYETTEVILLE", "state": "NC", "street": "2812 RAMSEY ST", "postcode": "28301"}}},
{"geometry": {"type": "Point", "coordinates": [-78.8772830941, 35.0968336182]}, "type": "Feature", "properties": {"collection_times": [{"days": "Mon-Fri", "time": "5:00pm"}, {"days": "Sat", "time": "1:00pm"}, {"days": "Sun", "time": "Closed"}], "id": "2830100114", "name": "USPS COLLECTION BOX - PO LOBBY", "address": {"city": "FAYETTEVILLE", "state": "NC", "street": "2812 RAMSEY ST", "postcode": "28301"}}},
{"geometry": {"type": "Point", "coordinates": [-78.8770181113, 35.0561173536]}, "type": "Feature", "properties": {"collection_times": [{"days": "Mon-Sat", "time": "8:15pm"}, {"days": "Sun", "time": "Closed"}], "id": "2830200002", "name": "USPS COLLECTION BOX - BLUE BOX", "address": {"city": "FAYETTEVILLE", "state": "NC", "street": "301 GREEN ST", "postcode": "28302"}}},
{"geometry": {"type": "Point", "coordinates": [-78.8770181113, 35.0561173536]}, "type": "Feature", "properties": {"collection_times": [{"days": "Mon-Sat", "time": "8:15pm"}, {"days": "Sun", "time": "Closed"}], "id": "2830200003", "name": "USPS COLLECTION BOX - BLUE BOX", "address": {"city": "FAYETTEVILLE", "state": "NC", "street": "301 GREEN ST", "postcode": "28302"}}},
{"geometry": {"type": "Point", "coordinates": [-78.8770181113, 35.0561173536]}, "type": "Feature", "properties": {"collection_times": [{"days": "Mon-Sat", "time": "8:15pm"}, {"days": "Sun", "time": "Closed"}], "id": "2830200004", "name": "USPS COLLECTION BOX - BLUE BOX", "address": {"city": "FAYETTEVILLE", "state": "NC", "street": "301 GREEN ST", "postcode": "28302"}}},
{"geometry": {"type": "Point", "coordinates": [-78.8770181113, 35.0561173536]}, "type": "Feature", "properties": {"collection_times": [{"days": "Mon-Sat", "time": "8:15pm"}, {"days": "Sun", "time": "Closed"}], "id": "2830200005", "name": "USPS COLLECTION BOX - BLUE BOX", "address": {"city": "FAYETTEVILLE", "state": "NC", "street": "301 GREEN ST", "postcode": "28302"}}},
{"geometry": {"type": "Point", "coordinates": [-78.8770181113, 35.0561173536]}, "type": "Feature", "properties": {"collection_times": [{"days": "Mon-Sat", "time": "8:15pm"}, {"days": "Sun", "time": "Closed"}], "id": "2830200007", "name": "USPS COLLECTION BOX - BLUE BOX", "address": {"city": "FAYETTEVILLE", "state": "NC", "street": "301 GREEN ST", "postcode": "28302"}}},
{"geometry": {"type": "Point", "coordinates": [-78.8771975917, 35.0968811946]}, "type": "Feature", "properties": {"collection_times": [{"days": "Mon-Sat", "time": "8:15pm"}, {"days": "Sun", "time": "Closed"}], "id": "2830200010", "name": "USPS COLLECTION BOX - PO LOBBY", "address": {"city": "FAYETTEVILLE", "state": "NC", "street": "301 GREEN ST", "postcode": "28302"}}},
{"geometry": {"type": "Point", "coordinates": [-78.8770181113, 35.0561173536]}, "type": "Feature", "properties": {"collection_times": [{"days": "Mon-Sat", "time": "8:15pm"}, {"days": "Sun", "time": "Closed"}], "id": "2830200011", "name": "USPS COLLECTION BOX - PO LOBBY", "address": {"city": "FAYETTEVILLE", "state": "NC", "street": "301 GREEN ST", "postcode": "28302"}}},
{"geometry": {"type": "Point", "coordinates": [-78.8770181113, 35.0561173536]}, "type": "Feature", "properties": {"collection_times": [{"days": "Mon-Sat", "time": "8:15pm"}, {"days": "Sun", "time": "Closed"}], "id": "2830200012", "name": "USPS COLLECTION BOX - PO LOBBY", "address": {"city": "FAYETTEVILLE", "state": "NC", "street": "301 GREEN ST", "postcode": "28302"}}},
{"geometry": {"type": "Point", "coordinates": [-78.8770181113, 35.0561173536]}, "type": "Feature", "properties": {"collection_times": [{"days": "Mon-Sat", "time": "8:15pm"}, {"days": "Sun", "time": "Closed"}], "id": "2830200013", "name": "USPS COLLECTION BOX - PO LOBBY", "address": {"city": "FAYETTEVILLE", "state": "NC", "street": "301 GREEN ST", "postcode": "28302"}}},
{"geometry": {"type": "Point", "coordinates": [-78.8771975917, 35.0968811946]}, "type": "Feature", "properties": {"collection_times": [{"days": "Mon-Sat", "time": "5:00pm"}, {"days": "Sun", "time": "Closed"}], "id": "2830200014", "name": "USPS COLLECTION BOX - EXPRESS", "address": {"city": "FAYETTEVILLE", "state": "NC", "street": "301 GREEN ST", "postcode": "28302"}}},
{"geometry": {"type": "Point", "coordinates": [-78.8771975917, 35.0968811946]}, "type": "Feature", "properties": {"collection_times": [{"days": "Mon-Sat", "time": "5:00pm"}, {"days": "Sun", "time": "Closed"}], "id": "2830200015", "name": "USPS COLLECTION BOX - EXPRESS", "address": {"city": "FAYETTEVILLE", "state": "NC", "street": "301 GREEN ST", "postcode": "28302"}}},
{"geometry": {"type": "Point", "coordinates": [-78.8770181113, 35.0561173536]}, "type": "Feature", "properties": {"collection_times": [{"days": "Mon-Sat", "time": "8:15pm"}, {"days": "Sun", "time": "Closed"}], "id": "2830200016", "name": "USPS COLLECTION BOX - PO LOBBY", "address": {"city": "FAYETTEVILLE", "state": "NC", "street": "301 GREEN ST", "postcode": "28302"}}},
{"geometry": {"type": "Point", "coordinates": [-78.8770181113, 35.0561173536]}, "type": "Feature", "properties": {"collection_times": [{"days": "Mon-Sat", "time": "8:15pm"}, {"days": "Sun", "time": "Closed"}], "id": "2830200017", "name": "USPS COLLECTION BOX - PO LOBBY", "address": {"city": "FAYETTEVILLE", "state": "NC", "street": "301 GREEN ST", "postcode": "28302"}}},
{"geometry": {"type": "Point", "coordinates": [-78.8771975917, 35.0968811946]}, "type": "Feature", "properties": {"collection_times": [{"days": "Mon-Sat", "time": "8:15pm"}, {"days": "Sun", "time": "Closed"}], "id": "2830200018", "name": "USPS COLLECTION BOX - BLUE BOX", "address": {"city": "FAYETTEVILLE", "state": "NC", "street": "301 GREEN ST", "postcode": "28302"}}},
{"geometry": {"type": "Point", "coordinates": [-78.9552382355, 35.0806525991]}, "type": "Feature", "properties": {"collection_times": [{"days": "Mon-Sat", "time": "5:00pm"}, {"days": "Sun", "time": "Closed"}], "id": "2830300000", "name": "USPS COLLECTION BOX - BLUE BOX", "address": {"city": "FAYETTEVILLE", "state": "NC", "street": "816 ELM ST", "postcode": "28303"}}},
{"geometry": {"type": "Point", "coordinates": [-78.9552382355, 35.0806525991]}, "type": "Feature", "properties": {"collection_times": [{"days": "Mon-Sat", "time": "5:00pm"}, {"days": "Sun", "time": "Closed"}], "id": "2830300001", "name": "USPS COLLECTION BOX - BLUE BOX", "address": {"city": "FAYETTEVILLE", "state": "NC", "street": "816 ELM ST", "postcode": "28303"}}},
{"geometry": {"type": "Point", "coordinates": [-78.9347323133, 35.0767209499]}, "type": "Feature", "properties": {"collection_times": [{"days": "Mon-Sat", "time": "10:00am"}, {"days": "Sun", "time": "Closed"}], "id": "2830300002", "name": "USPS COLLECTION BOX - BLUE BOX", "address": {"city": "FAYETTEVILLE", "state": "NC", "street": "3308 BRAGG BLVD", "postcode": "28303"}}},
{"geometry": {"type": "Point", "coordinates": [-78.9687575965, 35.0975491148]}, "type": "Feature", "properties": {"collection_times": [{"days": "Mon-Fri", "time": "1:00pm"}, {"days": "Sat", "time": "1:30pm"}, {"days": "Sun", "time": "Closed"}], "id": "2830300006", "name": "USPS COLLECTION BOX - BLUE BOX", "address": {"city": "FAYETTEVILLE", "state": "NC", "street": "@ SKIBO RD", "postcode": "28303"}}},
{"geometry": {"type": "Point", "coordinates": [-78.9687575965, 35.0975491148]}, "type": "Feature", "properties": {"collection_times": [{"days": "Mon-Sat", "time": "12:00pm"}, {"days": "Sun", "time": "Closed"}], "id": "2830300009", "name": "USPS COLLECTION BOX - BLUE BOX", "address": {"city": "FAYETTEVILLE", "state": "NC", "street": "@ CROSSCREEK MALL", "postcode": "28303"}}},
{"geometry": {"type": "Point", "coordinates": [-78.9463951057, 35.0777737834]}, "type": "Feature", "properties": {"collection_times": [{"days": "Mon-Sat", "time": "10:00am"}, {"days": "Sun", "time": "Closed"}], "id": "2830300011", "name": "USPS COLLECTION BOX - BLUE BOX", "address": {"city": "FAYETTEVILLE", "state": "NC", "street": "351 WAGONER DR", "postcode": "28303"}}},
{"geometry": {"type": "Point", "coordinates": [-78.9687575965, 35.0975491148]}, "type": "Feature", "properties": {"collection_times": [{"days": "Mon-Sat", "time": "10:00am"}, {"days": "Sun", "time": "Closed"}], "id": "2830300013", "name": "USPS COLLECTION BOX - BLUE BOX", "address": {"city": "FAYETTEVILLE", "state": "NC", "street": "@ HULL RD", "postcode": "28303"}}},
{"geometry": {"type": "Point", "coordinates": [-78.9224094298, 35.0457499012]}, "type": "Feature", "properties": {"collection_times": [{"days": "Mon-Fri", "time": "4:00pm"}, {"days": "Sat", "time": "2:30pm"}, {"days": "Sun", "time": "Closed"}], "id": "2830300015", "name": "USPS COLLECTION BOX - BLUE BOX", "address": {"city": "FAYETTEVILLE", "state": "NC", "street": "2800 RAEFORD RD", "postcode": "28303"}}},
{"geometry": {"type": "Point", "coordinates": [-78.9224094298, 35.0457499012]}, "type": "Feature", "properties": {"collection_times": [{"days": "Mon-Fri", "time": "4:00pm"}, {"days": "Sat", "time": "2:30pm"}, {"days": "Sun", "time": "Closed"}], "id": "2830300016", "name": "USPS COLLECTION BOX - BLUE BOX", "address": {"city": "FAYETTEVILLE", "state": "NC", "street": "2800 RAEFORD RD", "postcode": "28303"}}},
{"geometry": {"type": "Point", "coordinates": [-78.9224094298, 35.0457499012]}, "type": "Feature", "properties": {"collection_times": [{"days": "Mon-Fri", "time": "4:00pm"}, {"days": "Sat", "time": "2:30pm"}, {"days": "Sun", "time": "Closed"}], "id": "2830300017", "name": "USPS COLLECTION BOX - BLUE BOX", "address": {"city": "FAYETTEVILLE", "state": "NC", "street": "2800 RAEFORD RD", "postcode": "28303"}}},
{"geometry": {"type": "Point", "coordinates": [-78.9552382355, 35.0806525991]}, "type": "Feature", "properties": {"collection_times": [{"days": "Mon-Sat", "time": "5:00pm"}, {"days": "Sun", "time": "Closed"}], "id": "2830300020", "name": "USPS COLLECTION BOX - BLUE BOX", "address": {"city": "FAYETTEVILLE", "state": "NC", "street": "816 ELM ST", "postcode": "28303"}}},
{"geometry": {"type": "Point", "coordinates": [-78.9552382355, 35.0806525991]}, "type": "Feature", "properties": {"collection_times": [{"days": "Mon-Sat", "time": "5:00pm"}, {"days": "Sun", "time": "Closed"}], "id": "2830300022", "name": "USPS COLLECTION BOX - BLUE BOX", "address": {"city": "FAYETTEVILLE", "state": "NC", "street": "816 ELM ST", "postcode": "28303"}}},
{"geometry": {"type": "Point", "coordinates": [-78.9552382355, 35.0806525991]}, "type": "Feature", "properties": {"collection_times": [{"days": "Mon-Sat", "time": "5:00pm"}, {"days": "Sun", "time": "Closed"}], "id": "2830300023", "name": "USPS COLLECTION BOX - BLUE BOX", "address": {"city": "FAYETTEVILLE", "state": "NC", "street": "816 ELM ST", "postcode": "28303"}}},
{"geometry": {"type": "Point", "coordinates": [-78.9552382355, 35.0806525991]}, "type": "Feature", "properties": {"collection_times": [{"days": "Mon-Sat", "time": "5:00pm"}, {"days": "Sun", "time": "Closed"}], "id": "2830300024", "name": "USPS COLLECTION BOX - BLUE BOX", "address": {"city": "FAYETTEVILLE", "state": "NC", "street": "816 ELM ST", "postcode": "28303"}}},
{"geometry": {"type": "Point", "coordinates": [-78.9830650377, 35.0902711099]}, "type": "Feature", "properties": {"collection_times": [{"days": "Mon-Fri", "time": "3:00pm"}, {"days": "Sat", "time": "2:00pm"}, {"days": "Sun", "time": "Closed"}], "id": "2830300025", "name": "USPS COLLECTION BOX - BLUE BOX", "address": {"city": "FAYETTEVILLE", "state": "NC", "street": "5701 YADKIN RD", "postcode": "28303"}}},
{"geometry": {"type": "Point", "coordinates": [-78.9829434312, 35.0900000565]}, "type": "Feature", "properties": {"collection_times": [{"days": "Mon-Fri", "time": "3:00pm"}, {"days": "Sat", "time": "2:00pm"}, {"days": "Sun", "time": "Closed"}], "id": "2830300026", "name": "USPS COLLECTION BOX - BLUE BOX", "address": {"city": "FAYETTEVILLE", "state": "NC", "street": "5701 YADKIN RD", "postcode": "28303"}}},
{"geometry": {"type": "Point", "coordinates": [-78.9829434312, 35.0900000565]}, "type": "Feature", "properties": {"collection_times": [{"days": "Mon-Fri", "time": "3:00pm"}, {"days": "Sat", "time": "2:00pm"}, {"days": "Sun", "time": "Closed"}], "id": "2830300027", "name": "USPS COLLECTION BOX - BLUE BOX", "address": {"city": "FAYETTEVILLE", "state": "NC", "street": "5701 YADKIN RD", "postcode": "28303"}}},
{"geometry": {"type": "Point", "coordinates": [-78.9224094298, 35.0457499012]}, "type": "Feature", "properties": {"collection_times": [{"days": "Mon-Fri", "time": "4:00pm"}, {"days": "Sat", "time": "2:30pm"}, {"days": "Sun", "time": "Closed"}], "id": "2830300032", "name": "USPS COLLECTION BOX - BLUE BOX", "address": {"city": "FAYETTEVILLE", "state": "NC", "street": "2800 RAEFORD RD", "postcode": "28303"}}},
{"geometry": {"type": "Point", "coordinates": [-78.8909462702, 35.0537762778]}, "type": "Feature", "properties": {"collection_times": [{"days": "Mon-Sat", "time": "10:30am"}, {"days": "Sun", "time": "Closed"}], "id": "2830300036", "name": "USPS COLLECTION BOX - BLUE BOX", "address": {"city": "FAYETTEVILLE", "state": "NC", "street": "227 FOUNTAINHEAD LN", "postcode": "28303"}}},
{"geometry": {"type": "Point", "coordinates": [-78.8834356637, 35.0543405492]}, "type": "Feature", "properties": {"collection_times": [{"days": "Mon-Sat", "time": "1:00pm"}, {"days": "Sun", "time": "Closed"}], "id": "2830300040", "name": "USPS COLLECTION BOX - BLUE BOX", "address": {"city": "FAYETTEVILLE", "state": "NC", "street": "433 HAY ST", "postcode": "28303"}}},
{"geometry": {"type": "Point", "coordinates": [-78.8834356637, 35.0543405492]}, "type": "Feature", "properties": {"collection_times": [{"days": "Mon-Sat", "time": "1:00pm"}, {"days": "Sun", "time": "Closed"}], "id": "2830300041", "name": "USPS COLLECTION BOX - BLUE BOX", "address": {"city": "FAYETTEVILLE", "state": "NC", "street": "433 HAY ST", "postcode": "28303"}}},
{"geometry": {"type": "Point", "coordinates": [-78.8786837175, 35.0514281043]}, "type": "Feature", "properties": {"collection_times": [{"days": "Mon-Sat", "time": "10:30am"}, {"days": "Sun", "time": "Closed"}], "id": "2830300045", "name": "USPS COLLECTION BOX - BLUE BOX", "address": {"city": "FAYETTEVILLE", "state": "NC", "street": "130 GILLESPIE ST", "postcode": "28303"}}},
{"geometry": {"type": "Point", "coordinates": [-78.8770488682, 35.0512021591]}, "type": "Feature", "properties": {"collection_times": [{"days": "Mon-Sat", "time": "10:30am"}, {"days": "Sun", "time": "Closed"}], "id": "2830300047", "name": "USPS COLLECTION BOX - BLUE BOX", "address": {"city": "FAYETTEVILLE", "state": "NC", "street": "117 DICK ST", "postcode": "28303"}}},
{"geometry": {"type": "Point", "coordinates": [-78.8450072417, 35.0323966604]}, "type": "Feature", "properties": {"collection_times": [{"days": "Mon-Fri", "time": "3:30pm"}, {"days": "Sat", "time": "11:00am"}, {"days": "Sun", "time": "Closed"}], "id": "2830300049", "name": "USPS COLLECTION BOX - BLUE BOX", "address": {"city": "FAYETTEVILLE", "state": "NC", "street": "804 CEDAR CREEK RD", "postcode": "28303"}}},
{"geometry": {"type": "Point", "coordinates": [-78.8784802486, 35.0890071617]}, "type": "Feature", "properties": {"collection_times": [{"days": "Mon-Sat", "time": "11:00am"}, {"days": "Sun", "time": "Closed"}], "id": "2830300054", "name": "USPS COLLECTION BOX - BLUE BOX", "address": {"city": "FAYETTEVILLE", "state": "NC", "street": "2300 RAMSEY ST", "postcode": "28303"}}},
{"geometry": {"type": "Point", "coordinates": [-78.8789179434, 35.1085922303]}, "type": "Feature", "properties": {"collection_times": [{"days": "Mon-Sat", "time": "11:00am"}, {"days": "Sun", "time": "Closed"}], "id": "2830300055", "name": "USPS COLLECTION BOX - BLUE BOX", "address": {"city": "FAYETTEVILLE", "state": "NC", "street": "3616 RAMSEY ST", "postcode": "28303"}}},
{"geometry": {"type": "Point", "coordinates": [-78.8749639796, 35.1378662792]}, "type": "Feature", "properties": {"collection_times": [{"days": "Mon-Fri", "time": "12:00pm"}, {"days": "Sat-Sun", "time": "Closed"}], "id": "2830300056", "name": "USPS COLLECTION BOX - BLUE BOX", "address": {"city": "FAYETTEVILLE", "state": "NC", "street": "5400 RAMSEY ST", "postcode": "28303"}}},
{"geometry": {"type": "Point", "coordinates": [-78.8749639796, 35.1378662792]}, "type": "Feature", "properties": {"collection_times": [{"days": "Mon-Fri", "time": "12:00pm"}, {"days": "Sat-Sun", "time": "Closed"}], "id": "2830300057", "name": "USPS COLLECTION BOX - BLUE BOX", "address": {"city": "FAYETTEVILLE", "state": "NC", "street": "5400 RAMSEY ST", "postcode": "28303"}}},
{"geometry": {"type": "Point", "coordinates": [-78.9687575965, 35.0975491148]}, "type": "Feature", "properties": {"collection_times": [{"days": "Mon-Sat", "time": "11:30am"}, {"days": "Sun", "time": "Closed"}], "id": "2830300058", "name": "USPS COLLECTION BOX - BLUE BOX", "address": {"city": "FAYETTEVILLE", "state": "NC", "street": "@ ANDREWS RD", "postcode": "28303"}}},
{"geometry": {"type": "Point", "coordinates": [-78.878789965, 35.1065558982]}, "type": "Feature", "properties": {"collection_times": [{"days": "Mon-Sat", "time": "11:00am"}, {"days": "Sun", "time": "Closed"}], "id": "2830300061", "name": "USPS COLLECTION BOX - BLUE BOX", "address": {"city": "FAYETTEVILLE", "state": "NC", "street": "3437 RAMSEY ST", "postcode": "28303"}}},
{"geometry": {"type": "Point", "coordinates": [-78.9063803358, 35.1135062419]}, "type": "Feature", "properties": {"collection_times": [{"days": "Mon-Sat", "time": "12:30pm"}, {"days": "Sun", "time": "Closed"}], "id": "2830300062", "name": "USPS COLLECTION BOX - BLUE BOX", "address": {"city": "FAYETTEVILLE", "state": "NC", "street": "3931 ROSEHILL RD", "postcode": "28303"}}},
{"geometry": {"type": "Point", "coordinates": [-78.8798146263, 35.059249829]}, "type": "Feature", "properties": {"collection_times": [{"days": "Mon-Sat", "time": "1:00pm"}, {"days": "Sun", "time": "Closed"}], "id": "2830300067", "name": "USPS COLLECTION BOX - BLUE BOX", "address": {"city": "FAYETTEVILLE", "state": "NC", "street": "407 RAY AVE", "postcode": "28303"}}},
{"geometry": {"type": "Point", "coordinates": [-78.9552382355, 35.0806525991]}, "type": "Feature", "properties": {"collection_times": [{"days": "Mon-Sat", "time": "10:30am"}, {"days": "Sun", "time": "Closed"}], "id": "2830300069", "name": "USPS COLLECTION BOX - BLUE BOX", "address": {"city": "FAYETTEVILLE", "state": "NC", "street": "CLIFFDALE RD", "postcode": "28303"}}},
{"geometry": {"type": "Point", "coordinates": [-78.9535709348, 35.067810903]}, "type": "Feature", "properties": {"collection_times": [{"days": "Mon-Sat", "time": "1:00pm"}, {"days": "Sun", "time": "Closed"}], "id": "2830300071", "name": "USPS COLLECTION BOX - BLUE BOX", "address": {"city": "FAYETTEVILLE", "state": "NC", "street": "4200 MORGANTON RD", "postcode": "28303"}}},
{"geometry": {"type": "Point", "coordinates": [-78.9535709348, 35.067810903]}, "type": "Feature", "properties": {"collection_times": [{"days": "Mon-Sat", "time": "1:00pm"}, {"days": "Sun", "time": "Closed"}], "id": "2830300072", "name": "USPS COLLECTION BOX - BLUE BOX", "address": {"city": "FAYETTEVILLE", "state": "NC", "street": "4200 MORGANTON RD", "postcode": "28303"}}},
{"geometry": {"type": "Point", "coordinates": [-78.9535709348, 35.067810903]}, "type": "Feature", "properties": {"collection_times": [{"days": "Mon-Sat", "time": "1:00pm"}, {"days": "Sun", "time": "Closed"}], "id": "2830300073", "name": "USPS COLLECTION BOX - BLUE BOX", "address": {"city": "FAYETTEVILLE", "state": "NC", "street": "4200 MORGANTON RD", "postcode": "28303"}}},
{"geometry": {"type": "Point", "coordinates": [-78.9522318253, 35.0675423713]}, "type": "Feature", "properties": {"collection_times": [{"days": "Mon-Sat", "time": "12:00pm"}, {"days": "Sun", "time": "Closed"}], "id": "2830300074", "name": "USPS COLLECTION BOX - BLUE BOX", "address": {"city": "FAYETTEVILLE", "state": "NC", "street": "3817 MORGANTON RD", "postcode": "28303"}}},
{"geometry": {"type": "Point", "coordinates": [-78.9171795682, 35.0448650479]}, "type": "Feature", "properties": {"collection_times": [{"days": "Mon-Fri", "time": "1:00pm"}, {"days": "Sat", "time": "12:30pm"}, {"days": "Sun", "time": "Closed"}], "id": "2830300076", "name": "USPS COLLECTION BOX - BLUE BOX", "address": {"city": "FAYETTEVILLE", "state": "NC", "street": "202 FAIRWAY DR", "postcode": "28303"}}},
{"geometry": {"type": "Point", "coordinates": [-78.9687575965, 35.0975491148]}, "type": "Feature", "properties": {"collection_times": [{"days": "Mon-Fri", "time": "1:00pm"}, {"days": "Sat", "time": "12:30pm"}, {"days": "Sun", "time": "Closed"}], "id": "2830300077", "name": "USPS COLLECTION BOX - BLUE BOX", "address": {"city": "FAYETTEVILLE", "state": "NC", "street": "@ FERNCREEK", "postcode": "28303"}}},
{"geometry": {"type": "Point", "coordinates": [-78.8770488682, 35.0512021591]}, "type": "Feature", "properties": {"collection_times": [{"days": "Mon-Sat", "time": "10:30am"}, {"days": "Sun", "time": "Closed"}], "id": "2830300090", "name": "USPS COLLECTION BOX - BLUE BOX", "address": {"city": "FAYETTEVILLE", "state": "NC", "street": "117 DICK ST", "postcode": "28303"}}},
{"geometry": {"type": "Point", "coordinates": [-78.88033, 35.072834]}, "type": "Feature", "properties": {"collection_times": [{"days": "Mon-Fri", "time": "12:30pm"}, {"days": "Sat-Sun", "time": "Closed"}], "id": "2830300093", "name": "USPS COLLECTION BOX - BLUE BOX", "address": {"city": "FAYETTEVILLE", "state": "NC", "street": "1225 RAMSEY ST", "postcode": "28303"}}},
{"geometry": {"type": "Point", "coordinates": [-78.9552382355, 35.0806525991]}, "type": "Feature", "properties": {"collection_times": [{"days": "Mon-Sat", "time": "1:30pm"}, {"days": "Sun", "time": "Closed"}], "id": "2830300094", "name": "USPS COLLECTION BOX - BLUE BOX", "address": {"city": "FAYETTEVILLE", "state": "NC", "street": "955 OLD WILMINGTON RD", "postcode": "28303"}}},
{"geometry": {"type": "Point", "coordinates": [-78.9687575965, 35.0975491148]}, "type": "Feature", "properties": {"collection_times": [{"days": "Mon-Sat", "time": "10:00am"}, {"days": "Sun", "time": "Closed"}], "id": "2830300095", "name": "USPS COLLECTION BOX - BLUE BOX", "address": {"city": "FAYETTEVILLE", "state": "NC", "street": "@ KING ARTHUR DR", "postcode": "28303"}}},
{"geometry": {"type": "Point", "coordinates": [-78.9687575965, 35.0975491148]}, "type": "Feature", "properties": {"collection_times": [{"days": "Mon-Sat", "time": "10:00am"}, {"days": "Sun", "time": "Closed"}], "id": "2830300100", "name": "USPS COLLECTION BOX - BLUE BOX", "address": {"city": "FAYETTEVILLE", "state": "NC", "street": "@ WESTLAKE DR", "postcode": "28303"}}},
{"geometry": {"type": "Point", "coordinates": [-78.9133266708, 35.0648191998]}, "type": "Feature", "properties": {"collection_times": [{"days": "Mon-Sat", "time": "10:00am"}, {"days": "Sun", "time": "Closed"}], "id": "2830300104", "name": "USPS COLLECTION BOX - BLUE BOX", "address": {"city": "FAYETTEVILLE", "state": "NC", "street": "2018 FORT BRAGG RD", "postcode": "28303"}}},
{"geometry": {"type": "Point", "coordinates": [-78.9552382355, 35.0806525991]}, "type": "Feature", "properties": {"collection_times": [{"days": "Mon-Sat", "time": "11:30am"}, {"days": "Sun", "time": "Closed"}], "id": "2830300106", "name": "USPS COLLECTION BOX - BLUE BOX", "address": {"city": "FAYETTEVILLE", "state": "NC", "street": "157 TREETOP DR", "postcode": "28303"}}},
{"geometry": {"type": "Point", "coordinates": [-78.9687575965, 35.0975491148]}, "type": "Feature", "properties": {"collection_times": [{"days": "Mon-Sat", "time": "12:00pm"}, {"days": "Sun", "time": "Closed"}], "id": "2830300107", "name": "USPS COLLECTION BOX - BLUE BOX", "address": {"city": "FAYETTEVILLE", "state": "NC", "street": "@ BUBBLE CREEK CT", "postcode": "28303"}}},
{"geometry": {"type": "Point", "coordinates": [-78.9275730456, 35.0312917768]}, "type": "Feature", "properties": {"collection_times": [{"days": "Mon-Sat", "time": "1:00pm"}, {"days": "Sun", "time": "Closed"}], "id": "2830300109", "name": "USPS COLLECTION BOX - BLUE BOX", "address": {"city": "FAYETTEVILLE", "state": "NC", "street": "2950 VILLAGE DR", "postcode": "28303"}}},
{"geometry": {"type": "Point", "coordinates": [-78.8800654136, 35.0531836154]}, "type": "Feature", "properties": {"collection_times": [{"days": "Mon-Sat", "time": "1:00pm"}, {"days": "Sun", "time": "Closed"}], "id": "2830300110", "name": "USPS COLLECTION BOX - BLUE BOX", "address": {"city": "FAYETTEVILLE", "state": "NC", "street": "201 HAY ST", "postcode": "28303"}}},
{"geometry": {"type": "Point", "coordinates": [-78.9509092771, 35.0649091046]}, "type": "Feature", "properties": {"collection_times": [{"days": "Mon-Sat", "time": "11:00am"}, {"days": "Sun", "time": "Closed"}], "id": "2830300111", "name": "USPS COLLECTION BOX - BLUE BOX", "address": {"city": "FAYETTEVILLE", "state": "NC", "street": "201 S MCPHERSON CHURCH RD", "postcode": "28303"}}},
{"geometry": {"type": "Point", "coordinates": [-78.9687575965, 35.0975491148]}, "type": "Feature", "properties": {"collection_times": [{"days": "Mon-Sat", "time": "1:00pm"}, {"days": "Sun", "time": "Closed"}], "id": "2830300124", "name": "USPS COLLECTION BOX - BLUE BOX", "address": {"city": "FAYETTEVILLE", "state": "NC", "street": "@ OWEN DR", "postcode": "28303"}}},
{"geometry": {"type": "Point", "coordinates": [-78.9552382355, 35.0806525991]}, "type": "Feature", "properties": {"collection_times": [{"days": "Mon-Sat", "time": "5:00pm"}, {"days": "Sun", "time": "Closed"}], "id": "2830300125", "name": "USPS COLLECTION BOX - PO LOBBY", "address": {"city": "FAYETTEVILLE", "state": "NC", "street": "816 ELM ST", "postcode": "28303"}}},
{"geometry": {"type": "Point", "coordinates": [-78.9552382355, 35.0806525991]}, "type": "Feature", "properties": {"collection_times": [{"days": "Mon-Sat", "time": "11:00am"}, {"days": "Sun", "time": "Closed"}], "id": "2830300127", "name": "USPS COLLECTION BOX - BLUE BOX", "address": {"city": "FAYETTEVILLE", "state": "NC", "street": "N LUCAS DR", "postcode": "28303"}}},
{"geometry": {"type": "Point", "coordinates": [-78.9552382355, 35.0806525991]}, "type": "Feature", "properties": {"collection_times": [{"days": "Mon-Sat", "time": "11:00am"}, {"days": "Sun", "time": "Closed"}], "id": "2830300128", "name": "USPS COLLECTION BOX - BLUE BOX", "address": {"city": "FAYETTEVILLE", "state": "NC", "street": "311 S DOUGHERTY DR", "postcode": "28303"}}},
{"geometry": {"type": "Point", "coordinates": [-78.9687575965, 35.0975491148]}, "type": "Feature", "properties": {"collection_times": [{"days": "Mon-Sat", "time": "11:00am"}, {"days": "Sun", "time": "Closed"}], "id": "2830300129", "name": "USPS COLLECTION BOX - BLUE BOX", "address": {"city": "FAYETTEVILLE", "state": "NC", "street": "KNOX ST", "postcode": "28303"}}},
{"geometry": {"type": "Point", "coordinates": [-78.9552382355, 35.0806525991]}, "type": "Feature", "properties": {"collection_times": [{"days": "Mon-Sat", "time": "11:00am"}, {"days": "Sun", "time": "Closed"}], "id": "2830300130", "name": "USPS COLLECTION BOX - BLUE BOX", "address": {"city": "FAYETTEVILLE", "state": "NC", "street": "GRUBER", "postcode": "28303"}}},
{"geometry": {"type": "Point", "coordinates": [-78.9552382355, 35.0806525991]}, "type": "Feature", "properties": {"collection_times": [{"days": "Mon-Sat", "time": "11:00am"}, {"days": "Sun", "time": "Closed"}], "id": "2830300132", "name": "USPS COLLECTION BOX - BLUE BOX", "address": {"city": "FAYETTEVILLE", "state": "NC", "street": "ARMISTEAD", "postcode": "28303"}}},
{"geometry": {"type": "Point", "coordinates": [-78.9552382355, 35.0806525991]}, "type": "Feature", "properties": {"collection_times": [{"days": "Mon-Sat", "time": "11:00am"}, {"days": "Sun", "time": "Closed"}], "id": "2830300133", "name": "USPS COLLECTION BOX - BLUE BOX", "address": {"city": "FAYETTEVILLE", "state": "NC", "street": "WOMACK ARMY HOSPITAL", "postcode": "28303"}}},
{"geometry": {"type": "Point", "coordinates": [-79.0197591237, 35.1269758825]}, "type": "Feature", "properties": {"collection_times": [{"days": "Mon-Sat", "time": "11:00am"}, {"days": "Sun", "time": "Closed"}], "id": "2830300134", "name": "USPS COLLECTION BOX - BLUE BOX", "address": {"city": "FAYETTEVILLE", "state": "NC", "street": "ARDENNES  ST", "postcode": "28303"}}},
{"geometry": {"type": "Point", "coordinates": [-78.9100732945, 35.0569120468]}, "type": "Feature", "properties": {"collection_times": [{"days": "Mon-Sat", "time": "11:00am"}, {"days": "Sun", "time": "Closed"}], "id": "2830300135", "name": "USPS COLLECTION BOX - BLUE BOX", "address": {"city": "FAYETTEVILLE", "state": "NC", "street": "1017 CANOPY LN", "postcode": "28303"}}},
{"geometry": {"type": "Point", "coordinates": [-78.9552382355, 35.0806525991]}, "type": "Feature", "properties": {"collection_times": [{"days": "Mon-Fri", "time": "5:00pm"}, {"days": "Sat", "time": "1:00pm"}, {"days": "Sun", "time": "Closed"}], "id": "2830300136", "name": "USPS COLLECTION BOX - BLUE BOX", "address": {"city": "FAYETTEVILLE", "state": "NC", "street": "RIELLY  RD", "postcode": "28303"}}},
{"geometry": {"type": "Point", "coordinates": [-78.9687575965, 35.0975491148]}, "type": "Feature", "properties": {"collection_times": [{"days": "Mon-Sat", "time": "11:00am"}, {"days": "Sun", "time": "Closed"}], "id": "2830300137", "name": "USPS COLLECTION BOX - BLUE BOX", "address": {"city": "FAYETTEVILLE", "state": "NC", "street": "@ NORMANDY DR", "postcode": "28303"}}},
{"geometry": {"type": "Point", "coordinates": [-78.8772830941, 35.0968336182]}, "type": "Feature", "properties": {"collection_times": [{"days": "Mon-Fri", "time": "5:00pm"}, {"days": "Sat", "time": "1:00pm"}, {"days": "Sun", "time": "Closed"}], "id": "2830300138", "name": "USPS COLLECTION BOX - BLUE BOX", "address": {"city": "FAYETTEVILLE", "state": "NC", "street": "2812 RAMSEY ST", "postcode": "28303"}}},
{"geometry": {"type": "Point", "coordinates": [-78.9552382355, 35.0806525991]}, "type": "Feature", "properties": {"collection_times": [{"days": "Mon-Sat", "time": "1:00pm"}, {"days": "Sun", "time": "Closed"}], "id": "2830300141", "name": "USPS COLLECTION BOX - EXPRESS", "address": {"city": "FAYETTEVILLE", "state": "NC", "street": "@ OWEN", "postcode": "28303"}}},
{"geometry": {"type": "Point", "coordinates": [-78.9552382355, 35.0806525991]}, "type": "Feature", "properties": {"collection_times": [{"days": "Mon-Sat", "time": "5:00pm"}, {"days": "Sun", "time": "Closed"}], "id": "2830300142", "name": "USPS COLLECTION BOX - PO LOBBY", "address": {"city": "FAYETTEVILLE", "state": "NC", "street": "816 ELM ST", "postcode": "28303"}}},
{"geometry": {"type": "Point", "coordinates": [-78.9697896589, 35.0301114951]}, "type": "Feature", "properties": {"collection_times": [{"days": "Mon-Fri", "time": "5:00pm"}, {"days": "Sat", "time": "4:00pm"}, {"days": "Sun", "time": "Closed"}], "id": "2830400000", "name": "USPS COLLECTION BOX - BLUE BOX", "address": {"city": "FAYETTEVILLE", "state": "NC", "street": "907 BRIGHTON RD", "postcode": "28304"}}},
{"geometry": {"type": "Point", "coordinates": [-78.9697896589, 35.0301114951]}, "type": "Feature", "properties": {"collection_times": [{"days": "Mon-Fri", "time": "5:00pm"}, {"days": "Sat", "time": "4:00pm"}, {"days": "Sun", "time": "Closed"}], "id": "2830400001", "name": "USPS COLLECTION BOX - BLUE BOX", "address": {"city": "FAYETTEVILLE", "state": "NC", "street": "907 BRIGHTON RD", "postcode": "28304"}}},
{"geometry": {"type": "Point", "coordinates": [-78.9697896589, 35.0301114951]}, "type": "Feature", "properties": {"collection_times": [{"days": "Mon-Fri", "time": "5:00pm"}, {"days": "Sat", "time": "4:00pm"}, {"days": "Sun", "time": "Closed"}], "id": "2830400002", "name": "USPS COLLECTION BOX - BLUE BOX", "address": {"city": "FAYETTEVILLE", "state": "NC", "street": "907 BRIGHTON RD", "postcode": "28304"}}},
{"geometry": {"type": "Point", "coordinates": [-78.9697896589, 35.0301114951]}, "type": "Feature", "properties": {"collection_times": [{"days": "Mon-Fri", "time": "5:00pm"}, {"days": "Sat", "time": "4:00pm"}, {"days": "Sun", "time": "Closed"}], "id": "2830400003", "name": "USPS COLLECTION BOX - BLUE BOX", "address": {"city": "FAYETTEVILLE", "state": "NC", "street": "907 BRIGHTON RD", "postcode": "28304"}}},
{"geometry": {"type": "Point", "coordinates": [-78.9697896589, 35.0301114951]}, "type": "Feature", "properties": {"collection_times": [{"days": "Mon-Fri", "time": "5:00pm"}, {"days": "Sat", "time": "4:00pm"}, {"days": "Sun", "time": "Closed"}], "id": "2830400004", "name": "USPS COLLECTION BOX - BLUE BOX", "address": {"city": "FAYETTEVILLE", "state": "NC", "street": "907 BRIGHTON RD", "postcode": "28304"}}},
{"geometry": {"type": "Point", "coordinates": [-78.9697896589, 35.0301114951]}, "type": "Feature", "properties": {"collection_times": [{"days": "Mon-Fri", "time": "5:00pm"}, {"days": "Sat", "time": "4:00pm"}, {"days": "Sun", "time": "Closed"}], "id": "2830400005", "name": "USPS COLLECTION BOX - BLUE BOX", "address": {"city": "FAYETTEVILLE", "state": "NC", "street": "907 BRIGHTON RD", "postcode": "28304"}}},
{"geometry": {"type": "Point", "coordinates": [-78.9697896589, 35.0301114951]}, "type": "Feature", "properties": {"collection_times": [{"days": "Mon-Fri", "time": "5:00pm"}, {"days": "Sat", "time": "1:00pm"}, {"days": "Sun", "time": "Closed"}], "id": "2830400007", "name": "USPS COLLECTION BOX - PO LOBBY", "address": {"city": "FAYETTEVILLE", "state": "NC", "street": "907 BRIGHTON RD", "postcode": "28304"}}},
{"geometry": {"type": "Point", "coordinates": [-78.9697896589, 35.0301114951]}, "type": "Feature", "properties": {"collection_times": [{"days": "Mon-Fri", "time": "4:00pm"}, {"days": "Sat", "time": "2:30pm"}, {"days": "Sun", "time": "Closed"}], "id": "2830400009", "name": "USPS COLLECTION BOX - PO LOBBY", "address": {"city": "FAYETTEVILLE", "state": "NC", "street": "2800 RAEFORD RD", "postcode": "28304"}}},
{"geometry": {"type": "Point", "coordinates": [-78.9697896589, 35.0301114951]}, "type": "Feature", "properties": {"collection_times": [{"days": "Mon-Fri", "time": "5:00pm"}, {"days": "Sat", "time": "1:00pm"}, {"days": "Sun", "time": "Closed"}], "id": "2830400010", "name": "USPS COLLECTION BOX - PO LOBBY", "address": {"city": "FAYETTEVILLE", "state": "NC", "street": "907 BRIGHTON RD", "postcode": "28304"}}},
{"geometry": {"type": "Point", "coordinates": [-78.8992565569, 35.0572577261]}, "type": "Feature", "properties": {"collection_times": [{"days": "Mon-Fri", "time": "4:30pm"}, {"days": "Sat", "time": "4:00pm"}, {"days": "Sun", "time": "Closed"}], "id": "2830500003", "name": "USPS COLLECTION BOX - BLUE BOX", "address": {"city": "FAYETTEVILLE", "state": "NC", "street": "106 OAKRIDGE AVE", "postcode": "28305"}}},
{"geometry": {"type": "Point", "coordinates": [-78.8992565569, 35.0572577261]}, "type": "Feature", "properties": {"collection_times": [{"days": "Mon-Fri", "time": "4:30pm"}, {"days": "Sat", "time": "4:00pm"}, {"days": "Sun", "time": "Closed"}], "id": "2830500004", "name": "USPS COLLECTION BOX - BLUE BOX", "address": {"city": "FAYETTEVILLE", "state": "NC", "street": "106 OAKRIDGE AVE", "postcode": "28305"}}},
{"geometry": {"type": "Point", "coordinates": [-78.8992565569, 35.0572577261]}, "type": "Feature", "properties": {"collection_times": [{"days": "Mon-Fri", "time": "4:30pm"}, {"days": "Sat", "time": "4:00pm"}, {"days": "Sun", "time": "Closed"}], "id": "2830500009", "name": "USPS COLLECTION BOX - BLUE BOX", "address": {"city": "FAYETTEVILLE", "state": "NC", "street": "106 OAKRIDGE AVE", "postcode": "28305"}}},
{"geometry": {"type": "Point", "coordinates": [-78.9058268329, 35.0547216062]}, "type": "Feature", "properties": {"collection_times": [{"days": "Mon-Fri", "time": "4:30pm"}, {"days": "Sat", "time": "1:00pm"}, {"days": "Sun", "time": "Closed"}], "id": "2830500017", "name": "USPS COLLECTION BOX - PO LOBBY", "address": {"city": "FAYETTEVILLE", "state": "NC", "street": "106 OAKRIDGE AVE", "postcode": "28305"}}},
{"geometry": {"type": "Point", "coordinates": [-78.8992565569, 35.0572577261]}, "type": "Feature", "properties": {"collection_times": [{"days": "Mon-Fri", "time": "4:30pm"}, {"days": "Sat", "time": "1:00pm"}, {"days": "Sun", "time": "Closed"}], "id": "2830500018", "name": "USPS COLLECTION BOX - PO LOBBY", "address": {"city": "FAYETTEVILLE", "state": "NC", "street": "106 OAKRIDGE AVE", "postcode": "28305"}}},
{"geometry": {"type": "Point", "coordinates": [-78.8992565569, 35.0572577261]}, "type": "Feature", "properties": {"collection_times": [{"days": "Mon-Fri", "time": "4:30pm"}, {"days": "Sat", "time": "4:00pm"}, {"days": "Sun", "time": "Closed"}], "id": "2830500019", "name": "USPS COLLECTION BOX - BLUE BOX", "address": {"city": "FAYETTEVILLE", "state": "NC", "street": "106 OAKRIDGE AVE", "postcode": "28305"}}},
{"geometry": {"type": "Point", "coordinates": [-78.8992565569, 35.0572577261]}, "type": "Feature", "properties": {"collection_times": [{"days": "Mon-Fri", "time": "4:30pm"}, {"days": "Sat", "time": "4:00pm"}, {"days": "Sun", "time": "Closed"}], "id": "2830500020", "name": "USPS COLLECTION BOX - BLUE BOX", "address": {"city": "FAYETTEVILLE", "state": "NC", "street": "106 OAKRIDGE AVE", "postcode": "28305"}}},
{"geometry": {"type": "Point", "coordinates": [-78.8958376653, 34.9625901096]}, "type": "Feature", "properties": {"collection_times": [{"days": "Mon-Fri", "time": "5:00pm"}, {"days": "Sat", "time": "1:00pm"}, {"days": "Sun", "time": "Closed"}], "id": "2830600012", "name": "USPS COLLECTION BOX - PO LOBBY", "address": {"city": "FAYETTEVILLE", "state": "NC", "street": "2503 SOUTHERN AVE", "postcode": "28306"}}},
{"geometry": {"type": "Point", "coordinates": [-79.0308210777, 35.0383880811]}, "type": "Feature", "properties": {"collection_times": [{"days": "Mon-Fri", "time": "5:00pm"}, {"days": "Sat", "time": "1:00pm"}, {"days": "Sun", "time": "Closed"}], "id": "2830700022", "name": "USPS COLLECTION BOX - PO LOBBY", "address": {"city": "FAYETTEVILLE", "state": "NC", "street": "1605 REILLY RD", "postcode": "28307"}}},
{"geometry": {"type": "Point", "coordinates": [-79.0308210777, 35.0383880811]}, "type": "Feature", "properties": {"collection_times": [{"days": "Mon-Fri", "time": "5:00pm"}, {"days": "Sat", "time": "1:00pm"}, {"days": "Sun", "time": "Closed"}], "id": "2830700024", "name": "USPS COLLECTION BOX - APC", "address": {"city": "FAYETTEVILLE", "state": "NC", "street": "1605 REILLY RD", "postcode": "28307"}}},
{"geometry": {"type": "Point", "coordinates": [-78.9917213614, 35.0583152914]}, "type": "Feature", "properties": {"collection_times": [{"days": "Mon-Fri", "time": "5:00pm"}, {"days": "Sat", "time": "4:00pm"}, {"days": "Sun", "time": "Closed"}], "id": "2831400035", "name": "USPS COLLECTION BOX - BLUE BOX", "address": {"city": "FAYETTEVILLE", "state": "NC", "street": "6380 CLIFFDALE RD", "postcode": "28314"}}},
{"geometry": {"type": "Point", "coordinates": [-78.9917213614, 35.0583152914]}, "type": "Feature", "properties": {"collection_times": [{"days": "Mon-Fri", "time": "5:00pm"}, {"days": "Sat", "time": "4:00pm"}, {"days": "Sun", "time": "Closed"}], "id": "2831400036", "name": "USPS COLLECTION BOX - BLUE BOX", "address": {"city": "FAYETTEVILLE", "state": "NC", "street": "6380 CLIFFDALE RD", "postcode": "28314"}}},
{"geometry": {"type": "Point", "coordinates": [-78.9917213614, 35.0583152914]}, "type": "Feature", "properties": {"collection_times": [{"days": "Mon-Fri", "time": "5:00pm"}, {"days": "Sat", "time": "4:00pm"}, {"days": "Sun", "time": "Closed"}], "id": "2831400037", "name": "USPS COLLECTION BOX - BLUE BOX", "address": {"city": "FAYETTEVILLE", "state": "NC", "street": "6380 CLIFFDALE RD", "postcode": "28314"}}},
{"geometry": {"type": "Point", "coordinates": [-79.008599248, 35.059301242]}, "type": "Feature", "properties": {"collection_times": [{"days": "Mon-Fri", "time": "5:00pm"}, {"days": "Sat", "time": "4:00pm"}, {"days": "Sun", "time": "Closed"}], "id": "2831400046", "name": "USPS COLLECTION BOX - PO LOBBY", "address": {"city": "FAYETTEVILLE", "state": "NC", "street": "6380 CLIFFDALE RD", "postcode": "28314"}}},
{"geometry": {"type": "Point", "coordinates": [-78.9917213614, 35.0583152914]}, "type": "Feature", "properties": {"collection_times": [{"days": "Mon-Fri", "time": "5:00pm"}, {"days": "Sat", "time": "4:00pm"}, {"days": "Sun", "time": "Closed"}], "id": "2831400047", "name": "USPS COLLECTION BOX - PO LOBBY", "address": {"city": "FAYETTEVILLE", "state": "NC", "street": "6380 CLIFFDALE RD", "postcode": "28314"}}},
{"geometry": {"type": "Point", "coordinates": [-78.9917213614, 35.0583152914]}, "type": "Feature", "properties": {"collection_times": [{"days": "Mon-Fri", "time": "5:00pm"}, {"days": "Sat", "time": "4:00pm"}, {"days": "Sun", "time": "Closed"}], "id": "2831400048", "name": "USPS COLLECTION BOX - PO LOBBY", "address": {"city": "FAYETTEVILLE", "state": "NC", "street": "6380 CLIFFDALE RD", "postcode": "28314"}}},
{"geometry": {"type": "Point", "coordinates": [-78.9917213614, 35.0583152914]}, "type": "Feature", "properties": {"collection_times": [{"days": "Mon-Fri", "time": "5:00pm"}, {"days": "Sat", "time": "4:00pm"}, {"days": "Sun", "time": "Closed"}], "id": "2831400051", "name": "USPS COLLECTION BOX - APC", "address": {"city": "FAYETTEVILLE", "state": "NC", "street": "6380 CLIFFDALE RD", "postcode": "28314"}}},
{"geometry": {"type": "Point", "coordinates": [-79.4293565456, 35.120131319]}, "type": "Feature", "properties": {"collection_times": [{"days": "Mon-Fri", "time": "5:00pm"}, {"days": "Sat", "time": "12:00pm"}, {"days": "Sun", "time": "Closed"}], "id": "2831500001", "name": "USPS COLLECTION BOX - BLUE BOX", "address": {"city": "ABERDEEN", "state": "NC", "street": "111 S POPLAR ST", "postcode": "28315"}}},
{"geometry": {"type": "Point", "coordinates": [-79.4187510076, 35.1496349748]}, "type": "Feature", "properties": {"collection_times": [{"days": "Mon-Fri", "time": "10:00am"}, {"days": "Sat", "time": "9:00am"}, {"days": "Sun", "time": "Closed"}], "id": "2831500002", "name": "USPS COLLECTION BOX - BLUE BOX", "address": {"city": "ABERDEEN", "state": "NC", "street": "1317 N SANDHILLS BLVD", "postcode": "28315"}}},
{"geometry": {"type": "Point", "coordinates": [-79.4045450379, 35.0994529667]}, "type": "Feature", "properties": {"collection_times": [{"days": "Mon-Fri", "time": "10:00am"}, {"days": "Sat", "time": "9:00am"}, {"days": "Sun", "time": "Closed"}], "id": "2831500003", "name": "USPS COLLECTION BOX - BLUE BOX", "address": {"city": "ABERDEEN", "state": "NC", "street": "1800 CENTER PARK SHOPPING CTR", "postcode": "28315"}}},
{"geometry": {"type": "Point", "coordinates": [-79.4285681267, 35.1316963873]}, "type": "Feature", "properties": {"collection_times": [{"days": "Mon-Fri", "time": "5:00pm"}, {"days": "Sat", "time": "12:00pm"}, {"days": "Sun", "time": "Closed"}], "id": "2831500006", "name": "USPS COLLECTION BOX - PO LOBBY", "address": {"city": "ABERDEEN", "state": "NC", "street": "111 S POPLAR ST", "postcode": "28315"}}},
{"geometry": {"type": "Point", "coordinates": [-78.6415375631, 34.9978912059]}, "type": "Feature", "properties": {"collection_times": [{"days": "Mon-Fri", "time": "4:15pm"}, {"days": "Sat", "time": "11:15am"}, {"days": "Sun", "time": "Closed"}], "id": "2831800001", "name": "USPS COLLECTION BOX - BLUE BOX", "address": {"city": "AUTRYVILLE", "state": "NC", "street": "100 W WILLIAMS ST", "postcode": "28318"}}},
{"geometry": {"type": "Point", "coordinates": [-78.6415375631, 34.9978912059]}, "type": "Feature", "properties": {"collection_times": [{"days": "Mon-Fri", "time": "4:15pm"}, {"days": "Sat", "time": "11:15am"}, {"days": "Sun", "time": "Closed"}], "id": "2831800002", "name": "USPS COLLECTION BOX - PO LOBBY", "address": {"city": "AUTRYVILLE", "state": "NC", "street": "100 W WILLIAMS ST", "postcode": "28318"}}},
{"geometry": {"type": "Point", "coordinates": [-78.6415375631, 34.9978912059]}, "type": "Feature", "properties": {"collection_times": [{"days": "Mon-Fri", "time": "4:15pm"}, {"days": "Sat", "time": "11:15am"}, {"days": "Sun", "time": "Closed"}], "id": "2831800003", "name": "USPS COLLECTION BOX - PO LOBBY", "address": {"city": "AUTRYVILLE", "state": "NC", "street": "100 W WILLIAMS ST", "postcode": "28318"}}},
{"geometry": {"type": "Point", "coordinates": [-78.6415375631, 34.9978912059]}, "type": "Feature", "properties": {"collection_times": [{"days": "Mon-Fri", "time": "4:15pm"}, {"days": "Sat", "time": "11:15am"}, {"days": "Sun", "time": "Closed"}], "id": "2831800004", "name": "USPS COLLECTION BOX - PO LOBBY", "address": {"city": "AUTRYVILLE", "state": "NC", "street": "100 W WILLIAMS ST", "postcode": "28318"}}},
{"geometry": {"type": "Point", "coordinates": [-78.7858468337, 34.5385812282]}, "type": "Feature", "properties": {"collection_times": [{"days": "Mon-Fri", "time": "4:30pm"}, {"days": "Sat", "time": "11:30am"}, {"days": "Sun", "time": "Closed"}], "id": "2832000003", "name": "USPS COLLECTION BOX - BLUE BOX", "address": {"city": "BLADENBORO", "state": "NC", "street": "223 MARTIN LUTHER KING JR DR", "postcode": "28320"}}},
{"geometry": {"type": "Point", "coordinates": [-78.7721394209, 34.5594282121]}, "type": "Feature", "properties": {"collection_times": [{"days": "Mon-Fri", "time": "4:30pm"}, {"days": "Sat", "time": "11:30am"}, {"days": "Sun", "time": "Closed"}], "id": "2832000004", "name": "USPS COLLECTION BOX - PO LOBBY", "address": {"city": "BLADENBORO", "state": "NC", "street": "223 MARTIN LUTHER KING JR DR", "postcode": "28320"}}},
{"geometry": {"type": "Point", "coordinates": [-78.7814578149, 35.3079572194]}, "type": "Feature", "properties": {"collection_times": [{"days": "Mon-Fri", "time": "4:15pm"}, {"days": "Sat", "time": "11:45am"}, {"days": "Sun", "time": "Closed"}], "id": "2832300001", "name": "USPS COLLECTION BOX - BLUE BOX", "address": {"city": "BUNNLEVEL", "state": "NC", "street": "6904 US HIGHWAY 401 S", "postcode": "28323"}}},
{"geometry": {"type": "Point", "coordinates": [-78.7814578149, 35.3079572194]}, "type": "Feature", "properties": {"collection_times": [{"days": "Mon-Fri", "time": "4:15pm"}, {"days": "Sat", "time": "11:45am"}, {"days": "Sun", "time": "Closed"}], "id": "2832300003", "name": "USPS COLLECTION BOX - PO LOBBY", "address": {"city": "BUNNLEVEL", "state": "NC", "street": "6904 US HIGHWAY 401 S", "postcode": "28323"}}},
{"geometry": {"type": "Point", "coordinates": [-78.1057914147, 35.1539360951]}, "type": "Feature", "properties": {"collection_times": [{"days": "Mon-Fri", "time": "4:45pm"}, {"days": "Sat", "time": "9:00am"}, {"days": "Sun", "time": "Closed"}], "id": "2832500001", "name": "USPS COLLECTION BOX - BLUE BOX", "address": {"city": "CALYPSO", "state": "NC", "street": "108 W TRADE ST", "postcode": "28325"}}},
{"geometry": {"type": "Point", "coordinates": [-78.1057914147, 35.1539360951]}, "type": "Feature", "properties": {"collection_times": [{"days": "Mon-Fri", "time": "4:45pm"}, {"days": "Sat", "time": "9:00am"}, {"days": "Sun", "time": "Closed"}], "id": "2832500002", "name": "USPS COLLECTION BOX - PO LOBBY", "address": {"city": "CALYPSO", "state": "NC", "street": "108 W TRADE ST", "postcode": "28325"}}},
{"geometry": {"type": "Point", "coordinates": [-78.1057914147, 35.1539360951]}, "type": "Feature", "properties": {"collection_times": [{"days": "Mon-Fri", "time": "4:45pm"}, {"days": "Sat", "time": "9:00am"}, {"days": "Sun", "time": "Closed"}], "id": "2832500003", "name": "USPS COLLECTION BOX - PO LOBBY", "address": {"city": "CALYPSO", "state": "NC", "street": "108 W TRADE ST", "postcode": "28325"}}},
{"geometry": {"type": "Point", "coordinates": [-79.2584689411, 35.3269478427]}, "type": "Feature", "properties": {"collection_times": [{"days": "Mon-Fri", "time": "4:45pm"}, {"days": "Sat", "time": "11:00am"}, {"days": "Sun", "time": "Closed"}], "id": "2832600001", "name": "USPS COLLECTION BOX - BLUE BOX", "address": {"city": "CAMERON", "state": "NC", "street": "450 CARTHAGE ST", "postcode": "28326"}}},
{"geometry": {"type": "Point", "coordinates": [-79.168164773, 35.2777074959]}, "type": "Feature", "properties": {"collection_times": [{"days": "Mon-Fri", "time": "10:30am"}, {"days": "Sat-Sun", "time": "Closed"}], "id": "2832600002", "name": "USPS COLLECTION BOX - BLUE BOX", "address": {"city": "CAMERON", "state": "NC", "street": "133 MITTIE HADDOCK DR", "postcode": "28326"}}},
{"geometry": {"type": "Point", "coordinates": [-79.1696077718, 35.2900818642]}, "type": "Feature", "properties": {"collection_times": [{"days": "Mon-Fri", "time": "1:30pm"}, {"days": "Sat-Sun", "time": "Closed"}], "id": "2832600003", "name": "USPS COLLECTION BOX - BLUE BOX", "address": {"city": "CAMERON", "state": "NC", "street": "247 CARTER ST", "postcode": "28326"}}},
{"geometry": {"type": "Point", "coordinates": [-79.1696077718, 35.2900818642]}, "type": "Feature", "properties": {"collection_times": [{"days": "Mon-Fri", "time": "4:45pm"}, {"days": "Sat", "time": "11:00am"}, {"days": "Sun", "time": "Closed"}], "id": "2832600004", "name": "USPS COLLECTION BOX - PO LOBBY", "address": {"city": "CAMERON", "state": "NC", "street": "450 CARTHAGE ST", "postcode": "28326"}}},
{"geometry": {"type": "Point", "coordinates": [-79.2584689411, 35.3269478427]}, "type": "Feature", "properties": {"collection_times": [{"days": "Mon-Fri", "time": "4:45pm"}, {"days": "Sat", "time": "11:00am"}, {"days": "Sun", "time": "Closed"}], "id": "2832600005", "name": "USPS COLLECTION BOX - PO LOBBY", "address": {"city": "CAMERON", "state": "NC", "street": "450 CARTHAGE ST", "postcode": "28326"}}},
{"geometry": {"type": "Point", "coordinates": [-79.4173464482, 35.3473109836]}, "type": "Feature", "properties": {"collection_times": [{"days": "Mon-Fri", "time": "4:30pm"}, {"days": "Sat", "time": "12:15pm"}, {"days": "Sun", "time": "Closed"}], "id": "2832700002", "name": "USPS COLLECTION BOX - BLUE BOX", "address": {"city": "CARTHAGE", "state": "NC", "street": "105 S RAY ST", "postcode": "28327"}}},
{"geometry": {"type": "Point", "coordinates": [-79.4173464482, 35.3473109836]}, "type": "Feature", "properties": {"collection_times": [{"days": "Mon-Fri", "time": "4:30pm"}, {"days": "Sat", "time": "12:15pm"}, {"days": "Sun", "time": "Closed"}], "id": "2832700003", "name": "USPS COLLECTION BOX - PO LOBBY", "address": {"city": "CARTHAGE", "state": "NC", "street": "105 S RAY ST", "postcode": "28327"}}},
{"geometry": {"type": "Point", "coordinates": [-79.4173464482, 35.3473109836]}, "type": "Feature", "properties": {"collection_times": [{"days": "Mon-Fri", "time": "4:30pm"}, {"days": "Sat", "time": "12:15pm"}, {"days": "Sun", "time": "Closed"}], "id": "2832700004", "name": "USPS COLLECTION BOX - PO LOBBY", "address": {"city": "CARTHAGE", "state": "NC", "street": "105 S RAY ST", "postcode": "28327"}}},
{"geometry": {"type": "Point", "coordinates": [-78.3236919679, 35.0077581872]}, "type": "Feature", "properties": {"collection_times": [{"days": "Mon-Sat", "time": "12:30pm"}, {"days": "Sun", "time": "Closed"}], "id": "2832800004", "name": "USPS COLLECTION BOX - BLUE BOX", "address": {"city": "CLINTON", "state": "NC", "street": "607 BEAMAN ST", "postcode": "28328"}}},
{"geometry": {"type": "Point", "coordinates": [-78.3361459657, 35.0027060321]}, "type": "Feature", "properties": {"collection_times": [{"days": "Mon-Sat", "time": "3:00pm"}, {"days": "Sun", "time": "Closed"}], "id": "2832800014", "name": "USPS COLLECTION BOX - BLUE BOX", "address": {"city": "CLINTON", "state": "NC", "street": "@ NORTHEAST BLV", "postcode": "28328"}}},
{"geometry": {"type": "Point", "coordinates": [-78.3316864962, 35.0085819928]}, "type": "Feature", "properties": {"collection_times": [{"days": "Mon-Fri", "time": "1:00pm"}, {"days": "Sat-Sun", "time": "Closed"}], "id": "2832800016", "name": "USPS COLLECTION BOX - BLUE BOX", "address": {"city": "CLINTON", "state": "NC", "street": "360 COUNTY COMPLEX RD", "postcode": "28328"}}},
{"geometry": {"type": "Point", "coordinates": [-78.3361459657, 35.0027060321]}, "type": "Feature", "properties": {"collection_times": [{"days": "Mon-Fri", "time": "1:00pm"}, {"days": "Sat-Sun", "time": "Closed"}], "id": "2832800023", "name": "USPS COLLECTION BOX - BLUE BOX", "address": {"city": "CLINTON", "state": "NC", "street": "200 LISBON ST", "postcode": "28328"}}},
{"geometry": {"type": "Point", "coordinates": [-78.316213032, 35.0091239204]}, "type": "Feature", "properties": {"collection_times": [{"days": "Mon-Sat", "time": "3:00pm"}, {"days": "Sun", "time": "Closed"}], "id": "2832800025", "name": "USPS COLLECTION BOX - BLUE BOX", "address": {"city": "CLINTON", "state": "NC", "street": "300 NORTHEAST BLVD", "postcode": "28328"}}},
{"geometry": {"type": "Point", "coordinates": [-78.3071250919, 34.9821572879]}, "type": "Feature", "properties": {"collection_times": [{"days": "Mon-Fri", "time": "12:30pm"}, {"days": "Sat-Sun", "time": "Closed"}], "id": "2832800035", "name": "USPS COLLECTION BOX - BLUE BOX", "address": {"city": "CLINTON", "state": "NC", "street": "120 SOUTHWOOD DR", "postcode": "28328"}}},
{"geometry": {"type": "Point", "coordinates": [-78.3399204564, 34.994041782]}, "type": "Feature", "properties": {"collection_times": [{"days": "Mon-Fri", "time": "5:00pm"}, {"days": "Sat", "time": "3:15pm"}, {"days": "Sun", "time": "Closed"}], "id": "2832800036", "name": "USPS COLLECTION BOX - BLUE BOX", "address": {"city": "CLINTON", "state": "NC", "street": "1011 SUNSET AVE", "postcode": "28328"}}},
{"geometry": {"type": "Point", "coordinates": [-78.3399204564, 34.994041782]}, "type": "Feature", "properties": {"collection_times": [{"days": "Mon-Fri", "time": "5:00pm"}, {"days": "Sat", "time": "3:15pm"}, {"days": "Sun", "time": "Closed"}], "id": "2832800037", "name": "USPS COLLECTION BOX - BLUE BOX", "address": {"city": "CLINTON", "state": "NC", "street": "1011 SUNSET AVE", "postcode": "28328"}}},
{"geometry": {"type": "Point", "coordinates": [-78.3399204564, 34.994041782]}, "type": "Feature", "properties": {"collection_times": [{"days": "Mon-Fri", "time": "5:00pm"}, {"days": "Sat", "time": "3:15pm"}, {"days": "Sun", "time": "Closed"}], "id": "2832800042", "name": "USPS COLLECTION BOX - PO LOBBY", "address": {"city": "CLINTON", "state": "NC", "street": "1011 SUNSET AVE", "postcode": "28328"}}},
{"geometry": {"type": "Point", "coordinates": [-78.3399204564, 34.994041782]}, "type": "Feature", "properties": {"collection_times": [{"days": "Mon-Fri", "time": "5:00pm"}, {"days": "Sat", "time": "3:15pm"}, {"days": "Sun", "time": "Closed"}], "id": "2832800043", "name": "USPS COLLECTION BOX - PO LOBBY", "address": {"city": "CLINTON", "state": "NC", "street": "1011 SUNSET AVE", "postcode": "28328"}}},
{"geometry": {"type": "Point", "coordinates": [-78.3399204564, 34.994041782]}, "type": "Feature", "properties": {"collection_times": [{"days": "Mon-Fri", "time": "5:00pm"}, {"days": "Sat", "time": "3:15pm"}, {"days": "Sun", "time": "Closed"}], "id": "2832800044", "name": "USPS COLLECTION BOX - PO LOBBY", "address": {"city": "CLINTON", "state": "NC", "street": "1011 SUNSET AVE", "postcode": "28328"}}},
{"geometry": {"type": "Point", "coordinates": [-79.8235443746, 34.914927627]}, "type": "Feature", "properties": {"collection_times": [{"days": "Mon-Fri", "time": "4:00pm"}, {"days": "Sat", "time": "9:30am"}, {"days": "Sun", "time": "Closed"}], "id": "2833000001", "name": "USPS COLLECTION BOX - BLUE BOX", "address": {"city": "CORDOVA", "state": "NC", "street": "232 LEDBETTER ST", "postcode": "28330"}}},
{"geometry": {"type": "Point", "coordinates": [-79.8235443746, 34.914927627]}, "type": "Feature", "properties": {"collection_times": [{"days": "Mon-Fri", "time": "4:00pm"}, {"days": "Sat", "time": "9:30am"}, {"days": "Sun", "time": "Closed"}], "id": "2833000002", "name": "USPS COLLECTION BOX - PO LOBBY", "address": {"city": "CORDOVA", "state": "NC", "street": "232 LEDBETTER ST", "postcode": "28330"}}},
{"geometry": {"type": "Point", "coordinates": [-79.8235443746, 34.914927627]}, "type": "Feature", "properties": {"collection_times": [{"days": "Mon-Fri", "time": "4:00pm"}, {"days": "Sat", "time": "9:30am"}, {"days": "Sun", "time": "Closed"}], "id": "2833000003", "name": "USPS COLLECTION BOX - PO LOBBY", "address": {"city": "CORDOVA", "state": "NC", "street": "232 LEDBETTER ST", "postcode": "28330"}}},
{"geometry": {"type": "Point", "coordinates": [-78.962224827, 35.007391781]}, "type": "Feature", "properties": {"collection_times": [{"days": "Mon-Fri", "time": "4:30pm"}, {"days": "Sat", "time": "12:00pm"}, {"days": "Sun", "time": "Closed"}], "id": "2833100001", "name": "USPS COLLECTION BOX - BLUE BOX", "address": {"city": "CUMBERLAND", "state": "NC", "street": "2304 WINGATE RD", "postcode": "28331"}}},
{"geometry": {"type": "Point", "coordinates": [-78.9631070404, 35.0092815387]}, "type": "Feature", "properties": {"collection_times": [{"days": "Mon-Fri", "time": "4:30pm"}, {"days": "Sat", "time": "12:00pm"}, {"days": "Sun", "time": "Closed"}], "id": "2833100002", "name": "USPS COLLECTION BOX - PO LOBBY", "address": {"city": "CUMBERLAND", "state": "NC", "street": "2304 WINGATE RD", "postcode": "28331"}}},
{"geometry": {"type": "Point", "coordinates": [-78.962224827, 35.007391781]}, "type": "Feature", "properties": {"collection_times": [{"days": "Mon-Fri", "time": "4:30pm"}, {"days": "Sat", "time": "12:00pm"}, {"days": "Sun", "time": "Closed"}], "id": "2833100003", "name": "USPS COLLECTION BOX - PO LOBBY", "address": {"city": "CUMBERLAND", "state": "NC", "street": "2304 WINGATE RD", "postcode": "28331"}}},
{"geometry": {"type": "Point", "coordinates": [-78.7271737305, 34.6573643559]}, "type": "Feature", "properties": {"collection_times": [{"days": "Mon-Fri", "time": "4:30pm"}, {"days": "Sat", "time": "11:00am"}, {"days": "Sun", "time": "Closed"}], "id": "2833200001", "name": "USPS COLLECTION BOX - BLUE BOX", "address": {"city": "DUBLIN", "state": "NC", "street": "86 3RD ST", "postcode": "28332"}}},
{"geometry": {"type": "Point", "coordinates": [-78.7267257062, 34.6578010088]}, "type": "Feature", "properties": {"collection_times": [{"days": "Mon-Fri", "time": "4:30pm"}, {"days": "Sat", "time": "11:00am"}, {"days": "Sun", "time": "Closed"}], "id": "2833200002", "name": "USPS COLLECTION BOX - PO LOBBY", "address": {"city": "DUBLIN", "state": "NC", "street": "86 3RD ST", "postcode": "28332"}}},
{"geometry": {"type": "Point", "coordinates": [-78.7271737305, 34.6573643559]}, "type": "Feature", "properties": {"collection_times": [{"days": "Mon-Fri", "time": "4:30pm"}, {"days": "Sat", "time": "11:00am"}, {"days": "Sun", "time": "Closed"}], "id": "2833200003", "name": "USPS COLLECTION BOX - PO LOBBY", "address": {"city": "DUBLIN", "state": "NC", "street": "86 3RD ST", "postcode": "28332"}}},
{"geometry": {"type": "Point", "coordinates": [-78.0208882527, 35.2886740824]}, "type": "Feature", "properties": {"collection_times": [{"days": "Mon-Fri", "time": "4:45pm"}, {"days": "Sat", "time": "12:30pm"}, {"days": "Sun", "time": "Closed"}], "id": "2833300001", "name": "USPS COLLECTION BOX - BLUE BOX", "address": {"city": "DUDLEY", "state": "NC", "street": "4219 US 117 ALT", "postcode": "28333"}}},
{"geometry": {"type": "Point", "coordinates": [-78.0208882527, 35.2886740824]}, "type": "Feature", "properties": {"collection_times": [{"days": "Mon-Fri", "time": "4:45pm"}, {"days": "Sat", "time": "12:30pm"}, {"days": "Sun", "time": "Closed"}], "id": "2833300002", "name": "USPS COLLECTION BOX - PO LOBBY", "address": {"city": "DUDLEY", "state": "NC", "street": "4219 US 117 ALT", "postcode": "28333"}}},
{"geometry": {"type": "Point", "coordinates": [-78.0208882527, 35.2886740824]}, "type": "Feature", "properties": {"collection_times": [{"days": "Mon-Fri", "time": "4:45pm"}, {"days": "Sat", "time": "12:30pm"}, {"days": "Sun", "time": "Closed"}], "id": "2833300003", "name": "USPS COLLECTION BOX - PO LOBBY", "address": {"city": "DUDLEY", "state": "NC", "street": "4219 US 117 ALT", "postcode": "28333"}}},
{"geometry": {"type": "Point", "coordinates": [-78.6097132955, 35.3091978897]}, "type": "Feature", "properties": {"collection_times": [{"days": "Mon-Fri", "time": "3:00pm"}, {"days": "Sat", "time": "12:00pm"}, {"days": "Sun", "time": "Closed"}], "id": "2833400002", "name": "USPS COLLECTION BOX - BLUE BOX", "address": {"city": "DUNN", "state": "NC", "street": "100 W EDGERTON ST", "postcode": "28334"}}},
{"geometry": {"type": "Point", "coordinates": [-78.6118613313, 35.3104605501]}, "type": "Feature", "properties": {"collection_times": [{"days": "Mon-Fri", "time": "3:00pm"}, {"days": "Sat", "time": "12:00pm"}, {"days": "Sun", "time": "Closed"}], "id": "2833400003", "name": "USPS COLLECTION BOX - BLUE BOX", "address": {"city": "DUNN", "state": "NC", "street": "306 W EDGERTON ST", "postcode": "28334"}}},
{"geometry": {"type": "Point", "coordinates": [-78.6155336942, 35.3112024782]}, "type": "Feature", "properties": {"collection_times": [{"days": "Mon-Fri", "time": "3:00pm"}, {"days": "Sat", "time": "12:00pm"}, {"days": "Sun", "time": "Closed"}], "id": "2833400004", "name": "USPS COLLECTION BOX - BLUE BOX", "address": {"city": "DUNN", "state": "NC", "street": "601 W BROAD ST", "postcode": "28334"}}},
{"geometry": {"type": "Point", "coordinates": [-78.6359781174, 35.3210506278]}, "type": "Feature", "properties": {"collection_times": [{"days": "Mon-Fri", "time": "3:00pm"}, {"days": "Sat", "time": "12:00pm"}, {"days": "Sun", "time": "Closed"}], "id": "2833400006", "name": "USPS COLLECTION BOX - BLUE BOX", "address": {"city": "DUNN", "state": "NC", "street": "2200 W CUMBERLAND ST", "postcode": "28334"}}},
{"geometry": {"type": "Point", "coordinates": [-78.6166212852, 35.2973210958]}, "type": "Feature", "properties": {"collection_times": [{"days": "Mon-Fri", "time": "5:00pm"}, {"days": "Sat", "time": "12:00pm"}, {"days": "Sun", "time": "Closed"}], "id": "2833400007", "name": "USPS COLLECTION BOX - BLUE BOX", "address": {"city": "DUNN", "state": "NC", "street": "1115 S CLINTON AVE", "postcode": "28334"}}},
{"geometry": {"type": "Point", "coordinates": [-78.587507385, 35.2995626662]}, "type": "Feature", "properties": {"collection_times": [{"days": "Mon-Fri", "time": "3:00pm"}, {"days": "Sat", "time": "12:00pm"}, {"days": "Sun", "time": "Closed"}], "id": "2833400008", "name": "USPS COLLECTION BOX - BLUE BOX", "address": {"city": "DUNN", "state": "NC", "street": "1004 W CUMBERLAND ST", "postcode": "28334"}}},
{"geometry": {"type": "Point", "coordinates": [-78.587507385, 35.2995626662]}, "type": "Feature", "properties": {"collection_times": [{"days": "Mon-Fri", "time": "5:00pm"}, {"days": "Sat", "time": "12:00pm"}, {"days": "Sun", "time": "Closed"}], "id": "2833400009", "name": "USPS COLLECTION BOX - BLUE BOX", "address": {"city": "DUNN", "state": "NC", "street": "1115 S CLINTON AVE", "postcode": "28334"}}},
{"geometry": {"type": "Point", "coordinates": [-78.6166212852, 35.2973210958]}, "type": "Feature", "properties": {"collection_times": [{"days": "Mon-Fri", "time": "5:00pm"}, {"days": "Sat", "time": "12:00pm"}, {"days": "Sun", "time": "Closed"}], "id": "2833400010", "name": "USPS COLLECTION BOX - PO LOBBY", "address": {"city": "DUNN", "state": "NC", "street": "1115 S CLINTON AVE", "postcode": "28334"}}},
{"geometry": {"type": "Point", "coordinates": [-78.6166212852, 35.2973210958]}, "type": "Feature", "properties": {"collection_times": [{"days": "Mon-Fri", "time": "5:00pm"}, {"days": "Sat", "time": "12:00pm"}, {"days": "Sun", "time": "Closed"}], "id": "2833400011", "name": "USPS COLLECTION BOX - PO LOBBY", "address": {"city": "DUNN", "state": "NC", "street": "1115 S CLINTON AVE", "postcode": "28334"}}},
{"geometry": {"type": "Point", "coordinates": [-78.6166212852, 35.2973210958]}, "type": "Feature", "properties": {"collection_times": [{"days": "Mon-Fri", "time": "5:00pm"}, {"days": "Sat", "time": "12:00pm"}, {"days": "Sun", "time": "Closed"}], "id": "2833400012", "name": "USPS COLLECTION BOX - PO LOBBY", "address": {"city": "DUNN", "state": "NC", "street": "1115 S CLINTON AVE", "postcode": "28334"}}},
{"geometry": {"type": "Point", "coordinates": [-78.4898469976, 34.6293427369]}, "type": "Feature", "properties": {"collection_times": [{"days": "Mon-Sat", "time": "10:30am"}, {"days": "Sun", "time": "Closed"}], "id": "2833700001", "name": "USPS COLLECTION BOX - BLUE BOX", "address": {"city": "ELIZABETHTOWN", "state": "NC", "street": "1879 WHITE LAKE DR", "postcode": "28337"}}},
{"geometry": {"type": "Point", "coordinates": [-78.6063606544, 34.6274211697]}, "type": "Feature", "properties": {"collection_times": [{"days": "Mon-Fri", "time": "5:00pm"}, {"days": "Sat", "time": "12:00pm"}, {"days": "Sun", "time": "Closed"}], "id": "2833700002", "name": "USPS COLLECTION BOX - BLUE BOX", "address": {"city": "ELIZABETHTOWN", "state": "NC", "street": "209 S POPLAR ST", "postcode": "28337"}}},
{"geometry": {"type": "Point", "coordinates": [-78.6063606544, 34.6274211697]}, "type": "Feature", "properties": {"collection_times": [{"days": "Mon-Fri", "time": "5:00pm"}, {"days": "Sat", "time": "12:00pm"}, {"days": "Sun", "time": "Closed"}], "id": "2833700003", "name": "USPS COLLECTION BOX - BLUE BOX", "address": {"city": "ELIZABETHTOWN", "state": "NC", "street": "209 S POPLAR ST", "postcode": "28337"}}},
{"geometry": {"type": "Point", "coordinates": [-78.606324388, 34.627414028]}, "type": "Feature", "properties": {"collection_times": [{"days": "Mon-Fri", "time": "5:00pm"}, {"days": "Sat", "time": "12:00pm"}, {"days": "Sun", "time": "Closed"}], "id": "2833700004", "name": "USPS COLLECTION BOX - BLUE BOX", "address": {"city": "ELIZABETHTOWN", "state": "NC", "street": "209 S POPLAR ST", "postcode": "28337"}}},
{"geometry": {"type": "Point", "coordinates": [-78.6063606544, 34.6274211697]}, "type": "Feature", "properties": {"collection_times": [{"days": "Mon-Fri", "time": "5:00pm"}, {"days": "Sat", "time": "12:00pm"}, {"days": "Sun", "time": "Closed"}], "id": "2833700005", "name": "USPS COLLECTION BOX - PO LOBBY", "address": {"city": "ELIZABETHTOWN", "state": "NC", "street": "209 S POPLAR ST", "postcode": "28337"}}},
{"geometry": {"type": "Point", "coordinates": [-78.6063606544, 34.6274211697]}, "type": "Feature", "properties": {"collection_times": [{"days": "Mon-Fri", "time": "5:00pm"}, {"days": "Sat", "time": "12:00pm"}, {"days": "Sun", "time": "Closed"}], "id": "2833700006", "name": "USPS COLLECTION BOX - PO LOBBY", "address": {"city": "ELIZABETHTOWN", "state": "NC", "street": "209 S POPLAR ST", "postcode": "28337"}}},
{"geometry": {"type": "Point", "coordinates": [-79.7625307872, 35.0734831101]}, "type": "Feature", "properties": {"collection_times": [{"days": "Mon-Fri", "time": "4:30pm"}, {"days": "Sat", "time": "11:30am"}, {"days": "Sun", "time": "Closed"}], "id": "2833800001", "name": "USPS COLLECTION BOX - BLUE BOX", "address": {"city": "ELLERBE", "state": "NC", "street": "268 2ND ST", "postcode": "28338"}}},
{"geometry": {"type": "Point", "coordinates": [-79.7625307872, 35.0734831101]}, "type": "Feature", "properties": {"collection_times": [{"days": "Mon-Fri", "time": "4:30pm"}, {"days": "Sat", "time": "11:30am"}, {"days": "Sun", "time": "Closed"}], "id": "2833800002", "name": "USPS COLLECTION BOX - PO LOBBY", "address": {"city": "ELLERBE", "state": "NC", "street": "268 2ND ST", "postcode": "28338"}}},
{"geometry": {"type": "Point", "coordinates": [-79.7470981078, 35.0868616119]}, "type": "Feature", "properties": {"collection_times": [{"days": "Mon-Sat", "time": "11:00am"}, {"days": "Sun", "time": "Closed"}], "id": "2833800004", "name": "USPS COLLECTION BOX - BLUE BOX", "address": {"city": "ELLERBE", "state": "NC", "street": "3642 N US HIGHWAY 220", "postcode": "28338"}}},
{"geometry": {"type": "Point", "coordinates": [-78.6760345331, 35.3259752141]}, "type": "Feature", "properties": {"collection_times": [{"days": "Mon-Fri", "time": "1:00pm"}, {"days": "Sat-Sun", "time": "Closed"}], "id": "2833900004", "name": "USPS COLLECTION BOX - BLUE BOX", "address": {"city": "ERWIN", "state": "NC", "street": "100 W F ST", "postcode": "28339"}}},
{"geometry": {"type": "Point", "coordinates": [-78.6759422989, 35.3216680436]}, "type": "Feature", "properties": {"collection_times": [{"days": "Mon-Fri", "time": "4:15pm"}, {"days": "Sat", "time": "10:45am"}, {"days": "Sun", "time": "Closed"}], "id": "2833900005", "name": "USPS COLLECTION BOX - BLUE BOX", "address": {"city": "ERWIN", "state": "NC", "street": "904 S 13TH ST", "postcode": "28339"}}},
{"geometry": {"type": "Point", "coordinates": [-78.7389143634, 35.2964519126]}, "type": "Feature", "properties": {"collection_times": [{"days": "Mon-Fri", "time": "11:00am"}, {"days": "Sat-Sun", "time": "Closed"}], "id": "2833900006", "name": "USPS COLLECTION BOX - BLUE BOX", "address": {"city": "ERWIN", "state": "NC", "street": "550 E JACKSON BLVD", "postcode": "28339"}}},
{"geometry": {"type": "Point", "coordinates": [-78.6759422989, 35.3216680436]}, "type": "Feature", "properties": {"collection_times": [{"days": "Mon-Fri", "time": "4:15pm"}, {"days": "Sat", "time": "10:45am"}, {"days": "Sun", "time": "Closed"}], "id": "2833900007", "name": "USPS COLLECTION BOX - PO LOBBY", "address": {"city": "ERWIN", "state": "NC", "street": "904 S 13TH ST", "postcode": "28339"}}},
{"geometry": {"type": "Point", "coordinates": [-78.6759422989, 35.3216680436]}, "type": "Feature", "properties": {"collection_times": [{"days": "Mon-Fri", "time": "4:15pm"}, {"days": "Sat", "time": "10:45am"}, {"days": "Sun", "time": "Closed"}], "id": "2833900008", "name": "USPS COLLECTION BOX - PO LOBBY", "address": {"city": "ERWIN", "state": "NC", "street": "904 S 13TH ST", "postcode": "28339"}}},
{"geometry": {"type": "Point", "coordinates": [-79.1121941714, 34.4963767615]}, "type": "Feature", "properties": {"collection_times": [{"days": "Mon-Fri", "time": "4:30pm"}, {"days": "Sat", "time": "12:00pm"}, {"days": "Sun", "time": "Closed"}], "id": "2834000001", "name": "USPS COLLECTION BOX - BLUE BOX", "address": {"city": "FAIRMONT", "state": "NC", "street": "100 N WALNUT ST", "postcode": "28340"}}},
{"geometry": {"type": "Point", "coordinates": [-79.1121941714, 34.4963767615]}, "type": "Feature", "properties": {"collection_times": [{"days": "Mon-Fri", "time": "4:30pm"}, {"days": "Sat", "time": "12:00pm"}, {"days": "Sun", "time": "Closed"}], "id": "2834000002", "name": "USPS COLLECTION BOX - PO LOBBY", "address": {"city": "FAIRMONT", "state": "NC", "street": "100 N WALNUT ST", "postcode": "28340"}}},
{"geometry": {"type": "Point", "coordinates": [-79.1121941714, 34.4963767615]}, "type": "Feature", "properties": {"collection_times": [{"days": "Mon-Fri", "time": "4:30pm"}, {"days": "Sat", "time": "12:00pm"}, {"days": "Sun", "time": "Closed"}], "id": "2834000003", "name": "USPS COLLECTION BOX - PO LOBBY", "address": {"city": "FAIRMONT", "state": "NC", "street": "100 N WALNUT ST", "postcode": "28340"}}},
{"geometry": {"type": "Point", "coordinates": [-78.1356147993, 35.1163683151]}, "type": "Feature", "properties": {"collection_times": [{"days": "Mon-Fri", "time": "4:30pm"}, {"days": "Sat", "time": "11:30am"}, {"days": "Sun", "time": "Closed"}], "id": "2834100001", "name": "USPS COLLECTION BOX - BLUE BOX", "address": {"city": "FAISON", "state": "NC", "street": "110 E MAIN ST", "postcode": "28341"}}},
{"geometry": {"type": "Point", "coordinates": [-78.1356147993, 35.1163683151]}, "type": "Feature", "properties": {"collection_times": [{"days": "Mon-Fri", "time": "4:30pm"}, {"days": "Sat", "time": "11:30am"}, {"days": "Sun", "time": "Closed"}], "id": "2834100002", "name": "USPS COLLECTION BOX - PO LOBBY", "address": {"city": "FAISON", "state": "NC", "street": "110 E MAIN ST", "postcode": "28341"}}},
{"geometry": {"type": "Point", "coordinates": [-78.1356147993, 35.1163683151]}, "type": "Feature", "properties": {"collection_times": [{"days": "Mon-Fri", "time": "4:30pm"}, {"days": "Sat", "time": "11:30am"}, {"days": "Sun", "time": "Closed"}], "id": "2834100003", "name": "USPS COLLECTION BOX - PO LOBBY", "address": {"city": "FAISON", "state": "NC", "street": "110 E MAIN ST", "postcode": "28341"}}},
{"geometry": {"type": "Point", "coordinates": [-78.6486248967, 35.1899413434]}, "type": "Feature", "properties": {"collection_times": [{"days": "Mon-Fri", "time": "4:30pm"}, {"days": "Sat", "time": "9:15am"}, {"days": "Sun", "time": "Closed"}], "id": "2834200001", "name": "USPS COLLECTION BOX - BLUE BOX", "address": {"city": "FALCON", "state": "NC", "street": "105 CHURCH ST", "postcode": "28342"}}},
{"geometry": {"type": "Point", "coordinates": [-78.648359187, 35.1902206028]}, "type": "Feature", "properties": {"collection_times": [{"days": "Mon-Fri", "time": "4:30pm"}, {"days": "Sat", "time": "9:15am"}, {"days": "Sun", "time": "Closed"}], "id": "2834200002", "name": "USPS COLLECTION BOX - PO LOBBY", "address": {"city": "FALCON", "state": "NC", "street": "7175 WEST ST", "postcode": "28342"}}},
{"geometry": {"type": "Point", "coordinates": [-79.6026103743, 34.7602323886]}, "type": "Feature", "properties": {"collection_times": [{"days": "Mon-Fri", "time": "4:15pm"}, {"days": "Sat", "time": "10:45am"}, {"days": "Sun", "time": "Closed"}], "id": "2834300001", "name": "USPS COLLECTION BOX - BLUE BOX", "address": {"city": "GIBSON", "state": "NC", "street": "4580 MAIN ST", "postcode": "28343"}}},
{"geometry": {"type": "Point", "coordinates": [-79.6026103743, 34.7602323886]}, "type": "Feature", "properties": {"collection_times": [{"days": "Mon-Fri", "time": "4:15pm"}, {"days": "Sat", "time": "10:45am"}, {"days": "Sun", "time": "Closed"}], "id": "2834300002", "name": "USPS COLLECTION BOX - PO LOBBY", "address": {"city": "GIBSON", "state": "NC", "street": "4580 MAIN ST", "postcode": "28343"}}},
{"geometry": {"type": "Point", "coordinates": [-78.6780145473, 35.2163451223]}, "type": "Feature", "properties": {"collection_times": [{"days": "Mon-Fri", "time": "3:45pm"}, {"days": "Sat", "time": "11:15am"}, {"days": "Sun", "time": "Closed"}], "id": "2834400001", "name": "USPS COLLECTION BOX - BLUE BOX", "address": {"city": "GODWIN", "state": "NC", "street": "8817 MAIN ST", "postcode": "28344"}}},
{"geometry": {"type": "Point", "coordinates": [-78.6780145473, 35.2163451223]}, "type": "Feature", "properties": {"collection_times": [{"days": "Mon-Fri", "time": "3:45pm"}, {"days": "Sat", "time": "11:15am"}, {"days": "Sun", "time": "Closed"}], "id": "2834400003", "name": "USPS COLLECTION BOX - PO LOBBY", "address": {"city": "GODWIN", "state": "NC", "street": "8817 MAIN ST", "postcode": "28344"}}},
{"geometry": {"type": "Point", "coordinates": [-78.5769513663, 35.1666264663]}, "type": "Feature", "properties": {"collection_times": [{"days": "Mon-Sat", "time": "12:00pm"}, {"days": "Sun", "time": "Closed"}], "id": "2834400004", "name": "USPS COLLECTION BOX - BLUE BOX", "address": {"city": "GODWIN", "state": "NC", "street": "5458 FAYETTEVILLE HWY", "postcode": "28344"}}},
{"geometry": {"type": "Point", "coordinates": [-79.7014788315, 34.8845736137]}, "type": "Feature", "properties": {"collection_times": [{"days": "Mon-Sat", "time": "4:30pm"}, {"days": "Sun", "time": "Closed"}], "id": "2834500013", "name": "USPS COLLECTION BOX - BLUE BOX", "address": {"city": "HAMLET", "state": "NC", "street": "105 W MAIN ST", "postcode": "28345"}}},
{"geometry": {"type": "Point", "coordinates": [-79.7116537172, 34.9023947321]}, "type": "Feature", "properties": {"collection_times": [{"days": "Mon-Fri", "time": "10:00am"}, {"days": "Sat-Sun", "time": "Closed"}], "id": "2834500020", "name": "USPS COLLECTION BOX - BLUE BOX", "address": {"city": "HAMLET", "state": "NC", "street": "1042 W HAMLET AVE", "postcode": "28345"}}},
{"geometry": {"type": "Point", "coordinates": [-79.7014788315, 34.8845736137]}, "type": "Feature", "properties": {"collection_times": [{"days": "Mon-Sat", "time": "4:30pm"}, {"days": "Sun", "time": "Closed"}], "id": "2834500031", "name": "USPS COLLECTION BOX - PO LOBBY", "address": {"city": "HAMLET", "state": "NC", "street": "105 W MAIN ST", "postcode": "28345"}}},
{"geometry": {"type": "Point", "coordinates": [-78.9584828504, 34.979309661]}, "type": "Feature", "properties": {"collection_times": [{"days": "Mon-Fri", "time": "5:00pm"}, {"days": "Sat", "time": "1:00pm"}, {"days": "Sun", "time": "Closed"}], "id": "2834800004", "name": "USPS COLLECTION BOX - BLUE BOX", "address": {"city": "HOPE MILLS", "state": "NC", "street": "3215 N MAIN ST", "postcode": "28348"}}},
{"geometry": {"type": "Point", "coordinates": [-78.9859911082, 34.9737266276]}, "type": "Feature", "properties": {"collection_times": [{"days": "Mon-Sat", "time": "10:00am"}, {"days": "Sun", "time": "Closed"}], "id": "2834800012", "name": "USPS COLLECTION BOX - BLUE BOX", "address": {"city": "HOPE MILLS", "state": "NC", "street": "6239 HACKBERRY DR", "postcode": "28348"}}},
{"geometry": {"type": "Point", "coordinates": [-78.9842444606, 34.9726491857]}, "type": "Feature", "properties": {"collection_times": [{"days": "Mon-Sat", "time": "10:00am"}, {"days": "Sun", "time": "Closed"}], "id": "2834800013", "name": "USPS COLLECTION BOX - BLUE BOX", "address": {"city": "HOPE MILLS", "state": "NC", "street": "3283 SOMMER DR", "postcode": "28348"}}},
{"geometry": {"type": "Point", "coordinates": [-78.9467806886, 34.9686501224]}, "type": "Feature", "properties": {"collection_times": [{"days": "Mon-Sat", "time": "10:00am"}, {"days": "Sun", "time": "Closed"}], "id": "2834800014", "name": "USPS COLLECTION BOX - BLUE BOX", "address": {"city": "HOPE MILLS", "state": "NC", "street": "4003 WILLIAM BILL LUTHER DR", "postcode": "28348"}}},
{"geometry": {"type": "Point", "coordinates": [-78.9773218334, 34.9750462007]}, "type": "Feature", "properties": {"collection_times": [{"days": "Mon-Sat", "time": "10:00am"}, {"days": "Sun", "time": "Closed"}], "id": "2834800015", "name": "USPS COLLECTION BOX - BLUE BOX", "address": {"city": "HOPE MILLS", "state": "NC", "street": "5900 NOTBLAKE ST", "postcode": "28348"}}},
{"geometry": {"type": "Point", "coordinates": [-78.9708350379, 34.9571510066]}, "type": "Feature", "properties": {"collection_times": [{"days": "Mon-Sat", "time": "10:00am"}, {"days": "Sun", "time": "Closed"}], "id": "2834800016", "name": "USPS COLLECTION BOX - BLUE BOX", "address": {"city": "HOPE MILLS", "state": "NC", "street": "5570 FOXRIDGE DR", "postcode": "28348"}}},
{"geometry": {"type": "Point", "coordinates": [-78.9584828504, 34.979309661]}, "type": "Feature", "properties": {"collection_times": [{"days": "Mon-Fri", "time": "5:00pm"}, {"days": "Sat", "time": "1:00pm"}, {"days": "Sun", "time": "Closed"}], "id": "2834800017", "name": "USPS COLLECTION BOX - PO LOBBY", "address": {"city": "HOPE MILLS", "state": "NC", "street": "3215 N MAIN ST", "postcode": "28348"}}},
{"geometry": {"type": "Point", "coordinates": [-78.9584828504, 34.979309661]}, "type": "Feature", "properties": {"collection_times": [{"days": "Mon-Fri", "time": "5:00pm"}, {"days": "Sat", "time": "1:00pm"}, {"days": "Sun", "time": "Closed"}], "id": "2834800018", "name": "USPS COLLECTION BOX - PO LOBBY", "address": {"city": "HOPE MILLS", "state": "NC", "street": "3215 N MAIN ST", "postcode": "28348"}}},
{"geometry": {"type": "Point", "coordinates": [-78.9584828504, 34.979309661]}, "type": "Feature", "properties": {"collection_times": [{"days": "Mon-Fri", "time": "5:00pm"}, {"days": "Sat", "time": "1:00pm"}, {"days": "Sun", "time": "Closed"}], "id": "2834800019", "name": "USPS COLLECTION BOX - PO LOBBY", "address": {"city": "HOPE MILLS", "state": "NC", "street": "3215 N MAIN ST", "postcode": "28348"}}},
{"geometry": {"type": "Point", "coordinates": [-77.9618277878, 34.9617182597]}, "type": "Feature", "properties": {"collection_times": [{"days": "Mon-Fri", "time": "4:30pm"}, {"days": "Sat", "time": "12:00pm"}, {"days": "Sun", "time": "Closed"}], "id": "2834900001", "name": "USPS COLLECTION BOX - BLUE BOX", "address": {"city": "KENANSVILLE", "state": "NC", "street": "106 N MAIN ST", "postcode": "28349"}}},
{"geometry": {"type": "Point", "coordinates": [-77.9618277878, 34.9617182597]}, "type": "Feature", "properties": {"collection_times": [{"days": "Mon-Fri", "time": "4:30pm"}, {"days": "Sat", "time": "12:00pm"}, {"days": "Sun", "time": "Closed"}], "id": "2834900004", "name": "USPS COLLECTION BOX - PO LOBBY", "address": {"city": "KENANSVILLE", "state": "NC", "street": "106 N MAIN ST", "postcode": "28349"}}},
{"geometry": {"type": "Point", "coordinates": [-77.9618277878, 34.9617182597]}, "type": "Feature", "properties": {"collection_times": [{"days": "Mon-Fri", "time": "4:30pm"}, {"days": "Sat", "time": "12:00pm"}, {"days": "Sun", "time": "Closed"}], "id": "2834900005", "name": "USPS COLLECTION BOX - PO LOBBY", "address": {"city": "KENANSVILLE", "state": "NC", "street": "106 N MAIN ST", "postcode": "28349"}}},
{"geometry": {"type": "Point", "coordinates": [-79.3030327903, 35.2350228518]}, "type": "Feature", "properties": {"collection_times": [{"days": "Mon-Fri", "time": "4:15pm"}, {"days": "Sat", "time": "10:30am"}, {"days": "Sun", "time": "Closed"}], "id": "2835000001", "name": "USPS COLLECTION BOX - BLUE BOX", "address": {"city": "LAKEVIEW", "state": "NC", "street": "278 CAMP EASTER RD", "postcode": "28350"}}},
{"geometry": {"type": "Point", "coordinates": [-79.3030327903, 35.2350228518]}, "type": "Feature", "properties": {"collection_times": [{"days": "Mon-Fri", "time": "4:15pm"}, {"days": "Sat", "time": "10:30am"}, {"days": "Sun", "time": "Closed"}], "id": "2835000002", "name": "USPS COLLECTION BOX - PO LOBBY", "address": {"city": "LAKEVIEW", "state": "NC", "street": "278 CAMP EASTER RD", "postcode": "28350"}}},
{"geometry": {"type": "Point", "coordinates": [-79.3030327903, 35.2350228518]}, "type": "Feature", "properties": {"collection_times": [{"days": "Mon-Fri", "time": "4:15pm"}, {"days": "Sat", "time": "10:30am"}, {"days": "Sun", "time": "Closed"}], "id": "2835000003", "name": "USPS COLLECTION BOX - PO LOBBY", "address": {"city": "LAKEVIEW", "state": "NC", "street": "278 CAMP EASTER RD", "postcode": "28350"}}},
{"geometry": {"type": "Point", "coordinates": [-79.5472413326, 34.8100318422]}, "type": "Feature", "properties": {"collection_times": [{"days": "Mon-Fri", "time": "4:30pm"}, {"days": "Sat", "time": "11:00am"}, {"days": "Sun", "time": "Closed"}], "id": "2835100001", "name": "USPS COLLECTION BOX - BLUE BOX", "address": {"city": "LAUREL HILL", "state": "NC", "street": "9140 MORGAN ST", "postcode": "28351"}}},
{"geometry": {"type": "Point", "coordinates": [-79.5472413326, 34.8100318422]}, "type": "Feature", "properties": {"collection_times": [{"days": "Mon-Fri", "time": "4:30pm"}, {"days": "Sat", "time": "11:00am"}, {"days": "Sun", "time": "Closed"}], "id": "2835100002", "name": "USPS COLLECTION BOX - PO LOBBY", "address": {"city": "LAUREL HILL", "state": "NC", "street": "9140 MORGAN ST", "postcode": "28351"}}},
{"geometry": {"type": "Point", "coordinates": [-79.4605816715, 34.7760663056]}, "type": "Feature", "properties": {"collection_times": [{"days": "Mon-Fri", "time": "11:00am"}, {"days": "Sat", "time": "10:00am"}, {"days": "Sun", "time": "Closed"}], "id": "2835200003", "name": "USPS COLLECTION BOX - BLUE BOX", "address": {"city": "LAURINBURG", "state": "NC", "street": "200 BIGGS ST", "postcode": "28352"}}},
{"geometry": {"type": "Point", "coordinates": [-79.4630484915, 34.7774287884]}, "type": "Feature", "properties": {"collection_times": [{"days": "Mon-Fri", "time": "5:00pm"}, {"days": "Sat", "time": "12:00pm"}, {"days": "Sun", "time": "Closed"}], "id": "2835200012", "name": "USPS COLLECTION BOX - BLUE BOX", "address": {"city": "LAURINBURG", "state": "NC", "street": "109 S GILL ST", "postcode": "28352"}}},
{"geometry": {"type": "Point", "coordinates": [-79.4796126912, 34.7523690854]}, "type": "Feature", "properties": {"collection_times": [{"days": "Mon-Fri", "time": "11:00am"}, {"days": "Sat", "time": "10:00am"}, {"days": "Sun", "time": "Closed"}], "id": "2835200018", "name": "USPS COLLECTION BOX - BLUE BOX", "address": {"city": "LAURINBURG", "state": "NC", "street": "1700 S MAIN ST", "postcode": "28352"}}},
{"geometry": {"type": "Point", "coordinates": [-79.4621365053, 34.7752829712]}, "type": "Feature", "properties": {"collection_times": [{"days": "Mon-Fri", "time": "11:00am"}, {"days": "Sat", "time": "10:00am"}, {"days": "Sun", "time": "Closed"}], "id": "2835200020", "name": "USPS COLLECTION BOX - BLUE BOX", "address": {"city": "LAURINBURG", "state": "NC", "street": "300 S MAIN ST", "postcode": "28352"}}},
{"geometry": {"type": "Point", "coordinates": [-79.4785986356, 34.7530659143]}, "type": "Feature", "properties": {"collection_times": [{"days": "Mon-Fri", "time": "11:00am"}, {"days": "Sat", "time": "10:00am"}, {"days": "Sun", "time": "Closed"}], "id": "2835200022", "name": "USPS COLLECTION BOX - BLUE BOX", "address": {"city": "LAURINBURG", "state": "NC", "street": "1690 S MAIN ST", "postcode": "28352"}}},
{"geometry": {"type": "Point", "coordinates": [-79.4538832182, 34.7663669699]}, "type": "Feature", "properties": {"collection_times": [{"days": "Mon-Fri", "time": "11:00am"}, {"days": "Sat", "time": "10:00am"}, {"days": "Sun", "time": "Closed"}], "id": "2835200023", "name": "USPS COLLECTION BOX - BLUE BOX", "address": {"city": "LAURINBURG", "state": "NC", "street": "911 ATKINSON ST", "postcode": "28352"}}},
{"geometry": {"type": "Point", "coordinates": [-79.4848800581, 34.7596470539]}, "type": "Feature", "properties": {"collection_times": [{"days": "Mon-Fri", "time": "11:00am"}, {"days": "Sat", "time": "10:00am"}, {"days": "Sun", "time": "Closed"}], "id": "2835200028", "name": "USPS COLLECTION BOX - BLUE BOX", "address": {"city": "LAURINBURG", "state": "NC", "street": "1339 SCOTLAND CROSSING DR", "postcode": "28352"}}},
{"geometry": {"type": "Point", "coordinates": [-79.4789515454, 34.7519185931]}, "type": "Feature", "properties": {"collection_times": [{"days": "Mon-Fri", "time": "11:00am"}, {"days": "Sat", "time": "10:00am"}, {"days": "Sun", "time": "Closed"}], "id": "2835200031", "name": "USPS COLLECTION BOX - BLUE BOX", "address": {"city": "LAURINBURG", "state": "NC", "street": "1700 DOGWOOD MILE ST", "postcode": "28352"}}},
{"geometry": {"type": "Point", "coordinates": [-79.4608352842, 34.7749217412]}, "type": "Feature", "properties": {"collection_times": [{"days": "Mon-Fri", "time": "11:00am"}, {"days": "Sat", "time": "10:00am"}, {"days": "Sun", "time": "Closed"}], "id": "2835200037", "name": "USPS COLLECTION BOX - BLUE BOX", "address": {"city": "LAURINBURG", "state": "NC", "street": "213 E CRONLY ST", "postcode": "28352"}}},
{"geometry": {"type": "Point", "coordinates": [-79.4630484915, 34.7774287884]}, "type": "Feature", "properties": {"collection_times": [{"days": "Mon-Fri", "time": "5:00pm"}, {"days": "Sat", "time": "12:00pm"}, {"days": "Sun", "time": "Closed"}], "id": "2835200043", "name": "USPS COLLECTION BOX - BLUE BOX", "address": {"city": "LAURINBURG", "state": "NC", "street": "109 S GILL ST", "postcode": "28352"}}},
{"geometry": {"type": "Point", "coordinates": [-79.4912799735, 34.7605516853]}, "type": "Feature", "properties": {"collection_times": [{"days": "Mon-Fri", "time": "11:00am"}, {"days": "Sat", "time": "10:00am"}, {"days": "Sun", "time": "Closed"}], "id": "2835200044", "name": "USPS COLLECTION BOX - BLUE BOX", "address": {"city": "LAURINBURG", "state": "NC", "street": "1405 WEST BLVD", "postcode": "28352"}}},
{"geometry": {"type": "Point", "coordinates": [-79.4538832182, 34.7663669699]}, "type": "Feature", "properties": {"collection_times": [{"days": "Mon-Fri", "time": "11:00am"}, {"days": "Sat", "time": "10:00am"}, {"days": "Sun", "time": "Closed"}], "id": "2835200046", "name": "USPS COLLECTION BOX - BLUE BOX", "address": {"city": "LAURINBURG", "state": "NC", "street": "517 LAUCHWOOD DR", "postcode": "28352"}}},
{"geometry": {"type": "Point", "coordinates": [-79.4630484915, 34.7774287884]}, "type": "Feature", "properties": {"collection_times": [{"days": "Mon-Fri", "time": "5:00pm"}, {"days": "Sat", "time": "12:00pm"}, {"days": "Sun", "time": "Closed"}], "id": "2835200047", "name": "USPS COLLECTION BOX - PO LOBBY", "address": {"city": "LAURINBURG", "state": "NC", "street": "109 S GILL ST", "postcode": "28352"}}},
{"geometry": {"type": "Point", "coordinates": [-79.4630484915, 34.7774287884]}, "type": "Feature", "properties": {"collection_times": [{"days": "Mon-Fri", "time": "5:00pm"}, {"days": "Sat", "time": "12:00pm"}, {"days": "Sun", "time": "Closed"}], "id": "2835200048", "name": "USPS COLLECTION BOX - PO LOBBY", "address": {"city": "LAURINBURG", "state": "NC", "street": "109 S GILL ST", "postcode": "28352"}}},
{"geometry": {"type": "Point", "coordinates": [-79.1944066722, 35.391515217]}, "type": "Feature", "properties": {"collection_times": [{"days": "Mon-Fri", "time": "4:15pm"}, {"days": "Sat", "time": "11:15am"}, {"days": "Sun", "time": "Closed"}], "id": "2835500001", "name": "USPS COLLECTION BOX - BLUE BOX", "address": {"city": "LEMON SPRINGS", "state": "NC", "street": "7246 LEMON SPRINGS RD", "postcode": "28355"}}},
{"geometry": {"type": "Point", "coordinates": [-79.1944066722, 35.391515217]}, "type": "Feature", "properties": {"collection_times": [{"days": "Mon-Fri", "time": "4:15pm"}, {"days": "Sat", "time": "11:15am"}, {"days": "Sun", "time": "Closed"}], "id": "2835500003", "name": "USPS COLLECTION BOX - PO LOBBY", "address": {"city": "LEMON SPRINGS", "state": "NC", "street": "7246 LEMON SPRINGS RD", "postcode": "28355"}}},
{"geometry": {"type": "Point", "coordinates": [-78.7469505901, 35.2550153422]}, "type": "Feature", "properties": {"collection_times": [{"days": "Mon-Fri", "time": "4:30pm"}, {"days": "Sat", "time": "10:30am"}, {"days": "Sun", "time": "Closed"}], "id": "2835600001", "name": "USPS COLLECTION BOX - BLUE BOX", "address": {"city": "LINDEN", "state": "NC", "street": "4764 MAIN ST", "postcode": "28356"}}},
{"geometry": {"type": "Point", "coordinates": [-78.7469505901, 35.2550153422]}, "type": "Feature", "properties": {"collection_times": [{"days": "Mon-Fri", "time": "4:30pm"}, {"days": "Sat", "time": "10:30am"}, {"days": "Sun", "time": "Closed"}], "id": "2835600002", "name": "USPS COLLECTION BOX - PO LOBBY", "address": {"city": "LINDEN", "state": "NC", "street": "4764 MAIN ST", "postcode": "28356"}}},
{"geometry": {"type": "Point", "coordinates": [-79.0723528953, 34.8885038124]}, "type": "Feature", "properties": {"collection_times": [{"days": "Mon-Fri", "time": "4:15pm"}, {"days": "Sat", "time": "11:00am"}, {"days": "Sun", "time": "Closed"}], "id": "2835700001", "name": "USPS COLLECTION BOX - BLUE BOX", "address": {"city": "LUMBER BRIDGE", "state": "NC", "street": "104 S FAYETTEVILLE ST", "postcode": "28357"}}},
{"geometry": {"type": "Point", "coordinates": [-79.0723528953, 34.8885038124]}, "type": "Feature", "properties": {"collection_times": [{"days": "Mon-Fri", "time": "4:15pm"}, {"days": "Sat", "time": "11:00am"}, {"days": "Sun", "time": "Closed"}], "id": "2835700002", "name": "USPS COLLECTION BOX - PO LOBBY", "address": {"city": "LUMBER BRIDGE", "state": "NC", "street": "104 S FAYETTEVILLE ST", "postcode": "28357"}}},
{"geometry": {"type": "Point", "coordinates": [-79.0059727269, 34.621546276]}, "type": "Feature", "properties": {"collection_times": [{"days": "Mon-Fri", "time": "5:00pm"}, {"days": "Sat", "time": "3:30pm"}, {"days": "Sun", "time": "Closed"}], "id": "2835800056", "name": "USPS COLLECTION BOX - PO LOBBY", "address": {"city": "LUMBERTON", "state": "NC", "street": "301 E 7TH ST", "postcode": "28358"}}},
{"geometry": {"type": "Point", "coordinates": [-79.0059727269, 34.621546276]}, "type": "Feature", "properties": {"collection_times": [{"days": "Mon-Fri", "time": "5:00pm"}, {"days": "Sat", "time": "3:30pm"}, {"days": "Sun", "time": "Closed"}], "id": "2835800057", "name": "USPS COLLECTION BOX - BLUE BOX", "address": {"city": "LUMBERTON", "state": "NC", "street": "301 E 7TH ST", "postcode": "28358"}}},
{"geometry": {"type": "Point", "coordinates": [-79.0059727269, 34.621546276]}, "type": "Feature", "properties": {"collection_times": [{"days": "Mon-Fri", "time": "5:00pm"}, {"days": "Sat", "time": "3:30pm"}, {"days": "Sun", "time": "Closed"}], "id": "2835800058", "name": "USPS COLLECTION BOX - BLUE BOX", "address": {"city": "LUMBERTON", "state": "NC", "street": "301 E 7TH ST", "postcode": "28358"}}},
{"geometry": {"type": "Point", "coordinates": [-79.0059727269, 34.621546276]}, "type": "Feature", "properties": {"collection_times": [{"days": "Mon-Fri", "time": "5:00pm"}, {"days": "Sat", "time": "3:30pm"}, {"days": "Sun", "time": "Closed"}], "id": "2835800059", "name": "USPS COLLECTION BOX - BLUE BOX", "address": {"city": "LUMBERTON", "state": "NC", "street": "301 E 7TH ST", "postcode": "28358"}}},
{"geometry": {"type": "Point", "coordinates": [-79.0059727269, 34.621546276]}, "type": "Feature", "properties": {"collection_times": [{"days": "Mon-Fri", "time": "5:00pm"}, {"days": "Sat", "time": "3:30pm"}, {"days": "Sun", "time": "Closed"}], "id": "2835800060", "name": "USPS COLLECTION BOX - BLUE BOX", "address": {"city": "LUMBERTON", "state": "NC", "street": "301 E 7TH ST", "postcode": "28358"}}},
{"geometry": {"type": "Point", "coordinates": [-78.982103365, 34.6210665477]}, "type": "Feature", "properties": {"collection_times": [{"days": "Mon-Sat", "time": "12:00pm"}, {"days": "Sun", "time": "Closed"}], "id": "2835800061", "name": "USPS COLLECTION BOX - BLUE BOX", "address": {"city": "LUMBERTON", "state": "NC", "street": "2100 E 7TH ST", "postcode": "28358"}}},
{"geometry": {"type": "Point", "coordinates": [-79.0085905263, 34.6226492463]}, "type": "Feature", "properties": {"collection_times": [{"days": "Mon-Sat", "time": "12:00pm"}, {"days": "Sun", "time": "Closed"}], "id": "2835800062", "name": "USPS COLLECTION BOX - BLUE BOX", "address": {"city": "LUMBERTON", "state": "NC", "street": "108 W 8TH ST", "postcode": "28358"}}},
{"geometry": {"type": "Point", "coordinates": [-79.0242936405, 34.6353600261]}, "type": "Feature", "properties": {"collection_times": [{"days": "Mon-Sat", "time": "12:00pm"}, {"days": "Sun", "time": "Closed"}], "id": "2835800063", "name": "USPS COLLECTION BOX - BLUE BOX", "address": {"city": "LUMBERTON", "state": "NC", "street": "3561 LACKEY ST", "postcode": "28358"}}},
{"geometry": {"type": "Point", "coordinates": [-79.0057553169, 34.6629956373]}, "type": "Feature", "properties": {"collection_times": [{"days": "Mon-Sat", "time": "12:00pm"}, {"days": "Sun", "time": "Closed"}], "id": "2835800065", "name": "USPS COLLECTION BOX - BLUE BOX", "address": {"city": "LUMBERTON", "state": "NC", "street": "220 LIBERTY HILL RD", "postcode": "28358"}}},
{"geometry": {"type": "Point", "coordinates": [-79.034224985, 34.5993248627]}, "type": "Feature", "properties": {"collection_times": [{"days": "Mon-Sat", "time": "12:00pm"}, {"days": "Sun", "time": "Closed"}], "id": "2835800066", "name": "USPS COLLECTION BOX - BLUE BOX", "address": {"city": "LUMBERTON", "state": "NC", "street": "3102 MARTIN LUTHER KING JR DR", "postcode": "28358"}}},
{"geometry": {"type": "Point", "coordinates": [-78.9408803737, 34.6016596258]}, "type": "Feature", "properties": {"collection_times": [{"days": "Mon-Sat", "time": "12:00pm"}, {"days": "Sun", "time": "Closed"}], "id": "2835800067", "name": "USPS COLLECTION BOX - BLUE BOX", "address": {"city": "LUMBERTON", "state": "NC", "street": "@ MCMILLIAN ST", "postcode": "28358"}}},
{"geometry": {"type": "Point", "coordinates": [-78.9910058832, 34.6204359723]}, "type": "Feature", "properties": {"collection_times": [{"days": "Mon-Sat", "time": "12:00pm"}, {"days": "Sun", "time": "Closed"}], "id": "2835800068", "name": "USPS COLLECTION BOX - BLUE BOX", "address": {"city": "LUMBERTON", "state": "NC", "street": "530 NORWOOD AVE", "postcode": "28358"}}},
{"geometry": {"type": "Point", "coordinates": [-78.9961869551, 34.6598182049]}, "type": "Feature", "properties": {"collection_times": [{"days": "Mon-Sat", "time": "12:00pm"}, {"days": "Sun", "time": "Closed"}], "id": "2835800069", "name": "USPS COLLECTION BOX - BLUE BOX", "address": {"city": "LUMBERTON", "state": "NC", "street": "815 OAKRIDGE BLVD", "postcode": "28358"}}},
{"geometry": {"type": "Point", "coordinates": [-78.9898431259, 34.6302840627]}, "type": "Feature", "properties": {"collection_times": [{"days": "Mon-Sat", "time": "12:00pm"}, {"days": "Sun", "time": "Closed"}], "id": "2835800070", "name": "USPS COLLECTION BOX - BLUE BOX", "address": {"city": "LUMBERTON", "state": "NC", "street": "1733 N ROBERTS AVE", "postcode": "28358"}}},
{"geometry": {"type": "Point", "coordinates": [-78.9932905651, 34.6137569159]}, "type": "Feature", "properties": {"collection_times": [{"days": "Mon-Sat", "time": "12:00pm"}, {"days": "Sun", "time": "Closed"}], "id": "2835800071", "name": "USPS COLLECTION BOX - BLUE BOX", "address": {"city": "LUMBERTON", "state": "NC", "street": "118 S CAROLINA AVE", "postcode": "28358"}}},
{"geometry": {"type": "Point", "coordinates": [-79.0076352378, 34.6187480512]}, "type": "Feature", "properties": {"collection_times": [{"days": "Mon-Sat", "time": "12:00pm"}, {"days": "Sun", "time": "Closed"}], "id": "2835800072", "name": "USPS COLLECTION BOX - BLUE BOX", "address": {"city": "LUMBERTON", "state": "NC", "street": "308 N CHESTNUT ST", "postcode": "28358"}}},
{"geometry": {"type": "Point", "coordinates": [-79.0075819902, 34.6209429762]}, "type": "Feature", "properties": {"collection_times": [{"days": "Mon-Sat", "time": "12:00pm"}, {"days": "Sun", "time": "Closed"}], "id": "2835800073", "name": "USPS COLLECTION BOX - BLUE BOX", "address": {"city": "LUMBERTON", "state": "NC", "street": "604 N CHESTNUT ST", "postcode": "28358"}}},
{"geometry": {"type": "Point", "coordinates": [-79.0086601763, 34.6188624345]}, "type": "Feature", "properties": {"collection_times": [{"days": "Mon-Sat", "time": "12:00pm"}, {"days": "Sun", "time": "Closed"}], "id": "2835800074", "name": "USPS COLLECTION BOX - BLUE BOX", "address": {"city": "LUMBERTON", "state": "NC", "street": "321 N ELM ST", "postcode": "28358"}}},
{"geometry": {"type": "Point", "coordinates": [-79.0078642317, 34.6393974287]}, "type": "Feature", "properties": {"collection_times": [{"days": "Mon-Sat", "time": "12:00pm"}, {"days": "Sun", "time": "Closed"}], "id": "2835800076", "name": "USPS COLLECTION BOX - BLUE BOX", "address": {"city": "LUMBERTON", "state": "NC", "street": "3100 N ELM ST", "postcode": "28358"}}},
{"geometry": {"type": "Point", "coordinates": [-79.0079093492, 34.6380260528]}, "type": "Feature", "properties": {"collection_times": [{"days": "Mon-Sat", "time": "12:00pm"}, {"days": "Sun", "time": "Closed"}], "id": "2835800077", "name": "USPS COLLECTION BOX - BLUE BOX", "address": {"city": "LUMBERTON", "state": "NC", "street": "2914 N ELM ST", "postcode": "28358"}}},
{"geometry": {"type": "Point", "coordinates": [-78.9950438725, 34.6496116555]}, "type": "Feature", "properties": {"collection_times": [{"days": "Mon-Sat", "time": "12:00pm"}, {"days": "Sun", "time": "Closed"}], "id": "2835800079", "name": "USPS COLLECTION BOX - BLUE BOX", "address": {"city": "LUMBERTON", "state": "NC", "street": "584 FARRINGDOM ST", "postcode": "28358"}}},
{"geometry": {"type": "Point", "coordinates": [-79.0079347668, 34.6373131043]}, "type": "Feature", "properties": {"collection_times": [{"days": "Mon-Sat", "time": "12:00pm"}, {"days": "Sun", "time": "Closed"}], "id": "2835800080", "name": "USPS COLLECTION BOX - BLUE BOX", "address": {"city": "LUMBERTON", "state": "NC", "street": "2800 N ELM ST", "postcode": "28358"}}},
{"geometry": {"type": "Point", "coordinates": [-79.0002506862, 34.6416175593]}, "type": "Feature", "properties": {"collection_times": [{"days": "Mon-Sat", "time": "12:00pm"}, {"days": "Sun", "time": "Closed"}], "id": "2835800081", "name": "USPS COLLECTION BOX - BLUE BOX", "address": {"city": "LUMBERTON", "state": "NC", "street": "3549 FAYETTEVILLE RD", "postcode": "28358"}}},
{"geometry": {"type": "Point", "coordinates": [-79.000029975, 34.6611495441]}, "type": "Feature", "properties": {"collection_times": [{"days": "Mon-Sat", "time": "12:00pm"}, {"days": "Sun", "time": "Closed"}], "id": "2835800082", "name": "USPS COLLECTION BOX - BLUE BOX", "address": {"city": "LUMBERTON", "state": "NC", "street": "4850 FAYETTEVILLE RD", "postcode": "28358"}}},
{"geometry": {"type": "Point", "coordinates": [-79.0073719068, 34.6717710823]}, "type": "Feature", "properties": {"collection_times": [{"days": "Mon-Sat", "time": "12:00pm"}, {"days": "Sun", "time": "Closed"}], "id": "2835800083", "name": "USPS COLLECTION BOX - BLUE BOX", "address": {"city": "LUMBERTON", "state": "NC", "street": "5102 N FAYETTEVILLE RD", "postcode": "28358"}}},
{"geometry": {"type": "Point", "coordinates": [-79.0022671037, 34.6170909206]}, "type": "Feature", "properties": {"collection_times": [{"days": "Mon-Sat", "time": "12:00pm"}, {"days": "Sun", "time": "Closed"}], "id": "2835800084", "name": "USPS COLLECTION BOX - BLUE BOX", "address": {"city": "LUMBERTON", "state": "NC", "street": "610 E 1ST ST", "postcode": "28358"}}},
{"geometry": {"type": "Point", "coordinates": [-78.9946020507, 34.6243000696]}, "type": "Feature", "properties": {"collection_times": [{"days": "Mon-Sat", "time": "12:00pm"}, {"days": "Sun", "time": "Closed"}], "id": "2835800085", "name": "USPS COLLECTION BOX - BLUE BOX", "address": {"city": "LUMBERTON", "state": "NC", "street": "1101 GODWIN AVE", "postcode": "28358"}}},
{"geometry": {"type": "Point", "coordinates": [-79.0097759578, 34.6428688923]}, "type": "Feature", "properties": {"collection_times": [{"days": "Mon-Sat", "time": "12:00pm"}, {"days": "Sun", "time": "Closed"}], "id": "2835800086", "name": "USPS COLLECTION BOX - BLUE BOX", "address": {"city": "LUMBERTON", "state": "NC", "street": "2726 N ROBERTS AVE", "postcode": "28358"}}},
{"geometry": {"type": "Point", "coordinates": [-79.0140308164, 34.6307012212]}, "type": "Feature", "properties": {"collection_times": [{"days": "Mon-Sat", "time": "12:00pm"}, {"days": "Sun", "time": "Closed"}], "id": "2835800087", "name": "USPS COLLECTION BOX - BLUE BOX", "address": {"city": "LUMBERTON", "state": "NC", "street": "1901 N ROWLAND AVE", "postcode": "28358"}}},
{"geometry": {"type": "Point", "coordinates": [-79.0241875613, 34.6167076951]}, "type": "Feature", "properties": {"collection_times": [{"days": "Mon-Sat", "time": "12:00pm"}, {"days": "Sun", "time": "Closed"}], "id": "2835800088", "name": "USPS COLLECTION BOX - BLUE BOX", "address": {"city": "LUMBERTON", "state": "NC", "street": "406 SINCLAIR ST", "postcode": "28358"}}},
{"geometry": {"type": "Point", "coordinates": [-78.9408803737, 34.6016596258]}, "type": "Feature", "properties": {"collection_times": [{"days": "Mon-Sat", "time": "12:00pm"}, {"days": "Sun", "time": "Closed"}], "id": "2835800090", "name": "USPS COLLECTION BOX - BLUE BOX", "address": {"city": "LUMBERTON", "state": "NC", "street": "1010 E 2ND ST", "postcode": "28358"}}},
{"geometry": {"type": "Point", "coordinates": [-79.0080932992, 34.6364420257]}, "type": "Feature", "properties": {"collection_times": [{"days": "Mon-Sat", "time": "12:00pm"}, {"days": "Sun", "time": "Closed"}], "id": "2835800091", "name": "USPS COLLECTION BOX - BLUE BOX", "address": {"city": "LUMBERTON", "state": "NC", "street": "104 W 27TH ST", "postcode": "28358"}}},
{"geometry": {"type": "Point", "coordinates": [-78.9874409819, 34.6158282432]}, "type": "Feature", "properties": {"collection_times": [{"days": "Mon-Sat", "time": "12:00pm"}, {"days": "Sun", "time": "Closed"}], "id": "2835800092", "name": "USPS COLLECTION BOX - BLUE BOX", "address": {"city": "LUMBERTON", "state": "NC", "street": "1501 E 5TH ST", "postcode": "28358"}}},
{"geometry": {"type": "Point", "coordinates": [-79.0454934922, 34.6236913435]}, "type": "Feature", "properties": {"collection_times": [{"days": "Mon-Sat", "time": "12:00pm"}, {"days": "Sun", "time": "Closed"}], "id": "2835800093", "name": "USPS COLLECTION BOX - BLUE BOX", "address": {"city": "LUMBERTON", "state": "NC", "street": "2741 W 5TH ST", "postcode": "28358"}}},
{"geometry": {"type": "Point", "coordinates": [-79.122754194, 34.3695903245]}, "type": "Feature", "properties": {"collection_times": [{"days": "Mon-Fri", "time": "4:15pm"}, {"days": "Sat", "time": "8:15am"}, {"days": "Sun", "time": "Closed"}], "id": "2836200001", "name": "USPS COLLECTION BOX - BLUE BOX", "address": {"city": "MARIETTA", "state": "NC", "street": "2733 MARIETTA RD", "postcode": "28362"}}},
{"geometry": {"type": "Point", "coordinates": [-79.122754194, 34.3695903245]}, "type": "Feature", "properties": {"collection_times": [{"days": "Mon-Fri", "time": "4:15pm"}, {"days": "Sat", "time": "8:15am"}, {"days": "Sun", "time": "Closed"}], "id": "2836200002", "name": "USPS COLLECTION BOX - PO LOBBY", "address": {"city": "MARIETTA", "state": "NC", "street": "2733 MARIETTA RD", "postcode": "28362"}}},
{"geometry": {"type": "Point", "coordinates": [-79.122754194, 34.3695903245]}, "type": "Feature", "properties": {"collection_times": [{"days": "Mon-Fri", "time": "4:15pm"}, {"days": "Sat", "time": "8:15am"}, {"days": "Sun", "time": "Closed"}], "id": "2836200003", "name": "USPS COLLECTION BOX - PO LOBBY", "address": {"city": "MARIETTA", "state": "NC", "street": "2733 MARIETTA RD", "postcode": "28362"}}},
{"geometry": {"type": "Point", "coordinates": [-79.6232535788, 34.9881301986]}, "type": "Feature", "properties": {"collection_times": [{"days": "Mon-Fri", "time": "3:30pm"}, {"days": "Sat", "time": "10:00am"}, {"days": "Sun", "time": "Closed"}], "id": "2836300003", "name": "USPS COLLECTION BOX - BLUE BOX", "address": {"city": "MARSTON", "state": "NC", "street": "2717 N US HIGHWAY 1", "postcode": "28363"}}},
{"geometry": {"type": "Point", "coordinates": [-79.6232535788, 34.9881301986]}, "type": "Feature", "properties": {"collection_times": [{"days": "Mon-Fri", "time": "3:30pm"}, {"days": "Sat", "time": "10:00am"}, {"days": "Sun", "time": "Closed"}], "id": "2836300004", "name": "USPS COLLECTION BOX - PO LOBBY", "address": {"city": "MARSTON", "state": "NC", "street": "2717 N US HIGHWAY 1", "postcode": "28363"}}},
{"geometry": {"type": "Point", "coordinates": [-79.3480797226, 34.7377671776]}, "type": "Feature", "properties": {"collection_times": [{"days": "Mon-Fri", "time": "4:00pm"}, {"days": "Sat", "time": "12:00pm"}, {"days": "Sun", "time": "Closed"}], "id": "2836400001", "name": "USPS COLLECTION BOX - BLUE BOX", "address": {"city": "MAXTON", "state": "NC", "street": "215 MCCASKILL AVE", "postcode": "28364"}}},
{"geometry": {"type": "Point", "coordinates": [-79.3125367277, 34.7242622129]}, "type": "Feature", "properties": {"collection_times": [{"days": "Mon-Fri", "time": "4:00pm"}, {"days": "Sat", "time": "12:00pm"}, {"days": "Sun", "time": "Closed"}], "id": "2836400002", "name": "USPS COLLECTION BOX - PO LOBBY", "address": {"city": "MAXTON", "state": "NC", "street": "215 MCCASKILL AVE", "postcode": "28364"}}},
{"geometry": {"type": "Point", "coordinates": [-78.0655997889, 35.2019160362]}, "type": "Feature", "properties": {"collection_times": [{"days": "Mon-Fri", "time": "4:30pm"}, {"days": "Sat", "time": "12:15pm"}, {"days": "Sun", "time": "Closed"}], "id": "2836500001", "name": "USPS COLLECTION BOX - BLUE BOX", "address": {"city": "MOUNT OLIVE", "state": "NC", "street": "611 N BREAZEALE AVE", "postcode": "28365"}}},
{"geometry": {"type": "Point", "coordinates": [-78.0683357128, 35.1910331188]}, "type": "Feature", "properties": {"collection_times": [{"days": "Mon-Fri", "time": "3:00pm"}, {"days": "Sat-Sun", "time": "Closed"}], "id": "2836500002", "name": "USPS COLLECTION BOX - BLUE BOX", "address": {"city": "MOUNT OLIVE", "state": "NC", "street": "N CHESTNUT ST", "postcode": "28365"}}},
{"geometry": {"type": "Point", "coordinates": [-78.0670576258, 35.1954092583]}, "type": "Feature", "properties": {"collection_times": [{"days": "Mon-Fri", "time": "3:00pm"}, {"days": "Sat-Sun", "time": "Closed"}], "id": "2836500003", "name": "USPS COLLECTION BOX - BLUE BOX", "address": {"city": "MOUNT OLIVE", "state": "NC", "street": "100 N CENTER ST", "postcode": "28365"}}},
{"geometry": {"type": "Point", "coordinates": [-78.0655997889, 35.2019160362]}, "type": "Feature", "properties": {"collection_times": [{"days": "Mon-Fri", "time": "4:30pm"}, {"days": "Sat", "time": "12:15pm"}, {"days": "Sun", "time": "Closed"}], "id": "2836500004", "name": "USPS COLLECTION BOX - PO LOBBY", "address": {"city": "MOUNT OLIVE", "state": "NC", "street": "611 N BREAZEALE AVE", "postcode": "28365"}}},
{"geometry": {"type": "Point", "coordinates": [-78.0655997889, 35.2019160362]}, "type": "Feature", "properties": {"collection_times": [{"days": "Mon-Fri", "time": "4:30pm"}, {"days": "Sat", "time": "12:15pm"}, {"days": "Sun", "time": "Closed"}], "id": "2836500005", "name": "USPS COLLECTION BOX - PO LOBBY", "address": {"city": "MOUNT OLIVE", "state": "NC", "street": "611 N BREAZEALE AVE", "postcode": "28365"}}},
{"geometry": {"type": "Point", "coordinates": [-78.3549419232, 35.2452190042]}, "type": "Feature", "properties": {"collection_times": [{"days": "Mon-Fri", "time": "4:15pm"}, {"days": "Sat", "time": "11:15am"}, {"days": "Sun", "time": "Closed"}], "id": "2836600001", "name": "USPS COLLECTION BOX - BLUE BOX", "address": {"city": "NEWTON GROVE", "state": "NC", "street": "208 FAYETTEVILLE ST", "postcode": "28366"}}},
{"geometry": {"type": "Point", "coordinates": [-78.3549419232, 35.2452190042]}, "type": "Feature", "properties": {"collection_times": [{"days": "Mon-Fri", "time": "4:15pm"}, {"days": "Sat", "time": "11:15am"}, {"days": "Sun", "time": "Closed"}], "id": "2836600002", "name": "USPS COLLECTION BOX - PO LOBBY", "address": {"city": "NEWTON GROVE", "state": "NC", "street": "208 FAYETTEVILLE ST", "postcode": "28366"}}},
{"geometry": {"type": "Point", "coordinates": [-78.3549419232, 35.2452190042]}, "type": "Feature", "properties": {"collection_times": [{"days": "Mon-Fri", "time": "4:15pm"}, {"days": "Sat", "time": "11:15am"}, {"days": "Sun", "time": "Closed"}], "id": "2836600003", "name": "USPS COLLECTION BOX - PO LOBBY", "address": {"city": "NEWTON GROVE", "state": "NC", "street": "208 FAYETTEVILLE ST", "postcode": "28366"}}},
{"geometry": {"type": "Point", "coordinates": [-79.7230580427, 35.170296149]}, "type": "Feature", "properties": {"collection_times": [{"days": "Mon-Fri", "time": "4:00pm"}, {"days": "Sat", "time": "9:30am"}, {"days": "Sun", "time": "Closed"}], "id": "2836700001", "name": "USPS COLLECTION BOX - BLUE BOX", "address": {"city": "NORMAN", "state": "NC", "street": "3664 NC HIGHWAY 220 N", "postcode": "28367"}}},
{"geometry": {"type": "Point", "coordinates": [-79.7230580427, 35.170296149]}, "type": "Feature", "properties": {"collection_times": [{"days": "Mon-Fri", "time": "4:00pm"}, {"days": "Sat", "time": "9:30am"}, {"days": "Sun", "time": "Closed"}], "id": "2836700002", "name": "USPS COLLECTION BOX - PO LOBBY", "address": {"city": "NORMAN", "state": "NC", "street": "3664 NC HIGHWAY 220 N", "postcode": "28367"}}},
{"geometry": {"type": "Point", "coordinates": [-79.1098543353, 35.3596498508]}, "type": "Feature", "properties": {"collection_times": [{"days": "Mon-Fri", "time": "4:15pm"}, {"days": "Sat", "time": "11:30am"}, {"days": "Sun", "time": "Closed"}], "id": "2836800001", "name": "USPS COLLECTION BOX - BLUE BOX", "address": {"city": "OLIVIA", "state": "NC", "street": "480 SEAWELL ROSSER RD", "postcode": "28368"}}},
{"geometry": {"type": "Point", "coordinates": [-79.1098543353, 35.3596498508]}, "type": "Feature", "properties": {"collection_times": [{"days": "Mon-Fri", "time": "4:15pm"}, {"days": "Sat", "time": "11:30am"}, {"days": "Sun", "time": "Closed"}], "id": "2836800004", "name": "USPS COLLECTION BOX - PO LOBBY", "address": {"city": "OLIVIA", "state": "NC", "street": "480 SEAWELL ROSSER RD", "postcode": "28368"}}},
{"geometry": {"type": "Point", "coordinates": [-79.0131536738, 34.4515504248]}, "type": "Feature", "properties": {"collection_times": [{"days": "Mon-Fri", "time": "4:15pm"}, {"days": "Sat", "time": "10:30am"}, {"days": "Sun", "time": "Closed"}], "id": "2836900001", "name": "USPS COLLECTION BOX - BLUE BOX", "address": {"city": "ORRUM", "state": "NC", "street": "1545 S CREEK RD", "postcode": "28369"}}},
{"geometry": {"type": "Point", "coordinates": [-79.0131536738, 34.4515504248]}, "type": "Feature", "properties": {"collection_times": [{"days": "Mon-Fri", "time": "4:15pm"}, {"days": "Sat", "time": "10:30am"}, {"days": "Sun", "time": "Closed"}], "id": "2836900002", "name": "USPS COLLECTION BOX - PO LOBBY", "address": {"city": "ORRUM", "state": "NC", "street": "1545 S CREEK RD", "postcode": "28369"}}},
{"geometry": {"type": "Point", "coordinates": [-79.0113004467, 34.9012855232]}, "type": "Feature", "properties": {"collection_times": [{"days": "Mon-Fri", "time": "4:30pm"}, {"days": "Sat", "time": "11:30am"}, {"days": "Sun", "time": "Closed"}], "id": "2837100001", "name": "USPS COLLECTION BOX - BLUE BOX", "address": {"city": "PARKTON", "state": "NC", "street": "29 S FAYETTEVILLE ST", "postcode": "28371"}}},
{"geometry": {"type": "Point", "coordinates": [-79.0113004467, 34.9012855232]}, "type": "Feature", "properties": {"collection_times": [{"days": "Mon-Fri", "time": "4:30pm"}, {"days": "Sat", "time": "11:30am"}, {"days": "Sun", "time": "Closed"}], "id": "2837100002", "name": "USPS COLLECTION BOX - PO LOBBY", "address": {"city": "PARKTON", "state": "NC", "street": "29 S FAYETTEVILLE ST", "postcode": "28371"}}},
{"geometry": {"type": "Point", "coordinates": [-79.0113004467, 34.9012855232]}, "type": "Feature", "properties": {"collection_times": [{"days": "Mon-Fri", "time": "4:30pm"}, {"days": "Sat", "time": "11:30am"}, {"days": "Sun", "time": "Closed"}], "id": "2837100003", "name": "USPS COLLECTION BOX - PO LOBBY", "address": {"city": "PARKTON", "state": "NC", "street": "29 S FAYETTEVILLE ST", "postcode": "28371"}}},
{"geometry": {"type": "Point", "coordinates": [-79.1914129074, 34.6780790775]}, "type": "Feature", "properties": {"collection_times": [{"days": "Mon-Fri", "time": "4:30pm"}, {"days": "Sat", "time": "12:00pm"}, {"days": "Sun", "time": "Closed"}], "id": "2837200001", "name": "USPS COLLECTION BOX - BLUE BOX", "address": {"city": "PEMBROKE", "state": "NC", "street": "404 E 3RD ST", "postcode": "28372"}}},
{"geometry": {"type": "Point", "coordinates": [-79.1914129074, 34.6780790775]}, "type": "Feature", "properties": {"collection_times": [{"days": "Mon-Fri", "time": "4:30pm"}, {"days": "Sat", "time": "12:00pm"}, {"days": "Sun", "time": "Closed"}], "id": "2837200002", "name": "USPS COLLECTION BOX - BLUE BOX", "address": {"city": "PEMBROKE", "state": "NC", "street": "404 E 3RD ST", "postcode": "28372"}}},
{"geometry": {"type": "Point", "coordinates": [-79.1914129074, 34.6780790775]}, "type": "Feature", "properties": {"collection_times": [{"days": "Mon-Fri", "time": "4:30pm"}, {"days": "Sat", "time": "12:00pm"}, {"days": "Sun", "time": "Closed"}], "id": "2837200003", "name": "USPS COLLECTION BOX - PO LOBBY", "address": {"city": "PEMBROKE", "state": "NC", "street": "404 E 3RD ST", "postcode": "28372"}}},
{"geometry": {"type": "Point", "coordinates": [-79.1914129074, 34.6780790775]}, "type": "Feature", "properties": {"collection_times": [{"days": "Mon-Fri", "time": "4:30pm"}, {"days": "Sat", "time": "12:00pm"}, {"days": "Sun", "time": "Closed"}], "id": "2837200004", "name": "USPS COLLECTION BOX - PO LOBBY", "address": {"city": "PEMBROKE", "state": "NC", "street": "404 E 3RD ST", "postcode": "28372"}}},
{"geometry": {"type": "Point", "coordinates": [-79.4725970678, 35.108861809]}, "type": "Feature", "properties": {"collection_times": [{"days": "Mon-Fri", "time": "4:15pm"}, {"days": "Sat", "time": "11:45am"}, {"days": "Sun", "time": "Closed"}], "id": "2837300001", "name": "USPS COLLECTION BOX - BLUE BOX", "address": {"city": "PINEBLUFF", "state": "NC", "street": "125 N WALNUT ST", "postcode": "28373"}}},
{"geometry": {"type": "Point", "coordinates": [-79.4725970678, 35.108861809]}, "type": "Feature", "properties": {"collection_times": [{"days": "Mon-Fri", "time": "4:15pm"}, {"days": "Sat", "time": "11:45am"}, {"days": "Sun", "time": "Closed"}], "id": "2837300002", "name": "USPS COLLECTION BOX - PO LOBBY", "address": {"city": "PINEBLUFF", "state": "NC", "street": "125 N WALNUT ST", "postcode": "28373"}}},
{"geometry": {"type": "Point", "coordinates": [-79.4706008574, 35.1721152981]}, "type": "Feature", "properties": {"collection_times": [{"days": "Mon-Fri", "time": "4:30pm"}, {"days": "Sat", "time": "1:00pm"}, {"days": "Sun", "time": "Closed"}], "id": "2837400001", "name": "USPS COLLECTION BOX - BLUE BOX", "address": {"city": "PINEHURST", "state": "NC", "street": "80 BLAKE BLVD", "postcode": "28374"}}},
{"geometry": {"type": "Point", "coordinates": [-79.4670399191, 35.1956034117]}, "type": "Feature", "properties": {"collection_times": [{"days": "Mon-Fri", "time": "2:30pm"}, {"days": "Sat-Sun", "time": "Closed"}], "id": "2837400002", "name": "USPS COLLECTION BOX - BLUE BOX", "address": {"city": "PINEHURST", "state": "NC", "street": "95 CHEROKEE RD", "postcode": "28374"}}},
{"geometry": {"type": "Point", "coordinates": [-79.4706008574, 35.1721152981]}, "type": "Feature", "properties": {"collection_times": [{"days": "Mon-Fri", "time": "4:30pm"}, {"days": "Sat", "time": "1:00pm"}, {"days": "Sun", "time": "Closed"}], "id": "2837400003", "name": "USPS COLLECTION BOX - BLUE BOX", "address": {"city": "PINEHURST", "state": "NC", "street": "80 BLAKE BLVD", "postcode": "28374"}}},
{"geometry": {"type": "Point", "coordinates": [-79.4670399191, 35.1956034117]}, "type": "Feature", "properties": {"collection_times": [{"days": "Mon-Fri", "time": "2:30pm"}, {"days": "Sat-Sun", "time": "Closed"}], "id": "2837400004", "name": "USPS COLLECTION BOX - BLUE BOX", "address": {"city": "PINEHURST", "state": "NC", "street": "95 CHEROKEE RD", "postcode": "28374"}}},
{"geometry": {"type": "Point", "coordinates": [-79.4670399191, 35.1956034117]}, "type": "Feature", "properties": {"collection_times": [{"days": "Mon-Fri", "time": "2:30pm"}, {"days": "Sat-Sun", "time": "Closed"}], "id": "2837400005", "name": "USPS COLLECTION BOX - BLUE BOX", "address": {"city": "PINEHURST", "state": "NC", "street": "95 CHEROKEE RD", "postcode": "28374"}}},
{"geometry": {"type": "Point", "coordinates": [-79.4706008574, 35.1721152981]}, "type": "Feature", "properties": {"collection_times": [{"days": "Mon-Fri", "time": "4:30pm"}, {"days": "Sat", "time": "1:00pm"}, {"days": "Sun", "time": "Closed"}], "id": "2837400006", "name": "USPS COLLECTION BOX - BLUE BOX", "address": {"city": "PINEHURST", "state": "NC", "street": "80 BLAKE BLVD", "postcode": "28374"}}},
{"geometry": {"type": "Point", "coordinates": [-79.4609416781, 35.1968534624]}, "type": "Feature", "properties": {"collection_times": [{"days": "Mon-Fri", "time": "12:00pm"}, {"days": "Sat-Sun", "time": "Closed"}], "id": "2837400007", "name": "USPS COLLECTION BOX - BLUE BOX", "address": {"city": "PINEHURST", "state": "NC", "street": "@ OLMSTEAD VLG", "postcode": "28374"}}},
{"geometry": {"type": "Point", "coordinates": [-79.4706008574, 35.1721152981]}, "type": "Feature", "properties": {"collection_times": [{"days": "Mon-Fri", "time": "4:30pm"}, {"days": "Sat", "time": "1:00pm"}, {"days": "Sun", "time": "Closed"}], "id": "2837400008", "name": "USPS COLLECTION BOX - PO LOBBY", "address": {"city": "PINEHURST", "state": "NC", "street": "80 BLAKE BLVD", "postcode": "28374"}}},
{"geometry": {"type": "Point", "coordinates": [-79.4706008574, 35.1721152981]}, "type": "Feature", "properties": {"collection_times": [{"days": "Mon-Fri", "time": "4:30pm"}, {"days": "Sat", "time": "1:00pm"}, {"days": "Sun", "time": "Closed"}], "id": "2837400009", "name": "USPS COLLECTION BOX - PO LOBBY", "address": {"city": "PINEHURST", "state": "NC", "street": "80 BLAKE BLVD", "postcode": "28374"}}},
{"geometry": {"type": "Point", "coordinates": [-79.0360232421, 34.4764472634]}, "type": "Feature", "properties": {"collection_times": [{"days": "Mon-Fri", "time": "4:30pm"}, {"days": "Sat", "time": "9:00am"}, {"days": "Sun", "time": "Closed"}], "id": "2837500001", "name": "USPS COLLECTION BOX - BLUE BOX", "address": {"city": "PROCTORVILLE", "state": "NC", "street": "101 W MAIN ST", "postcode": "28375"}}},
{"geometry": {"type": "Point", "coordinates": [-79.0360232421, 34.4764472634]}, "type": "Feature", "properties": {"collection_times": [{"days": "Mon-Fri", "time": "4:30pm"}, {"days": "Sat", "time": "9:00am"}, {"days": "Sun", "time": "Closed"}], "id": "2837500002", "name": "USPS COLLECTION BOX - PO LOBBY", "address": {"city": "PROCTORVILLE", "state": "NC", "street": "101 W MAIN ST", "postcode": "28375"}}},
{"geometry": {"type": "Point", "coordinates": [-79.0360232421, 34.4764472634]}, "type": "Feature", "properties": {"collection_times": [{"days": "Mon-Fri", "time": "4:30pm"}, {"days": "Sat", "time": "9:00am"}, {"days": "Sun", "time": "Closed"}], "id": "2837500003", "name": "USPS COLLECTION BOX - PO LOBBY", "address": {"city": "PROCTORVILLE", "state": "NC", "street": "101 W MAIN ST", "postcode": "28375"}}},
{"geometry": {"type": "Point", "coordinates": [-79.2245920016, 34.9800140296]}, "type": "Feature", "properties": {"collection_times": [{"days": "Mon-Fri", "time": "5:00pm"}, {"days": "Sat", "time": "12:00pm"}, {"days": "Sun", "time": "Closed"}], "id": "2837600014", "name": "USPS COLLECTION BOX - BLUE BOX", "address": {"city": "RAEFORD", "state": "NC", "street": "122 W ELWOOD AVE", "postcode": "28376"}}},
{"geometry": {"type": "Point", "coordinates": [-79.2245920016, 34.9800140296]}, "type": "Feature", "properties": {"collection_times": [{"days": "Mon-Fri", "time": "5:00pm"}, {"days": "Sat", "time": "12:00pm"}, {"days": "Sun", "time": "Closed"}], "id": "2837600015", "name": "USPS COLLECTION BOX - BLUE BOX", "address": {"city": "RAEFORD", "state": "NC", "street": "122 W ELWOOD AVE", "postcode": "28376"}}},
{"geometry": {"type": "Point", "coordinates": [-79.2245920016, 34.9800140296]}, "type": "Feature", "properties": {"collection_times": [{"days": "Mon-Fri", "time": "5:00pm"}, {"days": "Sat", "time": "12:00pm"}, {"days": "Sun", "time": "Closed"}], "id": "2837600016", "name": "USPS COLLECTION BOX - PO LOBBY", "address": {"city": "RAEFORD", "state": "NC", "street": "122 W ELWOOD AVE", "postcode": "28376"}}},
{"geometry": {"type": "Point", "coordinates": [-79.2245920016, 34.9800140296]}, "type": "Feature", "properties": {"collection_times": [{"days": "Mon-Fri", "time": "5:00pm"}, {"days": "Sat", "time": "12:00pm"}, {"days": "Sun", "time": "Closed"}], "id": "2837600017", "name": "USPS COLLECTION BOX - PO LOBBY", "address": {"city": "RAEFORD", "state": "NC", "street": "122 W ELWOOD AVE", "postcode": "28376"}}},
{"geometry": {"type": "Point", "coordinates": [-79.1829251066, 34.8145993246]}, "type": "Feature", "properties": {"collection_times": [{"days": "Mon-Fri", "time": "4:30pm"}, {"days": "Sat", "time": "12:00pm"}, {"days": "Sun", "time": "Closed"}], "id": "2837700013", "name": "USPS COLLECTION BOX - BLUE BOX", "address": {"city": "RED SPRINGS", "state": "NC", "street": "230 S MAIN ST", "postcode": "28377"}}},
{"geometry": {"type": "Point", "coordinates": [-79.1829251066, 34.8145993246]}, "type": "Feature", "properties": {"collection_times": [{"days": "Mon-Fri", "time": "4:30pm"}, {"days": "Sat", "time": "12:00pm"}, {"days": "Sun", "time": "Closed"}], "id": "2837700014", "name": "USPS COLLECTION BOX - PO LOBBY", "address": {"city": "RED SPRINGS", "state": "NC", "street": "230 S MAIN ST", "postcode": "28377"}}},
{"geometry": {"type": "Point", "coordinates": [-79.0488373021, 34.8574691257]}, "type": "Feature", "properties": {"collection_times": [{"days": "Mon-Fri", "time": "4:45pm"}, {"days": "Sat", "time": "9:00am"}, {"days": "Sun", "time": "Closed"}], "id": "2837800002", "name": "USPS COLLECTION BOX - PO LOBBY", "address": {"city": "REX", "state": "NC", "street": "1045 REX RD", "postcode": "28378"}}},
{"geometry": {"type": "Point", "coordinates": [-79.0488373021, 34.8574691257]}, "type": "Feature", "properties": {"collection_times": [{"days": "Mon-Fri", "time": "4:45pm"}, {"days": "Sat", "time": "9:00am"}, {"days": "Sun", "time": "Closed"}], "id": "2837800003", "name": "USPS COLLECTION BOX - PO LOBBY", "address": {"city": "REX", "state": "NC", "street": "1045 REX RD", "postcode": "28378"}}},
{"geometry": {"type": "Point", "coordinates": [-79.0477781626, 34.8541909124]}, "type": "Feature", "properties": {"collection_times": [{"days": "Mon-Fri", "time": "4:45pm"}, {"days": "Sat", "time": "9:00am"}, {"days": "Sun", "time": "Closed"}], "id": "2837800004", "name": "USPS COLLECTION BOX - BLUE BOX", "address": {"city": "REX", "state": "NC", "street": "1045 REX RD", "postcode": "28378"}}},
{"geometry": {"type": "Point", "coordinates": [-79.774872143, 34.9391706546]}, "type": "Feature", "properties": {"collection_times": [{"days": "Mon-Fri", "time": "5:00pm"}, {"days": "Sat", "time": "12:00pm"}, {"days": "Sun", "time": "Closed"}], "id": "2837900001", "name": "USPS COLLECTION BOX - BLUE BOX", "address": {"city": "ROCKINGHAM", "state": "NC", "street": "119 W WASHINGTON ST", "postcode": "28379"}}},
{"geometry": {"type": "Point", "coordinates": [-79.774872143, 34.9391706546]}, "type": "Feature", "properties": {"collection_times": [{"days": "Mon-Fri", "time": "5:00pm"}, {"days": "Sat", "time": "12:00pm"}, {"days": "Sun", "time": "Closed"}], "id": "2837900002", "name": "USPS COLLECTION BOX - BLUE BOX", "address": {"city": "ROCKINGHAM", "state": "NC", "street": "119 W WASHINGTON ST", "postcode": "28379"}}},
{"geometry": {"type": "Point", "coordinates": [-79.7732241773, 34.9382799463]}, "type": "Feature", "properties": {"collection_times": [{"days": "Mon-Fri", "time": "1:00pm"}, {"days": "Sat-Sun", "time": "Closed"}], "id": "2837900004", "name": "USPS COLLECTION BOX - BLUE BOX", "address": {"city": "ROCKINGHAM", "state": "NC", "street": "219 E FRANKLIN ST", "postcode": "28379"}}},
{"geometry": {"type": "Point", "coordinates": [-79.7732241773, 34.9382799463]}, "type": "Feature", "properties": {"collection_times": [{"days": "Mon-Fri", "time": "1:00pm"}, {"days": "Sat-Sun", "time": "Closed"}], "id": "2837900007", "name": "USPS COLLECTION BOX - BLUE BOX", "address": {"city": "ROCKINGHAM", "state": "NC", "street": "219 E FRANKLIN ST", "postcode": "28379"}}},
{"geometry": {"type": "Point", "coordinates": [-79.7612367557, 34.9383623589]}, "type": "Feature", "properties": {"collection_times": [{"days": "Mon-Fri", "time": "1:00pm"}, {"days": "Sat-Sun", "time": "Closed"}], "id": "2837900008", "name": "USPS COLLECTION BOX - BLUE BOX", "address": {"city": "ROCKINGHAM", "state": "NC", "street": "EASTSIDE DR", "postcode": "28379"}}},
{"geometry": {"type": "Point", "coordinates": [-79.7505106358, 34.9224034371]}, "type": "Feature", "properties": {"collection_times": [{"days": "Mon-Fri", "time": "1:00pm"}, {"days": "Sat-Sun", "time": "Closed"}], "id": "2837900009", "name": "USPS COLLECTION BOX - BLUE BOX", "address": {"city": "ROCKINGHAM", "state": "NC", "street": "1305 E BROAD AVE", "postcode": "28379"}}},
{"geometry": {"type": "Point", "coordinates": [-79.7602502899, 34.9316287147]}, "type": "Feature", "properties": {"collection_times": [{"days": "Mon-Fri", "time": "1:00pm"}, {"days": "Sat-Sun", "time": "Closed"}], "id": "2837900011", "name": "USPS COLLECTION BOX - BLUE BOX", "address": {"city": "ROCKINGHAM", "state": "NC", "street": "870 ROCKINGHAM RD", "postcode": "28379"}}},
{"geometry": {"type": "Point", "coordinates": [-79.774872143, 34.9391706546]}, "type": "Feature", "properties": {"collection_times": [{"days": "Mon-Fri", "time": "5:00pm"}, {"days": "Sat", "time": "12:00pm"}, {"days": "Sun", "time": "Closed"}], "id": "2837900014", "name": "USPS COLLECTION BOX - PO LOBBY", "address": {"city": "ROCKINGHAM", "state": "NC", "street": "119 W WASHINGTON ST", "postcode": "28379"}}},
{"geometry": {"type": "Point", "coordinates": [-79.774872143, 34.9391706546]}, "type": "Feature", "properties": {"collection_times": [{"days": "Mon-Fri", "time": "5:00pm"}, {"days": "Sat", "time": "12:00pm"}, {"days": "Sun", "time": "Closed"}], "id": "2837900015", "name": "USPS COLLECTION BOX - PO LOBBY", "address": {"city": "ROCKINGHAM", "state": "NC", "street": "119 W WASHINGTON ST", "postcode": "28379"}}},
{"geometry": {"type": "Point", "coordinates": [-79.7510656888, 34.9288467921]}, "type": "Feature", "properties": {"collection_times": [{"days": "Mon-Sat", "time": "1:00pm"}, {"days": "Sun", "time": "Closed"}], "id": "2837900016", "name": "USPS COLLECTION BOX - BLUE BOX", "address": {"city": "ROCKINGHAM", "state": "NC", "street": "925 S LONG DR", "postcode": "28379"}}},
{"geometry": {"type": "Point", "coordinates": [-78.5102231722, 34.9516917533]}, "type": "Feature", "properties": {"collection_times": [{"days": "Mon-Fri", "time": "3:45pm"}, {"days": "Sat", "time": "11:30am"}, {"days": "Sun", "time": "Closed"}], "id": "2838200002", "name": "USPS COLLECTION BOX - BLUE BOX", "address": {"city": "ROSEBORO", "state": "NC", "street": "201 W PLEASANT ST", "postcode": "28382"}}},
{"geometry": {"type": "Point", "coordinates": [-78.5102231722, 34.9516917533]}, "type": "Feature", "properties": {"collection_times": [{"days": "Mon-Fri", "time": "3:45pm"}, {"days": "Sat", "time": "11:30am"}, {"days": "Sun", "time": "Closed"}], "id": "2838200003", "name": "USPS COLLECTION BOX - PO LOBBY", "address": {"city": "ROSEBORO", "state": "NC", "street": "201 W PLEASANT ST", "postcode": "28382"}}},
{"geometry": {"type": "Point", "coordinates": [-79.2905578766, 34.5376482502]}, "type": "Feature", "properties": {"collection_times": [{"days": "Mon-Fri", "time": "4:30pm"}, {"days": "Sat", "time": "12:00pm"}, {"days": "Sun", "time": "Closed"}], "id": "2838300002", "name": "USPS COLLECTION BOX - BLUE BOX", "address": {"city": "ROWLAND", "state": "NC", "street": "202 N BOND ST", "postcode": "28383"}}},
{"geometry": {"type": "Point", "coordinates": [-79.2614785681, 34.5880028405]}, "type": "Feature", "properties": {"collection_times": [{"days": "Mon-Fri", "time": "4:30pm"}, {"days": "Sat", "time": "12:00pm"}, {"days": "Sun", "time": "Closed"}], "id": "2838300003", "name": "USPS COLLECTION BOX - PO LOBBY", "address": {"city": "ROWLAND", "state": "NC", "street": "202 N BOND ST", "postcode": "28383"}}},
{"geometry": {"type": "Point", "coordinates": [-79.2905578766, 34.5376482502]}, "type": "Feature", "properties": {"collection_times": [{"days": "Mon-Fri", "time": "4:30pm"}, {"days": "Sat", "time": "12:00pm"}, {"days": "Sun", "time": "Closed"}], "id": "2838300004", "name": "USPS COLLECTION BOX - PO LOBBY", "address": {"city": "ROWLAND", "state": "NC", "street": "202 N BOND ST", "postcode": "28383"}}},
{"geometry": {"type": "Point", "coordinates": [-78.9753651785, 34.8043745239]}, "type": "Feature", "properties": {"collection_times": [{"days": "Mon-Fri", "time": "4:30pm"}, {"days": "Sat", "time": "1:00pm"}, {"days": "Sun", "time": "Closed"}], "id": "2838400001", "name": "USPS COLLECTION BOX - BLUE BOX", "address": {"city": "SAINT PAULS", "state": "NC", "street": "375 S 4TH ST", "postcode": "28384"}}},
{"geometry": {"type": "Point", "coordinates": [-78.976515619, 34.8053371544]}, "type": "Feature", "properties": {"collection_times": [{"days": "Mon-Fri", "time": "10:00am"}, {"days": "Sat-Sun", "time": "Closed"}], "id": "2838400002", "name": "USPS COLLECTION BOX - BLUE BOX", "address": {"city": "SAINT PAULS", "state": "NC", "street": "326 S 5TH ST", "postcode": "28384"}}},
{"geometry": {"type": "Point", "coordinates": [-78.9738420497, 34.8069922149]}, "type": "Feature", "properties": {"collection_times": [{"days": "Mon-Fri", "time": "10:30am"}, {"days": "Sat-Sun", "time": "Closed"}], "id": "2838400003", "name": "USPS COLLECTION BOX - BLUE BOX", "address": {"city": "SAINT PAULS", "state": "NC", "street": "940 W BROAD ST", "postcode": "28384"}}},
{"geometry": {"type": "Point", "coordinates": [-78.9701281375, 34.8154775707]}, "type": "Feature", "properties": {"collection_times": [{"days": "Mon-Fri", "time": "11:00am"}, {"days": "Sat-Sun", "time": "Closed"}], "id": "2838400004", "name": "USPS COLLECTION BOX - BLUE BOX", "address": {"city": "SAINT PAULS", "state": "NC", "street": "101 EVANS RD", "postcode": "28384"}}},
{"geometry": {"type": "Point", "coordinates": [-78.9719458979, 34.809535976]}, "type": "Feature", "properties": {"collection_times": [{"days": "Mon-Fri", "time": "11:30am"}, {"days": "Sat-Sun", "time": "Closed"}], "id": "2838400005", "name": "USPS COLLECTION BOX - BLUE BOX", "address": {"city": "SAINT PAULS", "state": "NC", "street": "426 N 2ND ST", "postcode": "28384"}}},
{"geometry": {"type": "Point", "coordinates": [-78.9559464714, 34.8046317797]}, "type": "Feature", "properties": {"collection_times": [{"days": "Mon-Fri", "time": "4:30pm"}, {"days": "Sat", "time": "1:00pm"}, {"days": "Sun", "time": "Closed"}], "id": "2838400006", "name": "USPS COLLECTION BOX - PO LOBBY", "address": {"city": "SAINT PAULS", "state": "NC", "street": "375 S 4TH ST", "postcode": "28384"}}},
{"geometry": {"type": "Point", "coordinates": [-78.9559464714, 34.8046317797]}, "type": "Feature", "properties": {"collection_times": [{"days": "Mon-Fri", "time": "4:30pm"}, {"days": "Sat", "time": "1:00pm"}, {"days": "Sun", "time": "Closed"}], "id": "2838400007", "name": "USPS COLLECTION BOX - PO LOBBY", "address": {"city": "SAINT PAULS", "state": "NC", "street": "375 S 4TH ST", "postcode": "28384"}}},
{"geometry": {"type": "Point", "coordinates": [-78.5030785034, 35.0162307571]}, "type": "Feature", "properties": {"collection_times": [{"days": "Mon-Fri", "time": "4:30pm"}, {"days": "Sat", "time": "12:00pm"}, {"days": "Sun", "time": "Closed"}], "id": "2838500001", "name": "USPS COLLECTION BOX - BLUE BOX", "address": {"city": "SALEMBURG", "state": "NC", "street": "106 W CLINTON ST", "postcode": "28385"}}},
{"geometry": {"type": "Point", "coordinates": [-78.5030785034, 35.0162307571]}, "type": "Feature", "properties": {"collection_times": [{"days": "Mon-Fri", "time": "4:30pm"}, {"days": "Sat", "time": "12:00pm"}, {"days": "Sun", "time": "Closed"}], "id": "2838500002", "name": "USPS COLLECTION BOX - PO LOBBY", "address": {"city": "SALEMBURG", "state": "NC", "street": "106 W CLINTON ST", "postcode": "28385"}}},
{"geometry": {"type": "Point", "coordinates": [-79.1227309098, 34.8505982094]}, "type": "Feature", "properties": {"collection_times": [{"days": "Mon-Fri", "time": "4:30pm"}, {"days": "Sat", "time": "11:00am"}, {"days": "Sun", "time": "Closed"}], "id": "2838600001", "name": "USPS COLLECTION BOX - BLUE BOX", "address": {"city": "SHANNON", "state": "NC", "street": "@ HWY 71", "postcode": "28386"}}},
{"geometry": {"type": "Point", "coordinates": [-79.1227309098, 34.8505982094]}, "type": "Feature", "properties": {"collection_times": [{"days": "Mon-Fri", "time": "4:30pm"}, {"days": "Sat", "time": "11:00am"}, {"days": "Sun", "time": "Closed"}], "id": "2838600003", "name": "USPS COLLECTION BOX - PO LOBBY", "address": {"city": "SHANNON", "state": "NC", "street": "@ HWY 71", "postcode": "28386"}}},
{"geometry": {"type": "Point", "coordinates": [-79.3913265384, 35.1739905811]}, "type": "Feature", "properties": {"collection_times": [{"days": "Mon-Sat", "time": "2:30pm"}, {"days": "Sun", "time": "Closed"}], "id": "2838700003", "name": "USPS COLLECTION BOX - BLUE BOX", "address": {"city": "SOUTHERN PINES", "state": "NC", "street": "137 NE BROAD ST", "postcode": "28387"}}},
{"geometry": {"type": "Point", "coordinates": [-79.3995697905, 35.1692099352]}, "type": "Feature", "properties": {"collection_times": [{"days": "Mon-Sat", "time": "2:00pm"}, {"days": "Sun", "time": "Closed"}], "id": "2838700005", "name": "USPS COLLECTION BOX - BLUE BOX", "address": {"city": "SOUTHERN PINES", "state": "NC", "street": "672 SW BROAD ST", "postcode": "28387"}}},
{"geometry": {"type": "Point", "coordinates": [-79.3932417118, 35.1732427525]}, "type": "Feature", "properties": {"collection_times": [{"days": "Mon-Fri", "time": "5:00pm"}, {"days": "Sat", "time": "4:00pm"}, {"days": "Sun", "time": "Closed"}], "id": "2838700007", "name": "USPS COLLECTION BOX - BLUE BOX", "address": {"city": "SOUTHERN PINES", "state": "NC", "street": "190 SW BROAD ST", "postcode": "28387"}}},
{"geometry": {"type": "Point", "coordinates": [-79.4029817774, 35.1951008365]}, "type": "Feature", "properties": {"collection_times": [{"days": "Mon-Sat", "time": "2:00pm"}, {"days": "Sun", "time": "Closed"}], "id": "2838700009", "name": "USPS COLLECTION BOX - BLUE BOX", "address": {"city": "SOUTHERN PINES", "state": "NC", "street": "1765 W PENNSYLVANIA AVE", "postcode": "28387"}}},
{"geometry": {"type": "Point", "coordinates": [-79.3951825543, 35.1773401447]}, "type": "Feature", "properties": {"collection_times": [{"days": "Mon-Sat", "time": "2:00pm"}, {"days": "Sun", "time": "Closed"}], "id": "2838700010", "name": "USPS COLLECTION BOX - BLUE BOX", "address": {"city": "SOUTHERN PINES", "state": "NC", "street": "400 W PENNSYLVANIA AVE", "postcode": "28387"}}},
{"geometry": {"type": "Point", "coordinates": [-79.4326426816, 35.1785630939]}, "type": "Feature", "properties": {"collection_times": [{"days": "Mon-Sat", "time": "2:30pm"}, {"days": "Sun", "time": "Closed"}], "id": "2838700011", "name": "USPS COLLECTION BOX - BLUE BOX", "address": {"city": "SOUTHERN PINES", "state": "NC", "street": "42 PINECREST PLZ", "postcode": "28387"}}},
{"geometry": {"type": "Point", "coordinates": [-79.4208302251, 35.1621880644]}, "type": "Feature", "properties": {"collection_times": [{"days": "Mon-Sat", "time": "2:00pm"}, {"days": "Sun", "time": "Closed"}], "id": "2838700012", "name": "USPS COLLECTION BOX - BLUE BOX", "address": {"city": "SOUTHERN PINES", "state": "NC", "street": "105 COMMERCE AVE", "postcode": "28387"}}},
{"geometry": {"type": "Point", "coordinates": [-79.4120458751, 35.1578204748]}, "type": "Feature", "properties": {"collection_times": [{"days": "Mon-Sat", "time": "2:00pm"}, {"days": "Sun", "time": "Closed"}], "id": "2838700015", "name": "USPS COLLECTION BOX - BLUE BOX", "address": {"city": "SOUTHERN PINES", "state": "NC", "street": "1930 N POPLAR ST", "postcode": "28387"}}},
{"geometry": {"type": "Point", "coordinates": [-79.3932417118, 35.1732427525]}, "type": "Feature", "properties": {"collection_times": [{"days": "Mon-Fri", "time": "5:00pm"}, {"days": "Sat", "time": "4:00pm"}, {"days": "Sun", "time": "Closed"}], "id": "2838700016", "name": "USPS COLLECTION BOX - BLUE BOX", "address": {"city": "SOUTHERN PINES", "state": "NC", "street": "190 SW BROAD ST", "postcode": "28387"}}},
{"geometry": {"type": "Point", "coordinates": [-79.3932417118, 35.1732427525]}, "type": "Feature", "properties": {"collection_times": [{"days": "Mon-Fri", "time": "5:00pm"}, {"days": "Sat", "time": "4:00pm"}, {"days": "Sun", "time": "Closed"}], "id": "2838700017", "name": "USPS COLLECTION BOX - BLUE BOX", "address": {"city": "SOUTHERN PINES", "state": "NC", "street": "190 SW BROAD ST", "postcode": "28387"}}},
{"geometry": {"type": "Point", "coordinates": [-79.3932417118, 35.1732427525]}, "type": "Feature", "properties": {"collection_times": [{"days": "Mon-Fri", "time": "5:00pm"}, {"days": "Sat", "time": "4:00pm"}, {"days": "Sun", "time": "Closed"}], "id": "2838700022", "name": "USPS COLLECTION BOX - PO LOBBY", "address": {"city": "SOUTHERN PINES", "state": "NC", "street": "190 SW BROAD ST", "postcode": "28387"}}},
{"geometry": {"type": "Point", "coordinates": [-79.3932417118, 35.1732427525]}, "type": "Feature", "properties": {"collection_times": [{"days": "Mon-Fri", "time": "5:00pm"}, {"days": "Sat", "time": "4:00pm"}, {"days": "Sun", "time": "Closed"}], "id": "2838700023", "name": "USPS COLLECTION BOX - PO LOBBY", "address": {"city": "SOUTHERN PINES", "state": "NC", "street": "190 SW BROAD ST", "postcode": "28387"}}},
{"geometry": {"type": "Point", "coordinates": [-79.3825684015, 35.1856294345]}, "type": "Feature", "properties": {"collection_times": [{"days": "Mon-Fri", "time": "2:00pm"}, {"days": "Sat", "time": "12:00pm"}, {"days": "Sun", "time": "Closed"}], "id": "2838700026", "name": "USPS COLLECTION BOX - BLUE BOX", "address": {"city": "SOUTHERN PINES", "state": "NC", "street": "515 MIDLAND RD", "postcode": "28387"}}},
{"geometry": {"type": "Point", "coordinates": [-79.4090493635, 35.1639553531]}, "type": "Feature", "properties": {"collection_times": [{"days": "Mon-Fri", "time": "2:00pm"}, {"days": "Sat", "time": "12:00pm"}, {"days": "Sun", "time": "Closed"}], "id": "2838700027", "name": "USPS COLLECTION BOX - BLUE BOX", "address": {"city": "SOUTHERN PINES", "state": "NC", "street": "900 US HIGHWAY 1 S", "postcode": "28387"}}},
{"geometry": {"type": "Point", "coordinates": [-79.3916171138, 35.1742928208]}, "type": "Feature", "properties": {"collection_times": [{"days": "Mon-Fri", "time": "2:00pm"}, {"days": "Sat", "time": "12:00pm"}, {"days": "Sun", "time": "Closed"}], "id": "2838700028", "name": "USPS COLLECTION BOX - BLUE BOX", "address": {"city": "SOUTHERN PINES", "state": "NC", "street": "137 NW BROAD ST", "postcode": "28387"}}},
{"geometry": {"type": "Point", "coordinates": [-78.9687128096, 35.1754187652]}, "type": "Feature", "properties": {"collection_times": [{"days": "Mon-Sat", "time": "8:00am"}, {"days": "Sun", "time": "Closed"}], "id": "2839000005", "name": "USPS COLLECTION BOX - BLUE BOX", "address": {"city": "SPRING LAKE", "state": "NC", "street": "670 LILLINGTON HWY", "postcode": "28390"}}},
{"geometry": {"type": "Point", "coordinates": [-78.9773022746, 35.1689822855]}, "type": "Feature", "properties": {"collection_times": [{"days": "Mon-Fri", "time": "4:30pm"}, {"days": "Sat", "time": "11:30am"}, {"days": "Sun", "time": "Closed"}], "id": "2839000009", "name": "USPS COLLECTION BOX - BLUE BOX", "address": {"city": "SPRING LAKE", "state": "NC", "street": "225 N MAIN ST", "postcode": "28390"}}},
{"geometry": {"type": "Point", "coordinates": [-78.9649722933, 35.1818209392]}, "type": "Feature", "properties": {"collection_times": [{"days": "Mon-Sat", "time": "8:00am"}, {"days": "Sun", "time": "Closed"}], "id": "2839000010", "name": "USPS COLLECTION BOX - BLUE BOX", "address": {"city": "SPRING LAKE", "state": "NC", "street": "1080 LILLINGTON HWY", "postcode": "28390"}}},
{"geometry": {"type": "Point", "coordinates": [-78.954302851, 35.2274852881]}, "type": "Feature", "properties": {"collection_times": [{"days": "Mon-Sat", "time": "10:00am"}, {"days": "Sun", "time": "Closed"}], "id": "2839000012", "name": "USPS COLLECTION BOX - BLUE BOX", "address": {"city": "SPRING LAKE", "state": "NC", "street": "3266 RAY RD", "postcode": "28390"}}},
{"geometry": {"type": "Point", "coordinates": [-78.9773022746, 35.1689822855]}, "type": "Feature", "properties": {"collection_times": [{"days": "Mon-Fri", "time": "4:30pm"}, {"days": "Sat", "time": "11:30am"}, {"days": "Sun", "time": "Closed"}], "id": "2839000015", "name": "USPS COLLECTION BOX - PO LOBBY", "address": {"city": "SPRING LAKE", "state": "NC", "street": "225 N MAIN ST", "postcode": "28390"}}},
{"geometry": {"type": "Point", "coordinates": [-78.9773022746, 35.1689822855]}, "type": "Feature", "properties": {"collection_times": [{"days": "Mon-Fri", "time": "4:30pm"}, {"days": "Sat", "time": "11:30am"}, {"days": "Sun", "time": "Closed"}], "id": "2839000016", "name": "USPS COLLECTION BOX - PO LOBBY", "address": {"city": "SPRING LAKE", "state": "NC", "street": "225 N MAIN ST", "postcode": "28390"}}},
{"geometry": {"type": "Point", "coordinates": [-78.7528037257, 35.0357598833]}, "type": "Feature", "properties": {"collection_times": [{"days": "Mon-Fri", "time": "5:00pm"}, {"days": "Sat", "time": "12:00pm"}, {"days": "Sun", "time": "Closed"}], "id": "2839100001", "name": "USPS COLLECTION BOX - BLUE BOX", "address": {"city": "STEDMAN", "state": "NC", "street": "5119 CLINTON RD", "postcode": "28391"}}},
{"geometry": {"type": "Point", "coordinates": [-78.7528037257, 35.0357598833]}, "type": "Feature", "properties": {"collection_times": [{"days": "Mon-Fri", "time": "5:00pm"}, {"days": "Sat", "time": "12:00pm"}, {"days": "Sun", "time": "Closed"}], "id": "2839100002", "name": "USPS COLLECTION BOX - PO LOBBY", "address": {"city": "STEDMAN", "state": "NC", "street": "5119 CLINTON RD", "postcode": "28391"}}},
{"geometry": {"type": "Point", "coordinates": [-78.8111854347, 34.7493814851]}, "type": "Feature", "properties": {"collection_times": [{"days": "Mon-Fri", "time": "4:30pm"}, {"days": "Sat", "time": "11:00am"}, {"days": "Sun", "time": "Closed"}], "id": "2839200001", "name": "USPS COLLECTION BOX - BLUE BOX", "address": {"city": "TAR HEEL", "state": "NC", "street": "@ PINE ST", "postcode": "28392"}}},
{"geometry": {"type": "Point", "coordinates": [-78.8111854347, 34.7493814851]}, "type": "Feature", "properties": {"collection_times": [{"days": "Mon-Fri", "time": "4:30pm"}, {"days": "Sat", "time": "11:00am"}, {"days": "Sun", "time": "Closed"}], "id": "2839200002", "name": "USPS COLLECTION BOX - PO LOBBY", "address": {"city": "TAR HEEL", "state": "NC", "street": "@ PINE ST", "postcode": "28392"}}},
{"geometry": {"type": "Point", "coordinates": [-78.1836149299, 34.9915127099]}, "type": "Feature", "properties": {"collection_times": [{"days": "Mon-Fri", "time": "4:45pm"}, {"days": "Sat", "time": "8:30am"}, {"days": "Sun", "time": "Closed"}], "id": "2839300001", "name": "USPS COLLECTION BOX - BLUE BOX", "address": {"city": "TURKEY", "state": "NC", "street": "54 UNION RD", "postcode": "28393"}}},
{"geometry": {"type": "Point", "coordinates": [-78.1836149299, 34.9915127099]}, "type": "Feature", "properties": {"collection_times": [{"days": "Mon-Fri", "time": "4:45pm"}, {"days": "Sat", "time": "8:30am"}, {"days": "Sun", "time": "Closed"}], "id": "2839300002", "name": "USPS COLLECTION BOX - PO LOBBY", "address": {"city": "TURKEY", "state": "NC", "street": "54 UNION RD", "postcode": "28393"}}},
{"geometry": {"type": "Point", "coordinates": [-78.1836149299, 34.9915127099]}, "type": "Feature", "properties": {"collection_times": [{"days": "Mon-Fri", "time": "4:45pm"}, {"days": "Sat", "time": "8:30am"}, {"days": "Sun", "time": "Closed"}], "id": "2839300003", "name": "USPS COLLECTION BOX - PO LOBBY", "address": {"city": "TURKEY", "state": "NC", "street": "54 UNION RD", "postcode": "28393"}}},
{"geometry": {"type": "Point", "coordinates": [-79.2815640522, 35.2561344213]}, "type": "Feature", "properties": {"collection_times": [{"days": "Mon-Fri", "time": "4:45pm"}, {"days": "Sat", "time": "10:45am"}, {"days": "Sun", "time": "Closed"}], "id": "2839400001", "name": "USPS COLLECTION BOX - BLUE BOX", "address": {"city": "VASS", "state": "NC", "street": "120 SEABOARD ST", "postcode": "28394"}}},
{"geometry": {"type": "Point", "coordinates": [-79.2815640522, 35.2561344213]}, "type": "Feature", "properties": {"collection_times": [{"days": "Mon-Fri", "time": "4:45pm"}, {"days": "Sat", "time": "10:45am"}, {"days": "Sun", "time": "Closed"}], "id": "2839400002", "name": "USPS COLLECTION BOX - PO LOBBY", "address": {"city": "VASS", "state": "NC", "street": "120 SEABOARD ST", "postcode": "28394"}}},
{"geometry": {"type": "Point", "coordinates": [-78.7281829462, 35.1609097735]}, "type": "Feature", "properties": {"collection_times": [{"days": "Mon-Fri", "time": "4:30pm"}, {"days": "Sat", "time": "11:45am"}, {"days": "Sun", "time": "Closed"}], "id": "2839500001", "name": "USPS COLLECTION BOX - BLUE BOX", "address": {"city": "WADE", "state": "NC", "street": "6927 WADE STEDMAN RD", "postcode": "28395"}}},
{"geometry": {"type": "Point", "coordinates": [-78.7281829462, 35.1609097735]}, "type": "Feature", "properties": {"collection_times": [{"days": "Mon-Fri", "time": "4:30pm"}, {"days": "Sat", "time": "11:45am"}, {"days": "Sun", "time": "Closed"}], "id": "2839500002", "name": "USPS COLLECTION BOX - PO LOBBY", "address": {"city": "WADE", "state": "NC", "street": "6927 WADE STEDMAN RD", "postcode": "28395"}}},
{"geometry": {"type": "Point", "coordinates": [-78.7281829462, 35.1609097735]}, "type": "Feature", "properties": {"collection_times": [{"days": "Mon-Fri", "time": "4:30pm"}, {"days": "Sat", "time": "11:45am"}, {"days": "Sun", "time": "Closed"}], "id": "2839500003", "name": "USPS COLLECTION BOX - PO LOBBY", "address": {"city": "WADE", "state": "NC", "street": "6927 WADE STEDMAN RD", "postcode": "28395"}}},
{"geometry": {"type": "Point", "coordinates": [-79.4234457409, 34.9396160736]}, "type": "Feature", "properties": {"collection_times": [{"days": "Mon-Fri", "time": "4:30pm"}, {"days": "Sat", "time": "11:00am"}, {"days": "Sun", "time": "Closed"}], "id": "2839600001", "name": "USPS COLLECTION BOX - PO LOBBY", "address": {"city": "WAGRAM", "state": "NC", "street": "24100 N MAIN ST", "postcode": "28396"}}},
{"geometry": {"type": "Point", "coordinates": [-79.4234457409, 34.9396160736]}, "type": "Feature", "properties": {"collection_times": [{"days": "Mon-Fri", "time": "4:30pm"}, {"days": "Sat", "time": "11:00am"}, {"days": "Sun", "time": "Closed"}], "id": "2839600003", "name": "USPS COLLECTION BOX - BLUE BOX", "address": {"city": "WAGRAM", "state": "NC", "street": "24100 N MAIN ST", "postcode": "28396"}}},
{"geometry": {"type": "Point", "coordinates": [-78.0926984921, 35.0011189832]}, "type": "Feature", "properties": {"collection_times": [{"days": "Mon-Fri", "time": "5:00pm"}, {"days": "Sat", "time": "1:00pm"}, {"days": "Sun", "time": "Closed"}], "id": "2839800002", "name": "USPS COLLECTION BOX - BLUE BOX", "address": {"city": "WARSAW", "state": "NC", "street": "116 W HILL ST", "postcode": "28398"}}},
{"geometry": {"type": "Point", "coordinates": [-78.0926984921, 35.0011189832]}, "type": "Feature", "properties": {"collection_times": [{"days": "Mon-Fri", "time": "5:00pm"}, {"days": "Sat", "time": "1:00pm"}, {"days": "Sun", "time": "Closed"}], "id": "2839800004", "name": "USPS COLLECTION BOX - PO LOBBY", "address": {"city": "WARSAW", "state": "NC", "street": "116 W HILL ST", "postcode": "28398"}}},
{"geometry": {"type": "Point", "coordinates": [-78.7132692242, 34.7651226447]}, "type": "Feature", "properties": {"collection_times": [{"days": "Mon-Fri", "time": "4:45pm"}, {"days": "Sat", "time": "10:45am"}, {"days": "Sun", "time": "Closed"}], "id": "2839900001", "name": "USPS COLLECTION BOX - BLUE BOX", "address": {"city": "WHITE OAK", "state": "NC", "street": "10384 NC HIGHWAY 53 W", "postcode": "28399"}}},
{"geometry": {"type": "Point", "coordinates": [-78.7132692242, 34.7651226447]}, "type": "Feature", "properties": {"collection_times": [{"days": "Mon-Fri", "time": "4:45pm"}, {"days": "Sat", "time": "10:45am"}, {"days": "Sun", "time": "Closed"}], "id": "2839900002", "name": "USPS COLLECTION BOX - PO LOBBY", "address": {"city": "WHITE OAK", "state": "NC", "street": "10384 NC HIGHWAY 53 W", "postcode": "28399"}}},
{"geometry": {"type": "Point", "coordinates": [-78.7132692242, 34.7651226447]}, "type": "Feature", "properties": {"collection_times": [{"days": "Mon-Fri", "time": "4:45pm"}, {"days": "Sat", "time": "10:45am"}, {"days": "Sun", "time": "Closed"}], "id": "2839900003", "name": "USPS COLLECTION BOX - PO LOBBY", "address": {"city": "WHITE OAK", "state": "NC", "street": "10384 NC HIGHWAY 53 W", "postcode": "28399"}}}
]}
