{"type": "FeatureCollection", "features": [
{"geometry": {"type": "Point", "coordinates": [-77.9488614096, 34.2372116442]}, "type": "Feature", "properties": {"collection_times": [{"days": "Mon-Sat", "time": "5:00pm"}, {"days": "Sun", "time": "Closed"}], "id": "2840100002", "name": "USPS COLLECTION BOX - BLUE BOX", "address": {"city": "WILMINGTON", "state": "NC", "street": "152 N FRONT ST", "postcode": "28401"}}},
{"geometry": {"type": "Point", "coordinates": [-77.9400059754, 34.2321903401]}, "type": "Feature", "properties": {"collection_times": [{"days": "Mon-Sat", "time": "11:00am"}, {"days": "Sun", "time": "Closed"}], "id": "2840100030", "name": "USPS COLLECTION BOX - BLUE BOX", "address": {"city": "WILMINGTON", "state": "NC", "street": "CASTLE ST", "postcode": "28401"}}},
{"geometry": {"type": "Point", "coordinates": [-77.9400059754, 34.2321903401]}, "type": "Feature", "properties": {"collection_times": [{"days": "Mon-Sat", "time": "1:00pm"}, {"days": "Sun", "time": "Closed"}], "id": "2840100035", "name": "USPS COLLECTION BOX - BLUE BOX", "address": {"city": "WILMINGTON", "state": "NC", "street": "MEDICAL CENTER DR", "postcode": "28401"}}},
{"geometry": {"type": "Point", "coordinates": [-77.9479994423, 34.1967050438]}, "type": "Feature", "properties": {"collection_times": [{"days": "Mon-Sat", "time": "1:00pm"}, {"days": "Sun", "time": "Closed"}], "id": "2840100037", "name": "USPS COLLECTION BOX - BLUE BOX", "address": {"city": "WILMINGTON", "state": "NC", "street": "2200 BURNETT BLVD", "postcode": "28401"}}},
{"geometry": {"type": "Point", "coordinates": [-77.9400059754, 34.2321903401]}, "type": "Feature", "properties": {"collection_times": [{"days": "Mon-Sat", "time": "11:00am"}, {"days": "Sun", "time": "Closed"}], "id": "2840100042", "name": "USPS COLLECTION BOX - BLUE BOX", "address": {"city": "WILMINGTON", "state": "NC", "street": "PRINCESS ST", "postcode": "28401"}}},
{"geometry": {"type": "Point", "coordinates": [-77.9400059754, 34.2321903401]}, "type": "Feature", "properties": {"collection_times": [{"days": "Mon-Sat", "time": "11:00am"}, {"days": "Sun", "time": "Closed"}], "id": "2840100050", "name": "USPS COLLECTION BOX - BLUE BOX", "address": {"city": "WILMINGTON", "state": "NC", "street": "N 5TH ST", "postcode": "28401"}}},
{"geometry": {"type": "Point", "coordinates": [-77.9400059754, 34.2321903401]}, "type": "Feature", "properties": {"collection_times": [{"days": "Mon-Sat", "time": "1:00pm"}, {"days": "Sun", "time": "Closed"}], "id": "2840100062", "name": "USPS COLLECTION BOX - BLUE BOX", "address": {"city": "WILMINGTON", "state": "NC", "street": "GLENMEAD RD", "postcode": "28401"}}},
{"geometry": {"type": "Point", "coordinates": [-77.9452096153, 34.2378480761]}, "type": "Feature", "properties": {"collection_times": [{"days": "Mon-Sat", "time": "11:00am"}, {"days": "Sun", "time": "Closed"}], "id": "2840100089", "name": "USPS COLLECTION BOX - BLUE BOX", "address": {"city": "WILMINGTON", "state": "NC", "street": "335 CHESTNUT ST", "postcode": "28401"}}},
{"geometry": {"type": "Point", "coordinates": [-77.9400059754, 34.2321903401]}, "type": "Feature", "properties": {"collection_times": [{"days": "Mon-Sat", "time": "11:00am"}, {"days": "Sun", "time": "Closed"}], "id": "2840100093", "name": "USPS COLLECTION BOX - BLUE BOX", "address": {"city": "WILMINGTON", "state": "NC", "street": "MARKET ST", "postcode": "28401"}}},
{"geometry": {"type": "Point", "coordinates": [-77.9400059754, 34.2321903401]}, "type": "Feature", "properties": {"collection_times": [{"days": "Mon-Sat", "time": "1:00pm"}, {"days": "Sun", "time": "Closed"}], "id": "2840100095", "name": "USPS COLLECTION BOX - BLUE BOX", "address": {"city": "WILMINGTON", "state": "NC", "street": "PHYSICIAN'S DR", "postcode": "28401"}}},
{"geometry": {"type": "Point", "coordinates": [-77.9399288865, 34.1914926461]}, "type": "Feature", "properties": {"collection_times": [{"days": "Mon-Sat", "time": "1:00pm"}, {"days": "Sun", "time": "Closed"}], "id": "2840100108", "name": "USPS COLLECTION BOX - BLUE BOX", "address": {"city": "WILMINGTON", "state": "NC", "street": "330 SHIPYARD BLVD", "postcode": "28401"}}},
{"geometry": {"type": "Point", "coordinates": [-77.934018704, 34.1908212066]}, "type": "Feature", "properties": {"collection_times": [{"days": "Mon-Sat", "time": "1:00pm"}, {"days": "Sun", "time": "Closed"}], "id": "2840100109", "name": "USPS COLLECTION BOX - BLUE BOX", "address": {"city": "WILMINGTON", "state": "NC", "street": "2638 CAROLINA BEACH RD", "postcode": "28401"}}},
{"geometry": {"type": "Point", "coordinates": [-77.9400059754, 34.2321903401]}, "type": "Feature", "properties": {"collection_times": [{"days": "Mon-Fri", "time": "5:00pm"}, {"days": "Sat", "time": "12:00pm"}, {"days": "Sun", "time": "Closed"}], "id": "2840100112", "name": "USPS COLLECTION BOX - PO LOBBY", "address": {"city": "WILMINGTON", "state": "NC", "street": "152 N FRONT ST", "postcode": "28401"}}},
{"geometry": {"type": "Point", "coordinates": [-77.9488614096, 34.2372116442]}, "type": "Feature", "properties": {"collection_times": [{"days": "Mon-Fri", "time": "5:00pm"}, {"days": "Sat", "time": "12:00pm"}, {"days": "Sun", "time": "Closed"}], "id": "2840100113", "name": "USPS COLLECTION BOX - PO LOBBY", "address": {"city": "WILMINGTON", "state": "NC", "street": "152 N FRONT ST", "postcode": "28401"}}},
{"geometry": {"type": "Point", "coordinates": [-77.9071003902, 34.2172605359]}, "type": "Feature", "properties": {"collection_times": [{"days": "Mon-Sat", "time": "11:00am"}, {"days": "Sun", "time": "Closed"}], "id": "2840300018", "name": "USPS COLLECTION BOX - BLUE BOX", "address": {"city": "WILMINGTON", "state": "NC", "street": "3500 OLEANDER DR", "postcode": "28403"}}},
{"geometry": {"type": "Point", "coordinates": [-77.8720039904, 34.2374310436]}, "type": "Feature", "properties": {"collection_times": [{"days": "Mon-Sat", "time": "11:00am"}, {"days": "Sun", "time": "Closed"}], "id": "2840300027", "name": "USPS COLLECTION BOX - BLUE BOX", "address": {"city": "WILMINGTON", "state": "NC", "street": "351 S COLLEGE RD", "postcode": "28403"}}},
{"geometry": {"type": "Point", "coordinates": [-77.8764773335, 34.2388985437]}, "type": "Feature", "properties": {"collection_times": [{"days": "Mon-Sat", "time": "11:00am"}, {"days": "Sun", "time": "Closed"}], "id": "2840300073", "name": "USPS COLLECTION BOX - BLUE BOX", "address": {"city": "WILMINGTON", "state": "NC", "street": "5051 NEW CENTRE DR", "postcode": "28403"}}},
{"geometry": {"type": "Point", "coordinates": [-77.850718402, 34.2089105339]}, "type": "Feature", "properties": {"collection_times": [{"days": "Mon-Sat", "time": "1:00pm"}, {"days": "Sun", "time": "Closed"}], "id": "2840300075", "name": "USPS COLLECTION BOX - BLUE BOX", "address": {"city": "WILMINGTON", "state": "NC", "street": "5710 OLEANDER DR", "postcode": "28403"}}},
{"geometry": {"type": "Point", "coordinates": [-77.8907577242, 34.1991725506]}, "type": "Feature", "properties": {"collection_times": [{"days": "Mon-Sat", "time": "11:00am"}, {"days": "Sun", "time": "Closed"}], "id": "2840300081", "name": "USPS COLLECTION BOX - BLUE BOX", "address": {"city": "WILMINGTON", "state": "NC", "street": "4400 SHIPYARD BLVD", "postcode": "28403"}}},
{"geometry": {"type": "Point", "coordinates": [-77.9055745752, 34.2167618325]}, "type": "Feature", "properties": {"collection_times": [{"days": "Mon-Sat", "time": "11:00am"}, {"days": "Sun", "time": "Closed"}], "id": "2840300084", "name": "USPS COLLECTION BOX - BLUE BOX", "address": {"city": "WILMINGTON", "state": "NC", "street": "3501 OLEANDER DR", "postcode": "28403"}}},
{"geometry": {"type": "Point", "coordinates": [-77.89110591, 34.1809962258]}, "type": "Feature", "properties": {"collection_times": [{"days": "Mon-Sat", "time": "11:00am"}, {"days": "Sun", "time": "Closed"}], "id": "2840300095", "name": "USPS COLLECTION BOX - BLUE BOX", "address": {"city": "WILMINGTON", "state": "NC", "street": "3600 S COLLEGE RD", "postcode": "28403"}}},
{"geometry": {"type": "Point", "coordinates": [-77.8982520592, 34.2131881135]}, "type": "Feature", "properties": {"collection_times": [{"days": "Mon-Sat", "time": "5:00pm"}, {"days": "Sun", "time": "Closed"}], "id": "2840300096", "name": "USPS COLLECTION BOX - BLUE BOX", "address": {"city": "WILMINGTON", "state": "NC", "street": "3916 OLEANDER DR", "postcode": "28403"}}},
{"geometry": {"type": "Point", "coordinates": [-77.882825703, 34.2236002642]}, "type": "Feature", "properties": {"collection_times": [{"days": "Mon-Fri", "time": "5:00pm"}, {"days": "Sat", "time": "12:00pm"}, {"days": "Sun", "time": "Closed"}], "id": "2840300097", "name": "USPS COLLECTION BOX - PO LOBBY", "address": {"city": "WILMINGTON", "state": "NC", "street": "3916 OLEANDER DR", "postcode": "28403"}}},
{"geometry": {"type": "Point", "coordinates": [-77.8982520592, 34.2131881135]}, "type": "Feature", "properties": {"collection_times": [{"days": "Mon-Fri", "time": "5:00pm"}, {"days": "Sat", "time": "12:00pm"}, {"days": "Sun", "time": "Closed"}], "id": "2840300098", "name": "USPS COLLECTION BOX - PO LOBBY", "address": {"city": "WILMINGTON", "state": "NC", "street": "3916 OLEANDER DR", "postcode": "28403"}}},
{"geometry": {"type": "Point", "coordinates": [-77.8429733843, 34.2095372473]}, "type": "Feature", "properties": {"collection_times": [{"days": "Mon-Sat", "time": "1:00pm"}, {"days": "Sun", "time": "Closed"}], "id": "2840300100", "name": "USPS COLLECTION BOX - BLUE BOX", "address": {"city": "WILMINGTON", "state": "NC", "street": "5917 OLEANDER DR", "postcode": "28403"}}},
{"geometry": {"type": "Point", "coordinates": [-77.8808402151, 34.2318629277]}, "type": "Feature", "properties": {"collection_times": [{"days": "Mon-Sat", "time": "11:00am"}, {"days": "Sun", "time": "Closed"}], "id": "2840300101", "name": "USPS COLLECTION BOX - BLUE BOX", "address": {"city": "WILMINGTON", "state": "NC", "street": "4922 RANDALL PKWY", "postcode": "28403"}}},
{"geometry": {"type": "Point", "coordinates": [-77.8301587112, 34.2246251916]}, "type": "Feature", "properties": {"collection_times": [{"days": "Mon-Sat", "time": "1:00pm"}, {"days": "Sun", "time": "Closed"}], "id": "2840300102", "name": "USPS COLLECTION BOX - BLUE BOX", "address": {"city": "WILMINGTON", "state": "NC", "street": "1508 MILITARY CUTOFF RD", "postcode": "28403"}}},
{"geometry": {"type": "Point", "coordinates": [-77.8641681162, 34.2412893502]}, "type": "Feature", "properties": {"collection_times": [{"days": "Mon-Sat", "time": "1:00pm"}, {"days": "Sun", "time": "Closed"}], "id": "2840300103", "name": "USPS COLLECTION BOX - BLUE BOX", "address": {"city": "WILMINGTON", "state": "NC", "street": "215 RACINE DR", "postcode": "28403"}}},
{"geometry": {"type": "Point", "coordinates": [-77.8670680779, 34.2381923172]}, "type": "Feature", "properties": {"collection_times": [{"days": "Mon-Sat", "time": "1:00pm"}, {"days": "Sun", "time": "Closed"}], "id": "2840300104", "name": "USPS COLLECTION BOX - BLUE BOX", "address": {"city": "WILMINGTON", "state": "NC", "street": "265 RACINE DR", "postcode": "28403"}}},
{"geometry": {"type": "Point", "coordinates": [-77.882825703, 34.2236002642]}, "type": "Feature", "properties": {"collection_times": [{"days": "Mon-Sat", "time": "11:00am"}, {"days": "Sun", "time": "Closed"}], "id": "2840300105", "name": "USPS COLLECTION BOX - BLUE BOX", "address": {"city": "WILMINGTON", "state": "NC", "street": "1402 LITTLE JOHN CIR", "postcode": "28403"}}},
{"geometry": {"type": "Point", "coordinates": [-77.8311872296, 34.2603791894]}, "type": "Feature", "properties": {"collection_times": [{"days": "Mon-Sat", "time": "1:00pm"}, {"days": "Sun", "time": "Closed"}], "id": "2840500001", "name": "USPS COLLECTION BOX - BLUE BOX", "address": {"city": "WILMINGTON", "state": "NC", "street": "6834 MARKET ST", "postcode": "28405"}}},
{"geometry": {"type": "Point", "coordinates": [-77.8760814566, 34.2493373452]}, "type": "Feature", "properties": {"collection_times": [{"days": "Mon-Sat", "time": "5:00pm"}, {"days": "Sun", "time": "Closed"}], "id": "2840500012", "name": "USPS COLLECTION BOX - BLUE BOX", "address": {"city": "WILMINGTON", "state": "NC", "street": "314 LENNON DR", "postcode": "28405"}}},
{"geometry": {"type": "Point", "coordinates": [-77.8433415139, 34.2591733027]}, "type": "Feature", "properties": {"collection_times": [{"days": "Mon-Sat", "time": "1:00pm"}, {"days": "Sun", "time": "Closed"}], "id": "2840500017", "name": "USPS COLLECTION BOX - BLUE BOX", "address": {"city": "WILMINGTON", "state": "NC", "street": "315 VAN DYKE DR", "postcode": "28405"}}},
{"geometry": {"type": "Point", "coordinates": [-77.8552525192, 34.2475159718]}, "type": "Feature", "properties": {"collection_times": [{"days": "Mon-Sat", "time": "1:00pm"}, {"days": "Sun", "time": "Closed"}], "id": "2840500019", "name": "USPS COLLECTION BOX - BLUE BOX", "address": {"city": "WILMINGTON", "state": "NC", "street": "127 N CARDINAL DR", "postcode": "28405"}}},
{"geometry": {"type": "Point", "coordinates": [-77.8760814566, 34.2493373452]}, "type": "Feature", "properties": {"collection_times": [{"days": "Mon-Sat", "time": "5:00pm"}, {"days": "Sun", "time": "Closed"}], "id": "2840500021", "name": "USPS COLLECTION BOX - BLUE BOX", "address": {"city": "WILMINGTON", "state": "NC", "street": "314 LENNON DR", "postcode": "28405"}}},
{"geometry": {"type": "Point", "coordinates": [-77.9106802261, 34.2670435034]}, "type": "Feature", "properties": {"collection_times": [{"days": "Mon-Sat", "time": "11:00am"}, {"days": "Sun", "time": "Closed"}], "id": "2840500023", "name": "USPS COLLECTION BOX - BLUE BOX", "address": {"city": "WILMINGTON", "state": "NC", "street": "1740 AIRPORT BLVD", "postcode": "28405"}}},
{"geometry": {"type": "Point", "coordinates": [-77.8698688966, 34.2611932518]}, "type": "Feature", "properties": {"collection_times": [{"days": "Mon-Sat", "time": "1:00pm"}, {"days": "Sun", "time": "Closed"}], "id": "2840500027", "name": "USPS COLLECTION BOX - BLUE BOX", "address": {"city": "WILMINGTON", "state": "NC", "street": "1410 COMMONWEALTH DR", "postcode": "28405"}}},
{"geometry": {"type": "Point", "coordinates": [-77.8911565684, 34.242501206]}, "type": "Feature", "properties": {"collection_times": [{"days": "Mon-Sat", "time": "11:00am"}, {"days": "Sun", "time": "Closed"}], "id": "2840500028", "name": "USPS COLLECTION BOX - BLUE BOX", "address": {"city": "WILMINGTON", "state": "NC", "street": "4400 MARKET ST", "postcode": "28405"}}},
{"geometry": {"type": "Point", "coordinates": [-77.8698688963, 34.2611932976]}, "type": "Feature", "properties": {"collection_times": [{"days": "Mon-Fri", "time": "1:00pm"}, {"days": "Sat-Sun", "time": "Closed"}], "id": "2840500036", "name": "USPS COLLECTION BOX - BLUE BOX", "address": {"city": "WILMINGTON", "state": "NC", "street": "1800 SIR TYLER DR", "postcode": "28405"}}},
{"geometry": {"type": "Point", "coordinates": [-77.8285448964, 34.2360335232]}, "type": "Feature", "properties": {"collection_times": [{"days": "Mon-Fri", "time": "1:00pm"}, {"days": "Sat-Sun", "time": "Closed"}], "id": "2840500039", "name": "USPS COLLECTION BOX - BLUE BOX", "address": {"city": "WILMINGTON", "state": "NC", "street": "1111 MILITARY CUTOFF RD", "postcode": "28405"}}},
{"geometry": {"type": "Point", "coordinates": [-77.8760814566, 34.2493373452]}, "type": "Feature", "properties": {"collection_times": [{"days": "Mon-Sat", "time": "5:00pm"}, {"days": "Sun", "time": "Closed"}], "id": "2840500041", "name": "USPS COLLECTION BOX - PO LOBBY", "address": {"city": "WILMINGTON", "state": "NC", "street": "314 LENNON DR", "postcode": "28405"}}},
{"geometry": {"type": "Point", "coordinates": [-77.8760814566, 34.2493373452]}, "type": "Feature", "properties": {"collection_times": [{"days": "Mon-Sat", "time": "5:00pm"}, {"days": "Sun", "time": "Closed"}], "id": "2840500042", "name": "USPS COLLECTION BOX - PO LOBBY", "address": {"city": "WILMINGTON", "state": "NC", "street": "314 LENNON DR", "postcode": "28405"}}},
{"geometry": {"type": "Point", "coordinates": [-77.86732478, 34.2408255838]}, "type": "Feature", "properties": {"collection_times": [{"days": "Mon-Sat", "time": "1:00pm"}, {"days": "Sun", "time": "Closed"}], "id": "2840500044", "name": "USPS COLLECTION BOX - BLUE BOX", "address": {"city": "WILMINGTON", "state": "NC", "street": "230 GOVERNMENT CENTER DR", "postcode": "28405"}}},
{"geometry": {"type": "Point", "coordinates": [-77.8760814566, 34.2493373452]}, "type": "Feature", "properties": {"collection_times": [{"days": "Mon-Sat", "time": "5:00pm"}, {"days": "Sun", "time": "Closed"}], "id": "2840500045", "name": "USPS COLLECTION BOX - APC", "address": {"city": "WILMINGTON", "state": "NC", "street": "314 LENNON DR", "postcode": "28405"}}},
{"geometry": {"type": "Point", "coordinates": [-77.8291944637, 34.2312329696]}, "type": "Feature", "properties": {"collection_times": [{"days": "Mon-Sat", "time": "1:00pm"}, {"days": "Sun", "time": "Closed"}], "id": "2840500047", "name": "USPS COLLECTION BOX - BLUE BOX", "address": {"city": "WILMINGTON", "state": "NC", "street": "1319 MILITARY CUTOFF RD", "postcode": "28405"}}},
{"geometry": {"type": "Point", "coordinates": [-77.7922184735, 34.2978881323]}, "type": "Feature", "properties": {"collection_times": [{"days": "Mon-Sat", "time": "5:00pm"}, {"days": "Sun", "time": "Closed"}], "id": "2841100000", "name": "USPS COLLECTION BOX - BLUE BOX", "address": {"city": "WILMINGTON", "state": "NC", "street": "8207 MARKET ST", "postcode": "28411"}}},
{"geometry": {"type": "Point", "coordinates": [-77.7997274728, 34.2849908469]}, "type": "Feature", "properties": {"collection_times": [{"days": "Mon-Fri", "time": "5:00pm"}, {"days": "Sat", "time": "12:00pm"}, {"days": "Sun", "time": "Closed"}], "id": "2841100002", "name": "USPS COLLECTION BOX - PO LOBBY", "address": {"city": "WILMINGTON", "state": "NC", "street": "8207 MARKET ST", "postcode": "28411"}}},
{"geometry": {"type": "Point", "coordinates": [-77.7922184735, 34.2978881323]}, "type": "Feature", "properties": {"collection_times": [{"days": "Mon-Fri", "time": "5:00pm"}, {"days": "Sat", "time": "12:00pm"}, {"days": "Sun", "time": "Closed"}], "id": "2841100003", "name": "USPS COLLECTION BOX - PO LOBBY", "address": {"city": "WILMINGTON", "state": "NC", "street": "8207 MARKET ST", "postcode": "28411"}}},
{"geometry": {"type": "Point", "coordinates": [-77.895478503, 34.1325637623]}, "type": "Feature", "properties": {"collection_times": [{"days": "Mon-Sat", "time": "5:00pm"}, {"days": "Sun", "time": "Closed"}], "id": "2841200017", "name": "USPS COLLECTION BOX - BLUE BOX", "address": {"city": "WILMINGTON", "state": "NC", "street": "5675 CAROLINA BEACH RD", "postcode": "28412"}}},
{"geometry": {"type": "Point", "coordinates": [-77.895478503, 34.1325637623]}, "type": "Feature", "properties": {"collection_times": [{"days": "Mon-Fri", "time": "5:00pm"}, {"days": "Sat", "time": "1:00pm"}, {"days": "Sun", "time": "Closed"}], "id": "2841200018", "name": "USPS COLLECTION BOX - PO LOBBY", "address": {"city": "WILMINGTON", "state": "NC", "street": "5675 CAROLINA BEACH RD", "postcode": "28412"}}},
{"geometry": {"type": "Point", "coordinates": [-77.895478503, 34.1325637623]}, "type": "Feature", "properties": {"collection_times": [{"days": "Mon-Fri", "time": "5:00pm"}, {"days": "Sat", "time": "1:00pm"}, {"days": "Sun", "time": "Closed"}], "id": "2841200020", "name": "USPS COLLECTION BOX - APC", "address": {"city": "WILMINGTON", "state": "NC", "street": "5675 CAROLINA BEACH RD", "postcode": "28412"}}},
{"geometry": {"type": "Point", "coordinates": [-78.5159170908, 34.0525485331]}, "type": "Feature", "properties": {"collection_times": [{"days": "Mon-Fri", "time": "4:30pm"}, {"days": "Sat", "time": "10:30am"}, {"days": "Sun", "time": "Closed"}], "id": "2842000001", "name": "USPS COLLECTION BOX - BLUE BOX", "address": {"city": "ASH", "state": "NC", "street": "3882 WHITEVILLE RD NW", "postcode": "28420"}}},
{"geometry": {"type": "Point", "coordinates": [-78.5159170908, 34.0525485331]}, "type": "Feature", "properties": {"collection_times": [{"days": "Mon-Fri", "time": "4:30pm"}, {"days": "Sat", "time": "10:30am"}, {"days": "Sun", "time": "Closed"}], "id": "2842000002", "name": "USPS COLLECTION BOX - PO LOBBY", "address": {"city": "ASH", "state": "NC", "street": "3882 WHITEVILLE RD NW", "postcode": "28420"}}},
{"geometry": {"type": "Point", "coordinates": [-78.5159170908, 34.0525485331]}, "type": "Feature", "properties": {"collection_times": [{"days": "Mon-Fri", "time": "4:30pm"}, {"days": "Sat", "time": "10:30am"}, {"days": "Sun", "time": "Closed"}], "id": "2842000003", "name": "USPS COLLECTION BOX - PO LOBBY", "address": {"city": "ASH", "state": "NC", "street": "3882 WHITEVILLE RD NW", "postcode": "28420"}}},
{"geometry": {"type": "Point", "coordinates": [-78.1708010729, 34.527919078]}, "type": "Feature", "properties": {"collection_times": [{"days": "Mon-Fri", "time": "4:30pm"}, {"days": "Sat", "time": "11:00am"}, {"days": "Sun", "time": "Closed"}], "id": "2842100001", "name": "USPS COLLECTION BOX - BLUE BOX", "address": {"city": "ATKINSON", "state": "NC", "street": "105 W CHURCH ST", "postcode": "28421"}}},
{"geometry": {"type": "Point", "coordinates": [-78.1708010729, 34.527919078]}, "type": "Feature", "properties": {"collection_times": [{"days": "Mon-Fri", "time": "4:30pm"}, {"days": "Sat", "time": "11:00am"}, {"days": "Sun", "time": "Closed"}], "id": "2842100002", "name": "USPS COLLECTION BOX - PO LOBBY", "address": {"city": "ATKINSON", "state": "NC", "street": "105 W CHURCH ST", "postcode": "28421"}}},
{"geometry": {"type": "Point", "coordinates": [-78.1706316157, 34.0179968803]}, "type": "Feature", "properties": {"collection_times": [{"days": "Mon-Fri", "time": "4:30pm"}, {"days": "Sat", "time": "11:00am"}, {"days": "Sun", "time": "Closed"}], "id": "2842200001", "name": "USPS COLLECTION BOX - BLUE BOX", "address": {"city": "BOLIVIA", "state": "NC", "street": "3890 BUSINESS 17 E", "postcode": "28422"}}},
{"geometry": {"type": "Point", "coordinates": [-78.1706316157, 34.0179968803]}, "type": "Feature", "properties": {"collection_times": [{"days": "Mon-Fri", "time": "1:00pm"}, {"days": "Sat-Sun", "time": "Closed"}], "id": "2842200002", "name": "USPS COLLECTION BOX - BLUE BOX", "address": {"city": "BOLIVIA", "state": "NC", "street": "30 GOVERNMENT CENTER DR SE", "postcode": "28422"}}},
{"geometry": {"type": "Point", "coordinates": [-78.1902261521, 34.0076013508]}, "type": "Feature", "properties": {"collection_times": [{"days": "Mon-Fri", "time": "4:30pm"}, {"days": "Sat", "time": "11:00am"}, {"days": "Sun", "time": "Closed"}], "id": "2842200003", "name": "USPS COLLECTION BOX - PO LOBBY", "address": {"city": "BOLIVIA", "state": "NC", "street": "3890 BUSINESS 17 E", "postcode": "28422"}}},
{"geometry": {"type": "Point", "coordinates": [-78.1706316157, 34.0179968803]}, "type": "Feature", "properties": {"collection_times": [{"days": "Mon-Fri", "time": "4:30pm"}, {"days": "Sat", "time": "11:00am"}, {"days": "Sun", "time": "Closed"}], "id": "2842200004", "name": "USPS COLLECTION BOX - PO LOBBY", "address": {"city": "BOLIVIA", "state": "NC", "street": "3890 BUSINESS 17 E", "postcode": "28422"}}},
{"geometry": {"type": "Point", "coordinates": [-78.1902261521, 34.0076013508]}, "type": "Feature", "properties": {"collection_times": [{"days": "Mon-Fri", "time": "12:00pm"}, {"days": "Sat-Sun", "time": "Closed"}], "id": "2842200008", "name": "USPS COLLECTION BOX - BLUE BOX", "address": {"city": "BOLIVIA", "state": "NC", "street": "3732 SUNSET HARBOR RD SE", "postcode": "28422"}}},
{"geometry": {"type": "Point", "coordinates": [-78.4178594058, 34.3212074552]}, "type": "Feature", "properties": {"collection_times": [{"days": "Mon-Fri", "time": "4:15pm"}, {"days": "Sat", "time": "11:15am"}, {"days": "Sun", "time": "Closed"}], "id": "2842300002", "name": "USPS COLLECTION BOX - BLUE BOX", "address": {"city": "BOLTON", "state": "NC", "street": "15315 SAM POTTS HWY", "postcode": "28423"}}},
{"geometry": {"type": "Point", "coordinates": [-78.4178594058, 34.3212074552]}, "type": "Feature", "properties": {"collection_times": [{"days": "Mon-Fri", "time": "4:15pm"}, {"days": "Sat", "time": "11:15am"}, {"days": "Sun", "time": "Closed"}], "id": "2842300003", "name": "USPS COLLECTION BOX - PO LOBBY", "address": {"city": "BOLTON", "state": "NC", "street": "15315 SAM POTTS HWY", "postcode": "28423"}}},
{"geometry": {"type": "Point", "coordinates": [-78.4178594058, 34.3212074552]}, "type": "Feature", "properties": {"collection_times": [{"days": "Mon-Fri", "time": "4:15pm"}, {"days": "Sat", "time": "11:15am"}, {"days": "Sun", "time": "Closed"}], "id": "2842300004", "name": "USPS COLLECTION BOX - PO LOBBY", "address": {"city": "BOLTON", "state": "NC", "street": "15315 SAM POTTS HWY", "postcode": "28423"}}},
{"geometry": {"type": "Point", "coordinates": [-78.4049698485, 34.3228266253]}, "type": "Feature", "properties": {"collection_times": [{"days": "Mon-Fri", "time": "10:00am"}, {"days": "Sat-Sun", "time": "Closed"}], "id": "2842300005", "name": "USPS COLLECTION BOX - BLUE BOX", "address": {"city": "BOLTON", "state": "NC", "street": "953 GREEN SWAMP RD S", "postcode": "28423"}}},
{"geometry": {"type": "Point", "coordinates": [-78.7036784852, 34.2903014721]}, "type": "Feature", "properties": {"collection_times": [{"days": "Mon-Fri", "time": "4:30pm"}, {"days": "Sat", "time": "9:00am"}, {"days": "Sun", "time": "Closed"}], "id": "2842400001", "name": "USPS COLLECTION BOX - BLUE BOX", "address": {"city": "BRUNSWICK", "state": "NC", "street": "1424 VINSON BLVD", "postcode": "28424"}}},
{"geometry": {"type": "Point", "coordinates": [-78.7036784852, 34.2903014721]}, "type": "Feature", "properties": {"collection_times": [{"days": "Mon-Fri", "time": "4:30pm"}, {"days": "Sat", "time": "9:00am"}, {"days": "Sun", "time": "Closed"}], "id": "2842400002", "name": "USPS COLLECTION BOX - PO LOBBY", "address": {"city": "BRUNSWICK", "state": "NC", "street": "1424 VINSON BLVD", "postcode": "28424"}}},
{"geometry": {"type": "Point", "coordinates": [-77.9256393942, 34.5483030785]}, "type": "Feature", "properties": {"collection_times": [{"days": "Mon-Fri", "time": "4:30pm"}, {"days": "Sat", "time": "12:00pm"}, {"days": "Sun", "time": "Closed"}], "id": "2842500001", "name": "USPS COLLECTION BOX - BLUE BOX", "address": {"city": "BURGAW", "state": "NC", "street": "100 E SATCHWELL ST", "postcode": "28425"}}},
{"geometry": {"type": "Point", "coordinates": [-77.9256393942, 34.5483030785]}, "type": "Feature", "properties": {"collection_times": [{"days": "Mon-Fri", "time": "4:30pm"}, {"days": "Sat", "time": "12:00pm"}, {"days": "Sun", "time": "Closed"}], "id": "2842500003", "name": "USPS COLLECTION BOX - BLUE BOX", "address": {"city": "BURGAW", "state": "NC", "street": "100 E SATCHWELL ST", "postcode": "28425"}}},
{"geometry": {"type": "Point", "coordinates": [-77.9256393942, 34.5483030785]}, "type": "Feature", "properties": {"collection_times": [{"days": "Mon-Fri", "time": "4:30pm"}, {"days": "Sat", "time": "12:00pm"}, {"days": "Sun", "time": "Closed"}], "id": "2842500006", "name": "USPS COLLECTION BOX - PO LOBBY", "address": {"city": "BURGAW", "state": "NC", "street": "100 E SATCHWELL ST", "postcode": "28425"}}},
{"geometry": {"type": "Point", "coordinates": [-77.8966688905, 34.0366824726]}, "type": "Feature", "properties": {"collection_times": [{"days": "Mon-Fri", "time": "4:30pm"}, {"days": "Sat", "time": "12:00pm"}, {"days": "Sun", "time": "Closed"}], "id": "2842800001", "name": "USPS COLLECTION BOX - BLUE BOX", "address": {"city": "CAROLINA BEACH", "state": "NC", "street": "1323 BRIDGE BARRIER RD", "postcode": "28428"}}},
{"geometry": {"type": "Point", "coordinates": [-77.8966688905, 34.0366824726]}, "type": "Feature", "properties": {"collection_times": [{"days": "Mon-Fri", "time": "4:30pm"}, {"days": "Sat", "time": "12:00pm"}, {"days": "Sun", "time": "Closed"}], "id": "2842800002", "name": "USPS COLLECTION BOX - BLUE BOX", "address": {"city": "CAROLINA BEACH", "state": "NC", "street": "1323 BRIDGE BARRIER RD", "postcode": "28428"}}},
{"geometry": {"type": "Point", "coordinates": [-77.8966688905, 34.0366824726]}, "type": "Feature", "properties": {"collection_times": [{"days": "Mon-Fri", "time": "4:30pm"}, {"days": "Sat", "time": "12:00pm"}, {"days": "Sun", "time": "Closed"}], "id": "2842800004", "name": "USPS COLLECTION BOX - PO LOBBY", "address": {"city": "CAROLINA BEACH", "state": "NC", "street": "1323 BRIDGE BARRIER RD", "postcode": "28428"}}},
{"geometry": {"type": "Point", "coordinates": [-77.8966688905, 34.0366824726]}, "type": "Feature", "properties": {"collection_times": [{"days": "Mon-Fri", "time": "4:30pm"}, {"days": "Sat", "time": "12:00pm"}, {"days": "Sun", "time": "Closed"}], "id": "2842800006", "name": "USPS COLLECTION BOX - PO LOBBY", "address": {"city": "CAROLINA BEACH", "state": "NC", "street": "1323 BRIDGE BARRIER RD", "postcode": "28428"}}},
{"geometry": {"type": "Point", "coordinates": [-77.8966688905, 34.0366824726]}, "type": "Feature", "properties": {"collection_times": [{"days": "Mon-Fri", "time": "4:30pm"}, {"days": "Sat", "time": "12:00pm"}, {"days": "Sun", "time": "Closed"}], "id": "2842800008", "name": "USPS COLLECTION BOX - PO LOBBY", "address": {"city": "CAROLINA BEACH", "state": "NC", "street": "1323 BRIDGE BARRIER RD", "postcode": "28428"}}},
{"geometry": {"type": "Point", "coordinates": [-77.8970507812, 34.3543426764]}, "type": "Feature", "properties": {"collection_times": [{"days": "Mon-Fri", "time": "4:45pm"}, {"days": "Sat", "time": "1:00pm"}, {"days": "Sun", "time": "Closed"}], "id": "2842900001", "name": "USPS COLLECTION BOX - BLUE BOX", "address": {"city": "CASTLE HAYNE", "state": "NC", "street": "4024 HOLLY SHELTER RD", "postcode": "28429"}}},
{"geometry": {"type": "Point", "coordinates": [-77.8970507812, 34.3543426764]}, "type": "Feature", "properties": {"collection_times": [{"days": "Mon-Fri", "time": "4:45pm"}, {"days": "Sat", "time": "1:00pm"}, {"days": "Sun", "time": "Closed"}], "id": "2842900003", "name": "USPS COLLECTION BOX - PO LOBBY", "address": {"city": "CASTLE HAYNE", "state": "NC", "street": "4024 HOLLY SHELTER RD", "postcode": "28429"}}},
{"geometry": {"type": "Point", "coordinates": [-78.9229880397, 34.3220988656]}, "type": "Feature", "properties": {"collection_times": [{"days": "Mon-Fri", "time": "4:30pm"}, {"days": "Sat", "time": "11:30am"}, {"days": "Sun", "time": "Closed"}], "id": "2843000001", "name": "USPS COLLECTION BOX - BLUE BOX", "address": {"city": "CERRO GORDO", "state": "NC", "street": "76 PINE ST", "postcode": "28430"}}},
{"geometry": {"type": "Point", "coordinates": [-78.9229880397, 34.3220988656]}, "type": "Feature", "properties": {"collection_times": [{"days": "Mon-Fri", "time": "4:30pm"}, {"days": "Sat", "time": "11:30am"}, {"days": "Sun", "time": "Closed"}], "id": "2843000002", "name": "USPS COLLECTION BOX - PO LOBBY", "address": {"city": "CERRO GORDO", "state": "NC", "street": "76 PINE ST", "postcode": "28430"}}},
{"geometry": {"type": "Point", "coordinates": [-78.8265327733, 34.327546859]}, "type": "Feature", "properties": {"collection_times": [{"days": "Mon-Fri", "time": "4:30pm"}, {"days": "Sat", "time": "12:00pm"}, {"days": "Sun", "time": "Closed"}], "id": "2843100006", "name": "USPS COLLECTION BOX - BLUE BOX", "address": {"city": "CHADBOURN", "state": "NC", "street": "601 N BROWN ST", "postcode": "28431"}}},
{"geometry": {"type": "Point", "coordinates": [-78.8313664737, 34.3057816982]}, "type": "Feature", "properties": {"collection_times": [{"days": "Mon-Fri", "time": "4:30pm"}, {"days": "Sat", "time": "12:00pm"}, {"days": "Sun", "time": "Closed"}], "id": "2843100007", "name": "USPS COLLECTION BOX - PO LOBBY", "address": {"city": "CHADBOURN", "state": "NC", "street": "601 N BROWN ST", "postcode": "28431"}}},
{"geometry": {"type": "Point", "coordinates": [-78.8265327733, 34.327546859]}, "type": "Feature", "properties": {"collection_times": [{"days": "Mon-Fri", "time": "4:30pm"}, {"days": "Sat", "time": "12:00pm"}, {"days": "Sun", "time": "Closed"}], "id": "2843100008", "name": "USPS COLLECTION BOX - PO LOBBY", "address": {"city": "CHADBOURN", "state": "NC", "street": "601 N BROWN ST", "postcode": "28431"}}},
{"geometry": {"type": "Point", "coordinates": [-78.7467272602, 34.1340622288]}, "type": "Feature", "properties": {"collection_times": [{"days": "Mon-Fri", "time": "4:30pm"}, {"days": "Sat", "time": "11:00am"}, {"days": "Sun", "time": "Closed"}], "id": "2843200001", "name": "USPS COLLECTION BOX - BLUE BOX", "address": {"city": "CLARENDON", "state": "NC", "street": "6337 TEN MILE RD", "postcode": "28432"}}},
{"geometry": {"type": "Point", "coordinates": [-78.7685072791, 34.166541652]}, "type": "Feature", "properties": {"collection_times": [{"days": "Mon-Fri", "time": "4:30pm"}, {"days": "Sat", "time": "11:00am"}, {"days": "Sun", "time": "Closed"}], "id": "2843200002", "name": "USPS COLLECTION BOX - PO LOBBY", "address": {"city": "CLARENDON", "state": "NC", "street": "6337 TEN MILE RD", "postcode": "28432"}}},
{"geometry": {"type": "Point", "coordinates": [-78.6554058606, 34.4872346123]}, "type": "Feature", "properties": {"collection_times": [{"days": "Mon-Fri", "time": "4:30pm"}, {"days": "Sat", "time": "12:00pm"}, {"days": "Sun", "time": "Closed"}], "id": "2843300001", "name": "USPS COLLECTION BOX - BLUE BOX", "address": {"city": "CLARKTON", "state": "NC", "street": "31 E GREEN ST", "postcode": "28433"}}},
{"geometry": {"type": "Point", "coordinates": [-78.6482462169, 34.4858734862]}, "type": "Feature", "properties": {"collection_times": [{"days": "Mon-Fri", "time": "4:30pm"}, {"days": "Sat", "time": "12:00pm"}, {"days": "Sun", "time": "Closed"}], "id": "2843300002", "name": "USPS COLLECTION BOX - PO LOBBY", "address": {"city": "CLARKTON", "state": "NC", "street": "31 E GREEN ST", "postcode": "28433"}}},
{"geometry": {"type": "Point", "coordinates": [-78.4684141993, 34.4198933442]}, "type": "Feature", "properties": {"collection_times": [{"days": "Mon-Fri", "time": "3:45pm"}, {"days": "Sat", "time": "10:30am"}, {"days": "Sun", "time": "Closed"}], "id": "2843400001", "name": "USPS COLLECTION BOX - BLUE BOX", "address": {"city": "COUNCIL", "state": "NC", "street": "11740 NC HIGHWAY 211 E", "postcode": "28434"}}},
{"geometry": {"type": "Point", "coordinates": [-78.4684141993, 34.4198933442]}, "type": "Feature", "properties": {"collection_times": [{"days": "Mon-Fri", "time": "3:45pm"}, {"days": "Sat", "time": "10:30am"}, {"days": "Sun", "time": "Closed"}], "id": "2843400002", "name": "USPS COLLECTION BOX - PO LOBBY", "address": {"city": "COUNCIL", "state": "NC", "street": "11740 NC HIGHWAY 211 E", "postcode": "28434"}}},
{"geometry": {"type": "Point", "coordinates": [-78.1046781947, 34.458759934]}, "type": "Feature", "properties": {"collection_times": [{"days": "Mon-Fri", "time": "4:15pm"}, {"days": "Sat", "time": "10:30am"}, {"days": "Sun", "time": "Closed"}], "id": "2843500001", "name": "USPS COLLECTION BOX - BLUE BOX", "address": {"city": "CURRIE", "state": "NC", "street": "28480 NC HIGHWAY 210", "postcode": "28435"}}},
{"geometry": {"type": "Point", "coordinates": [-78.2642698727, 34.2781113588]}, "type": "Feature", "properties": {"collection_times": [{"days": "Mon-Fri", "time": "4:45pm"}, {"days": "Sat", "time": "11:30am"}, {"days": "Sun", "time": "Closed"}], "id": "2843600001", "name": "USPS COLLECTION BOX - BLUE BOX", "address": {"city": "DELCO", "state": "NC", "street": "30 DELCO PROSPER RD", "postcode": "28436"}}},
{"geometry": {"type": "Point", "coordinates": [-78.2575259423, 34.2915300802]}, "type": "Feature", "properties": {"collection_times": [{"days": "Mon-Fri", "time": "4:45pm"}, {"days": "Sat", "time": "11:30am"}, {"days": "Sun", "time": "Closed"}], "id": "2843600002", "name": "USPS COLLECTION BOX - PO LOBBY", "address": {"city": "DELCO", "state": "NC", "street": "30 DELCO PROSPER RD", "postcode": "28436"}}},
{"geometry": {"type": "Point", "coordinates": [-78.8962490639, 34.4076996496]}, "type": "Feature", "properties": {"collection_times": [{"days": "Mon-Fri", "time": "4:30pm"}, {"days": "Sat", "time": "11:00am"}, {"days": "Sun", "time": "Closed"}], "id": "2843800001", "name": "USPS COLLECTION BOX - BLUE BOX", "address": {"city": "EVERGREEN", "state": "NC", "street": "7553 OLD HIGHWAY 74", "postcode": "28438"}}},
{"geometry": {"type": "Point", "coordinates": [-78.8962490639, 34.4076996496]}, "type": "Feature", "properties": {"collection_times": [{"days": "Mon-Fri", "time": "4:30pm"}, {"days": "Sat", "time": "11:00am"}, {"days": "Sun", "time": "Closed"}], "id": "2843800002", "name": "USPS COLLECTION BOX - PO LOBBY", "address": {"city": "EVERGREEN", "state": "NC", "street": "7553 OLD HIGHWAY 74", "postcode": "28438"}}},
{"geometry": {"type": "Point", "coordinates": [-78.9080558207, 34.432820969]}, "type": "Feature", "properties": {"collection_times": [{"days": "Mon-Sat", "time": "10:30am"}, {"days": "Sun", "time": "Closed"}], "id": "2843800003", "name": "USPS COLLECTION BOX - BLUE BOX", "address": {"city": "EVERGREEN", "state": "NC", "street": "7351 OLD HIGHWAY 74", "postcode": "28438"}}},
{"geometry": {"type": "Point", "coordinates": [-79.0381479468, 34.3130576398]}, "type": "Feature", "properties": {"collection_times": [{"days": "Mon-Fri", "time": "4:00pm"}, {"days": "Sat", "time": "11:30am"}, {"days": "Sun", "time": "Closed"}], "id": "2843900001", "name": "USPS COLLECTION BOX - BLUE BOX", "address": {"city": "FAIR BLUFF", "state": "NC", "street": "1115 MAIN ST", "postcode": "28439"}}},
{"geometry": {"type": "Point", "coordinates": [-79.019665977, 34.3020840985]}, "type": "Feature", "properties": {"collection_times": [{"days": "Mon-Fri", "time": "4:00pm"}, {"days": "Sat", "time": "11:30am"}, {"days": "Sun", "time": "Closed"}], "id": "2843900002", "name": "USPS COLLECTION BOX - PO LOBBY", "address": {"city": "FAIR BLUFF", "state": "NC", "street": "1115 MAIN ST", "postcode": "28439"}}},
{"geometry": {"type": "Point", "coordinates": [-78.3936187487, 34.784935395]}, "type": "Feature", "properties": {"collection_times": [{"days": "Mon-Fri", "time": "4:30pm"}, {"days": "Sat", "time": "11:00am"}, {"days": "Sun", "time": "Closed"}], "id": "2844100001", "name": "USPS COLLECTION BOX - BLUE BOX", "address": {"city": "GARLAND", "state": "NC", "street": "107 S BLADEN AVE", "postcode": "28441"}}},
{"geometry": {"type": "Point", "coordinates": [-78.3936187487, 34.784935395]}, "type": "Feature", "properties": {"collection_times": [{"days": "Mon-Fri", "time": "4:30pm"}, {"days": "Sat", "time": "11:00am"}, {"days": "Sun", "time": "Closed"}], "id": "2844100003", "name": "USPS COLLECTION BOX - PO LOBBY", "address": {"city": "GARLAND", "state": "NC", "street": "107 S BLADEN AVE", "postcode": "28441"}}},
{"geometry": {"type": "Point", "coordinates": [-78.3936187487, 34.784935395]}, "type": "Feature", "properties": {"collection_times": [{"days": "Mon-Fri", "time": "4:30pm"}, {"days": "Sat", "time": "11:00am"}, {"days": "Sun", "time": "Closed"}], "id": "2844100005", "name": "USPS COLLECTION BOX - PO LOBBY", "address": {"city": "GARLAND", "state": "NC", "street": "107 S BLADEN AVE", "postcode": "28441"}}},
{"geometry": {"type": "Point", "coordinates": [-78.6003114245, 34.322309035]}, "type": "Feature", "properties": {"collection_times": [{"days": "Mon-Fri", "time": "4:15pm"}, {"days": "Sat", "time": "11:15am"}, {"days": "Sun", "time": "Closed"}], "id": "2844200001", "name": "USPS COLLECTION BOX - BLUE BOX", "address": {"city": "HALLSBORO", "state": "NC", "street": "4161 SAM POTTS HWY", "postcode": "28442"}}},
{"geometry": {"type": "Point", "coordinates": [-78.6076073804, 34.3116604907]}, "type": "Feature", "properties": {"collection_times": [{"days": "Mon-Fri", "time": "4:15pm"}, {"days": "Sat", "time": "11:15am"}, {"days": "Sun", "time": "Closed"}], "id": "2844200002", "name": "USPS COLLECTION BOX - PO LOBBY", "address": {"city": "HALLSBORO", "state": "NC", "street": "4161 SAM POTTS HWY", "postcode": "28442"}}},
{"geometry": {"type": "Point", "coordinates": [-78.6003114245, 34.322309035]}, "type": "Feature", "properties": {"collection_times": [{"days": "Mon-Fri", "time": "4:15pm"}, {"days": "Sat", "time": "11:15am"}, {"days": "Sun", "time": "Closed"}], "id": "2844200003", "name": "USPS COLLECTION BOX - PO LOBBY", "address": {"city": "HALLSBORO", "state": "NC", "street": "4161 SAM POTTS HWY", "postcode": "28442"}}},
{"geometry": {"type": "Point", "coordinates": [-77.7097404503, 34.3653320149]}, "type": "Feature", "properties": {"collection_times": [{"days": "Mon-Fri", "time": "4:30pm"}, {"days": "Sat", "time": "12:00pm"}, {"days": "Sun", "time": "Closed"}], "id": "2844300001", "name": "USPS COLLECTION BOX - BLUE BOX", "address": {"city": "HAMPSTEAD", "state": "NC", "street": "121 DAN OWEN DR", "postcode": "28443"}}},
{"geometry": {"type": "Point", "coordinates": [-77.7097404503, 34.3653320149]}, "type": "Feature", "properties": {"collection_times": [{"days": "Mon-Fri", "time": "4:30pm"}, {"days": "Sat", "time": "12:00pm"}, {"days": "Sun", "time": "Closed"}], "id": "2844300002", "name": "USPS COLLECTION BOX - BLUE BOX", "address": {"city": "HAMPSTEAD", "state": "NC", "street": "121 DAN OWEN DR", "postcode": "28443"}}},
{"geometry": {"type": "Point", "coordinates": [-77.6535484528, 34.4037311572]}, "type": "Feature", "properties": {"collection_times": [{"days": "Mon-Fri", "time": "4:30pm"}, {"days": "Sat", "time": "12:00pm"}, {"days": "Sun", "time": "Closed"}], "id": "2844300003", "name": "USPS COLLECTION BOX - PO LOBBY", "address": {"city": "HAMPSTEAD", "state": "NC", "street": "121 DAN OWEN DR", "postcode": "28443"}}},
{"geometry": {"type": "Point", "coordinates": [-77.7097404503, 34.3653320149]}, "type": "Feature", "properties": {"collection_times": [{"days": "Mon-Fri", "time": "4:30pm"}, {"days": "Sat", "time": "12:00pm"}, {"days": "Sun", "time": "Closed"}], "id": "2844300004", "name": "USPS COLLECTION BOX - PO LOBBY", "address": {"city": "HAMPSTEAD", "state": "NC", "street": "121 DAN OWEN DR", "postcode": "28443"}}},
{"geometry": {"type": "Point", "coordinates": [-78.3045780068, 34.6953418563]}, "type": "Feature", "properties": {"collection_times": [{"days": "Mon-Fri", "time": "4:30pm"}, {"days": "Sat", "time": "10:30am"}, {"days": "Sun", "time": "Closed"}], "id": "2844400001", "name": "USPS COLLECTION BOX - BLUE BOX", "address": {"city": "HARRELLS", "state": "NC", "street": "HWY 41", "postcode": "28444"}}},
{"geometry": {"type": "Point", "coordinates": [-78.3045780068, 34.6953418563]}, "type": "Feature", "properties": {"collection_times": [{"days": "Mon-Fri", "time": "4:30pm"}, {"days": "Sat", "time": "10:30am"}, {"days": "Sun", "time": "Closed"}], "id": "2844400002", "name": "USPS COLLECTION BOX - PO LOBBY", "address": {"city": "HARRELLS", "state": "NC", "street": "HWY 41", "postcode": "28444"}}},
{"geometry": {"type": "Point", "coordinates": [-77.5521172704, 34.4978625568]}, "type": "Feature", "properties": {"collection_times": [{"days": "Mon-Fri", "time": "4:30pm"}, {"days": "Sat", "time": "12:00pm"}, {"days": "Sun", "time": "Closed"}], "id": "2844500001", "name": "USPS COLLECTION BOX - BLUE BOX", "address": {"city": "HOLLY RIDGE", "state": "NC", "street": "213 HOLLY ST", "postcode": "28445"}}},
{"geometry": {"type": "Point", "coordinates": [-77.5000089934, 34.5699841026]}, "type": "Feature", "properties": {"collection_times": [{"days": "Mon-Fri", "time": "4:30pm"}, {"days": "Sat", "time": "12:00pm"}, {"days": "Sun", "time": "Closed"}], "id": "2844500004", "name": "USPS COLLECTION BOX - PO LOBBY", "address": {"city": "HOLLY RIDGE", "state": "NC", "street": "213 HOLLY ST", "postcode": "28445"}}},
{"geometry": {"type": "Point", "coordinates": [-77.5521172704, 34.4978625568]}, "type": "Feature", "properties": {"collection_times": [{"days": "Mon-Fri", "time": "4:30pm"}, {"days": "Sat", "time": "12:00pm"}, {"days": "Sun", "time": "Closed"}], "id": "2844500005", "name": "USPS COLLECTION BOX - PO LOBBY", "address": {"city": "HOLLY RIDGE", "state": "NC", "street": "213 HOLLY ST", "postcode": "28445"}}},
{"geometry": {"type": "Point", "coordinates": [-77.5816171367, 34.5484564152]}, "type": "Feature", "properties": {"collection_times": [{"days": "Mon-Fri", "time": "2:45pm"}, {"days": "Sat", "time": "11:30am"}, {"days": "Sun", "time": "Closed"}], "id": "2844500006", "name": "USPS COLLECTION BOX - BLUE BOX", "address": {"city": "HOLLY RIDGE", "state": "NC", "street": "13567 NC HIGHWAY 50 UNIT D", "postcode": "28445"}}},
{"geometry": {"type": "Point", "coordinates": [-77.5816171367, 34.5484564152]}, "type": "Feature", "properties": {"collection_times": [{"days": "Mon-Fri", "time": "2:45pm"}, {"days": "Sat", "time": "11:30am"}, {"days": "Sun", "time": "Closed"}], "id": "2844500007", "name": "USPS COLLECTION BOX - PO LOBBY", "address": {"city": "HOLLY RIDGE", "state": "NC", "street": "13567 NC HIGHWAY 50 UNIT D", "postcode": "28445"}}},
{"geometry": {"type": "Point", "coordinates": [-78.2425421873, 34.5854253925]}, "type": "Feature", "properties": {"collection_times": [{"days": "Mon-Fri", "time": "4:30pm"}, {"days": "Sat", "time": "8:30am"}, {"days": "Sun", "time": "Closed"}], "id": "2844700001", "name": "USPS COLLECTION BOX - BLUE BOX", "address": {"city": "IVANHOE", "state": "NC", "street": "4109 IVANHOE RD", "postcode": "28447"}}},
{"geometry": {"type": "Point", "coordinates": [-78.2425421876, 34.5854253929]}, "type": "Feature", "properties": {"collection_times": [{"days": "Mon-Fri", "time": "4:30pm"}, {"days": "Sat", "time": "8:30am"}, {"days": "Sun", "time": "Closed"}], "id": "2844700002", "name": "USPS COLLECTION BOX - PO LOBBY", "address": {"city": "IVANHOE", "state": "NC", "street": "4109 IVANHOE RD", "postcode": "28447"}}},
{"geometry": {"type": "Point", "coordinates": [-78.2889131065, 34.4597337927]}, "type": "Feature", "properties": {"collection_times": [{"days": "Mon-Fri", "time": "3:45pm"}, {"days": "Sat", "time": "10:45am"}, {"days": "Sun", "time": "Closed"}], "id": "2844800001", "name": "USPS COLLECTION BOX - BLUE BOX", "address": {"city": "KELLY", "state": "NC", "street": "18529 NC HIGHWAY 53 E", "postcode": "28448"}}},
{"geometry": {"type": "Point", "coordinates": [-78.2889131065, 34.4597337927]}, "type": "Feature", "properties": {"collection_times": [{"days": "Mon-Fri", "time": "3:45pm"}, {"days": "Sat", "time": "10:45am"}, {"days": "Sun", "time": "Closed"}], "id": "2844800002", "name": "USPS COLLECTION BOX - PO LOBBY", "address": {"city": "KELLY", "state": "NC", "street": "18529 NC HIGHWAY 53 E", "postcode": "28448"}}},
{"geometry": {"type": "Point", "coordinates": [-78.2889131065, 34.4597337927]}, "type": "Feature", "properties": {"collection_times": [{"days": "Mon-Fri", "time": "3:45pm"}, {"days": "Sat", "time": "10:45am"}, {"days": "Sun", "time": "Closed"}], "id": "2844800003", "name": "USPS COLLECTION BOX - PO LOBBY", "address": {"city": "KELLY", "state": "NC", "street": "18529 NC HIGHWAY 53 E", "postcode": "28448"}}},
{"geometry": {"type": "Point", "coordinates": [-77.9056632971, 34.0012953207]}, "type": "Feature", "properties": {"collection_times": [{"days": "Mon-Fri", "time": "4:15pm"}, {"days": "Sat", "time": "12:00pm"}, {"days": "Sun", "time": "Closed"}], "id": "2844900002", "name": "USPS COLLECTION BOX - BLUE BOX", "address": {"city": "KURE BEACH", "state": "NC", "street": "237 N FORT FISHER BLVD", "postcode": "28449"}}},
{"geometry": {"type": "Point", "coordinates": [-77.9056632971, 34.0012953207]}, "type": "Feature", "properties": {"collection_times": [{"days": "Mon-Fri", "time": "4:15pm"}, {"days": "Sat", "time": "12:00pm"}, {"days": "Sun", "time": "Closed"}], "id": "2844900003", "name": "USPS COLLECTION BOX - PO LOBBY", "address": {"city": "KURE BEACH", "state": "NC", "street": "237 N FORT FISHER BLVD", "postcode": "28449"}}},
{"geometry": {"type": "Point", "coordinates": [-77.9056632971, 34.0012953207]}, "type": "Feature", "properties": {"collection_times": [{"days": "Mon-Fri", "time": "4:15pm"}, {"days": "Sat", "time": "12:00pm"}, {"days": "Sun", "time": "Closed"}], "id": "2844900004", "name": "USPS COLLECTION BOX - PO LOBBY", "address": {"city": "KURE BEACH", "state": "NC", "street": "237 N FORT FISHER BLVD", "postcode": "28449"}}},
{"geometry": {"type": "Point", "coordinates": [-78.5221976073, 34.3276935609]}, "type": "Feature", "properties": {"collection_times": [{"days": "Mon-Fri", "time": "4:30pm"}, {"days": "Sat", "time": "11:30am"}, {"days": "Sun", "time": "Closed"}], "id": "2845000001", "name": "USPS COLLECTION BOX - BLUE BOX", "address": {"city": "LAKE WACCAMAW", "state": "NC", "street": "103 CHAUNCEY TOWN RD", "postcode": "28450"}}},
{"geometry": {"type": "Point", "coordinates": [-78.5221976073, 34.3276935609]}, "type": "Feature", "properties": {"collection_times": [{"days": "Mon-Fri", "time": "4:30pm"}, {"days": "Sat", "time": "11:30am"}, {"days": "Sun", "time": "Closed"}], "id": "2845000002", "name": "USPS COLLECTION BOX - PO LOBBY", "address": {"city": "LAKE WACCAMAW", "state": "NC", "street": "103 CHAUNCEY TOWN RD", "postcode": "28450"}}},
{"geometry": {"type": "Point", "coordinates": [-78.5221976073, 34.3276935609]}, "type": "Feature", "properties": {"collection_times": [{"days": "Mon-Fri", "time": "4:30pm"}, {"days": "Sat", "time": "11:30am"}, {"days": "Sun", "time": "Closed"}], "id": "2845000003", "name": "USPS COLLECTION BOX - PO LOBBY", "address": {"city": "LAKE WACCAMAW", "state": "NC", "street": "103 CHAUNCEY TOWN RD", "postcode": "28450"}}},
{"geometry": {"type": "Point", "coordinates": [-78.0269851694, 34.2099477067]}, "type": "Feature", "properties": {"collection_times": [{"days": "Mon-Fri", "time": "10:00am"}, {"days": "Sat-Sun", "time": "Closed"}], "id": "2845100001", "name": "USPS COLLECTION BOX - BLUE BOX", "address": {"city": "LELAND", "state": "NC", "street": "1107 NEW POINTE BLVD", "postcode": "28451"}}},
{"geometry": {"type": "Point", "coordinates": [-78.0007914484, 34.234611306]}, "type": "Feature", "properties": {"collection_times": [{"days": "Mon-Fri", "time": "9:00am"}, {"days": "Sat-Sun", "time": "Closed"}], "id": "2845100002", "name": "USPS COLLECTION BOX - BLUE BOX", "address": {"city": "LELAND", "state": "NC", "street": "112 VILLAGE RD NE", "postcode": "28451"}}},
{"geometry": {"type": "Point", "coordinates": [-78.03608537, 34.2507332651]}, "type": "Feature", "properties": {"collection_times": [{"days": "Mon-Fri", "time": "4:30pm"}, {"days": "Sat", "time": "12:00pm"}, {"days": "Sun", "time": "Closed"}], "id": "2845100003", "name": "USPS COLLECTION BOX - BLUE BOX", "address": {"city": "LELAND", "state": "NC", "street": "1123 VILLAGE RD NE", "postcode": "28451"}}},
{"geometry": {"type": "Point", "coordinates": [-78.0200282209, 34.2173473972]}, "type": "Feature", "properties": {"collection_times": [{"days": "Mon-Fri", "time": "11:00am"}, {"days": "Sat-Sun", "time": "Closed"}], "id": "2845100004", "name": "USPS COLLECTION BOX - BLUE BOX", "address": {"city": "LELAND", "state": "NC", "street": "511 OLDE WATERFORD WAY", "postcode": "28451"}}},
{"geometry": {"type": "Point", "coordinates": [-78.03608537, 34.2507332651]}, "type": "Feature", "properties": {"collection_times": [{"days": "Mon-Fri", "time": "4:30pm"}, {"days": "Sat", "time": "12:00pm"}, {"days": "Sun", "time": "Closed"}], "id": "2845100005", "name": "USPS COLLECTION BOX - BLUE BOX", "address": {"city": "LELAND", "state": "NC", "street": "1123 VILLAGE RD NE", "postcode": "28451"}}},
{"geometry": {"type": "Point", "coordinates": [-78.03608537, 34.2507332651]}, "type": "Feature", "properties": {"collection_times": [{"days": "Mon-Fri", "time": "4:30pm"}, {"days": "Sat", "time": "12:00pm"}, {"days": "Sun", "time": "Closed"}], "id": "2845100006", "name": "USPS COLLECTION BOX - BLUE BOX", "address": {"city": "LELAND", "state": "NC", "street": "1123 VILLAGE RD NE", "postcode": "28451"}}},
{"geometry": {"type": "Point", "coordinates": [-78.0286690925, 34.2108961175]}, "type": "Feature", "properties": {"collection_times": [{"days": "Mon-Fri", "time": "11:00am"}, {"days": "Sat-Sun", "time": "Closed"}], "id": "2845100007", "name": "USPS COLLECTION BOX - BLUE BOX", "address": {"city": "LELAND", "state": "NC", "street": "1012 GRANDIFLORA DR", "postcode": "28451"}}},
{"geometry": {"type": "Point", "coordinates": [-78.03608537, 34.2507332651]}, "type": "Feature", "properties": {"collection_times": [{"days": "Mon-Fri", "time": "4:30pm"}, {"days": "Sat", "time": "12:00pm"}, {"days": "Sun", "time": "Closed"}], "id": "2845100008", "name": "USPS COLLECTION BOX - PO LOBBY", "address": {"city": "LELAND", "state": "NC", "street": "1123 VILLAGE RD NE", "postcode": "28451"}}},
{"geometry": {"type": "Point", "coordinates": [-78.03608537, 34.2507332651]}, "type": "Feature", "properties": {"collection_times": [{"days": "Mon-Fri", "time": "4:30pm"}, {"days": "Sat", "time": "12:00pm"}, {"days": "Sun", "time": "Closed"}], "id": "2845100009", "name": "USPS COLLECTION BOX - PO LOBBY", "address": {"city": "LELAND", "state": "NC", "street": "1123 VILLAGE RD NE", "postcode": "28451"}}},
{"geometry": {"type": "Point", "coordinates": [-78.03608537, 34.2507332651]}, "type": "Feature", "properties": {"collection_times": [{"days": "Mon-Fri", "time": "4:30pm"}, {"days": "Sat", "time": "12:00pm"}, {"days": "Sun", "time": "Closed"}], "id": "2845100010", "name": "USPS COLLECTION BOX - PO LOBBY", "address": {"city": "LELAND", "state": "NC", "street": "1123 VILLAGE RD NE", "postcode": "28451"}}},
{"geometry": {"type": "Point", "coordinates": [-78.5401393956, 34.000172396]}, "type": "Feature", "properties": {"collection_times": [{"days": "Mon-Fri", "time": "4:15pm"}, {"days": "Sat", "time": "9:30am"}, {"days": "Sun", "time": "Closed"}], "id": "2845200001", "name": "USPS COLLECTION BOX - BLUE BOX", "address": {"city": "LONGWOOD", "state": "NC", "street": "2165 LONGWOOD RD NW", "postcode": "28452"}}},
{"geometry": {"type": "Point", "coordinates": [-78.5401393956, 34.000172396]}, "type": "Feature", "properties": {"collection_times": [{"days": "Mon-Fri", "time": "4:15pm"}, {"days": "Sat", "time": "9:30am"}, {"days": "Sun", "time": "Closed"}], "id": "2845200002", "name": "USPS COLLECTION BOX - PO LOBBY", "address": {"city": "LONGWOOD", "state": "NC", "street": "2165 LONGWOOD RD NW", "postcode": "28452"}}},
{"geometry": {"type": "Point", "coordinates": [-78.0540972493, 34.8965538836]}, "type": "Feature", "properties": {"collection_times": [{"days": "Mon-Fri", "time": "4:30pm"}, {"days": "Sat", "time": "12:00pm"}, {"days": "Sun", "time": "Closed"}], "id": "2845300001", "name": "USPS COLLECTION BOX - BLUE BOX", "address": {"city": "MAGNOLIA", "state": "NC", "street": "215 E MAIN ST", "postcode": "28453"}}},
{"geometry": {"type": "Point", "coordinates": [-78.0540972493, 34.8965538836]}, "type": "Feature", "properties": {"collection_times": [{"days": "Mon-Fri", "time": "4:30pm"}, {"days": "Sat", "time": "12:00pm"}, {"days": "Sun", "time": "Closed"}], "id": "2845300002", "name": "USPS COLLECTION BOX - PO LOBBY", "address": {"city": "MAGNOLIA", "state": "NC", "street": "215 E MAIN ST", "postcode": "28453"}}},
{"geometry": {"type": "Point", "coordinates": [-77.6791970202, 34.6742729247]}, "type": "Feature", "properties": {"collection_times": [{"days": "Mon-Sat", "time": "11:00am"}, {"days": "Sun", "time": "Closed"}], "id": "2845400001", "name": "USPS COLLECTION BOX - BLUE BOX", "address": {"city": "MAPLE HILL", "state": "NC", "street": "5330 NC HIGHWAY 50", "postcode": "28454"}}},
{"geometry": {"type": "Point", "coordinates": [-77.6790924911, 34.6595355702]}, "type": "Feature", "properties": {"collection_times": [{"days": "Mon-Fri", "time": "4:15pm"}, {"days": "Sat", "time": "10:45am"}, {"days": "Sun", "time": "Closed"}], "id": "2845400002", "name": "USPS COLLECTION BOX - PO LOBBY", "address": {"city": "MAPLE HILL", "state": "NC", "street": "545 MAPLE HILL SCHOOL RD", "postcode": "28454"}}},
{"geometry": {"type": "Point", "coordinates": [-78.6691224745, 34.1359726399]}, "type": "Feature", "properties": {"collection_times": [{"days": "Mon-Fri", "time": "4:30pm"}, {"days": "Sat", "time": "11:00am"}, {"days": "Sun", "time": "Closed"}], "id": "2845500001", "name": "USPS COLLECTION BOX - BLUE BOX", "address": {"city": "NAKINA", "state": "NC", "street": "7731 SEVEN CREEKS HWY", "postcode": "28455"}}},
{"geometry": {"type": "Point", "coordinates": [-78.6514267609, 34.1123420534]}, "type": "Feature", "properties": {"collection_times": [{"days": "Mon-Fri", "time": "4:30pm"}, {"days": "Sat", "time": "11:00am"}, {"days": "Sun", "time": "Closed"}], "id": "2845500002", "name": "USPS COLLECTION BOX - PO LOBBY", "address": {"city": "NAKINA", "state": "NC", "street": "7731 SEVEN CREEKS HWY", "postcode": "28455"}}},
{"geometry": {"type": "Point", "coordinates": [-78.6691224745, 34.1359726399]}, "type": "Feature", "properties": {"collection_times": [{"days": "Mon-Fri", "time": "4:30pm"}, {"days": "Sat", "time": "11:00am"}, {"days": "Sun", "time": "Closed"}], "id": "2845500003", "name": "USPS COLLECTION BOX - PO LOBBY", "address": {"city": "NAKINA", "state": "NC", "street": "7731 SEVEN CREEKS HWY", "postcode": "28455"}}},
{"geometry": {"type": "Point", "coordinates": [-78.288931859, 34.3655791465]}, "type": "Feature", "properties": {"collection_times": [{"days": "Mon-Fri", "time": "4:30pm"}, {"days": "Sat", "time": "12:30pm"}, {"days": "Sun", "time": "Closed"}], "id": "2845600001", "name": "USPS COLLECTION BOX - BLUE BOX", "address": {"city": "RIEGELWOOD", "state": "NC", "street": "208 RIEGELWOOD SHOPPING CTR", "postcode": "28456"}}},
{"geometry": {"type": "Point", "coordinates": [-78.288931859, 34.3655791465]}, "type": "Feature", "properties": {"collection_times": [{"days": "Mon-Fri", "time": "4:30pm"}, {"days": "Sat", "time": "12:30pm"}, {"days": "Sun", "time": "Closed"}], "id": "2845600002", "name": "USPS COLLECTION BOX - PO LOBBY", "address": {"city": "RIEGELWOOD", "state": "NC", "street": "208 RIEGELWOOD SHOPPING CTR", "postcode": "28456"}}},
{"geometry": {"type": "Point", "coordinates": [-78.288931859, 34.3655791465]}, "type": "Feature", "properties": {"collection_times": [{"days": "Mon-Fri", "time": "4:30pm"}, {"days": "Sat", "time": "12:30pm"}, {"days": "Sun", "time": "Closed"}], "id": "2845600003", "name": "USPS COLLECTION BOX - PO LOBBY", "address": {"city": "RIEGELWOOD", "state": "NC", "street": "208 RIEGELWOOD SHOPPING CTR", "postcode": "28456"}}},
{"geometry": {"type": "Point", "coordinates": [-77.8805680056, 34.4428087293]}, "type": "Feature", "properties": {"collection_times": [{"days": "Mon-Fri", "time": "4:30pm"}, {"days": "Sat", "time": "12:00pm"}, {"days": "Sun", "time": "Closed"}], "id": "2845700001", "name": "USPS COLLECTION BOX - BLUE BOX", "address": {"city": "ROCKY POINT", "state": "NC", "street": "7974 US HIGHWAY 117 S", "postcode": "28457"}}},
{"geometry": {"type": "Point", "coordinates": [-77.8805680056, 34.4428087293]}, "type": "Feature", "properties": {"collection_times": [{"days": "Mon-Fri", "time": "4:30pm"}, {"days": "Sat", "time": "12:00pm"}, {"days": "Sun", "time": "Closed"}], "id": "2845700002", "name": "USPS COLLECTION BOX - PO LOBBY", "address": {"city": "ROCKY POINT", "state": "NC", "street": "7974 US HIGHWAY 117 S", "postcode": "28457"}}},
{"geometry": {"type": "Point", "coordinates": [-77.8805680056, 34.4428087293]}, "type": "Feature", "properties": {"collection_times": [{"days": "Mon-Fri", "time": "4:30pm"}, {"days": "Sat", "time": "12:00pm"}, {"days": "Sun", "time": "Closed"}], "id": "2845700003", "name": "USPS COLLECTION BOX - PO LOBBY", "address": {"city": "ROCKY POINT", "state": "NC", "street": "7974 US HIGHWAY 117 S", "postcode": "28457"}}},
{"geometry": {"type": "Point", "coordinates": [-78.0278151967, 34.8238975673]}, "type": "Feature", "properties": {"collection_times": [{"days": "Mon-Fri", "time": "4:30pm"}, {"days": "Sat", "time": "12:00pm"}, {"days": "Sun", "time": "Closed"}], "id": "2845800001", "name": "USPS COLLECTION BOX - BLUE BOX", "address": {"city": "ROSE HILL", "state": "NC", "street": "128 CHURCH ST", "postcode": "28458"}}},
{"geometry": {"type": "Point", "coordinates": [-78.0278151967, 34.8238975673]}, "type": "Feature", "properties": {"collection_times": [{"days": "Mon-Fri", "time": "4:30pm"}, {"days": "Sat", "time": "12:00pm"}, {"days": "Sun", "time": "Closed"}], "id": "2845800003", "name": "USPS COLLECTION BOX - PO LOBBY", "address": {"city": "ROSE HILL", "state": "NC", "street": "128 CHURCH  ST", "postcode": "28458"}}},
{"geometry": {"type": "Point", "coordinates": [-78.0278151967, 34.8238975673]}, "type": "Feature", "properties": {"collection_times": [{"days": "Mon-Fri", "time": "4:30pm"}, {"days": "Sat", "time": "12:00pm"}, {"days": "Sun", "time": "Closed"}], "id": "2845800004", "name": "USPS COLLECTION BOX - PO LOBBY", "address": {"city": "ROSE HILL", "state": "NC", "street": "128 CHURCH ST", "postcode": "28458"}}},
{"geometry": {"type": "Point", "coordinates": [-78.3844940131, 33.984338296]}, "type": "Feature", "properties": {"collection_times": [{"days": "Mon-Fri", "time": "4:30pm"}, {"days": "Sat", "time": "12:30pm"}, {"days": "Sun", "time": "Closed"}], "id": "2845900001", "name": "USPS COLLECTION BOX - BLUE BOX", "address": {"city": "SHALLOTTE", "state": "NC", "street": "209 SMITH AVE", "postcode": "28459"}}},
{"geometry": {"type": "Point", "coordinates": [-78.3844940131, 33.984338296]}, "type": "Feature", "properties": {"collection_times": [{"days": "Mon-Fri", "time": "4:30pm"}, {"days": "Sat", "time": "12:30pm"}, {"days": "Sun", "time": "Closed"}], "id": "2845900002", "name": "USPS COLLECTION BOX - BLUE BOX", "address": {"city": "SHALLOTTE", "state": "NC", "street": "209 SMITH AVE", "postcode": "28459"}}},
{"geometry": {"type": "Point", "coordinates": [-78.3844940131, 33.9843382963]}, "type": "Feature", "properties": {"collection_times": [{"days": "Mon-Fri", "time": "4:30pm"}, {"days": "Sat", "time": "12:30pm"}, {"days": "Sun", "time": "Closed"}], "id": "2845900003", "name": "USPS COLLECTION BOX - PO LOBBY", "address": {"city": "SHALLOTTE", "state": "NC", "street": "209 SMITH AVE", "postcode": "28459"}}},
{"geometry": {"type": "Point", "coordinates": [-78.3844940131, 33.984338296]}, "type": "Feature", "properties": {"collection_times": [{"days": "Mon-Fri", "time": "4:30pm"}, {"days": "Sat", "time": "12:30pm"}, {"days": "Sun", "time": "Closed"}], "id": "2845900004", "name": "USPS COLLECTION BOX - PO LOBBY", "address": {"city": "SHALLOTTE", "state": "NC", "street": "209 SMITH AVE", "postcode": "28459"}}},
{"geometry": {"type": "Point", "coordinates": [-77.4374606139, 34.5489679478]}, "type": "Feature", "properties": {"collection_times": [{"days": "Mon-Fri", "time": "4:15pm"}, {"days": "Sat", "time": "10:00am"}, {"days": "Sun", "time": "Closed"}], "id": "2846000001", "name": "USPS COLLECTION BOX - BLUE BOX", "address": {"city": "N TOPSAIL BEACH", "state": "NC", "street": "2001 NC HIGHWAY 172", "postcode": "28460"}}},
{"geometry": {"type": "Point", "coordinates": [-77.4255416568, 34.4934168968]}, "type": "Feature", "properties": {"collection_times": [{"days": "Mon-Fri", "time": "12:00pm"}, {"days": "Sat-Sun", "time": "Closed"}], "id": "2846000008", "name": "USPS COLLECTION BOX - BLUE BOX", "address": {"city": "N TOPSAIL BEACH", "state": "NC", "street": "2008 LOGGERHEAD CT", "postcode": "28460"}}},
{"geometry": {"type": "Point", "coordinates": [-77.3517808123, 34.5232464582]}, "type": "Feature", "properties": {"collection_times": [{"days": "Mon-Fri", "time": "11:00am"}, {"days": "Sat-Sun", "time": "Closed"}], "id": "2846000009", "name": "USPS COLLECTION BOX - BLUE BOX", "address": {"city": "N TOPSAIL BEACH", "state": "NC", "street": "2181 NEW RIVER INLET RD", "postcode": "28460"}}},
{"geometry": {"type": "Point", "coordinates": [-77.4420349411, 34.5261287369]}, "type": "Feature", "properties": {"collection_times": [{"days": "Mon-Fri", "time": "10:00am"}, {"days": "Sat-Sun", "time": "Closed"}], "id": "2846000010", "name": "USPS COLLECTION BOX - BLUE BOX", "address": {"city": "N TOPSAIL BEACH", "state": "NC", "street": "965 OLD FOLKSTONE RD", "postcode": "28460"}}},
{"geometry": {"type": "Point", "coordinates": [-77.4374606139, 34.5489679478]}, "type": "Feature", "properties": {"collection_times": [{"days": "Mon-Fri", "time": "4:15pm"}, {"days": "Sat", "time": "11:15am"}, {"days": "Sun", "time": "Closed"}], "id": "2846000011", "name": "USPS COLLECTION BOX - PO LOBBY", "address": {"city": "N TOPSAIL BEACH", "state": "NC", "street": "2001 NC HIGHWAY 172", "postcode": "28460"}}},
{"geometry": {"type": "Point", "coordinates": [-77.4374606139, 34.5489679478]}, "type": "Feature", "properties": {"collection_times": [{"days": "Mon-Fri", "time": "4:15pm"}, {"days": "Sat", "time": "11:15am"}, {"days": "Sun", "time": "Closed"}], "id": "2846000012", "name": "USPS COLLECTION BOX - PO LOBBY", "address": {"city": "N TOPSAIL BEACH", "state": "NC", "street": "2001 NC HIGHWAY 172", "postcode": "28460"}}},
{"geometry": {"type": "Point", "coordinates": [-77.4374606139, 34.5489679478]}, "type": "Feature", "properties": {"collection_times": [{"days": "Mon-Fri", "time": "4:15pm"}, {"days": "Sat", "time": "11:15am"}, {"days": "Sun", "time": "Closed"}], "id": "2846000013", "name": "USPS COLLECTION BOX - PO LOBBY", "address": {"city": "N TOPSAIL BEACH", "state": "NC", "street": "2001 NC HIGHWAY 172", "postcode": "28460"}}},
{"geometry": {"type": "Point", "coordinates": [-78.0673687494, 34.0306887838]}, "type": "Feature", "properties": {"collection_times": [{"days": "Mon-Sat", "time": "12:30pm"}, {"days": "Sun", "time": "Closed"}], "id": "2846100012", "name": "USPS COLLECTION BOX - BLUE BOX", "address": {"city": "SOUTHPORT", "state": "NC", "street": "4 E BOILING SPRING RD", "postcode": "28461"}}},
{"geometry": {"type": "Point", "coordinates": [-78.0186977259, 33.919455686]}, "type": "Feature", "properties": {"collection_times": [{"days": "Mon-Fri", "time": "4:30pm"}, {"days": "Sat", "time": "1:30pm"}, {"days": "Sun", "time": "Closed"}], "id": "2846100014", "name": "USPS COLLECTION BOX - BLUE BOX", "address": {"city": "SOUTHPORT", "state": "NC", "street": "206 E NASH ST", "postcode": "28461"}}},
{"geometry": {"type": "Point", "coordinates": [-78.0186977259, 33.919455686]}, "type": "Feature", "properties": {"collection_times": [{"days": "Mon-Fri", "time": "4:30pm"}, {"days": "Sat", "time": "1:30pm"}, {"days": "Sun", "time": "Closed"}], "id": "2846100015", "name": "USPS COLLECTION BOX - BLUE BOX", "address": {"city": "SOUTHPORT", "state": "NC", "street": "206 E NASH ST", "postcode": "28461"}}},
{"geometry": {"type": "Point", "coordinates": [-78.0186977259, 33.919455686]}, "type": "Feature", "properties": {"collection_times": [{"days": "Mon-Fri", "time": "4:30pm"}, {"days": "Sat", "time": "1:30pm"}, {"days": "Sun", "time": "Closed"}], "id": "2846100016", "name": "USPS COLLECTION BOX - PO LOBBY", "address": {"city": "SOUTHPORT", "state": "NC", "street": "206 E NASH ST", "postcode": "28461"}}},
{"geometry": {"type": "Point", "coordinates": [-78.0186977259, 33.919455686]}, "type": "Feature", "properties": {"collection_times": [{"days": "Mon-Fri", "time": "4:30pm"}, {"days": "Sat", "time": "1:30pm"}, {"days": "Sun", "time": "Closed"}], "id": "2846100017", "name": "USPS COLLECTION BOX - PO LOBBY", "address": {"city": "SOUTHPORT", "state": "NC", "street": "206 E NASH ST", "postcode": "28461"}}},
{"geometry": {"type": "Point", "coordinates": [-78.2915194934, 34.0099973084]}, "type": "Feature", "properties": {"collection_times": [{"days": "Mon-Fri", "time": "11:00am"}, {"days": "Sat-Sun", "time": "Closed"}], "id": "2846200001", "name": "USPS COLLECTION BOX - BLUE BOX", "address": {"city": "SUPPLY", "state": "NC", "street": "1 MEDICAL CENTER DR", "postcode": "28462"}}},
{"geometry": {"type": "Point", "coordinates": [-78.2717509386, 34.0170823779]}, "type": "Feature", "properties": {"collection_times": [{"days": "Mon-Fri", "time": "4:30pm"}, {"days": "Sat", "time": "11:00am"}, {"days": "Sun", "time": "Closed"}], "id": "2846200003", "name": "USPS COLLECTION BOX - BLUE BOX", "address": {"city": "SUPPLY", "state": "NC", "street": "25 BLANTON RD SE", "postcode": "28462"}}},
{"geometry": {"type": "Point", "coordinates": [-78.2717509386, 34.0170823779]}, "type": "Feature", "properties": {"collection_times": [{"days": "Mon-Fri", "time": "4:30pm"}, {"days": "Sat", "time": "11:00am"}, {"days": "Sun", "time": "Closed"}], "id": "2846200008", "name": "USPS COLLECTION BOX - PO LOBBY", "address": {"city": "SUPPLY", "state": "NC", "street": "25 BLANTON RD SE", "postcode": "28462"}}},
{"geometry": {"type": "Point", "coordinates": [-78.2717509386, 34.0170823779]}, "type": "Feature", "properties": {"collection_times": [{"days": "Mon-Fri", "time": "4:30pm"}, {"days": "Sat", "time": "11:00am"}, {"days": "Sun", "time": "Closed"}], "id": "2846200009", "name": "USPS COLLECTION BOX - PO LOBBY", "address": {"city": "SUPPLY", "state": "NC", "street": "25 BLANTON RD SE", "postcode": "28462"}}},
{"geometry": {"type": "Point", "coordinates": [-78.2858341096, 33.9273378862]}, "type": "Feature", "properties": {"collection_times": [{"days": "Mon-Fri", "time": "10:30am"}, {"days": "Sat-Sun", "time": "Closed"}], "id": "2846200010", "name": "USPS COLLECTION BOX - BLUE BOX", "address": {"city": "SUPPLY", "state": "NC", "street": "1100 SABBATH HOME RD SW", "postcode": "28462"}}},
{"geometry": {"type": "Point", "coordinates": [-78.8740873102, 34.149896519]}, "type": "Feature", "properties": {"collection_times": [{"days": "Mon-Fri", "time": "4:30pm"}, {"days": "Sat", "time": "12:00pm"}, {"days": "Sun", "time": "Closed"}], "id": "2846300004", "name": "USPS COLLECTION BOX - BLUE BOX", "address": {"city": "TABOR CITY", "state": "NC", "street": "200 E 5TH ST", "postcode": "28463"}}},
{"geometry": {"type": "Point", "coordinates": [-78.8740873102, 34.149896519]}, "type": "Feature", "properties": {"collection_times": [{"days": "Mon-Fri", "time": "4:30pm"}, {"days": "Sat", "time": "12:00pm"}, {"days": "Sun", "time": "Closed"}], "id": "2846300005", "name": "USPS COLLECTION BOX - PO LOBBY", "address": {"city": "TABOR CITY", "state": "NC", "street": "200 E 5TH ST", "postcode": "28463"}}},
{"geometry": {"type": "Point", "coordinates": [-78.8740873102, 34.149896519]}, "type": "Feature", "properties": {"collection_times": [{"days": "Mon-Fri", "time": "4:30pm"}, {"days": "Sat", "time": "12:00pm"}, {"days": "Sun", "time": "Closed"}], "id": "2846300006", "name": "USPS COLLECTION BOX - PO LOBBY", "address": {"city": "TABOR CITY", "state": "NC", "street": "200 E 5TH ST", "postcode": "28463"}}},
{"geometry": {"type": "Point", "coordinates": [-78.0087279592, 34.7681722444]}, "type": "Feature", "properties": {"collection_times": [{"days": "Mon-Fri", "time": "4:30pm"}, {"days": "Sat", "time": "9:30am"}, {"days": "Sun", "time": "Closed"}], "id": "2846400001", "name": "USPS COLLECTION BOX - BLUE BOX", "address": {"city": "TEACHEY", "state": "NC", "street": "103 N WEST AVE", "postcode": "28464"}}},
{"geometry": {"type": "Point", "coordinates": [-78.0087279592, 34.7681722444]}, "type": "Feature", "properties": {"collection_times": [{"days": "Mon-Fri", "time": "4:30pm"}, {"days": "Sat", "time": "9:30am"}, {"days": "Sun", "time": "Closed"}], "id": "2846400004", "name": "USPS COLLECTION BOX - PO LOBBY", "address": {"city": "TEACHEY", "state": "NC", "street": "103 N WEST AVE", "postcode": "28464"}}},
{"geometry": {"type": "Point", "coordinates": [-78.1164765074, 33.9134439426]}, "type": "Feature", "properties": {"collection_times": [{"days": "Mon-Sat", "time": "12:30pm"}, {"days": "Sun", "time": "Closed"}], "id": "2846500003", "name": "USPS COLLECTION BOX - BLUE BOX", "address": {"city": "OAK ISLAND", "state": "NC", "street": "4601 E OAK ISLAND DR", "postcode": "28465"}}},
{"geometry": {"type": "Point", "coordinates": [-77.9949243965, 34.7364241045]}, "type": "Feature", "properties": {"collection_times": [{"days": "Mon-Fri", "time": "4:30pm"}, {"days": "Sat", "time": "12:00pm"}, {"days": "Sun", "time": "Closed"}], "id": "2846600008", "name": "USPS COLLECTION BOX - BLUE BOX", "address": {"city": "WALLACE", "state": "NC", "street": "202 E SOUTHERLAND ST", "postcode": "28466"}}},
{"geometry": {"type": "Point", "coordinates": [-77.9949243965, 34.7364241045]}, "type": "Feature", "properties": {"collection_times": [{"days": "Mon-Fri", "time": "4:30pm"}, {"days": "Sat", "time": "12:00pm"}, {"days": "Sun", "time": "Closed"}], "id": "2846600009", "name": "USPS COLLECTION BOX - BLUE BOX", "address": {"city": "WALLACE", "state": "NC", "street": "202 E SOUTHERLAND ST", "postcode": "28466"}}},
{"geometry": {"type": "Point", "coordinates": [-77.9949243965, 34.7364241045]}, "type": "Feature", "properties": {"collection_times": [{"days": "Mon-Fri", "time": "4:30pm"}, {"days": "Sat", "time": "12:00pm"}, {"days": "Sun", "time": "Closed"}], "id": "2846600011", "name": "USPS COLLECTION BOX - PO LOBBY", "address": {"city": "WALLACE", "state": "NC", "street": "202 E SOUTHERLAND ST", "postcode": "28466"}}},
{"geometry": {"type": "Point", "coordinates": [-77.9949243965, 34.7364241045]}, "type": "Feature", "properties": {"collection_times": [{"days": "Mon-Fri", "time": "4:30pm"}, {"days": "Sat", "time": "12:00pm"}, {"days": "Sun", "time": "Closed"}], "id": "2846600012", "name": "USPS COLLECTION BOX - PO LOBBY", "address": {"city": "WALLACE", "state": "NC", "street": "202 E SOUTHERLAND ST", "postcode": "28466"}}},
{"geometry": {"type": "Point", "coordinates": [-78.5816374014, 33.8901510535]}, "type": "Feature", "properties": {"collection_times": [{"days": "Mon-Sat", "time": "12:30pm"}, {"days": "Sun", "time": "Closed"}], "id": "2846700000", "name": "USPS COLLECTION BOX - BLUE BOX", "address": {"city": "CALABASH", "state": "NC", "street": "10152 BEACH DR SW", "postcode": "28467"}}},
{"geometry": {"type": "Point", "coordinates": [-78.5735711835, 33.9029870343]}, "type": "Feature", "properties": {"collection_times": [{"days": "Mon-Sat", "time": "10:00am"}, {"days": "Sun", "time": "Closed"}], "id": "2846700001", "name": "USPS COLLECTION BOX - BLUE BOX", "address": {"city": "CALABASH", "state": "NC", "street": "486 SALTAIRE DR", "postcode": "28467"}}},
{"geometry": {"type": "Point", "coordinates": [-78.4587996321, 33.9086308155]}, "type": "Feature", "properties": {"collection_times": [{"days": "Mon-Fri", "time": "4:30pm"}, {"days": "Sat", "time": "2:00pm"}, {"days": "Sun", "time": "Closed"}], "id": "2846900003", "name": "USPS COLLECTION BOX - BLUE BOX", "address": {"city": "OCEAN ISLE BCH", "state": "NC", "street": "1587 SEASIDE RD SW", "postcode": "28469"}}},
{"geometry": {"type": "Point", "coordinates": [-78.4587996321, 33.9086308155]}, "type": "Feature", "properties": {"collection_times": [{"days": "Mon-Fri", "time": "4:30pm"}, {"days": "Sat", "time": "2:00pm"}, {"days": "Sun", "time": "Closed"}], "id": "2846900004", "name": "USPS COLLECTION BOX - BLUE BOX", "address": {"city": "OCEAN ISLE BCH", "state": "NC", "street": "1587 SEASIDE RD SW", "postcode": "28469"}}},
{"geometry": {"type": "Point", "coordinates": [-78.4888702758, 33.9023157388]}, "type": "Feature", "properties": {"collection_times": [{"days": "Mon-Fri", "time": "4:30pm"}, {"days": "Sat", "time": "2:00pm"}, {"days": "Sun", "time": "Closed"}], "id": "2846900005", "name": "USPS COLLECTION BOX - PO LOBBY", "address": {"city": "OCEAN ISLE BCH", "state": "NC", "street": "1587 SEASIDE RD SW", "postcode": "28469"}}},
{"geometry": {"type": "Point", "coordinates": [-78.4888702758, 33.9023157388]}, "type": "Feature", "properties": {"collection_times": [{"days": "Mon-Fri", "time": "4:30pm"}, {"days": "Sat", "time": "2:00pm"}, {"days": "Sun", "time": "Closed"}], "id": "2846900006", "name": "USPS COLLECTION BOX - PO LOBBY", "address": {"city": "OCEAN ISLE BCH", "state": "NC", "street": "1587 SEASIDE RD SW", "postcode": "28469"}}},
{"geometry": {"type": "Point", "coordinates": [-78.6406542927, 34.2135665165]}, "type": "Feature", "properties": {"collection_times": [{"days": "Mon-Fri", "time": "11:00am"}, {"days": "Sat-Sun", "time": "Closed"}], "id": "2847200005", "name": "USPS COLLECTION BOX - BLUE BOX", "address": {"city": "WHITEVILLE", "state": "NC", "street": "45 GOVERNMENT COMPLEX RD", "postcode": "28472"}}},
{"geometry": {"type": "Point", "coordinates": [-78.6984380049, 34.3380829355]}, "type": "Feature", "properties": {"collection_times": [{"days": "Mon-Fri", "time": "11:00am"}, {"days": "Sat-Sun", "time": "Closed"}], "id": "2847200006", "name": "USPS COLLECTION BOX - BLUE BOX", "address": {"city": "WHITEVILLE", "state": "NC", "street": "300 JEFFERSON ST", "postcode": "28472"}}},
{"geometry": {"type": "Point", "coordinates": [-78.7044383292, 34.3377564126]}, "type": "Feature", "properties": {"collection_times": [{"days": "Mon-Fri", "time": "11:00am"}, {"days": "Sat-Sun", "time": "Closed"}], "id": "2847200015", "name": "USPS COLLECTION BOX - BLUE BOX", "address": {"city": "WHITEVILLE", "state": "NC", "street": "112 W SMITH ST", "postcode": "28472"}}},
{"geometry": {"type": "Point", "coordinates": [-78.7027900612, 34.323377809]}, "type": "Feature", "properties": {"collection_times": [{"days": "Mon-Fri", "time": "11:00am"}, {"days": "Sat-Sun", "time": "Closed"}], "id": "2847200016", "name": "USPS COLLECTION BOX - BLUE BOX", "address": {"city": "WHITEVILLE", "state": "NC", "street": "613 S MADISON ST", "postcode": "28472"}}},
{"geometry": {"type": "Point", "coordinates": [-78.7055814925, 34.3292109654]}, "type": "Feature", "properties": {"collection_times": [{"days": "Mon-Fri", "time": "5:00pm"}, {"days": "Sat", "time": "12:00pm"}, {"days": "Sun", "time": "Closed"}], "id": "2847200019", "name": "USPS COLLECTION BOX - BLUE BOX", "address": {"city": "WHITEVILLE", "state": "NC", "street": "107 S LEE ST", "postcode": "28472"}}},
{"geometry": {"type": "Point", "coordinates": [-78.7055814925, 34.3292109654]}, "type": "Feature", "properties": {"collection_times": [{"days": "Mon-Fri", "time": "5:00pm"}, {"days": "Sat", "time": "12:00pm"}, {"days": "Sun", "time": "Closed"}], "id": "2847200020", "name": "USPS COLLECTION BOX - BLUE BOX", "address": {"city": "WHITEVILLE", "state": "NC", "street": "107 S LEE ST", "postcode": "28472"}}},
{"geometry": {"type": "Point", "coordinates": [-78.7055814925, 34.3292109654]}, "type": "Feature", "properties": {"collection_times": [{"days": "Mon-Fri", "time": "5:00pm"}, {"days": "Sat", "time": "12:00pm"}, {"days": "Sun", "time": "Closed"}], "id": "2847200022", "name": "USPS COLLECTION BOX - PO LOBBY", "address": {"city": "WHITEVILLE", "state": "NC", "street": "107 S LEE ST", "postcode": "28472"}}},
{"geometry": {"type": "Point", "coordinates": [-78.7055814925, 34.3292109654]}, "type": "Feature", "properties": {"collection_times": [{"days": "Mon-Fri", "time": "5:00pm"}, {"days": "Sat", "time": "12:00pm"}, {"days": "Sun", "time": "Closed"}], "id": "2847200023", "name": "USPS COLLECTION BOX - PO LOBBY", "address": {"city": "WHITEVILLE", "state": "NC", "street": "107 S LEE ST", "postcode": "28472"}}},
{"geometry": {"type": "Point", "coordinates": [-77.9792551743, 34.6895029919]}, "type": "Feature", "properties": {"collection_times": [{"days": "Mon-Fri", "time": "4:30pm"}, {"days": "Sat", "time": "11:30am"}, {"days": "Sun", "time": "Closed"}], "id": "2847800001", "name": "USPS COLLECTION BOX - BLUE BOX", "address": {"city": "WILLARD", "state": "NC", "street": "130 WILLARD RAILROAD ST", "postcode": "28478"}}},
{"geometry": {"type": "Point", "coordinates": [-78.0301691845, 34.6450310376]}, "type": "Feature", "properties": {"collection_times": [{"days": "Mon-Fri", "time": "4:30pm"}, {"days": "Sat", "time": "11:30am"}, {"days": "Sun", "time": "Closed"}], "id": "2847800003", "name": "USPS COLLECTION BOX - PO LOBBY", "address": {"city": "WILLARD", "state": "NC", "street": "130 WILLARD RAILROAD ST", "postcode": "28478"}}},
{"geometry": {"type": "Point", "coordinates": [-78.0935370894, 34.1464525134]}, "type": "Feature", "properties": {"collection_times": [{"days": "Mon-Fri", "time": "4:15pm"}, {"days": "Sat", "time": "11:00am"}, {"days": "Sun", "time": "Closed"}], "id": "2847900002", "name": "USPS COLLECTION BOX - BLUE BOX", "address": {"city": "WINNABOW", "state": "NC", "street": "6351 OCEAN HWY E", "postcode": "28479"}}},
{"geometry": {"type": "Point", "coordinates": [-78.0935370894, 34.1464525134]}, "type": "Feature", "properties": {"collection_times": [{"days": "Mon-Fri", "time": "4:15pm"}, {"days": "Sat", "time": "11:00am"}, {"days": "Sun", "time": "Closed"}], "id": "2847900003", "name": "USPS COLLECTION BOX - PO LOBBY", "address": {"city": "WINNABOW", "state": "NC", "street": "6351 OCEAN HWY E", "postcode": "28479"}}},
{"geometry": {"type": "Point", "coordinates": [-77.8100097529, 34.2167963947]}, "type": "Feature", "properties": {"collection_times": [{"days": "Mon-Fri", "time": "4:30pm"}, {"days": "Sat", "time": "12:00pm"}, {"days": "Sun", "time": "Closed"}], "id": "2848000003", "name": "USPS COLLECTION BOX - BLUE BOX", "address": {"city": "WRITSVLLE BCH", "state": "NC", "street": "206 CAUSEWAY DR", "postcode": "28480"}}},
{"geometry": {"type": "Point", "coordinates": [-77.8100097529, 34.2167963947]}, "type": "Feature", "properties": {"collection_times": [{"days": "Mon-Fri", "time": "4:30pm"}, {"days": "Sat", "time": "12:00pm"}, {"days": "Sun", "time": "Closed"}], "id": "2848000005", "name": "USPS COLLECTION BOX - BLUE BOX", "address": {"city": "WRITSVLLE BCH", "state": "NC", "street": "206 CAUSEWAY DR", "postcode": "28480"}}},
{"geometry": {"type": "Point", "coordinates": [-77.8100097529, 34.2167963947]}, "type": "Feature", "properties": {"collection_times": [{"days": "Mon-Fri", "time": "4:30pm"}, {"days": "Sat", "time": "12:00pm"}, {"days": "Sun", "time": "Closed"}], "id": "2848000007", "name": "USPS COLLECTION BOX - PO LOBBY", "address": {"city": "WRITSVLLE BCH", "state": "NC", "street": "206 CAUSEWAY DR", "postcode": "28480"}}},
{"geometry": {"type": "Point", "coordinates": [-77.8100097529, 34.2167963947]}, "type": "Feature", "properties": {"collection_times": [{"days": "Mon-Fri", "time": "4:30pm"}, {"days": "Sat", "time": "12:00pm"}, {"days": "Sun", "time": "Closed"}], "id": "2848000009", "name": "USPS COLLECTION BOX - PO LOBBY", "address": {"city": "WRITSVLLE BCH", "state": "NC", "street": "206 CAUSEWAY DR", "postcode": "28480"}}}
]}
