{"type": "FeatureCollection", "features": [
{"geometry": {"type": "Point", "coordinates": [-77.5896455655, 35.2848558803]}, "type": "Feature", "properties": {"collection_times": [{"days": "Mon-Sat", "time": "1:00pm"}, {"days": "Sun", "time": "Closed"}], "id": "2850100028", "name": "USPS COLLECTION BOX - BLUE BOX", "address": {"city": "KINSTON", "state": "NC", "street": "704 PLAZA BLVD", "postcode": "28501"}}},
{"geometry": {"type": "Point", "coordinates": [-77.5259461539, 35.2711349445]}, "type": "Feature", "properties": {"collection_times": [{"days": "Mon-Sat", "time": "1:00pm"}, {"days": "Sun", "time": "Closed"}], "id": "2850100033", "name": "USPS COLLECTION BOX - BLUE BOX", "address": {"city": "KINSTON", "state": "NC", "street": "E NORTH", "postcode": "28501"}}},
{"geometry": {"type": "Point", "coordinates": [-77.5259461539, 35.2711349445]}, "type": "Feature", "properties": {"collection_times": [{"days": "Mon-Sat", "time": "1:00pm"}, {"days": "Sun", "time": "Closed"}], "id": "2850100039", "name": "USPS COLLECTION BOX - BLUE BOX", "address": {"city": "KINSTON", "state": "NC", "street": "HWY 70", "postcode": "28501"}}},
{"geometry": {"type": "Point", "coordinates": [-77.5834450929, 35.2739764685]}, "type": "Feature", "properties": {"collection_times": [{"days": "Mon-Sat", "time": "1:00pm"}, {"days": "Sun", "time": "Closed"}], "id": "2850100051", "name": "USPS COLLECTION BOX - BLUE BOX", "address": {"city": "KINSTON", "state": "NC", "street": "400 GLENWOOD AVE", "postcode": "28501"}}},
{"geometry": {"type": "Point", "coordinates": [-77.5870902694, 35.2914661212]}, "type": "Feature", "properties": {"collection_times": [{"days": "Mon-Sat", "time": "1:00pm"}, {"days": "Sun", "time": "Closed"}], "id": "2850100053", "name": "USPS COLLECTION BOX - BLUE BOX", "address": {"city": "KINSTON", "state": "NC", "street": "701 DOCTORS DR", "postcode": "28501"}}},
{"geometry": {"type": "Point", "coordinates": [-77.5655794714, 35.2706640346]}, "type": "Feature", "properties": {"collection_times": [{"days": "Mon-Fri", "time": "5:00pm"}, {"days": "Sat", "time": "1:00pm"}, {"days": "Sun", "time": "Closed"}], "id": "2850100077", "name": "USPS COLLECTION BOX - BLUE BOX", "address": {"city": "KINSTON", "state": "NC", "street": "PLAZA BLVD", "postcode": "28501"}}},
{"geometry": {"type": "Point", "coordinates": [-77.5259461539, 35.2711349445]}, "type": "Feature", "properties": {"collection_times": [{"days": "Mon-Sat", "time": "1:00pm"}, {"days": "Sun", "time": "Closed"}], "id": "2850100084", "name": "USPS COLLECTION BOX - BLUE BOX", "address": {"city": "KINSTON", "state": "NC", "street": "@ HWY 58 S", "postcode": "28501"}}},
{"geometry": {"type": "Point", "coordinates": [-77.5259461539, 35.2711349445]}, "type": "Feature", "properties": {"collection_times": [{"days": "Mon-Sat", "time": "1:00pm"}, {"days": "Sun", "time": "Closed"}], "id": "2850100104", "name": "USPS COLLECTION BOX - BLUE BOX", "address": {"city": "KINSTON", "state": "NC", "street": "800 W VERNON AVE", "postcode": "28501"}}},
{"geometry": {"type": "Point", "coordinates": [-77.5792147514, 35.2603058105]}, "type": "Feature", "properties": {"collection_times": [{"days": "Mon-Fri", "time": "5:00pm"}, {"days": "Sat", "time": "1:00pm"}, {"days": "Sun", "time": "Closed"}], "id": "2850100111", "name": "USPS COLLECTION BOX - BLUE BOX", "address": {"city": "KINSTON", "state": "NC", "street": "208 E CASWELL ST", "postcode": "28501"}}},
{"geometry": {"type": "Point", "coordinates": [-77.5259461539, 35.2711349445]}, "type": "Feature", "properties": {"collection_times": [{"days": "Mon-Sat", "time": "1:00pm"}, {"days": "Sun", "time": "Closed"}], "id": "2850100116", "name": "USPS COLLECTION BOX - BLUE BOX", "address": {"city": "KINSTON", "state": "NC", "street": "2715 HWY 11 55", "postcode": "28501"}}},
{"geometry": {"type": "Point", "coordinates": [-77.5792147514, 35.2603058105]}, "type": "Feature", "properties": {"collection_times": [{"days": "Mon-Fri", "time": "5:00pm"}, {"days": "Sat", "time": "1:00pm"}, {"days": "Sun", "time": "Closed"}], "id": "2850100119", "name": "USPS COLLECTION BOX - PO LOBBY", "address": {"city": "KINSTON", "state": "NC", "street": "208 E CASWELL ST", "postcode": "28501"}}},
{"geometry": {"type": "Point", "coordinates": [-77.5792147514, 35.2603058105]}, "type": "Feature", "properties": {"collection_times": [{"days": "Mon-Fri", "time": "5:00pm"}, {"days": "Sat", "time": "1:00pm"}, {"days": "Sun", "time": "Closed"}], "id": "2850100120", "name": "USPS COLLECTION BOX - PO LOBBY", "address": {"city": "KINSTON", "state": "NC", "street": "208 E CASWELL ST", "postcode": "28501"}}},
{"geometry": {"type": "Point", "coordinates": [-77.6134049888, 35.2694593284]}, "type": "Feature", "properties": {"collection_times": [{"days": "Mon-Sat", "time": "1:00pm"}, {"days": "Sun", "time": "Closed"}], "id": "2850400000", "name": "USPS COLLECTION BOX - BLUE BOX", "address": {"city": "KINSTON", "state": "NC", "street": "2216 W VERNON AVE", "postcode": "28504"}}},
{"geometry": {"type": "Point", "coordinates": [-77.607109298, 35.274227543]}, "type": "Feature", "properties": {"collection_times": [{"days": "Mon-Sat", "time": "1:00pm"}, {"days": "Sun", "time": "Closed"}], "id": "2850400003", "name": "USPS COLLECTION BOX - BLUE BOX", "address": {"city": "KINSTON", "state": "NC", "street": "1100 HARDEE RD", "postcode": "28504"}}},
{"geometry": {"type": "Point", "coordinates": [-77.6022958331, 35.25465038]}, "type": "Feature", "properties": {"collection_times": [{"days": "Mon-Sat", "time": "1:00pm"}, {"days": "Sun", "time": "Closed"}], "id": "2850400005", "name": "USPS COLLECTION BOX - BLUE BOX", "address": {"city": "KINSTON", "state": "NC", "street": "1028 W NEW BERN RD", "postcode": "28504"}}},
{"geometry": {"type": "Point", "coordinates": [-77.6159683156, 35.2692336237]}, "type": "Feature", "properties": {"collection_times": [{"days": "Mon-Sat", "time": "1:00pm"}, {"days": "Sun", "time": "Closed"}], "id": "2850400006", "name": "USPS COLLECTION BOX - BLUE BOX", "address": {"city": "KINSTON", "state": "NC", "street": "2415 W VERNON AVE", "postcode": "28504"}}},
{"geometry": {"type": "Point", "coordinates": [-77.6065048295, 35.2708394456]}, "type": "Feature", "properties": {"collection_times": [{"days": "Mon-Sat", "time": "1:00pm"}, {"days": "Sun", "time": "Closed"}], "id": "2850400008", "name": "USPS COLLECTION BOX - BLUE BOX", "address": {"city": "KINSTON", "state": "NC", "street": "800 HARDEE RD", "postcode": "28504"}}},
{"geometry": {"type": "Point", "coordinates": [-77.6430411913, 35.2625228243]}, "type": "Feature", "properties": {"collection_times": [{"days": "Mon-Fri", "time": "5:00pm"}, {"days": "Sat", "time": "1:00pm"}, {"days": "Sun", "time": "Closed"}], "id": "2850400009", "name": "USPS COLLECTION BOX - BLUE BOX", "address": {"city": "KINSTON", "state": "NC", "street": "4100 W VERNON AVE", "postcode": "28504"}}},
{"geometry": {"type": "Point", "coordinates": [-77.6448891137, 35.2623493475]}, "type": "Feature", "properties": {"collection_times": [{"days": "Mon-Sat", "time": "1:00pm"}, {"days": "Sun", "time": "Closed"}], "id": "2850400011", "name": "USPS COLLECTION BOX - BLUE BOX", "address": {"city": "KINSTON", "state": "NC", "street": "4171 W VERNON AVE", "postcode": "28504"}}},
{"geometry": {"type": "Point", "coordinates": [-77.5776278705, 35.2408313299]}, "type": "Feature", "properties": {"collection_times": [{"days": "Mon-Sat", "time": "1:00pm"}, {"days": "Sun", "time": "Closed"}], "id": "2850400013", "name": "USPS COLLECTION BOX - BLUE BOX", "address": {"city": "KINSTON", "state": "NC", "street": "401 E NEW BERN RD", "postcode": "28504"}}},
{"geometry": {"type": "Point", "coordinates": [-77.8184337425, 35.1145853121]}, "type": "Feature", "properties": {"collection_times": [{"days": "Mon-Fri", "time": "4:30pm"}, {"days": "Sat", "time": "10:45am"}, {"days": "Sun", "time": "Closed"}], "id": "2850800001", "name": "USPS COLLECTION BOX - BLUE BOX", "address": {"city": "ALBERTSON", "state": "NC", "street": "3714 N NC 903 HWY", "postcode": "28508"}}},
{"geometry": {"type": "Point", "coordinates": [-77.8183371313, 35.1064706217]}, "type": "Feature", "properties": {"collection_times": [{"days": "Mon-Fri", "time": "4:30pm"}, {"days": "Sat", "time": "10:45am"}, {"days": "Sun", "time": "Closed"}], "id": "2850800002", "name": "USPS COLLECTION BOX - PO LOBBY", "address": {"city": "ALBERTSON", "state": "NC", "street": "3714 N NC 903 HWY", "postcode": "28508"}}},
{"geometry": {"type": "Point", "coordinates": [-76.8024965705, 35.1447023251]}, "type": "Feature", "properties": {"collection_times": [{"days": "Mon-Fri", "time": "4:45pm"}, {"days": "Sat", "time": "11:45am"}, {"days": "Sun", "time": "Closed"}], "id": "2850900001", "name": "USPS COLLECTION BOX - BLUE BOX", "address": {"city": "ALLIANCE", "state": "NC", "street": "13144 NC 55 HWY", "postcode": "28509"}}},
{"geometry": {"type": "Point", "coordinates": [-76.8024965705, 35.1447023251]}, "type": "Feature", "properties": {"collection_times": [{"days": "Mon-Fri", "time": "4:45pm"}, {"days": "Sat", "time": "11:45am"}, {"days": "Sun", "time": "Closed"}], "id": "2850900002", "name": "USPS COLLECTION BOX - PO LOBBY", "address": {"city": "ALLIANCE", "state": "NC", "street": "13144 NC 55 HWY", "postcode": "28509"}}},
{"geometry": {"type": "Point", "coordinates": [-76.8024965705, 35.1447023251]}, "type": "Feature", "properties": {"collection_times": [{"days": "Mon-Fri", "time": "4:45pm"}, {"days": "Sat", "time": "11:45am"}, {"days": "Sun", "time": "Closed"}], "id": "2850900003", "name": "USPS COLLECTION BOX - PO LOBBY", "address": {"city": "ALLIANCE", "state": "NC", "street": "13144 NC 55 HWY", "postcode": "28509"}}},
{"geometry": {"type": "Point", "coordinates": [-76.823930076, 35.0256684307]}, "type": "Feature", "properties": {"collection_times": [{"days": "Mon-Fri", "time": "4:00pm"}, {"days": "Sat", "time": "11:30am"}, {"days": "Sun", "time": "Closed"}], "id": "2851000001", "name": "USPS COLLECTION BOX - BLUE BOX", "address": {"city": "ARAPAHOE", "state": "NC", "street": "7706 KERSHAW RD", "postcode": "28510"}}},
{"geometry": {"type": "Point", "coordinates": [-76.8012495539, 35.0004003475]}, "type": "Feature", "properties": {"collection_times": [{"days": "Mon-Fri", "time": "4:00pm"}, {"days": "Sat", "time": "11:30am"}, {"days": "Sun", "time": "Closed"}], "id": "2851000002", "name": "USPS COLLECTION BOX - PO LOBBY", "address": {"city": "ARAPAHOE", "state": "NC", "street": "7706 KERSHAW RD", "postcode": "28510"}}},
{"geometry": {"type": "Point", "coordinates": [-76.823930076, 35.0256684307]}, "type": "Feature", "properties": {"collection_times": [{"days": "Mon-Fri", "time": "4:00pm"}, {"days": "Sat", "time": "11:30am"}, {"days": "Sun", "time": "Closed"}], "id": "2851000003", "name": "USPS COLLECTION BOX - PO LOBBY", "address": {"city": "ARAPAHOE", "state": "NC", "street": "7706 KERSHAW RD", "postcode": "28510"}}},
{"geometry": {"type": "Point", "coordinates": [-76.3475355736, 34.8768654939]}, "type": "Feature", "properties": {"collection_times": [{"days": "Mon-Fri", "time": "3:00pm"}, {"days": "Sat", "time": "10:30am"}, {"days": "Sun", "time": "Closed"}], "id": "2851100001", "name": "USPS COLLECTION BOX - BLUE BOX", "address": {"city": "ATLANTIC", "state": "NC", "street": "755 SEASHORE DR", "postcode": "28511"}}},
{"geometry": {"type": "Point", "coordinates": [-76.3475355736, 34.8768654939]}, "type": "Feature", "properties": {"collection_times": [{"days": "Mon-Fri", "time": "3:00pm"}, {"days": "Sat", "time": "10:30am"}, {"days": "Sun", "time": "Closed"}], "id": "2851100002", "name": "USPS COLLECTION BOX - PO LOBBY", "address": {"city": "ATLANTIC", "state": "NC", "street": "755 SEASHORE DR", "postcode": "28511"}}},
{"geometry": {"type": "Point", "coordinates": [-76.3475355736, 34.8768654939]}, "type": "Feature", "properties": {"collection_times": [{"days": "Mon-Fri", "time": "3:00pm"}, {"days": "Sat", "time": "10:30am"}, {"days": "Sun", "time": "Closed"}], "id": "2851100003", "name": "USPS COLLECTION BOX - PO LOBBY", "address": {"city": "ATLANTIC", "state": "NC", "street": "755 SEASHORE DR", "postcode": "28511"}}},
{"geometry": {"type": "Point", "coordinates": [-76.7625026961, 34.6989920748]}, "type": "Feature", "properties": {"collection_times": [{"days": "Mon-Fri", "time": "3:45pm"}, {"days": "Sat", "time": "12:15pm"}, {"days": "Sun", "time": "Closed"}], "id": "2851200008", "name": "USPS COLLECTION BOX - BLUE BOX", "address": {"city": "ATLANTIC BEACH", "state": "NC", "street": "1516 W FORT MACON RD", "postcode": "28512"}}},
{"geometry": {"type": "Point", "coordinates": [-76.7625026961, 34.6989920748]}, "type": "Feature", "properties": {"collection_times": [{"days": "Mon-Fri", "time": "3:45pm"}, {"days": "Sat", "time": "12:15pm"}, {"days": "Sun", "time": "Closed"}], "id": "2851200009", "name": "USPS COLLECTION BOX - PO LOBBY", "address": {"city": "ATLANTIC BEACH", "state": "NC", "street": "1516 W FORT MACON RD", "postcode": "28512"}}},
{"geometry": {"type": "Point", "coordinates": [-76.7625026961, 34.6989920748]}, "type": "Feature", "properties": {"collection_times": [{"days": "Mon-Fri", "time": "3:45pm"}, {"days": "Sat", "time": "12:15pm"}, {"days": "Sun", "time": "Closed"}], "id": "2851200010", "name": "USPS COLLECTION BOX - PO LOBBY", "address": {"city": "ATLANTIC BEACH", "state": "NC", "street": "1516 W FORT MACON RD", "postcode": "28512"}}},
{"geometry": {"type": "Point", "coordinates": [-76.7387205034, 34.7011301424]}, "type": "Feature", "properties": {"collection_times": [{"days": "Mon-Sat", "time": "12:00pm"}, {"days": "Sun", "time": "Closed"}], "id": "2851200011", "name": "USPS COLLECTION BOX - BLUE BOX", "address": {"city": "ATLANTIC BEACH", "state": "NC", "street": "125 W FORT MACON RD", "postcode": "28512"}}},
{"geometry": {"type": "Point", "coordinates": [-77.4123290354, 35.4719383647]}, "type": "Feature", "properties": {"collection_times": [{"days": "Mon-Fri", "time": "5:00pm"}, {"days": "Sat", "time": "12:00pm"}, {"days": "Sun", "time": "Closed"}], "id": "2851300013", "name": "USPS COLLECTION BOX - BLUE BOX", "address": {"city": "AYDEN", "state": "NC", "street": "452 2ND ST", "postcode": "28513"}}},
{"geometry": {"type": "Point", "coordinates": [-77.4123290354, 35.4719383647]}, "type": "Feature", "properties": {"collection_times": [{"days": "Mon-Fri", "time": "5:00pm"}, {"days": "Sat", "time": "12:00pm"}, {"days": "Sun", "time": "Closed"}], "id": "2851300014", "name": "USPS COLLECTION BOX - BLUE BOX", "address": {"city": "AYDEN", "state": "NC", "street": "452 2ND ST", "postcode": "28513"}}},
{"geometry": {"type": "Point", "coordinates": [-77.3825491642, 35.4408107738]}, "type": "Feature", "properties": {"collection_times": [{"days": "Mon-Sat", "time": "3:00pm"}, {"days": "Sun", "time": "Closed"}], "id": "2851300016", "name": "USPS COLLECTION BOX - BLUE BOX", "address": {"city": "AYDEN", "state": "NC", "street": "4144 WEST AVE", "postcode": "28513"}}},
{"geometry": {"type": "Point", "coordinates": [-77.4153769763, 35.4618529666]}, "type": "Feature", "properties": {"collection_times": [{"days": "Mon-Fri", "time": "5:00pm"}, {"days": "Sat", "time": "12:00pm"}, {"days": "Sun", "time": "Closed"}], "id": "2851300017", "name": "USPS COLLECTION BOX - PO LOBBY", "address": {"city": "AYDEN", "state": "NC", "street": "452 2ND ST", "postcode": "28513"}}},
{"geometry": {"type": "Point", "coordinates": [-77.4123290354, 35.4719383647]}, "type": "Feature", "properties": {"collection_times": [{"days": "Mon-Fri", "time": "5:00pm"}, {"days": "Sat", "time": "12:00pm"}, {"days": "Sun", "time": "Closed"}], "id": "2851300018", "name": "USPS COLLECTION BOX - PO LOBBY", "address": {"city": "AYDEN", "state": "NC", "street": "452 2ND ST", "postcode": "28513"}}},
{"geometry": {"type": "Point", "coordinates": [-76.7680085332, 35.1425126598]}, "type": "Feature", "properties": {"collection_times": [{"days": "Mon-Fri", "time": "4:30pm"}, {"days": "Sat", "time": "11:00am"}, {"days": "Sun", "time": "Closed"}], "id": "2851500001", "name": "USPS COLLECTION BOX - BLUE BOX", "address": {"city": "BAYBORO", "state": "NC", "street": "107 MAIN ST", "postcode": "28515"}}},
{"geometry": {"type": "Point", "coordinates": [-76.7680085332, 35.1425126598]}, "type": "Feature", "properties": {"collection_times": [{"days": "Mon-Fri", "time": "4:30pm"}, {"days": "Sat", "time": "11:00am"}, {"days": "Sun", "time": "Closed"}], "id": "2851500002", "name": "USPS COLLECTION BOX - PO LOBBY", "address": {"city": "BAYBORO", "state": "NC", "street": "107 MAIN ST", "postcode": "28515"}}},
{"geometry": {"type": "Point", "coordinates": [-76.7680085332, 35.1425126598]}, "type": "Feature", "properties": {"collection_times": [{"days": "Mon-Fri", "time": "4:30pm"}, {"days": "Sat", "time": "11:00am"}, {"days": "Sun", "time": "Closed"}], "id": "2851500003", "name": "USPS COLLECTION BOX - PO LOBBY", "address": {"city": "BAYBORO", "state": "NC", "street": "107 MAIN ST", "postcode": "28515"}}},
{"geometry": {"type": "Point", "coordinates": [-76.6623473658, 34.7151296249]}, "type": "Feature", "properties": {"collection_times": [{"days": "Mon-Sat", "time": "1:00pm"}, {"days": "Sun", "time": "Closed"}], "id": "2851600001", "name": "USPS COLLECTION BOX - BLUE BOX", "address": {"city": "BEAUFORT", "state": "NC", "street": "701 FRONT ST", "postcode": "28516"}}},
{"geometry": {"type": "Point", "coordinates": [-76.6398758728, 34.7296172977]}, "type": "Feature", "properties": {"collection_times": [{"days": "Mon-Sat", "time": "1:30pm"}, {"days": "Sun", "time": "Closed"}], "id": "2851600002", "name": "USPS COLLECTION BOX - BLUE BOX", "address": {"city": "BEAUFORT", "state": "NC", "street": "1700 LIVE OAK ST", "postcode": "28516"}}},
{"geometry": {"type": "Point", "coordinates": [-76.6462435954, 34.7250358717]}, "type": "Feature", "properties": {"collection_times": [{"days": "Mon-Sat", "time": "11:00am"}, {"days": "Sun", "time": "Closed"}], "id": "2851600003", "name": "USPS COLLECTION BOX - BLUE BOX", "address": {"city": "BEAUFORT", "state": "NC", "street": "1400 LIVE OAK ST", "postcode": "28516"}}},
{"geometry": {"type": "Point", "coordinates": [-76.6359402975, 34.7345045101]}, "type": "Feature", "properties": {"collection_times": [{"days": "Mon-Fri", "time": "4:15pm"}, {"days": "Sat", "time": "12:00pm"}, {"days": "Sun", "time": "Closed"}], "id": "2851600004", "name": "USPS COLLECTION BOX - BLUE BOX", "address": {"city": "BEAUFORT", "state": "NC", "street": "1903 LIVE OAK ST", "postcode": "28516"}}},
{"geometry": {"type": "Point", "coordinates": [-76.6667843164, 34.7175989563]}, "type": "Feature", "properties": {"collection_times": [{"days": "Mon-Fri", "time": "11:00am"}, {"days": "Sat", "time": "10:45am"}, {"days": "Sun", "time": "Closed"}], "id": "2851600005", "name": "USPS COLLECTION BOX - BLUE BOX", "address": {"city": "BEAUFORT", "state": "NC", "street": "331 FRONT ST", "postcode": "28516"}}},
{"geometry": {"type": "Point", "coordinates": [-76.6384899929, 34.7591830221]}, "type": "Feature", "properties": {"collection_times": [{"days": "Mon-Fri", "time": "4:15pm"}, {"days": "Sat", "time": "12:00pm"}, {"days": "Sun", "time": "Closed"}], "id": "2851600008", "name": "USPS COLLECTION BOX - PO LOBBY", "address": {"city": "BEAUFORT", "state": "NC", "street": "1903 LIVE OAK ST", "postcode": "28516"}}},
{"geometry": {"type": "Point", "coordinates": [-76.6359402975, 34.7345045101]}, "type": "Feature", "properties": {"collection_times": [{"days": "Mon-Fri", "time": "4:15pm"}, {"days": "Sat", "time": "12:00pm"}, {"days": "Sun", "time": "Closed"}], "id": "2851600009", "name": "USPS COLLECTION BOX - PO LOBBY", "address": {"city": "BEAUFORT", "state": "NC", "street": "1903 LIVE OAK ST", "postcode": "28516"}}},
{"geometry": {"type": "Point", "coordinates": [-77.7652406161, 34.9222192988]}, "type": "Feature", "properties": {"collection_times": [{"days": "Mon-Fri", "time": "4:00pm"}, {"days": "Sat", "time": "12:00pm"}, {"days": "Sun", "time": "Closed"}], "id": "2851800001", "name": "USPS COLLECTION BOX - BLUE BOX", "address": {"city": "BEULAVILLE", "state": "NC", "street": "807 E MAIN ST", "postcode": "28518"}}},
{"geometry": {"type": "Point", "coordinates": [-77.7446873729, 34.9038108705]}, "type": "Feature", "properties": {"collection_times": [{"days": "Mon-Fri", "time": "10:00am"}, {"days": "Sat-Sun", "time": "Closed"}], "id": "2851800002", "name": "USPS COLLECTION BOX - BLUE BOX", "address": {"city": "BEULAVILLE", "state": "NC", "street": "@ GREEN LEAF APTS", "postcode": "28518"}}},
{"geometry": {"type": "Point", "coordinates": [-77.7652406161, 34.9222192988]}, "type": "Feature", "properties": {"collection_times": [{"days": "Mon-Fri", "time": "4:00pm"}, {"days": "Sat", "time": "12:00pm"}, {"days": "Sun", "time": "Closed"}], "id": "2851800003", "name": "USPS COLLECTION BOX - PO LOBBY", "address": {"city": "BEULAVILLE", "state": "NC", "street": "807 E MAIN ST", "postcode": "28518"}}},
{"geometry": {"type": "Point", "coordinates": [-77.0205961754, 35.1231325463]}, "type": "Feature", "properties": {"collection_times": [{"days": "Mon-Fri", "time": "4:30pm"}, {"days": "Sat", "time": "10:30am"}, {"days": "Sun", "time": "Closed"}], "id": "2851900001", "name": "USPS COLLECTION BOX - BLUE BOX", "address": {"city": "BRIDGETON", "state": "NC", "street": "601 D ST", "postcode": "28519"}}},
{"geometry": {"type": "Point", "coordinates": [-77.0205961754, 35.1231325463]}, "type": "Feature", "properties": {"collection_times": [{"days": "Mon-Fri", "time": "4:30pm"}, {"days": "Sat", "time": "10:30am"}, {"days": "Sun", "time": "Closed"}], "id": "2851900002", "name": "USPS COLLECTION BOX - PO LOBBY", "address": {"city": "BRIDGETON", "state": "NC", "street": "601 D ST", "postcode": "28519"}}},
{"geometry": {"type": "Point", "coordinates": [-77.0205961754, 35.1231325463]}, "type": "Feature", "properties": {"collection_times": [{"days": "Mon-Fri", "time": "4:30pm"}, {"days": "Sat", "time": "10:30am"}, {"days": "Sun", "time": "Closed"}], "id": "2851900003", "name": "USPS COLLECTION BOX - PO LOBBY", "address": {"city": "BRIDGETON", "state": "NC", "street": "601 D ST", "postcode": "28519"}}},
{"geometry": {"type": "Point", "coordinates": [-76.315637421, 35.0174879587]}, "type": "Feature", "properties": {"collection_times": [{"days": "Mon-Fri", "time": "2:15pm"}, {"days": "Sat", "time": "11:30am"}, {"days": "Sun", "time": "Closed"}], "id": "2852000001", "name": "USPS COLLECTION BOX - BLUE BOX", "address": {"city": "CEDAR ISLAND", "state": "NC", "street": "3553 CEDAR ISLAND RD", "postcode": "28520"}}},
{"geometry": {"type": "Point", "coordinates": [-76.315637421, 35.0174879587]}, "type": "Feature", "properties": {"collection_times": [{"days": "Mon-Fri", "time": "2:15pm"}, {"days": "Sat", "time": "11:30am"}, {"days": "Sun", "time": "Closed"}], "id": "2852000002", "name": "USPS COLLECTION BOX - PO LOBBY", "address": {"city": "CEDAR ISLAND", "state": "NC", "street": "3553 CEDAR ISLAND RD", "postcode": "28520"}}},
{"geometry": {"type": "Point", "coordinates": [-77.7415478491, 34.8271215281]}, "type": "Feature", "properties": {"collection_times": [{"days": "Mon-Fri", "time": "4:15pm"}, {"days": "Sat", "time": "11:00am"}, {"days": "Sun", "time": "Closed"}], "id": "2852100001", "name": "USPS COLLECTION BOX - BLUE BOX", "address": {"city": "CHINQUAPIN", "state": "NC", "street": "2758 S NC 41 50 HWY", "postcode": "28521"}}},
{"geometry": {"type": "Point", "coordinates": [-77.7415478491, 34.8271215281]}, "type": "Feature", "properties": {"collection_times": [{"days": "Mon-Fri", "time": "4:15pm"}, {"days": "Sat", "time": "11:00am"}, {"days": "Sun", "time": "Closed"}], "id": "2852100002", "name": "USPS COLLECTION BOX - PO LOBBY", "address": {"city": "CHINQUAPIN", "state": "NC", "street": "2758 S NC 41 50 HWY", "postcode": "28521"}}},
{"geometry": {"type": "Point", "coordinates": [-77.5060878418, 35.0059468427]}, "type": "Feature", "properties": {"collection_times": [{"days": "Mon-Fri", "time": "4:45pm"}, {"days": "Sat", "time": "9:00am"}, {"days": "Sun", "time": "Closed"}], "id": "2852200001", "name": "USPS COLLECTION BOX - BLUE BOX", "address": {"city": "COMFORT", "state": "NC", "street": "4262 HIGHWAY 41 W", "postcode": "28522"}}},
{"geometry": {"type": "Point", "coordinates": [-77.5060878418, 35.0059468427]}, "type": "Feature", "properties": {"collection_times": [{"days": "Mon-Fri", "time": "4:45pm"}, {"days": "Sat", "time": "9:00am"}, {"days": "Sun", "time": "Closed"}], "id": "2852200002", "name": "USPS COLLECTION BOX - PO LOBBY", "address": {"city": "COMFORT", "state": "NC", "street": "4262 HIGHWAY 41 W", "postcode": "28522"}}},
{"geometry": {"type": "Point", "coordinates": [-77.3185867879, 35.1863043536]}, "type": "Feature", "properties": {"collection_times": [{"days": "Mon-Fri", "time": "4:30pm"}, {"days": "Sat", "time": "11:30am"}, {"days": "Sun", "time": "Closed"}], "id": "2852300002", "name": "USPS COLLECTION BOX - PO LOBBY", "address": {"city": "COVE CITY", "state": "NC", "street": "201 E SUNSET BLVD", "postcode": "28523"}}},
{"geometry": {"type": "Point", "coordinates": [-77.3185867879, 35.1863043536]}, "type": "Feature", "properties": {"collection_times": [{"days": "Mon-Fri", "time": "4:30pm"}, {"days": "Sat", "time": "11:30am"}, {"days": "Sun", "time": "Closed"}], "id": "2852300003", "name": "USPS COLLECTION BOX - PO LOBBY", "address": {"city": "COVE CITY", "state": "NC", "street": "201 E SUNSET BLVD", "postcode": "28523"}}},
{"geometry": {"type": "Point", "coordinates": [-77.3185867879, 35.1863043536]}, "type": "Feature", "properties": {"collection_times": [{"days": "Mon-Fri", "time": "4:30pm"}, {"days": "Sat", "time": "11:30am"}, {"days": "Sun", "time": "Closed"}], "id": "2852300004", "name": "USPS COLLECTION BOX - BLUE BOX", "address": {"city": "COVE CITY", "state": "NC", "street": "201 E SUNSET BLVD", "postcode": "28523"}}},
{"geometry": {"type": "Point", "coordinates": [-76.459065456, 34.799348161]}, "type": "Feature", "properties": {"collection_times": [{"days": "Mon-Fri", "time": "10:45am"}, {"days": "Sat", "time": "3:00pm"}, {"days": "Sun", "time": "Closed"}], "id": "2852400004", "name": "USPS COLLECTION BOX - PO LOBBY", "address": {"city": "DAVIS", "state": "NC", "street": "272 HORSESHOE RD", "postcode": "28524"}}},
{"geometry": {"type": "Point", "coordinates": [-77.7054896376, 35.141079322]}, "type": "Feature", "properties": {"collection_times": [{"days": "Mon-Fri", "time": "4:45pm"}, {"days": "Sat", "time": "10:45am"}, {"days": "Sun", "time": "Closed"}], "id": "2852500001", "name": "USPS COLLECTION BOX - BLUE BOX", "address": {"city": "DEEP RUN", "state": "NC", "street": "3466 OLD HWY 11", "postcode": "28525"}}},
{"geometry": {"type": "Point", "coordinates": [-77.7054896376, 35.141079322]}, "type": "Feature", "properties": {"collection_times": [{"days": "Mon-Fri", "time": "4:45pm"}, {"days": "Sat", "time": "10:45am"}, {"days": "Sun", "time": "Closed"}], "id": "2852500002", "name": "USPS COLLECTION BOX - PO LOBBY", "address": {"city": "DEEP RUN", "state": "NC", "street": "3466 OLD HWY 11", "postcode": "28525"}}},
{"geometry": {"type": "Point", "coordinates": [-77.4369276368, 35.2186216096]}, "type": "Feature", "properties": {"collection_times": [{"days": "Mon-Fri", "time": "5:00pm"}, {"days": "Sat", "time": "11:00am"}, {"days": "Sun", "time": "Closed"}], "id": "2852600001", "name": "USPS COLLECTION BOX - BLUE BOX", "address": {"city": "DOVER", "state": "NC", "street": "115 W KORNEGAY ST", "postcode": "28526"}}},
{"geometry": {"type": "Point", "coordinates": [-77.383528086, 35.276551517]}, "type": "Feature", "properties": {"collection_times": [{"days": "Mon-Fri", "time": "5:00pm"}, {"days": "Sat", "time": "11:00am"}, {"days": "Sun", "time": "Closed"}], "id": "2852600004", "name": "USPS COLLECTION BOX - PO LOBBY", "address": {"city": "DOVER", "state": "NC", "street": "115 W KORNEGAY ST", "postcode": "28526"}}},
{"geometry": {"type": "Point", "coordinates": [-77.4369276368, 35.2186216096]}, "type": "Feature", "properties": {"collection_times": [{"days": "Mon-Fri", "time": "5:00pm"}, {"days": "Sat", "time": "11:00am"}, {"days": "Sun", "time": "Closed"}], "id": "2852600005", "name": "USPS COLLECTION BOX - PO LOBBY", "address": {"city": "DOVER", "state": "NC", "street": "115 W KORNEGAY ST", "postcode": "28526"}}},
{"geometry": {"type": "Point", "coordinates": [-77.0425393004, 35.2489412702]}, "type": "Feature", "properties": {"collection_times": [{"days": "Mon-Fri", "time": "4:45pm"}, {"days": "Sat", "time": "11:15am"}, {"days": "Sun", "time": "Closed"}], "id": "2852700001", "name": "USPS COLLECTION BOX - BLUE BOX", "address": {"city": "ERNUL", "state": "NC", "street": "1000 HILLS NECK RD", "postcode": "28527"}}},
{"geometry": {"type": "Point", "coordinates": [-77.0425393004, 35.2489412702]}, "type": "Feature", "properties": {"collection_times": [{"days": "Mon-Fri", "time": "4:45pm"}, {"days": "Sat", "time": "11:15am"}, {"days": "Sun", "time": "Closed"}], "id": "2852700002", "name": "USPS COLLECTION BOX - PO LOBBY", "address": {"city": "ERNUL", "state": "NC", "street": "1000 HILLS NECK RD", "postcode": "28527"}}},
{"geometry": {"type": "Point", "coordinates": [-76.5472188124, 34.7294611233]}, "type": "Feature", "properties": {"collection_times": [{"days": "Mon-Fri", "time": "4:00pm"}, {"days": "Sat", "time": "9:30am"}, {"days": "Sun", "time": "Closed"}], "id": "2852800001", "name": "USPS COLLECTION BOX - BLUE BOX", "address": {"city": "GLOUCESTER", "state": "NC", "street": "310 PIGOTT RD", "postcode": "28528"}}},
{"geometry": {"type": "Point", "coordinates": [-76.5377597304, 34.732200538]}, "type": "Feature", "properties": {"collection_times": [{"days": "Mon-Fri", "time": "4:00pm"}, {"days": "Sat", "time": "9:30am"}, {"days": "Sun", "time": "Closed"}], "id": "2852800002", "name": "USPS COLLECTION BOX - PO LOBBY", "address": {"city": "GLOUCESTER", "state": "NC", "street": "310 PIGOTT RD", "postcode": "28528"}}},
{"geometry": {"type": "Point", "coordinates": [-76.8593206561, 35.136973424]}, "type": "Feature", "properties": {"collection_times": [{"days": "Mon-Fri", "time": "4:30pm"}, {"days": "Sat", "time": "10:30am"}, {"days": "Sun", "time": "Closed"}], "id": "2852900001", "name": "USPS COLLECTION BOX - BLUE BOX", "address": {"city": "GRANTSBORO", "state": "NC", "street": "10644 NC 55 HWY E", "postcode": "28529"}}},
{"geometry": {"type": "Point", "coordinates": [-76.8589164669, 35.1101421514]}, "type": "Feature", "properties": {"collection_times": [{"days": "Mon-Fri", "time": "4:30pm"}, {"days": "Sat", "time": "10:30am"}, {"days": "Sun", "time": "Closed"}], "id": "2852900002", "name": "USPS COLLECTION BOX - PO LOBBY", "address": {"city": "GRANTSBORO", "state": "NC", "street": "10644 NC 55 HWY E", "postcode": "28529"}}},
{"geometry": {"type": "Point", "coordinates": [-76.8589164669, 35.1101421514]}, "type": "Feature", "properties": {"collection_times": [{"days": "Mon-Fri", "time": "4:30pm"}, {"days": "Sat", "time": "10:30am"}, {"days": "Sun", "time": "Closed"}], "id": "2852900003", "name": "USPS COLLECTION BOX - PO LOBBY", "address": {"city": "GRANTSBORO", "state": "NC", "street": "10644 NC 55 HWY E", "postcode": "28529"}}},
{"geometry": {"type": "Point", "coordinates": [-77.4369046346, 35.3737767913]}, "type": "Feature", "properties": {"collection_times": [{"days": "Mon-Fri", "time": "4:30pm"}, {"days": "Sat", "time": "11:00am"}, {"days": "Sun", "time": "Closed"}], "id": "2853000001", "name": "USPS COLLECTION BOX - BLUE BOX", "address": {"city": "GRIFTON", "state": "NC", "street": "466 QUEEN ST", "postcode": "28530"}}},
{"geometry": {"type": "Point", "coordinates": [-77.4369046346, 35.3737767913]}, "type": "Feature", "properties": {"collection_times": [{"days": "Mon-Fri", "time": "4:30pm"}, {"days": "Sat", "time": "11:00am"}, {"days": "Sun", "time": "Closed"}], "id": "2853000002", "name": "USPS COLLECTION BOX - PO LOBBY", "address": {"city": "GRIFTON", "state": "NC", "street": "466 QUEEN ST", "postcode": "28530"}}},
{"geometry": {"type": "Point", "coordinates": [-77.4369046346, 35.3737767913]}, "type": "Feature", "properties": {"collection_times": [{"days": "Mon-Fri", "time": "4:30pm"}, {"days": "Sat", "time": "11:00am"}, {"days": "Sun", "time": "Closed"}], "id": "2853000003", "name": "USPS COLLECTION BOX - PO LOBBY", "address": {"city": "GRIFTON", "state": "NC", "street": "466 QUEEN ST", "postcode": "28530"}}},
{"geometry": {"type": "Point", "coordinates": [-76.5577081688, 34.6943903675]}, "type": "Feature", "properties": {"collection_times": [{"days": "Mon-Fri", "time": "3:45pm"}, {"days": "Sat", "time": "11:00am"}, {"days": "Sun", "time": "Closed"}], "id": "2853100001", "name": "USPS COLLECTION BOX - BLUE BOX", "address": {"city": "HARKERS ISLAND", "state": "NC", "street": "823 ISLAND RD", "postcode": "28531"}}},
{"geometry": {"type": "Point", "coordinates": [-76.557207975, 34.6964411427]}, "type": "Feature", "properties": {"collection_times": [{"days": "Mon-Fri", "time": "3:45pm"}, {"days": "Sat", "time": "11:00am"}, {"days": "Sun", "time": "Closed"}], "id": "2853100002", "name": "USPS COLLECTION BOX - PO LOBBY", "address": {"city": "HARKERS ISLAND", "state": "NC", "street": "823 ISLAND RD", "postcode": "28531"}}},
{"geometry": {"type": "Point", "coordinates": [-76.5577081688, 34.6943903675]}, "type": "Feature", "properties": {"collection_times": [{"days": "Mon-Fri", "time": "3:45pm"}, {"days": "Sat", "time": "11:00am"}, {"days": "Sun", "time": "Closed"}], "id": "2853100003", "name": "USPS COLLECTION BOX - PO LOBBY", "address": {"city": "HARKERS ISLAND", "state": "NC", "street": "823 ISLAND RD", "postcode": "28531"}}},
{"geometry": {"type": "Point", "coordinates": [-76.898869783, 34.8648709592]}, "type": "Feature", "properties": {"collection_times": [{"days": "Mon-Fri", "time": "1:00pm"}, {"days": "Sat-Sun", "time": "Closed"}], "id": "2853200036", "name": "USPS COLLECTION BOX - BLUE BOX", "address": {"city": "HAVELOCK", "state": "NC", "street": "909 E MAIN ST", "postcode": "28532"}}},
{"geometry": {"type": "Point", "coordinates": [-76.8908319669, 34.8528208123]}, "type": "Feature", "properties": {"collection_times": [{"days": "Mon-Fri", "time": "1:00pm"}, {"days": "Sat-Sun", "time": "Closed"}], "id": "2853200037", "name": "USPS COLLECTION BOX - BLUE BOX", "address": {"city": "HAVELOCK", "state": "NC", "street": "1413 E MAIN ST", "postcode": "28532"}}},
{"geometry": {"type": "Point", "coordinates": [-76.9918489144, 34.8976673961]}, "type": "Feature", "properties": {"collection_times": [{"days": "Mon-Fri", "time": "5:00pm"}, {"days": "Sat", "time": "12:00pm"}, {"days": "Sun", "time": "Closed"}], "id": "2853200038", "name": "USPS COLLECTION BOX - BLUE BOX", "address": {"city": "HAVELOCK", "state": "NC", "street": "133 US HIGHWAY 70 W", "postcode": "28532"}}},
{"geometry": {"type": "Point", "coordinates": [-76.9220997048, 34.8905150577]}, "type": "Feature", "properties": {"collection_times": [{"days": "Mon-Fri", "time": "1:00pm"}, {"days": "Sat-Sun", "time": "Closed"}], "id": "2853200039", "name": "USPS COLLECTION BOX - BLUE BOX", "address": {"city": "HAVELOCK", "state": "NC", "street": "406 W MAIN ST", "postcode": "28532"}}},
{"geometry": {"type": "Point", "coordinates": [-76.9918489144, 34.8976673961]}, "type": "Feature", "properties": {"collection_times": [{"days": "Mon-Fri", "time": "5:00pm"}, {"days": "Sat", "time": "12:00pm"}, {"days": "Sun", "time": "Closed"}], "id": "2853200041", "name": "USPS COLLECTION BOX - BLUE BOX", "address": {"city": "HAVELOCK", "state": "NC", "street": "133 US HIGHWAY 70 W", "postcode": "28532"}}},
{"geometry": {"type": "Point", "coordinates": [-76.9918489144, 34.8976673961]}, "type": "Feature", "properties": {"collection_times": [{"days": "Mon-Fri", "time": "1:00pm"}, {"days": "Sat-Sun", "time": "Closed"}], "id": "2853200042", "name": "USPS COLLECTION BOX - BLUE BOX", "address": {"city": "HAVELOCK", "state": "NC", "street": "@ E STREET", "postcode": "28532"}}},
{"geometry": {"type": "Point", "coordinates": [-76.9918489144, 34.8976673961]}, "type": "Feature", "properties": {"collection_times": [{"days": "Mon-Fri", "time": "5:00pm"}, {"days": "Sat", "time": "12:00pm"}, {"days": "Sun", "time": "Closed"}], "id": "2853200043", "name": "USPS COLLECTION BOX - PO LOBBY", "address": {"city": "HAVELOCK", "state": "NC", "street": "133 US HIGHWAY 70 W", "postcode": "28532"}}},
{"geometry": {"type": "Point", "coordinates": [-76.9918489144, 34.8976673961]}, "type": "Feature", "properties": {"collection_times": [{"days": "Mon-Fri", "time": "5:00pm"}, {"days": "Sat", "time": "12:00pm"}, {"days": "Sun", "time": "Closed"}], "id": "2853200044", "name": "USPS COLLECTION BOX - PO LOBBY", "address": {"city": "HAVELOCK", "state": "NC", "street": "133 US HIGHWAY 70 W", "postcode": "28532"}}},
{"geometry": {"type": "Point", "coordinates": [-76.9918489144, 34.8976673961]}, "type": "Feature", "properties": {"collection_times": [{"days": "Mon-Fri", "time": "5:00pm"}, {"days": "Sat", "time": "12:00pm"}, {"days": "Sun", "time": "Closed"}], "id": "2853200045", "name": "USPS COLLECTION BOX - PO LOBBY", "address": {"city": "HAVELOCK", "state": "NC", "street": "133 US HIGHWAY 70 W", "postcode": "28532"}}},
{"geometry": {"type": "Point", "coordinates": [-76.574577784, 35.257954103]}, "type": "Feature", "properties": {"collection_times": [{"days": "Mon-Fri", "time": "4:15pm"}, {"days": "Sat", "time": "12:00pm"}, {"days": "Sun", "time": "Closed"}], "id": "2853700001", "name": "USPS COLLECTION BOX - PO LOBBY", "address": {"city": "HOBUCKEN", "state": "NC", "street": "51 SCHOOL HOUSE LOOP", "postcode": "28537"}}},
{"geometry": {"type": "Point", "coordinates": [-77.5881820588, 35.4245371066]}, "type": "Feature", "properties": {"collection_times": [{"days": "Mon-Fri", "time": "4:30pm"}, {"days": "Sat", "time": "10:30am"}, {"days": "Sun", "time": "Closed"}], "id": "2853800001", "name": "USPS COLLECTION BOX - BLUE BOX", "address": {"city": "HOOKERTON", "state": "NC", "street": "116 3RD ST", "postcode": "28538"}}},
{"geometry": {"type": "Point", "coordinates": [-77.5881820588, 35.4245371066]}, "type": "Feature", "properties": {"collection_times": [{"days": "Mon-Fri", "time": "4:30pm"}, {"days": "Sat", "time": "10:30am"}, {"days": "Sun", "time": "Closed"}], "id": "2853800002", "name": "USPS COLLECTION BOX - PO LOBBY", "address": {"city": "HOOKERTON", "state": "NC", "street": "116 3RD ST", "postcode": "28538"}}},
{"geometry": {"type": "Point", "coordinates": [-77.5881820588, 35.4245371066]}, "type": "Feature", "properties": {"collection_times": [{"days": "Mon-Fri", "time": "4:30pm"}, {"days": "Sat", "time": "10:30am"}, {"days": "Sun", "time": "Closed"}], "id": "2853800003", "name": "USPS COLLECTION BOX - PO LOBBY", "address": {"city": "HOOKERTON", "state": "NC", "street": "116 3RD ST", "postcode": "28538"}}},
{"geometry": {"type": "Point", "coordinates": [-77.2279522506, 34.7149262894]}, "type": "Feature", "properties": {"collection_times": [{"days": "Mon-Fri", "time": "4:30pm"}, {"days": "Sat", "time": "11:00am"}, {"days": "Sun", "time": "Closed"}], "id": "2853900001", "name": "USPS COLLECTION BOX - BLUE BOX", "address": {"city": "HUBERT", "state": "NC", "street": "382 HUBERT BLVD", "postcode": "28539"}}},
{"geometry": {"type": "Point", "coordinates": [-77.2279522506, 34.7149262894]}, "type": "Feature", "properties": {"collection_times": [{"days": "Mon-Fri", "time": "4:30pm"}, {"days": "Sat", "time": "11:00am"}, {"days": "Sun", "time": "Closed"}], "id": "2853900004", "name": "USPS COLLECTION BOX - PO LOBBY", "address": {"city": "HUBERT", "state": "NC", "street": "382 HUBERT BLVD", "postcode": "28539"}}},
{"geometry": {"type": "Point", "coordinates": [-77.417688651, 34.762971706]}, "type": "Feature", "properties": {"collection_times": [{"days": "Mon-Fri", "time": "4:00pm"}, {"days": "Sat", "time": "11:00am"}, {"days": "Sun", "time": "Closed"}], "id": "2854000011", "name": "USPS COLLECTION BOX - BLUE BOX", "address": {"city": "JACKSONVILLE", "state": "NC", "street": "2501 ONSLOW DR UNIT 100", "postcode": "28540"}}},
{"geometry": {"type": "Point", "coordinates": [-77.4223961689, 34.7494932069]}, "type": "Feature", "properties": {"collection_times": [{"days": "Mon-Sat", "time": "5:00pm"}, {"days": "Sun", "time": "Closed"}], "id": "2854000040", "name": "USPS COLLECTION BOX - BLUE BOX", "address": {"city": "JACKSONVILLE", "state": "NC", "street": "719 NEW BRIDGE ST", "postcode": "28540"}}},
{"geometry": {"type": "Point", "coordinates": [-77.4223961689, 34.7494932069]}, "type": "Feature", "properties": {"collection_times": [{"days": "Mon-Sat", "time": "5:00pm"}, {"days": "Sun", "time": "Closed"}], "id": "2854000041", "name": "USPS COLLECTION BOX - BLUE BOX", "address": {"city": "JACKSONVILLE", "state": "NC", "street": "719 NEW BRIDGE ST", "postcode": "28540"}}},
{"geometry": {"type": "Point", "coordinates": [-77.4115657783, 34.7518695951]}, "type": "Feature", "properties": {"collection_times": [{"days": "Mon-Sat", "time": "11:00am"}, {"days": "Sun", "time": "Closed"}], "id": "2854000042", "name": "USPS COLLECTION BOX - BLUE BOX", "address": {"city": "JACKSONVILLE", "state": "NC", "street": "1247 HARGETT ST", "postcode": "28540"}}},
{"geometry": {"type": "Point", "coordinates": [-77.4263780085, 34.7501781403]}, "type": "Feature", "properties": {"collection_times": [{"days": "Mon-Sat", "time": "11:00am"}, {"days": "Sun", "time": "Closed"}], "id": "2854000045", "name": "USPS COLLECTION BOX - BLUE BOX", "address": {"city": "JACKSONVILLE", "state": "NC", "street": "400 NEW BRIDGE ST", "postcode": "28540"}}},
{"geometry": {"type": "Point", "coordinates": [-77.4115657783, 34.7518695951]}, "type": "Feature", "properties": {"collection_times": [{"days": "Mon-Sat", "time": "11:00am"}, {"days": "Sun", "time": "Closed"}], "id": "2854000046", "name": "USPS COLLECTION BOX - BLUE BOX", "address": {"city": "JACKSONVILLE", "state": "NC", "street": "1247 HARGETT ST", "postcode": "28540"}}},
{"geometry": {"type": "Point", "coordinates": [-77.4952017874, 34.7178528448]}, "type": "Feature", "properties": {"collection_times": [{"days": "Mon-Sat", "time": "11:00am"}, {"days": "Sun", "time": "Closed"}], "id": "2854000047", "name": "USPS COLLECTION BOX - BLUE BOX", "address": {"city": "JACKSONVILLE", "state": "NC", "street": "OLD BRIDGE", "postcode": "28540"}}},
{"geometry": {"type": "Point", "coordinates": [-77.4707280013, 34.761442425]}, "type": "Feature", "properties": {"collection_times": [{"days": "Mon-Sat", "time": "11:00am"}, {"days": "Sun", "time": "Closed"}], "id": "2854000050", "name": "USPS COLLECTION BOX - BLUE BOX", "address": {"city": "JACKSONVILLE", "state": "NC", "street": "RICHLANDS HWY", "postcode": "28540"}}},
{"geometry": {"type": "Point", "coordinates": [-77.4075961693, 34.7705688038]}, "type": "Feature", "properties": {"collection_times": [{"days": "Mon-Sat", "time": "11:00am"}, {"days": "Sun", "time": "Closed"}], "id": "2854000067", "name": "USPS COLLECTION BOX - BLUE BOX", "address": {"city": "JACKSONVILLE", "state": "NC", "street": "825 GUM BRANCH RD", "postcode": "28540"}}},
{"geometry": {"type": "Point", "coordinates": [-77.4257576797, 34.7804400569]}, "type": "Feature", "properties": {"collection_times": [{"days": "Mon-Sat", "time": "11:00am"}, {"days": "Sun", "time": "Closed"}], "id": "2854000069", "name": "USPS COLLECTION BOX - BLUE BOX", "address": {"city": "JACKSONVILLE", "state": "NC", "street": "1036 HENDERSON DR", "postcode": "28540"}}},
{"geometry": {"type": "Point", "coordinates": [-77.3956369318, 34.7551317954]}, "type": "Feature", "properties": {"collection_times": [{"days": "Mon-Sat", "time": "11:00am"}, {"days": "Sun", "time": "Closed"}], "id": "2854000087", "name": "USPS COLLECTION BOX - BLUE BOX", "address": {"city": "JACKSONVILLE", "state": "NC", "street": "507 BELL FORK RD", "postcode": "28540"}}},
{"geometry": {"type": "Point", "coordinates": [-77.4075961693, 34.7705688038]}, "type": "Feature", "properties": {"collection_times": [{"days": "Mon-Sat", "time": "11:00am"}, {"days": "Sun", "time": "Closed"}], "id": "2854000090", "name": "USPS COLLECTION BOX - BLUE BOX", "address": {"city": "JACKSONVILLE", "state": "NC", "street": "825 GUM BRANCH RD", "postcode": "28540"}}},
{"geometry": {"type": "Point", "coordinates": [-77.4952017874, 34.7178528448]}, "type": "Feature", "properties": {"collection_times": [{"days": "Mon-Sat", "time": "11:00am"}, {"days": "Sun", "time": "Closed"}], "id": "2854000091", "name": "USPS COLLECTION BOX - BLUE BOX", "address": {"city": "JACKSONVILLE", "state": "NC", "street": "OLD BRIDGE", "postcode": "28540"}}},
{"geometry": {"type": "Point", "coordinates": [-77.4707280013, 34.761442425]}, "type": "Feature", "properties": {"collection_times": [{"days": "Mon-Fri", "time": "5:00pm"}, {"days": "Sat", "time": "1:00pm"}, {"days": "Sun", "time": "Closed"}], "id": "2854000097", "name": "USPS COLLECTION BOX - PO LOBBY", "address": {"city": "JACKSONVILLE", "state": "NC", "street": "719 NEW BRIDGE ST", "postcode": "28540"}}},
{"geometry": {"type": "Point", "coordinates": [-77.4223961689, 34.7494932069]}, "type": "Feature", "properties": {"collection_times": [{"days": "Mon-Fri", "time": "5:00pm"}, {"days": "Sat", "time": "1:00pm"}, {"days": "Sun", "time": "Closed"}], "id": "2854000098", "name": "USPS COLLECTION BOX - PO LOBBY", "address": {"city": "JACKSONVILLE", "state": "NC", "street": "719 NEW BRIDGE ST", "postcode": "28540"}}},
{"geometry": {"type": "Point", "coordinates": [-77.4223961689, 34.7494932069]}, "type": "Feature", "properties": {"collection_times": [{"days": "Mon-Fri", "time": "5:00pm"}, {"days": "Sat", "time": "1:00pm"}, {"days": "Sun", "time": "Closed"}], "id": "2854000099", "name": "USPS COLLECTION BOX - PO LOBBY", "address": {"city": "JACKSONVILLE", "state": "NC", "street": "719 NEW BRIDGE ST", "postcode": "28540"}}},
{"geometry": {"type": "Point", "coordinates": [-77.417688651, 34.762971706]}, "type": "Feature", "properties": {"collection_times": [{"days": "Mon-Fri", "time": "4:00pm"}, {"days": "Sat-Sun", "time": "Closed"}], "id": "2854000100", "name": "USPS COLLECTION BOX - PO LOBBY", "address": {"city": "JACKSONVILLE", "state": "NC", "street": "2501 ONSLOW DR UNIT 100", "postcode": "28540"}}},
{"geometry": {"type": "Point", "coordinates": [-77.3725186965, 34.731267946]}, "type": "Feature", "properties": {"collection_times": [{"days": "Mon-Sat", "time": "11:00am"}, {"days": "Sun", "time": "Closed"}], "id": "2854300000", "name": "USPS COLLECTION BOX - BLUE BOX", "address": {"city": "JACKSONVILLE", "state": "NC", "street": "2463 IWO JIMA BLVD", "postcode": "28543"}}},
{"geometry": {"type": "Point", "coordinates": [-77.3303329351, 34.720480003]}, "type": "Feature", "properties": {"collection_times": [{"days": "Mon-Sat", "time": "11:00am"}, {"days": "Sun", "time": "Closed"}], "id": "2854400000", "name": "USPS COLLECTION BOX - BLUE BOX", "address": {"city": "JACKSONVILLE", "state": "NC", "street": "4014 BUTLER DR", "postcode": "28544"}}},
{"geometry": {"type": "Point", "coordinates": [-77.3181218979, 34.7157094807]}, "type": "Feature", "properties": {"collection_times": [{"days": "Mon-Fri", "time": "10:00am"}, {"days": "Sat-Sun", "time": "Closed"}], "id": "2854400001", "name": "USPS COLLECTION BOX - BLUE BOX", "address": {"city": "JACKSONVILLE", "state": "NC", "street": "175 FREEDOM WAY", "postcode": "28544"}}},
{"geometry": {"type": "Point", "coordinates": [-77.4340778799, 34.7043533977]}, "type": "Feature", "properties": {"collection_times": [{"days": "Mon-Fri", "time": "9:00am"}, {"days": "Sat-Sun", "time": "Closed"}], "id": "2854500001", "name": "USPS COLLECTION BOX - BLUE BOX", "address": {"city": "JACKSONVILLE", "state": "NC", "street": "NEW RIVER TRAIL", "postcode": "28545"}}},
{"geometry": {"type": "Point", "coordinates": [-77.3750370534, 34.7607399933]}, "type": "Feature", "properties": {"collection_times": [{"days": "Mon-Fri", "time": "4:45pm"}, {"days": "Sat", "time": "4:00pm"}, {"days": "Sun", "time": "Closed"}], "id": "2854600042", "name": "USPS COLLECTION BOX - BLUE BOX", "address": {"city": "JACKSONVILLE", "state": "NC", "street": "279 HUFF DR", "postcode": "28546"}}},
{"geometry": {"type": "Point", "coordinates": [-77.3938753723, 34.7766355882]}, "type": "Feature", "properties": {"collection_times": [{"days": "Mon-Sat", "time": "11:00am"}, {"days": "Sun", "time": "Closed"}], "id": "2854600044", "name": "USPS COLLECTION BOX - BLUE BOX", "address": {"city": "JACKSONVILLE", "state": "NC", "street": "2075 N MARINE BLVD", "postcode": "28546"}}},
{"geometry": {"type": "Point", "coordinates": [-77.3791404147, 34.7452250264]}, "type": "Feature", "properties": {"collection_times": [{"days": "Mon-Sat", "time": "11:00am"}, {"days": "Sun", "time": "Closed"}], "id": "2854600045", "name": "USPS COLLECTION BOX - BLUE BOX", "address": {"city": "JACKSONVILLE", "state": "NC", "street": "106 WESTERN BLVD", "postcode": "28546"}}},
{"geometry": {"type": "Point", "coordinates": [-77.3750370538, 34.7607399934]}, "type": "Feature", "properties": {"collection_times": [{"days": "Mon-Fri", "time": "4:30pm"}, {"days": "Sat", "time": "1:00pm"}, {"days": "Sun", "time": "Closed"}], "id": "2854600051", "name": "USPS COLLECTION BOX - PO LOBBY", "address": {"city": "JACKSONVILLE", "state": "NC", "street": "279 HUFF DR", "postcode": "28546"}}},
{"geometry": {"type": "Point", "coordinates": [-77.3558240085, 34.7162866537]}, "type": "Feature", "properties": {"collection_times": [{"days": "Mon-Sat", "time": "11:00am"}, {"days": "Sun", "time": "Closed"}], "id": "2854700000", "name": "USPS COLLECTION BOX - BLUE BOX", "address": {"city": "CAMP LEJEUNE", "state": "NC", "street": "820 STONE ST", "postcode": "28547"}}},
{"geometry": {"type": "Point", "coordinates": [-77.3508478001, 34.6633268866]}, "type": "Feature", "properties": {"collection_times": [{"days": "Mon-Fri", "time": "9:30am"}, {"days": "Sat-Sun", "time": "Closed"}], "id": "2854700001", "name": "USPS COLLECTION BOX - BLUE BOX", "address": {"city": "CAMP LEJEUNE", "state": "NC", "street": "1231 HOLCOMB BLVD", "postcode": "28547"}}},
{"geometry": {"type": "Point", "coordinates": [-77.34772804, 34.7080502228]}, "type": "Feature", "properties": {"collection_times": [{"days": "Mon-Fri", "time": "1:00pm"}, {"days": "Sat-Sun", "time": "Closed"}], "id": "2854700002", "name": "USPS COLLECTION BOX - BLUE BOX", "address": {"city": "CAMP LEJEUNE", "state": "NC", "street": "1770 MCHUGH BLVD", "postcode": "28547"}}},
{"geometry": {"type": "Point", "coordinates": [-77.34772804, 34.7080502228]}, "type": "Feature", "properties": {"collection_times": [{"days": "Mon-Fri", "time": "1:00pm"}, {"days": "Sat-Sun", "time": "Closed"}], "id": "2854700003", "name": "USPS COLLECTION BOX - BLUE BOX", "address": {"city": "CAMP LEJEUNE", "state": "NC", "street": "1770 MCHUGH BLVD", "postcode": "28547"}}},
{"geometry": {"type": "Point", "coordinates": [-77.34772804, 34.7080502228]}, "type": "Feature", "properties": {"collection_times": [{"days": "Mon-Fri", "time": "4:30pm"}, {"days": "Sat-Sun", "time": "Closed"}], "id": "2854700012", "name": "USPS COLLECTION BOX - PO LOBBY", "address": {"city": "CAMP LEJEUNE", "state": "NC", "street": "1770 MCHUGH BLVD", "postcode": "28547"}}},
{"geometry": {"type": "Point", "coordinates": [-77.34772804, 34.7080502228]}, "type": "Feature", "properties": {"collection_times": [{"days": "Mon-Fri", "time": "4:30pm"}, {"days": "Sat-Sun", "time": "Closed"}], "id": "2854700013", "name": "USPS COLLECTION BOX - PO LOBBY", "address": {"city": "CAMP LEJEUNE", "state": "NC", "street": "1770 MCHUGH BLVD", "postcode": "28547"}}},
{"geometry": {"type": "Point", "coordinates": [-77.3440712345, 34.7219655859]}, "type": "Feature", "properties": {"collection_times": [{"days": "Mon-Fri", "time": "9:45am"}, {"days": "Sat-Sun", "time": "Closed"}], "id": "2854700014", "name": "USPS COLLECTION BOX - BLUE BOX", "address": {"city": "CAMP LEJEUNE", "state": "NC", "street": "84 HOLCOMB BLVD", "postcode": "28547"}}},
{"geometry": {"type": "Point", "coordinates": [-77.7891185564, 35.3050763726]}, "type": "Feature", "properties": {"collection_times": [{"days": "Mon-Fri", "time": "5:00pm"}, {"days": "Sat", "time": "3:00pm"}, {"days": "Sun", "time": "Closed"}], "id": "2855100001", "name": "USPS COLLECTION BOX - BLUE BOX", "address": {"city": "LAGRANGE", "state": "NC", "street": "209 S CASWELL ST", "postcode": "28551"}}},
{"geometry": {"type": "Point", "coordinates": [-77.7833685271, 35.3236904817]}, "type": "Feature", "properties": {"collection_times": [{"days": "Mon-Fri", "time": "5:00pm"}, {"days": "Sat", "time": "3:00pm"}, {"days": "Sun", "time": "Closed"}], "id": "2855100004", "name": "USPS COLLECTION BOX - PO LOBBY", "address": {"city": "LAGRANGE", "state": "NC", "street": "209 S CASWELL ST", "postcode": "28551"}}},
{"geometry": {"type": "Point", "coordinates": [-76.5178063547, 34.7238948152]}, "type": "Feature", "properties": {"collection_times": [{"days": "Mon-Fri", "time": "4:00pm"}, {"days": "Sat", "time": "9:30am"}, {"days": "Sun", "time": "Closed"}], "id": "2855300002", "name": "USPS COLLECTION BOX - BLUE BOX", "address": {"city": "MARSHALLBERG", "state": "NC", "street": "1160 MARSHALLBERG RD", "postcode": "28553"}}},
{"geometry": {"type": "Point", "coordinates": [-76.5155871673, 34.7265433408]}, "type": "Feature", "properties": {"collection_times": [{"days": "Mon-Fri", "time": "4:00pm"}, {"days": "Sat", "time": "9:30am"}, {"days": "Sun", "time": "Closed"}], "id": "2855300003", "name": "USPS COLLECTION BOX - PO LOBBY", "address": {"city": "MARSHALLBERG", "state": "NC", "street": "1160 MARSHALLBERG RD", "postcode": "28553"}}},
{"geometry": {"type": "Point", "coordinates": [-76.5178063547, 34.7238948152]}, "type": "Feature", "properties": {"collection_times": [{"days": "Mon-Fri", "time": "4:00pm"}, {"days": "Sat", "time": "9:30am"}, {"days": "Sun", "time": "Closed"}], "id": "2855300004", "name": "USPS COLLECTION BOX - PO LOBBY", "address": {"city": "MARSHALLBERG", "state": "NC", "street": "1160 MARSHALLBERG RD", "postcode": "28553"}}},
{"geometry": {"type": "Point", "coordinates": [-77.5865312684, 35.4810133065]}, "type": "Feature", "properties": {"collection_times": [{"days": "Mon-Fri", "time": "4:30pm"}, {"days": "Sat", "time": "9:00am"}, {"days": "Sun", "time": "Closed"}], "id": "2855400001", "name": "USPS COLLECTION BOX - BLUE BOX", "address": {"city": "MAURY", "state": "NC", "street": "@ HWY 903 N", "postcode": "28554"}}},
{"geometry": {"type": "Point", "coordinates": [-77.5865312684, 35.4810133065]}, "type": "Feature", "properties": {"collection_times": [{"days": "Mon-Fri", "time": "4:30pm"}, {"days": "Sat", "time": "9:00am"}, {"days": "Sun", "time": "Closed"}], "id": "2855400002", "name": "USPS COLLECTION BOX - PO LOBBY", "address": {"city": "MAURY", "state": "NC", "street": "@ HWY 903   N", "postcode": "28554"}}},
{"geometry": {"type": "Point", "coordinates": [-77.5865312684, 35.4810133065]}, "type": "Feature", "properties": {"collection_times": [{"days": "Mon-Fri", "time": "4:30pm"}, {"days": "Sat", "time": "9:00am"}, {"days": "Sun", "time": "Closed"}], "id": "2855400003", "name": "USPS COLLECTION BOX - PO LOBBY", "address": {"city": "MAURY", "state": "NC", "street": "@ HWY 903 N", "postcode": "28554"}}},
{"geometry": {"type": "Point", "coordinates": [-77.2318686034, 34.8987023088]}, "type": "Feature", "properties": {"collection_times": [{"days": "Mon-Fri", "time": "4:45pm"}, {"days": "Sat", "time": "11:00am"}, {"days": "Sun", "time": "Closed"}], "id": "2855500001", "name": "USPS COLLECTION BOX - BLUE BOX", "address": {"city": "MAYSVILLE", "state": "NC", "street": "1004 MAIN ST", "postcode": "28555"}}},
{"geometry": {"type": "Point", "coordinates": [-77.2318686039, 34.8987023085]}, "type": "Feature", "properties": {"collection_times": [{"days": "Mon-Fri", "time": "4:45pm"}, {"days": "Sat", "time": "11:00am"}, {"days": "Sun", "time": "Closed"}], "id": "2855500002", "name": "USPS COLLECTION BOX - PO LOBBY", "address": {"city": "MAYSVILLE", "state": "NC", "street": "1004 MAIN ST", "postcode": "28555"}}},
{"geometry": {"type": "Point", "coordinates": [-76.663408599, 35.1393840842]}, "type": "Feature", "properties": {"collection_times": [{"days": "Mon-Sat", "time": "10:30am"}, {"days": "Sun", "time": "Closed"}], "id": "2855600003", "name": "USPS COLLECTION BOX - PO LOBBY", "address": {"city": "MERRITT", "state": "NC", "street": "19686 NC HIGHWAY 55", "postcode": "28556"}}},
{"geometry": {"type": "Point", "coordinates": [-76.7326373281, 34.7227499433]}, "type": "Feature", "properties": {"collection_times": [{"days": "Mon-Fri", "time": "10:00am"}, {"days": "Sat-Sun", "time": "Closed"}], "id": "2855700001", "name": "USPS COLLECTION BOX - BLUE BOX", "address": {"city": "MOREHEAD CITY", "state": "NC", "street": "2201 ARENDELL ST", "postcode": "28557"}}},
{"geometry": {"type": "Point", "coordinates": [-76.7534717912, 34.7272023038]}, "type": "Feature", "properties": {"collection_times": [{"days": "Mon-Fri", "time": "5:00pm"}, {"days": "Sat", "time": "4:00pm"}, {"days": "Sun", "time": "Closed"}], "id": "2855700003", "name": "USPS COLLECTION BOX - BLUE BOX", "address": {"city": "MOREHEAD CITY", "state": "NC", "street": "3500 BRIDGES ST", "postcode": "28557"}}},
{"geometry": {"type": "Point", "coordinates": [-76.7112703002, 34.7213634983]}, "type": "Feature", "properties": {"collection_times": [{"days": "Mon-Fri", "time": "10:00am"}, {"days": "Sat-Sun", "time": "Closed"}], "id": "2855700004", "name": "USPS COLLECTION BOX - BLUE BOX", "address": {"city": "MOREHEAD CITY", "state": "NC", "street": "706 ARENDELL ST", "postcode": "28557"}}},
{"geometry": {"type": "Point", "coordinates": [-76.7534717912, 34.7272023038]}, "type": "Feature", "properties": {"collection_times": [{"days": "Mon-Fri", "time": "5:00pm"}, {"days": "Sat", "time": "4:00pm"}, {"days": "Sun", "time": "Closed"}], "id": "2855700008", "name": "USPS COLLECTION BOX - BLUE BOX", "address": {"city": "MOREHEAD CITY", "state": "NC", "street": "3500 BRIDGES ST", "postcode": "28557"}}},
{"geometry": {"type": "Point", "coordinates": [-76.7536456736, 34.7304017057]}, "type": "Feature", "properties": {"collection_times": [{"days": "Mon-Fri", "time": "5:00pm"}, {"days": "Sat", "time": "4:00pm"}, {"days": "Sun", "time": "Closed"}], "id": "2855700009", "name": "USPS COLLECTION BOX - PO LOBBY", "address": {"city": "MOREHEAD CITY", "state": "NC", "street": "3500 BRIDGES ST", "postcode": "28557"}}},
{"geometry": {"type": "Point", "coordinates": [-76.7534717912, 34.7272023038]}, "type": "Feature", "properties": {"collection_times": [{"days": "Mon-Fri", "time": "5:00pm"}, {"days": "Sat", "time": "4:00pm"}, {"days": "Sun", "time": "Closed"}], "id": "2855700010", "name": "USPS COLLECTION BOX - PO LOBBY", "address": {"city": "MOREHEAD CITY", "state": "NC", "street": "3500 BRIDGES ST", "postcode": "28557"}}},
{"geometry": {"type": "Point", "coordinates": [-76.7819845046, 34.7361069653]}, "type": "Feature", "properties": {"collection_times": [{"days": "Mon-Sat", "time": "10:00am"}, {"days": "Sun", "time": "Closed"}], "id": "2855700011", "name": "USPS COLLECTION BOX - BLUE BOX", "address": {"city": "MOREHEAD CITY", "state": "NC", "street": "4600 COUNTRY CLUB RD", "postcode": "28557"}}},
{"geometry": {"type": "Point", "coordinates": [-76.8324454634, 34.7304170434]}, "type": "Feature", "properties": {"collection_times": [{"days": "Mon-Sat", "time": "10:00am"}, {"days": "Sun", "time": "Closed"}], "id": "2855700012", "name": "USPS COLLECTION BOX - BLUE BOX", "address": {"city": "MOREHEAD CITY", "state": "NC", "street": "120 BAY CLUB CIR", "postcode": "28557"}}},
{"geometry": {"type": "Point", "coordinates": [-76.7534717912, 34.7272023038]}, "type": "Feature", "properties": {"collection_times": [{"days": "Mon-Fri", "time": "5:00pm"}, {"days": "Sat", "time": "4:00pm"}, {"days": "Sun", "time": "Closed"}], "id": "2855700013", "name": "USPS COLLECTION BOX - APC", "address": {"city": "MOREHEAD CITY", "state": "NC", "street": "3500 BRIDGES ST", "postcode": "28557"}}},
{"geometry": {"type": "Point", "coordinates": [-77.0383569304, 35.1056828372]}, "type": "Feature", "properties": {"collection_times": [{"days": "Mon-Sat", "time": "1:45pm"}, {"days": "Sun", "time": "Closed"}], "id": "2856000011", "name": "USPS COLLECTION BOX - BLUE BOX", "address": {"city": "NEW BERN", "state": "NC", "street": "248 CRAVEN ST", "postcode": "28560"}}},
{"geometry": {"type": "Point", "coordinates": [-77.0396587484, 35.1084921029]}, "type": "Feature", "properties": {"collection_times": [{"days": "Mon-Fri", "time": "4:20pm"}, {"days": "Sat", "time": "1:50pm"}, {"days": "Sun", "time": "Closed"}], "id": "2856000015", "name": "USPS COLLECTION BOX - BLUE BOX", "address": {"city": "NEW BERN", "state": "NC", "street": "415 MIDDLE ST", "postcode": "28560"}}},
{"geometry": {"type": "Point", "coordinates": [-77.040044904, 35.1060027332]}, "type": "Feature", "properties": {"collection_times": [{"days": "Mon-Fri", "time": "4:30pm"}, {"days": "Sat", "time": "2:00pm"}, {"days": "Sun", "time": "Closed"}], "id": "2856000018", "name": "USPS COLLECTION BOX - BLUE BOX", "address": {"city": "NEW BERN", "state": "NC", "street": "233 MIDDLE ST", "postcode": "28560"}}},
{"geometry": {"type": "Point", "coordinates": [-77.040044904, 35.1060027332]}, "type": "Feature", "properties": {"collection_times": [{"days": "Mon-Fri", "time": "4:30pm"}, {"days": "Sat", "time": "2:00pm"}, {"days": "Sun", "time": "Closed"}], "id": "2856000030", "name": "USPS COLLECTION BOX - BLUE BOX", "address": {"city": "NEW BERN", "state": "NC", "street": "233 MIDDLE ST", "postcode": "28560"}}},
{"geometry": {"type": "Point", "coordinates": [-77.0237224362, 35.0731105591]}, "type": "Feature", "properties": {"collection_times": [{"days": "Mon-Fri", "time": "4:15pm"}, {"days": "Sat", "time": "1:30pm"}, {"days": "Sun", "time": "Closed"}], "id": "2856000034", "name": "USPS COLLECTION BOX - BLUE BOX", "address": {"city": "NEW BERN", "state": "NC", "street": "1620 OLD CHERRY POINT RD", "postcode": "28560"}}},
{"geometry": {"type": "Point", "coordinates": [-77.0685705995, 35.1113488561]}, "type": "Feature", "properties": {"collection_times": [{"days": "Mon-Sat", "time": "2:20pm"}, {"days": "Sun", "time": "Closed"}], "id": "2856000037", "name": "USPS COLLECTION BOX - BLUE BOX", "address": {"city": "NEW BERN", "state": "NC", "street": "719 PROFESSIONAL DR", "postcode": "28560"}}},
{"geometry": {"type": "Point", "coordinates": [-77.0694452788, 35.1135893148]}, "type": "Feature", "properties": {"collection_times": [{"days": "Mon-Sat", "time": "2:15pm"}, {"days": "Sun", "time": "Closed"}], "id": "2856000059", "name": "USPS COLLECTION BOX - BLUE BOX", "address": {"city": "NEW BERN", "state": "NC", "street": "2203 NEUSE BLVD", "postcode": "28560"}}},
{"geometry": {"type": "Point", "coordinates": [-77.0649217178, 35.1112100767]}, "type": "Feature", "properties": {"collection_times": [{"days": "Mon-Sat", "time": "2:25pm"}, {"days": "Sun", "time": "Closed"}], "id": "2856000061", "name": "USPS COLLECTION BOX - BLUE BOX", "address": {"city": "NEW BERN", "state": "NC", "street": "2000 NEUSE BLVD", "postcode": "28560"}}},
{"geometry": {"type": "Point", "coordinates": [-77.0442964586, 35.1070106142]}, "type": "Feature", "properties": {"collection_times": [{"days": "Mon-Sat", "time": "1:40pm"}, {"days": "Sun", "time": "Closed"}], "id": "2856000062", "name": "USPS COLLECTION BOX - BLUE BOX", "address": {"city": "NEW BERN", "state": "NC", "street": "613 POLLOCK ST", "postcode": "28560"}}},
{"geometry": {"type": "Point", "coordinates": [-77.0176873129, 35.1044632292]}, "type": "Feature", "properties": {"collection_times": [{"days": "Mon-Fri", "time": "4:00pm"}, {"days": "Sat-Sun", "time": "Closed"}], "id": "2856000063", "name": "USPS COLLECTION BOX - PO LOBBY", "address": {"city": "NEW BERN", "state": "NC", "street": "1620 OLD CHERRY POINT RD", "postcode": "28560"}}},
{"geometry": {"type": "Point", "coordinates": [-77.0400449039, 35.1060027328]}, "type": "Feature", "properties": {"collection_times": [{"days": "Mon-Fri", "time": "4:30pm"}, {"days": "Sat", "time": "12:30pm"}, {"days": "Sun", "time": "Closed"}], "id": "2856000066", "name": "USPS COLLECTION BOX - PO LOBBY", "address": {"city": "NEW BERN", "state": "NC", "street": "233 MIDDLE ST", "postcode": "28560"}}},
{"geometry": {"type": "Point", "coordinates": [-77.040044904, 35.1060027332]}, "type": "Feature", "properties": {"collection_times": [{"days": "Mon-Fri", "time": "4:30pm"}, {"days": "Sat", "time": "12:30pm"}, {"days": "Sun", "time": "Closed"}], "id": "2856000067", "name": "USPS COLLECTION BOX - PO LOBBY", "address": {"city": "NEW BERN", "state": "NC", "street": "233 MIDDLE ST", "postcode": "28560"}}},
{"geometry": {"type": "Point", "coordinates": [-77.1006291229, 35.0976806756]}, "type": "Feature", "properties": {"collection_times": [{"days": "Mon-Sat", "time": "1:00pm"}, {"days": "Sun", "time": "Closed"}], "id": "2856200004", "name": "USPS COLLECTION BOX - BLUE BOX", "address": {"city": "NEW BERN", "state": "NC", "street": "3100 MARTIN LUTHER KING JR BLVD", "postcode": "28562"}}},
{"geometry": {"type": "Point", "coordinates": [-77.1000558436, 35.1068031387]}, "type": "Feature", "properties": {"collection_times": [{"days": "Mon-Fri", "time": "5:00pm"}, {"days": "Sat", "time": "2:45pm"}, {"days": "Sun", "time": "Closed"}], "id": "2856200011", "name": "USPS COLLECTION BOX - BLUE BOX", "address": {"city": "NEW BERN", "state": "NC", "street": "1851 S GLENBURNIE RD", "postcode": "28562"}}},
{"geometry": {"type": "Point", "coordinates": [-77.0866761481, 35.1246778755]}, "type": "Feature", "properties": {"collection_times": [{"days": "Mon-Sat", "time": "2:35pm"}, {"days": "Sun", "time": "Closed"}], "id": "2856200020", "name": "USPS COLLECTION BOX - BLUE BOX", "address": {"city": "NEW BERN", "state": "NC", "street": "1214 S GLENBURNIE RD", "postcode": "28562"}}},
{"geometry": {"type": "Point", "coordinates": [-77.1000558436, 35.1068031387]}, "type": "Feature", "properties": {"collection_times": [{"days": "Mon-Fri", "time": "5:00pm"}, {"days": "Sat", "time": "2:45pm"}, {"days": "Sun", "time": "Closed"}], "id": "2856200021", "name": "USPS COLLECTION BOX - BLUE BOX", "address": {"city": "NEW BERN", "state": "NC", "street": "1851 S GLENBURNIE RD", "postcode": "28562"}}},
{"geometry": {"type": "Point", "coordinates": [-77.0986083287, 35.0977905884]}, "type": "Feature", "properties": {"collection_times": [{"days": "Mon-Sat", "time": "2:30pm"}, {"days": "Sun", "time": "Closed"}], "id": "2856200035", "name": "USPS COLLECTION BOX - BLUE BOX", "address": {"city": "NEW BERN", "state": "NC", "street": "2117 S GLENBURNIE RD", "postcode": "28562"}}},
{"geometry": {"type": "Point", "coordinates": [-77.1006291229, 35.0976806756]}, "type": "Feature", "properties": {"collection_times": [{"days": "Mon-Sat", "time": "1:00pm"}, {"days": "Sun", "time": "Closed"}], "id": "2856200037", "name": "USPS COLLECTION BOX - BLUE BOX", "address": {"city": "NEW BERN", "state": "NC", "street": "3023 MARTIN LUTHER KING JR BLVD", "postcode": "28562"}}},
{"geometry": {"type": "Point", "coordinates": [-77.153957519, 35.0796971784]}, "type": "Feature", "properties": {"collection_times": [{"days": "Mon-Sat", "time": "10:00am"}, {"days": "Sun", "time": "Closed"}], "id": "2856200038", "name": "USPS COLLECTION BOX - BLUE BOX", "address": {"city": "NEW BERN", "state": "NC", "street": "45 SHORELINE DR", "postcode": "28562"}}},
{"geometry": {"type": "Point", "coordinates": [-77.1000558439, 35.1068031385]}, "type": "Feature", "properties": {"collection_times": [{"days": "Mon-Fri", "time": "5:00pm"}, {"days": "Sat", "time": "12:00pm"}, {"days": "Sun", "time": "Closed"}], "id": "2856200040", "name": "USPS COLLECTION BOX - PO LOBBY", "address": {"city": "NEW BERN", "state": "NC", "street": "1851 S GLENBURNIE RD", "postcode": "28562"}}},
{"geometry": {"type": "Point", "coordinates": [-77.1000558436, 35.1068031387]}, "type": "Feature", "properties": {"collection_times": [{"days": "Mon-Fri", "time": "5:00pm"}, {"days": "Sat", "time": "12:00pm"}, {"days": "Sun", "time": "Closed"}], "id": "2856200041", "name": "USPS COLLECTION BOX - PO LOBBY", "address": {"city": "NEW BERN", "state": "NC", "street": "1851 S GLENBURNIE RD", "postcode": "28562"}}},
{"geometry": {"type": "Point", "coordinates": [-77.1006291229, 35.0976806756]}, "type": "Feature", "properties": {"collection_times": [{"days": "Mon-Fri", "time": "5:00pm"}, {"days": "Sat", "time": "12:00pm"}, {"days": "Sun", "time": "Closed"}], "id": "2856200042", "name": "USPS COLLECTION BOX - APC", "address": {"city": "NEW BERN", "state": "NC", "street": "1851 S GLENBURNIE RD", "postcode": "28562"}}},
{"geometry": {"type": "Point", "coordinates": [-76.8688371821, 34.7883653896]}, "type": "Feature", "properties": {"collection_times": [{"days": "Mon-Fri", "time": "5:00pm"}, {"days": "Sat", "time": "12:15pm"}, {"days": "Sun", "time": "Closed"}], "id": "2857000006", "name": "USPS COLLECTION BOX - BLUE BOX", "address": {"city": "NEWPORT", "state": "NC", "street": "337 HOWARD BLVD", "postcode": "28570"}}},
{"geometry": {"type": "Point", "coordinates": [-76.9961237344, 34.7000119329]}, "type": "Feature", "properties": {"collection_times": [{"days": "Mon-Sat", "time": "11:00am"}, {"days": "Sun", "time": "Closed"}], "id": "2857000007", "name": "USPS COLLECTION BOX - BLUE BOX", "address": {"city": "NEWPORT", "state": "NC", "street": "350 RED BARN RD", "postcode": "28570"}}},
{"geometry": {"type": "Point", "coordinates": [-76.8688371821, 34.7883653896]}, "type": "Feature", "properties": {"collection_times": [{"days": "Mon-Fri", "time": "5:00pm"}, {"days": "Sat", "time": "12:15pm"}, {"days": "Sun", "time": "Closed"}], "id": "2857000008", "name": "USPS COLLECTION BOX - PO LOBBY", "address": {"city": "NEWPORT", "state": "NC", "street": "337 HOWARD BLVD", "postcode": "28570"}}},
{"geometry": {"type": "Point", "coordinates": [-76.8688371821, 34.7883653896]}, "type": "Feature", "properties": {"collection_times": [{"days": "Mon-Fri", "time": "5:00pm"}, {"days": "Sat", "time": "12:15pm"}, {"days": "Sun", "time": "Closed"}], "id": "2857000009", "name": "USPS COLLECTION BOX - PO LOBBY", "address": {"city": "NEWPORT", "state": "NC", "street": "337 HOWARD BLVD", "postcode": "28570"}}},
{"geometry": {"type": "Point", "coordinates": [-76.6937663915, 35.0303890424]}, "type": "Feature", "properties": {"collection_times": [{"days": "Mon-Fri", "time": "4:15pm"}, {"days": "Sat", "time": "11:45am"}, {"days": "Sun", "time": "Closed"}], "id": "2857100001", "name": "USPS COLLECTION BOX - BLUE BOX", "address": {"city": "ORIENTAL", "state": "NC", "street": "809 BROAD ST", "postcode": "28571"}}},
{"geometry": {"type": "Point", "coordinates": [-76.6937663915, 35.0303890424]}, "type": "Feature", "properties": {"collection_times": [{"days": "Mon-Fri", "time": "4:15pm"}, {"days": "Sat", "time": "11:45am"}, {"days": "Sun", "time": "Closed"}], "id": "2857100002", "name": "USPS COLLECTION BOX - PO LOBBY", "address": {"city": "ORIENTAL", "state": "NC", "street": "809 BROAD ST", "postcode": "28571"}}},
{"geometry": {"type": "Point", "coordinates": [-76.6952574897, 35.0430031264]}, "type": "Feature", "properties": {"collection_times": [{"days": "Mon-Fri", "time": "4:15pm"}, {"days": "Sat", "time": "11:45am"}, {"days": "Sun", "time": "Closed"}], "id": "2857100003", "name": "USPS COLLECTION BOX - PO LOBBY", "address": {"city": "ORIENTAL", "state": "NC", "street": "809 BROAD ST", "postcode": "28571"}}},
{"geometry": {"type": "Point", "coordinates": [-77.7657570755, 35.0569604841]}, "type": "Feature", "properties": {"collection_times": [{"days": "Mon-Fri", "time": "4:45pm"}, {"days": "Sat", "time": "11:30am"}, {"days": "Sun", "time": "Closed"}], "id": "2857200001", "name": "USPS COLLECTION BOX - BLUE BOX", "address": {"city": "PINK HILL", "state": "NC", "street": "5951 HWY 11 S", "postcode": "28572"}}},
{"geometry": {"type": "Point", "coordinates": [-77.7657570755, 35.0569604841]}, "type": "Feature", "properties": {"collection_times": [{"days": "Mon-Fri", "time": "4:45pm"}, {"days": "Sat", "time": "11:30am"}, {"days": "Sun", "time": "Closed"}], "id": "2857200002", "name": "USPS COLLECTION BOX - PO LOBBY", "address": {"city": "PINK HILL", "state": "NC", "street": "5951 HWY 11 S", "postcode": "28572"}}},
{"geometry": {"type": "Point", "coordinates": [-77.7657570755, 35.0569604841]}, "type": "Feature", "properties": {"collection_times": [{"days": "Mon-Fri", "time": "4:45pm"}, {"days": "Sat", "time": "11:30am"}, {"days": "Sun", "time": "Closed"}], "id": "2857200003", "name": "USPS COLLECTION BOX - PO LOBBY", "address": {"city": "PINK HILL", "state": "NC", "street": "5951 HWY 11 S", "postcode": "28572"}}},
{"geometry": {"type": "Point", "coordinates": [-77.2188723489, 35.0098813324]}, "type": "Feature", "properties": {"collection_times": [{"days": "Mon-Fri", "time": "4:45pm"}, {"days": "Sat", "time": "10:30am"}, {"days": "Sun", "time": "Closed"}], "id": "2857300001", "name": "USPS COLLECTION BOX - BLUE BOX", "address": {"city": "POLLOCKSVILLE", "state": "NC", "street": "125 MAIN ST", "postcode": "28573"}}},
{"geometry": {"type": "Point", "coordinates": [-77.218872349, 35.0098813328]}, "type": "Feature", "properties": {"collection_times": [{"days": "Mon-Fri", "time": "4:45pm"}, {"days": "Sat", "time": "10:30am"}, {"days": "Sun", "time": "Closed"}], "id": "2857300002", "name": "USPS COLLECTION BOX - PO LOBBY", "address": {"city": "POLLOCKSVILLE", "state": "NC", "street": "125 MAIN ST", "postcode": "28573"}}},
{"geometry": {"type": "Point", "coordinates": [-77.2188723489, 35.0098813324]}, "type": "Feature", "properties": {"collection_times": [{"days": "Mon-Fri", "time": "4:45pm"}, {"days": "Sat", "time": "10:30am"}, {"days": "Sun", "time": "Closed"}], "id": "2857300003", "name": "USPS COLLECTION BOX - PO LOBBY", "address": {"city": "POLLOCKSVILLE", "state": "NC", "street": "125 MAIN ST", "postcode": "28573"}}},
{"geometry": {"type": "Point", "coordinates": [-77.6051585734, 34.8305833891]}, "type": "Feature", "properties": {"collection_times": [{"days": "Mon-Fri", "time": "12:00pm"}, {"days": "Sat-Sun", "time": "Closed"}], "id": "2857400001", "name": "USPS COLLECTION BOX - BLUE BOX", "address": {"city": "RICHLANDS", "state": "NC", "street": "264 ALBERT ELLIS AIRPORT RD", "postcode": "28574"}}},
{"geometry": {"type": "Point", "coordinates": [-77.5501204289, 34.8983810075]}, "type": "Feature", "properties": {"collection_times": [{"days": "Mon-Fri", "time": "4:45pm"}, {"days": "Sat", "time": "11:30am"}, {"days": "Sun", "time": "Closed"}], "id": "2857400004", "name": "USPS COLLECTION BOX - BLUE BOX", "address": {"city": "RICHLANDS", "state": "NC", "street": "8201 RICHLANDS HWY", "postcode": "28574"}}},
{"geometry": {"type": "Point", "coordinates": [-77.5565135175, 34.9042859753]}, "type": "Feature", "properties": {"collection_times": [{"days": "Mon-Fri", "time": "10:00am"}, {"days": "Sat-Sun", "time": "Closed"}], "id": "2857400005", "name": "USPS COLLECTION BOX - BLUE BOX", "address": {"city": "RICHLANDS", "state": "NC", "street": "9007 RICHLANDS HWY", "postcode": "28574"}}},
{"geometry": {"type": "Point", "coordinates": [-77.5501204287, 34.8983810077]}, "type": "Feature", "properties": {"collection_times": [{"days": "Mon-Fri", "time": "4:45pm"}, {"days": "Sat", "time": "11:30am"}, {"days": "Sun", "time": "Closed"}], "id": "2857400006", "name": "USPS COLLECTION BOX - PO LOBBY", "address": {"city": "RICHLANDS", "state": "NC", "street": "8201 RICHLANDS HWY", "postcode": "28574"}}},
{"geometry": {"type": "Point", "coordinates": [-77.5501204289, 34.8983810075]}, "type": "Feature", "properties": {"collection_times": [{"days": "Mon-Fri", "time": "4:45pm"}, {"days": "Sat", "time": "11:30am"}, {"days": "Sun", "time": "Closed"}], "id": "2857400007", "name": "USPS COLLECTION BOX - PO LOBBY", "address": {"city": "RICHLANDS", "state": "NC", "street": "8201 RICHLANDS HWY", "postcode": "28574"}}},
{"geometry": {"type": "Point", "coordinates": [-76.387392874, 34.873513457]}, "type": "Feature", "properties": {"collection_times": [{"days": "Mon-Fri", "time": "3:00pm"}, {"days": "Sat", "time": "12:00pm"}, {"days": "Sun", "time": "Closed"}], "id": "2857700001", "name": "USPS COLLECTION BOX - BLUE BOX", "address": {"city": "SEA LEVEL", "state": "NC", "street": "751 US HIGHWAY 70 SEALEVEL", "postcode": "28577"}}},
{"geometry": {"type": "Point", "coordinates": [-76.387392874, 34.873513457]}, "type": "Feature", "properties": {"collection_times": [{"days": "Mon-Fri", "time": "3:00pm"}, {"days": "Sat", "time": "12:00pm"}, {"days": "Sun", "time": "Closed"}], "id": "2857700002", "name": "USPS COLLECTION BOX - PO LOBBY", "address": {"city": "SEA LEVEL", "state": "NC", "street": "751 US HIGHWAY 70 SEALEVEL", "postcode": "28577"}}},
{"geometry": {"type": "Point", "coordinates": [-76.387392874, 34.873513457]}, "type": "Feature", "properties": {"collection_times": [{"days": "Mon-Fri", "time": "3:00pm"}, {"days": "Sat", "time": "12:00pm"}, {"days": "Sun", "time": "Closed"}], "id": "2857700003", "name": "USPS COLLECTION BOX - PO LOBBY", "address": {"city": "SEA LEVEL", "state": "NC", "street": "751 US HIGHWAY 70 SEALEVEL", "postcode": "28577"}}},
{"geometry": {"type": "Point", "coordinates": [-77.8463614046, 35.2273342294]}, "type": "Feature", "properties": {"collection_times": [{"days": "Mon-Fri", "time": "4:30pm"}, {"days": "Sat", "time": "11:30am"}, {"days": "Sun", "time": "Closed"}], "id": "2857800001", "name": "USPS COLLECTION BOX - BLUE BOX", "address": {"city": "SEVEN SPRINGS", "state": "NC", "street": "301 MAIN ST", "postcode": "28578"}}},
{"geometry": {"type": "Point", "coordinates": [-77.8463614046, 35.2273342294]}, "type": "Feature", "properties": {"collection_times": [{"days": "Mon-Fri", "time": "4:30pm"}, {"days": "Sat", "time": "11:30am"}, {"days": "Sun", "time": "Closed"}], "id": "2857800002", "name": "USPS COLLECTION BOX - PO LOBBY", "address": {"city": "SEVEN SPRINGS", "state": "NC", "street": "301 MAIN ST", "postcode": "28578"}}},
{"geometry": {"type": "Point", "coordinates": [-76.5134885296, 34.7681728385]}, "type": "Feature", "properties": {"collection_times": [{"days": "Mon-Fri", "time": "4:00pm"}, {"days": "Sat", "time": "10:30am"}, {"days": "Sun", "time": "Closed"}], "id": "2857900001", "name": "USPS COLLECTION BOX - BLUE BOX", "address": {"city": "SMYRNA", "state": "NC", "street": "467 US HIGHWAY 70 WILLISTON", "postcode": "28579"}}},
{"geometry": {"type": "Point", "coordinates": [-76.5134885296, 34.7681728385]}, "type": "Feature", "properties": {"collection_times": [{"days": "Mon-Fri", "time": "4:00pm"}, {"days": "Sat", "time": "10:30am"}, {"days": "Sun", "time": "Closed"}], "id": "2857900002", "name": "USPS COLLECTION BOX - PO LOBBY", "address": {"city": "SMYRNA", "state": "NC", "street": "467 US HIGHWAY 70 WILLISTON", "postcode": "28579"}}},
{"geometry": {"type": "Point", "coordinates": [-77.6637591422, 35.4463329324]}, "type": "Feature", "properties": {"collection_times": [{"days": "Mon-Fri", "time": "5:00pm"}, {"days": "Sat", "time": "12:00pm"}, {"days": "Sun", "time": "Closed"}], "id": "2858000003", "name": "USPS COLLECTION BOX - BLUE BOX", "address": {"city": "SNOW HILL", "state": "NC", "street": "911 SE 2ND ST", "postcode": "28580"}}},
{"geometry": {"type": "Point", "coordinates": [-77.6637591422, 35.4463329324]}, "type": "Feature", "properties": {"collection_times": [{"days": "Mon-Fri", "time": "5:00pm"}, {"days": "Sat", "time": "12:00pm"}, {"days": "Sun", "time": "Closed"}], "id": "2858000004", "name": "USPS COLLECTION BOX - BLUE BOX", "address": {"city": "SNOW HILL", "state": "NC", "street": "911 SE 2ND ST", "postcode": "28580"}}},
{"geometry": {"type": "Point", "coordinates": [-77.663759142, 35.4463329328]}, "type": "Feature", "properties": {"collection_times": [{"days": "Mon-Fri", "time": "5:00pm"}, {"days": "Sat", "time": "12:00pm"}, {"days": "Sun", "time": "Closed"}], "id": "2858000005", "name": "USPS COLLECTION BOX - PO LOBBY", "address": {"city": "SNOW HILL", "state": "NC", "street": "911 SE 2ND ST", "postcode": "28580"}}},
{"geometry": {"type": "Point", "coordinates": [-77.6637591422, 35.4463329324]}, "type": "Feature", "properties": {"collection_times": [{"days": "Mon-Fri", "time": "5:00pm"}, {"days": "Sat", "time": "12:00pm"}, {"days": "Sun", "time": "Closed"}], "id": "2858000006", "name": "USPS COLLECTION BOX - PO LOBBY", "address": {"city": "SNOW HILL", "state": "NC", "street": "911 SE 2ND ST", "postcode": "28580"}}},
{"geometry": {"type": "Point", "coordinates": [-77.6637591422, 35.4463329324]}, "type": "Feature", "properties": {"collection_times": [{"days": "Mon-Fri", "time": "5:00pm"}, {"days": "Sat", "time": "12:00pm"}, {"days": "Sun", "time": "Closed"}], "id": "2858000007", "name": "USPS COLLECTION BOX - PO LOBBY", "address": {"city": "SNOW HILL", "state": "NC", "street": "911 SE 2ND ST", "postcode": "28580"}}},
{"geometry": {"type": "Point", "coordinates": [-77.1500081082, 34.7748426234]}, "type": "Feature", "properties": {"collection_times": [{"days": "Mon-Fri", "time": "3:30pm"}, {"days": "Sat", "time": "10:30am"}, {"days": "Sun", "time": "Closed"}], "id": "2858200001", "name": "USPS COLLECTION BOX - BLUE BOX", "address": {"city": "STELLA", "state": "NC", "street": "125 WETHERINGTON LANDING RD", "postcode": "28582"}}},
{"geometry": {"type": "Point", "coordinates": [-77.1500081082, 34.7748426234]}, "type": "Feature", "properties": {"collection_times": [{"days": "Mon-Fri", "time": "3:30pm"}, {"days": "Sat", "time": "10:30am"}, {"days": "Sun", "time": "Closed"}], "id": "2858200002", "name": "USPS COLLECTION BOX - PO LOBBY", "address": {"city": "STELLA", "state": "NC", "street": "125 WETHERINGTON LANDING RD", "postcode": "28582"}}},
{"geometry": {"type": "Point", "coordinates": [-76.7451989829, 35.1304507071]}, "type": "Feature", "properties": {"collection_times": [{"days": "Mon-Fri", "time": "4:15pm"}, {"days": "Sat", "time": "9:30am"}, {"days": "Sun", "time": "Closed"}], "id": "2858300001", "name": "USPS COLLECTION BOX - BLUE BOX", "address": {"city": "STONEWALL", "state": "NC", "street": "16375 NC 55 HWY", "postcode": "28583"}}},
{"geometry": {"type": "Point", "coordinates": [-76.7451989829, 35.1304507071]}, "type": "Feature", "properties": {"collection_times": [{"days": "Mon-Fri", "time": "4:15pm"}, {"days": "Sat", "time": "9:30am"}, {"days": "Sun", "time": "Closed"}], "id": "2858300002", "name": "USPS COLLECTION BOX - PO LOBBY", "address": {"city": "STONEWALL", "state": "NC", "street": "16375 NC 55 HWY", "postcode": "28583"}}},
{"geometry": {"type": "Point", "coordinates": [-76.7451989829, 35.1304507071]}, "type": "Feature", "properties": {"collection_times": [{"days": "Mon-Fri", "time": "4:15pm"}, {"days": "Sat", "time": "9:30am"}, {"days": "Sun", "time": "Closed"}], "id": "2858300003", "name": "USPS COLLECTION BOX - PO LOBBY", "address": {"city": "STONEWALL", "state": "NC", "street": "16375 NC 55 HWY", "postcode": "28583"}}},
{"geometry": {"type": "Point", "coordinates": [-77.1341383521, 34.6951544433]}, "type": "Feature", "properties": {"collection_times": [{"days": "Mon-Sat", "time": "4:30pm"}, {"days": "Sun", "time": "Closed"}], "id": "2858400003", "name": "USPS COLLECTION BOX - BLUE BOX", "address": {"city": "SWANSBORO", "state": "NC", "street": "664 W CORBETT AVE", "postcode": "28584"}}},
{"geometry": {"type": "Point", "coordinates": [-77.1144375503, 34.706943021]}, "type": "Feature", "properties": {"collection_times": [{"days": "Mon-Sat", "time": "12:00pm"}, {"days": "Sun", "time": "Closed"}], "id": "2858400004", "name": "USPS COLLECTION BOX - BLUE BOX", "address": {"city": "SWANSBORO", "state": "NC", "street": "200 WB MCLEAN DR", "postcode": "28584"}}},
{"geometry": {"type": "Point", "coordinates": [-77.11976633, 34.686988729]}, "type": "Feature", "properties": {"collection_times": [{"days": "Mon-Sat", "time": "11:00am"}, {"days": "Sun", "time": "Closed"}], "id": "2858400006", "name": "USPS COLLECTION BOX - BLUE BOX", "address": {"city": "SWANSBORO", "state": "NC", "street": "101 W CHURCH ST", "postcode": "28584"}}},
{"geometry": {"type": "Point", "coordinates": [-77.1341383521, 34.6951544433]}, "type": "Feature", "properties": {"collection_times": [{"days": "Mon-Sat", "time": "4:30pm"}, {"days": "Sun", "time": "Closed"}], "id": "2858400007", "name": "USPS COLLECTION BOX - PO LOBBY", "address": {"city": "SWANSBORO", "state": "NC", "street": "664 W CORBETT AVE", "postcode": "28584"}}},
{"geometry": {"type": "Point", "coordinates": [-77.1341383521, 34.6951544433]}, "type": "Feature", "properties": {"collection_times": [{"days": "Mon-Sat", "time": "4:30pm"}, {"days": "Sun", "time": "Closed"}], "id": "2858400008", "name": "USPS COLLECTION BOX - PO LOBBY", "address": {"city": "SWANSBORO", "state": "NC", "street": "664 W CORBETT AVE", "postcode": "28584"}}},
{"geometry": {"type": "Point", "coordinates": [-77.4186096604, 35.0694728999]}, "type": "Feature", "properties": {"collection_times": [{"days": "Mon-Fri", "time": "5:00pm"}, {"days": "Sat", "time": "11:00am"}, {"days": "Sun", "time": "Closed"}], "id": "2858500001", "name": "USPS COLLECTION BOX - BLUE BOX", "address": {"city": "TRENTON", "state": "NC", "street": "115 S MARKET ST", "postcode": "28585"}}},
{"geometry": {"type": "Point", "coordinates": [-77.4186096604, 35.0694728999]}, "type": "Feature", "properties": {"collection_times": [{"days": "Mon-Fri", "time": "5:00pm"}, {"days": "Sat", "time": "11:00am"}, {"days": "Sun", "time": "Closed"}], "id": "2858500002", "name": "USPS COLLECTION BOX - PO LOBBY", "address": {"city": "TRENTON", "state": "NC", "street": "115 S MARKET ST", "postcode": "28585"}}},
{"geometry": {"type": "Point", "coordinates": [-77.4186096604, 35.0694728999]}, "type": "Feature", "properties": {"collection_times": [{"days": "Mon-Fri", "time": "5:00pm"}, {"days": "Sat", "time": "11:00am"}, {"days": "Sun", "time": "Closed"}], "id": "2858500003", "name": "USPS COLLECTION BOX - PO LOBBY", "address": {"city": "TRENTON", "state": "NC", "street": "115 S MARKET ST", "postcode": "28585"}}},
{"geometry": {"type": "Point", "coordinates": [-77.1532280228, 35.3007489444]}, "type": "Feature", "properties": {"collection_times": [{"days": "Mon-Fri", "time": "5:00pm"}, {"days": "Sat", "time": "12:00pm"}, {"days": "Sun", "time": "Closed"}], "id": "2858600001", "name": "USPS COLLECTION BOX - BLUE BOX", "address": {"city": "VANCEBORO", "state": "NC", "street": "8134 MAIN ST", "postcode": "28586"}}},
{"geometry": {"type": "Point", "coordinates": [-77.1532280228, 35.3007489444]}, "type": "Feature", "properties": {"collection_times": [{"days": "Mon-Fri", "time": "5:00pm"}, {"days": "Sat", "time": "12:00pm"}, {"days": "Sun", "time": "Closed"}], "id": "2858600003", "name": "USPS COLLECTION BOX - PO LOBBY", "address": {"city": "VANCEBORO", "state": "NC", "street": "8134 MAIN ST", "postcode": "28586"}}},
{"geometry": {"type": "Point", "coordinates": [-77.1532280228, 35.3007489444]}, "type": "Feature", "properties": {"collection_times": [{"days": "Mon-Fri", "time": "5:00pm"}, {"days": "Sat", "time": "12:00pm"}, {"days": "Sun", "time": "Closed"}], "id": "2858600004", "name": "USPS COLLECTION BOX - PO LOBBY", "address": {"city": "VANCEBORO", "state": "NC", "street": "8134 MAIN ST", "postcode": "28586"}}},
{"geometry": {"type": "Point", "coordinates": [-77.089269859, 35.250083015]}, "type": "Feature", "properties": {"collection_times": [{"days": "Mon-Sat", "time": "11:00am"}, {"days": "Sun", "time": "Closed"}], "id": "2858600005", "name": "USPS COLLECTION BOX - BLUE BOX", "address": {"city": "VANCEBORO", "state": "NC", "street": "5610 US HIGHWAY 17 N", "postcode": "28586"}}},
{"geometry": {"type": "Point", "coordinates": [-77.3950998791, 35.528153112]}, "type": "Feature", "properties": {"collection_times": [{"days": "Mon-Fri", "time": "4:30pm"}, {"days": "Sat", "time": "12:00pm"}, {"days": "Sun", "time": "Closed"}], "id": "2859000001", "name": "USPS COLLECTION BOX - BLUE BOX", "address": {"city": "WINTERVILLE", "state": "NC", "street": "467 MAIN ST", "postcode": "28590"}}},
{"geometry": {"type": "Point", "coordinates": [-77.3950998791, 35.528153112]}, "type": "Feature", "properties": {"collection_times": [{"days": "Mon-Fri", "time": "4:30pm"}, {"days": "Sat", "time": "12:00pm"}, {"days": "Sun", "time": "Closed"}], "id": "2859000004", "name": "USPS COLLECTION BOX - BLUE BOX", "address": {"city": "WINTERVILLE", "state": "NC", "street": "467 MAIN ST", "postcode": "28590"}}},
{"geometry": {"type": "Point", "coordinates": [-77.4119025825, 35.5286948515]}, "type": "Feature", "properties": {"collection_times": [{"days": "Mon-Sat", "time": "12:00pm"}, {"days": "Sun", "time": "Closed"}], "id": "2859000005", "name": "USPS COLLECTION BOX - BLUE BOX", "address": {"city": "WINTERVILLE", "state": "NC", "street": "1986 PITT TECH DR", "postcode": "28590"}}},
{"geometry": {"type": "Point", "coordinates": [-77.4024009981, 35.5281034333]}, "type": "Feature", "properties": {"collection_times": [{"days": "Mon-Fri", "time": "9:30am"}, {"days": "Sat-Sun", "time": "Closed"}], "id": "2859000006", "name": "USPS COLLECTION BOX - BLUE BOX", "address": {"city": "WINTERVILLE", "state": "NC", "street": "2647 RAILROAD ST", "postcode": "28590"}}},
{"geometry": {"type": "Point", "coordinates": [-77.3950998792, 35.5281531123]}, "type": "Feature", "properties": {"collection_times": [{"days": "Mon-Fri", "time": "4:30pm"}, {"days": "Sat", "time": "12:00pm"}, {"days": "Sun", "time": "Closed"}], "id": "2859000007", "name": "USPS COLLECTION BOX - PO LOBBY", "address": {"city": "WINTERVILLE", "state": "NC", "street": "467 MAIN ST", "postcode": "28590"}}},
{"geometry": {"type": "Point", "coordinates": [-77.3950998791, 35.528153112]}, "type": "Feature", "properties": {"collection_times": [{"days": "Mon-Fri", "time": "4:30pm"}, {"days": "Sat", "time": "12:00pm"}, {"days": "Sun", "time": "Closed"}], "id": "2859000008", "name": "USPS COLLECTION BOX - PO LOBBY", "address": {"city": "WINTERVILLE", "state": "NC", "street": "467 MAIN ST", "postcode": "28590"}}},
{"geometry": {"type": "Point", "coordinates": [-77.0338350411, 34.6639200427]}, "type": "Feature", "properties": {"collection_times": [{"days": "Mon-Fri", "time": "4:00pm"}, {"days": "Sat", "time": "12:00pm"}, {"days": "Sun", "time": "Closed"}], "id": "2859400001", "name": "USPS COLLECTION BOX - BLUE BOX", "address": {"city": "EMERALD ISLE", "state": "NC", "street": "142 EASTVIEW DR", "postcode": "28594"}}},
{"geometry": {"type": "Point", "coordinates": [-77.0571896696, 34.6602062288]}, "type": "Feature", "properties": {"collection_times": [{"days": "Mon-Sat", "time": "10:00am"}, {"days": "Sun", "time": "Closed"}], "id": "2859400003", "name": "USPS COLLECTION BOX - BLUE BOX", "address": {"city": "EMERALD ISLE", "state": "NC", "street": "8700 EMERALD DR", "postcode": "28594"}}},
{"geometry": {"type": "Point", "coordinates": [-77.0338350412, 34.6639200431]}, "type": "Feature", "properties": {"collection_times": [{"days": "Mon-Fri", "time": "4:00pm"}, {"days": "Sat", "time": "12:00pm"}, {"days": "Sun", "time": "Closed"}], "id": "2859400004", "name": "USPS COLLECTION BOX - PO LOBBY", "address": {"city": "EMERALD ISLE", "state": "NC", "street": "142 EASTVIEW DR", "postcode": "28594"}}},
{"geometry": {"type": "Point", "coordinates": [-77.0338350411, 34.6639200427]}, "type": "Feature", "properties": {"collection_times": [{"days": "Mon-Fri", "time": "4:00pm"}, {"days": "Sat", "time": "12:00pm"}, {"days": "Sun", "time": "Closed"}], "id": "2859400005", "name": "USPS COLLECTION BOX - PO LOBBY", "address": {"city": "EMERALD ISLE", "state": "NC", "street": "142 EASTVIEW DR", "postcode": "28594"}}}
]}
