{"type": "FeatureCollection", "features": [
{"geometry": {"type": "Point", "coordinates": [-81.344494412, 35.734982205]}, "type": "Feature", "properties": {"collection_times": [{"days": "Mon-Fri", "time": "12:00pm"}, {"days": "Sat", "time": "11:00am"}, {"days": "Sun", "time": "Closed"}], "id": "2860100001", "name": "USPS COLLECTION BOX - BLUE BOX", "address": {"city": "HICKORY", "state": "NC", "street": "225 4TH ST NW", "postcode": "28601"}}},
{"geometry": {"type": "Point", "coordinates": [-81.344241494, 35.733153503]}, "type": "Feature", "properties": {"collection_times": [{"days": "Mon-Sat", "time": "9:00am"}, {"days": "Sun", "time": "Closed"}], "id": "2860100002", "name": "USPS COLLECTION BOX - BLUE BOX", "address": {"city": "HICKORY", "state": "NC", "street": "357 1ST AVE NW", "postcode": "28601"}}},
{"geometry": {"type": "Point", "coordinates": [-81.339808739, 35.732059577]}, "type": "Feature", "properties": {"collection_times": [{"days": "Mon-Fri", "time": "12:30pm"}, {"days": "Sat", "time": "11:00am"}, {"days": "Sun", "time": "Closed"}], "id": "2860100006", "name": "USPS COLLECTION BOX - BLUE BOX", "address": {"city": "HICKORY", "state": "NC", "street": "202 UNION SQ NW", "postcode": "28601"}}},
{"geometry": {"type": "Point", "coordinates": [-81.34151226, 35.732210928]}, "type": "Feature", "properties": {"collection_times": [{"days": "Mon-Sat", "time": "9:00am"}, {"days": "Sun", "time": "Closed"}], "id": "2860100007", "name": "USPS COLLECTION BOX - BLUE BOX", "address": {"city": "HICKORY", "state": "NC", "street": "256 UNION SQ NW", "postcode": "28601"}}},
{"geometry": {"type": "Point", "coordinates": [-81.339644682, 35.734680336]}, "type": "Feature", "properties": {"collection_times": [{"days": "Mon-Sat", "time": "9:00am"}, {"days": "Sun", "time": "Closed"}], "id": "2860100012", "name": "USPS COLLECTION BOX - BLUE BOX", "address": {"city": "HICKORY", "state": "NC", "street": "205 2ND ST NW", "postcode": "28601"}}},
{"geometry": {"type": "Point", "coordinates": [-81.341362658, 35.750483626]}, "type": "Feature", "properties": {"collection_times": [{"days": "Mon-Sat", "time": "9:15am"}, {"days": "Sun", "time": "Closed"}], "id": "2860100022", "name": "USPS COLLECTION BOX - BLUE BOX", "address": {"city": "HICKORY", "state": "NC", "street": "221 13TH AVENUE PL NW", "postcode": "28601"}}},
{"geometry": {"type": "Point", "coordinates": [-81.303359331, 35.743632452]}, "type": "Feature", "properties": {"collection_times": [{"days": "Mon-Fri", "time": "11:30am"}, {"days": "Sat", "time": "11:00am"}, {"days": "Sun", "time": "Closed"}], "id": "2860100041", "name": "USPS COLLECTION BOX - BLUE BOX", "address": {"city": "HICKORY", "state": "NC", "street": "1269 16TH ST NE", "postcode": "28601"}}},
{"geometry": {"type": "Point", "coordinates": [-81.324037198, 35.749820445]}, "type": "Feature", "properties": {"collection_times": [{"days": "Mon-Sat", "time": "9:00am"}, {"days": "Sun", "time": "Closed"}], "id": "2860100044", "name": "USPS COLLECTION BOX - BLUE BOX", "address": {"city": "HICKORY", "state": "NC", "street": "1330 5TH ST NE", "postcode": "28601"}}},
{"geometry": {"type": "Point", "coordinates": [-81.332814732, 35.764550292]}, "type": "Feature", "properties": {"collection_times": [{"days": "Mon-Fri", "time": "3:00pm"}, {"days": "Sat", "time": "11:00am"}, {"days": "Sun", "time": "Closed"}], "id": "2860100047", "name": "USPS COLLECTION BOX - BLUE BOX", "address": {"city": "HICKORY", "state": "NC", "street": "2421 N CENTER ST", "postcode": "28601"}}},
{"geometry": {"type": "Point", "coordinates": [-81.307349277, 35.815527822]}, "type": "Feature", "properties": {"collection_times": [{"days": "Mon-Fri", "time": "1:00pm"}, {"days": "Sat", "time": "11:00am"}, {"days": "Sun", "time": "Closed"}], "id": "2860100053", "name": "USPS COLLECTION BOX - BLUE BOX", "address": {"city": "HICKORY", "state": "NC", "street": "75 RINK DAM RD", "postcode": "28601"}}},
{"geometry": {"type": "Point", "coordinates": [-81.307349277, 35.815527822]}, "type": "Feature", "properties": {"collection_times": [{"days": "Mon-Fri", "time": "1:00pm"}, {"days": "Sat", "time": "11:00am"}, {"days": "Sun", "time": "Closed"}], "id": "2860100054", "name": "USPS COLLECTION BOX - BLUE BOX", "address": {"city": "HICKORY", "state": "NC", "street": "75 RINK DAM RD", "postcode": "28601"}}},
{"geometry": {"type": "Point", "coordinates": [-81.337291496, 35.734293382]}, "type": "Feature", "properties": {"collection_times": [{"days": "Mon-Fri", "time": "12:30pm"}, {"days": "Sat", "time": "11:00am"}, {"days": "Sun", "time": "Closed"}], "id": "2860100056", "name": "USPS COLLECTION BOX - BLUE BOX", "address": {"city": "HICKORY", "state": "NC", "street": "24 2ND AVE NE", "postcode": "28601"}}},
{"geometry": {"type": "Point", "coordinates": [-81.33771691, 35.737530033]}, "type": "Feature", "properties": {"collection_times": [{"days": "Mon-Fri", "time": "2:30pm"}, {"days": "Sat", "time": "11:00am"}, {"days": "Sun", "time": "Closed"}], "id": "2860100058", "name": "USPS COLLECTION BOX - BLUE BOX", "address": {"city": "HICKORY", "state": "NC", "street": "420 N CENTER ST STE 20 STE 20", "postcode": "28601"}}},
{"geometry": {"type": "Point", "coordinates": [-81.339960537, 35.735658207]}, "type": "Feature", "properties": {"collection_times": [{"days": "Mon-Sat", "time": "9:00am"}, {"days": "Sun", "time": "Closed"}], "id": "2860100060", "name": "USPS COLLECTION BOX - BLUE BOX", "address": {"city": "HICKORY", "state": "NC", "street": "212 3RD AVE NW", "postcode": "28601"}}},
{"geometry": {"type": "Point", "coordinates": [-81.33918197, 35.738422821]}, "type": "Feature", "properties": {"collection_times": [{"days": "Mon-Sat", "time": "9:15am"}, {"days": "Sun", "time": "Closed"}], "id": "2860100061", "name": "USPS COLLECTION BOX - BLUE BOX", "address": {"city": "HICKORY", "state": "NC", "street": "115 5TH AVE NW", "postcode": "28601"}}},
{"geometry": {"type": "Point", "coordinates": [-81.330524484, 35.734525321]}, "type": "Feature", "properties": {"collection_times": [{"days": "Mon-Sat", "time": "9:00am"}, {"days": "Sun", "time": "Closed"}], "id": "2860100071", "name": "USPS COLLECTION BOX - BLUE BOX", "address": {"city": "HICKORY", "state": "NC", "street": "612 3RD AVE NE", "postcode": "28601"}}},
{"geometry": {"type": "Point", "coordinates": [-81.325329784, 35.737373274]}, "type": "Feature", "properties": {"collection_times": [{"days": "Mon-Sat", "time": "9:00am"}, {"days": "Sun", "time": "Closed"}], "id": "2860100072", "name": "USPS COLLECTION BOX - BLUE BOX", "address": {"city": "HICKORY", "state": "NC", "street": "700 8TH ST NE", "postcode": "28601"}}},
{"geometry": {"type": "Point", "coordinates": [-81.367390681, 35.748770372]}, "type": "Feature", "properties": {"collection_times": [{"days": "Mon-Sat", "time": "9:00am"}, {"days": "Sun", "time": "Closed"}], "id": "2860100073", "name": "USPS COLLECTION BOX - BLUE BOX", "address": {"city": "HICKORY", "state": "NC", "street": "1300 US HIGHWAY 321 NW", "postcode": "28601"}}},
{"geometry": {"type": "Point", "coordinates": [-81.307683944, 35.740664066]}, "type": "Feature", "properties": {"collection_times": [{"days": "Mon-Sat", "time": "10:00am"}, {"days": "Sun", "time": "Closed"}], "id": "2860100085", "name": "USPS COLLECTION BOX - BLUE BOX", "address": {"city": "HICKORY", "state": "NC", "street": "933 15TH ST NE", "postcode": "28601"}}},
{"geometry": {"type": "Point", "coordinates": [-81.337784511, 35.737531198]}, "type": "Feature", "properties": {"collection_times": [{"days": "Mon-Fri", "time": "2:30pm"}, {"days": "Sat", "time": "11:00am"}, {"days": "Sun", "time": "Closed"}], "id": "2860100089", "name": "USPS COLLECTION BOX - BLUE BOX", "address": {"city": "HICKORY", "state": "NC", "street": "415 N CENTER ST", "postcode": "28601"}}},
{"geometry": {"type": "Point", "coordinates": [-81.363363021, 35.734883136]}, "type": "Feature", "properties": {"collection_times": [{"days": "Mon-Sat", "time": "9:00am"}, {"days": "Sun", "time": "Closed"}], "id": "2860100092", "name": "USPS COLLECTION BOX - BLUE BOX", "address": {"city": "HICKORY", "state": "NC", "street": "1437 2ND AVE NW", "postcode": "28601"}}},
{"geometry": {"type": "Point", "coordinates": [-81.36838388, 35.751862998]}, "type": "Feature", "properties": {"collection_times": [{"days": "Mon-Sat", "time": "11:00am"}, {"days": "Sun", "time": "Closed"}], "id": "2860100102", "name": "USPS COLLECTION BOX - BLUE BOX", "address": {"city": "HICKORY", "state": "NC", "street": "1410 OLD LENOIR RD", "postcode": "28601"}}},
{"geometry": {"type": "Point", "coordinates": [-81.341300886, 35.733407587]}, "type": "Feature", "properties": {"collection_times": [{"days": "Mon-Fri", "time": "12:00pm"}, {"days": "Sat", "time": "11:00am"}, {"days": "Sun", "time": "Closed"}], "id": "2860100103", "name": "USPS COLLECTION BOX - BLUE BOX", "address": {"city": "HICKORY", "state": "NC", "street": "248 1ST AVE NW", "postcode": "28601"}}},
{"geometry": {"type": "Point", "coordinates": [-81.329302504, 35.772865211]}, "type": "Feature", "properties": {"collection_times": [{"days": "Mon-Fri", "time": "12:00pm"}, {"days": "Sat", "time": "11:00am"}, {"days": "Sun", "time": "Closed"}], "id": "2860100113", "name": "USPS COLLECTION BOX - BLUE BOX", "address": {"city": "HICKORY", "state": "NC", "street": "3020 N CENTER ST", "postcode": "28601"}}},
{"geometry": {"type": "Point", "coordinates": [-81.367815547, 35.734639951]}, "type": "Feature", "properties": {"collection_times": [{"days": "Mon-Sat", "time": "11:00am"}, {"days": "Sun", "time": "Closed"}], "id": "2860100115", "name": "USPS COLLECTION BOX - BLUE BOX", "address": {"city": "HICKORY", "state": "NC", "street": "155 17TH ST NW", "postcode": "28601"}}},
{"geometry": {"type": "Point", "coordinates": [-81.332721414, 35.763523228]}, "type": "Feature", "properties": {"collection_times": [{"days": "Mon-Fri", "time": "3:00pm"}, {"days": "Sat", "time": "11:00am"}, {"days": "Sun", "time": "Closed"}], "id": "2860100123", "name": "USPS COLLECTION BOX - BLUE BOX", "address": {"city": "HICKORY", "state": "NC", "street": "2416 N CENTER ST", "postcode": "28601"}}},
{"geometry": {"type": "Point", "coordinates": [-81.331590738, 35.747010753]}, "type": "Feature", "properties": {"collection_times": [{"days": "Mon-Sat", "time": "10:00am"}, {"days": "Sun", "time": "Closed"}], "id": "2860100125", "name": "USPS COLLECTION BOX - BLUE BOX", "address": {"city": "HICKORY", "state": "NC", "street": "361 10TH AVENUE DR NE", "postcode": "28601"}}},
{"geometry": {"type": "Point", "coordinates": [-81.339577082, 35.733860975]}, "type": "Feature", "properties": {"collection_times": [{"days": "Mon-Sat", "time": "10:00am"}, {"days": "Sun", "time": "Closed"}], "id": "2860100127", "name": "USPS COLLECTION BOX - BLUE BOX", "address": {"city": "HICKORY", "state": "NC", "street": "106 2ND ST NW", "postcode": "28601"}}},
{"geometry": {"type": "Point", "coordinates": [-81.338173795, 35.74968408]}, "type": "Feature", "properties": {"collection_times": [{"days": "Mon-Sat", "time": "11:00am"}, {"days": "Sun", "time": "Closed"}], "id": "2860100130", "name": "USPS COLLECTION BOX - BLUE BOX", "address": {"city": "HICKORY", "state": "NC", "street": "1331 N CENTER ST", "postcode": "28601"}}},
{"geometry": {"type": "Point", "coordinates": [-81.354195011, 35.748970067]}, "type": "Feature", "properties": {"collection_times": [{"days": "Mon-Sat", "time": "9:00am"}, {"days": "Sun", "time": "Closed"}], "id": "2860100131", "name": "USPS COLLECTION BOX - BLUE BOX", "address": {"city": "HICKORY", "state": "NC", "street": "1209 10TH STREET BLVD NW", "postcode": "28601"}}},
{"geometry": {"type": "Point", "coordinates": [-81.302943013, 35.756029307]}, "type": "Feature", "properties": {"collection_times": [{"days": "Mon-Sat", "time": "9:00am"}, {"days": "Sun", "time": "Closed"}], "id": "2860100132", "name": "USPS COLLECTION BOX - BLUE BOX", "address": {"city": "HICKORY", "state": "NC", "street": "1655 20TH AVENUE DR NE", "postcode": "28601"}}},
{"geometry": {"type": "Point", "coordinates": [-81.340540967, 35.731393568]}, "type": "Feature", "properties": {"collection_times": [{"days": "Mon-Fri", "time": "5:00pm"}, {"days": "Sat", "time": "11:00am"}, {"days": "Sun", "time": "Closed"}], "id": "2860200002", "name": "USPS COLLECTION BOX - BLUE BOX", "address": {"city": "HICKORY", "state": "NC", "street": "231 GOVERNMENT AVE SW", "postcode": "28602"}}},
{"geometry": {"type": "Point", "coordinates": [-81.340540967, 35.731393568]}, "type": "Feature", "properties": {"collection_times": [{"days": "Mon-Fri", "time": "5:00pm"}, {"days": "Sat", "time": "11:00am"}, {"days": "Sun", "time": "Closed"}], "id": "2860200003", "name": "USPS COLLECTION BOX - BLUE BOX", "address": {"city": "HICKORY", "state": "NC", "street": "231 GOVERNMENT AVE SW", "postcode": "28602"}}},
{"geometry": {"type": "Point", "coordinates": [-81.303541522, 35.705904803]}, "type": "Feature", "properties": {"collection_times": [{"days": "Mon-Sat", "time": "11:00am"}, {"days": "Sun", "time": "Closed"}], "id": "2860200004", "name": "USPS COLLECTION BOX - BLUE BOX", "address": {"city": "HICKORY", "state": "NC", "street": "1940 US HIGHWAY 70 SE", "postcode": "28602"}}},
{"geometry": {"type": "Point", "coordinates": [-81.311951082, 35.710807004]}, "type": "Feature", "properties": {"collection_times": [{"days": "Mon-Sat", "time": "11:00am"}, {"days": "Sun", "time": "Closed"}], "id": "2860200016", "name": "USPS COLLECTION BOX - BLUE BOX", "address": {"city": "HICKORY", "state": "NC", "street": "1375 LENOIR RHYNE BLVD SE", "postcode": "28602"}}},
{"geometry": {"type": "Point", "coordinates": [-81.383595957, 35.729339364]}, "type": "Feature", "properties": {"collection_times": [{"days": "Mon-Fri", "time": "4:30pm"}, {"days": "Sat", "time": "11:00am"}, {"days": "Sun", "time": "Closed"}], "id": "2860200024", "name": "USPS COLLECTION BOX - BLUE BOX", "address": {"city": "HICKORY", "state": "NC", "street": "2637 1ST AVE SW", "postcode": "28602"}}},
{"geometry": {"type": "Point", "coordinates": [-81.297931102, 35.703746781]}, "type": "Feature", "properties": {"collection_times": [{"days": "Mon-Fri", "time": "1:30pm"}, {"days": "Sat", "time": "11:00am"}, {"days": "Sun", "time": "Closed"}], "id": "2860200030", "name": "USPS COLLECTION BOX - BLUE BOX", "address": {"city": "HICKORY", "state": "NC", "street": "2215 US HIGHWAY 70 SE", "postcode": "28602"}}},
{"geometry": {"type": "Point", "coordinates": [-81.32013387, 35.730193082]}, "type": "Feature", "properties": {"collection_times": [{"days": "Mon-Fri", "time": "2:00pm"}, {"days": "Sat", "time": "11:00am"}, {"days": "Sun", "time": "Closed"}], "id": "2860200032", "name": "USPS COLLECTION BOX - BLUE BOX", "address": {"city": "HICKORY", "state": "NC", "street": "910 TATE BLVD SE", "postcode": "28602"}}},
{"geometry": {"type": "Point", "coordinates": [-81.395541874, 35.72771402]}, "type": "Feature", "properties": {"collection_times": [{"days": "Mon-Fri", "time": "4:30pm"}, {"days": "Sat", "time": "11:00am"}, {"days": "Sun", "time": "Closed"}], "id": "2860200037", "name": "USPS COLLECTION BOX - BLUE BOX", "address": {"city": "HICKORY", "state": "NC", "street": "3509 1ST AVE SW", "postcode": "28602"}}},
{"geometry": {"type": "Point", "coordinates": [-81.37906258, 35.679806471]}, "type": "Feature", "properties": {"collection_times": [{"days": "Mon-Fri", "time": "5:00pm"}, {"days": "Sat", "time": "11:00am"}, {"days": "Sun", "time": "Closed"}], "id": "2860200038", "name": "USPS COLLECTION BOX - BLUE BOX", "address": {"city": "HICKORY", "state": "NC", "street": "3347 S NC 127 HWY", "postcode": "28602"}}},
{"geometry": {"type": "Point", "coordinates": [-81.323013871, 35.726531016]}, "type": "Feature", "properties": {"collection_times": [{"days": "Mon-Sat", "time": "9:30am"}, {"days": "Sun", "time": "Closed"}], "id": "2860200039", "name": "USPS COLLECTION BOX - BLUE BOX", "address": {"city": "HICKORY", "state": "NC", "street": "336 LENOIR RHYNE BLVD SE", "postcode": "28602"}}},
{"geometry": {"type": "Point", "coordinates": [-81.340540967, 35.731393568]}, "type": "Feature", "properties": {"collection_times": [{"days": "Mon-Fri", "time": "5:00pm"}, {"days": "Sat", "time": "11:00am"}, {"days": "Sun", "time": "Closed"}], "id": "2860200041", "name": "USPS COLLECTION BOX - PO LOBBY", "address": {"city": "HICKORY", "state": "NC", "street": "231 GOVERNMENT AVE SW", "postcode": "28602"}}},
{"geometry": {"type": "Point", "coordinates": [-81.352337199, 35.721533265]}, "type": "Feature", "properties": {"collection_times": [{"days": "Mon-Sat", "time": "10:00am"}, {"days": "Sun", "time": "Closed"}], "id": "2860200049", "name": "USPS COLLECTION BOX - BLUE BOX", "address": {"city": "HICKORY", "state": "NC", "street": "785 US HIGHWAY 70 SW", "postcode": "28602"}}},
{"geometry": {"type": "Point", "coordinates": [-81.314357404, 35.717843591]}, "type": "Feature", "properties": {"collection_times": [{"days": "Mon-Sat", "time": "10:00am"}, {"days": "Sun", "time": "Closed"}], "id": "2860200050", "name": "USPS COLLECTION BOX - BLUE BOX", "address": {"city": "HICKORY", "state": "NC", "street": "1132 LENOIR RHYNE BLVD SE", "postcode": "28602"}}},
{"geometry": {"type": "Point", "coordinates": [-81.308675994, 35.707997327]}, "type": "Feature", "properties": {"collection_times": [{"days": "Mon-Sat", "time": "10:30am"}, {"days": "Sun", "time": "Closed"}], "id": "2860200052", "name": "USPS COLLECTION BOX - BLUE BOX", "address": {"city": "HICKORY", "state": "NC", "street": "1736 US HIGHWAY 70 SE", "postcode": "28602"}}},
{"geometry": {"type": "Point", "coordinates": [-81.305947156, 35.728688395]}, "type": "Feature", "properties": {"collection_times": [{"days": "Mon-Fri", "time": "2:00pm"}, {"days": "Sat", "time": "11:00am"}, {"days": "Sun", "time": "Closed"}], "id": "2860200054", "name": "USPS COLLECTION BOX - BLUE BOX", "address": {"city": "HICKORY", "state": "NC", "street": "1899 TATE BLVD SE", "postcode": "28602"}}},
{"geometry": {"type": "Point", "coordinates": [-81.302638244, 35.728278132]}, "type": "Feature", "properties": {"collection_times": [{"days": "Mon-Fri", "time": "2:00pm"}, {"days": "Sat", "time": "11:00am"}, {"days": "Sun", "time": "Closed"}], "id": "2860200058", "name": "USPS COLLECTION BOX - BLUE BOX", "address": {"city": "HICKORY", "state": "NC", "street": "1985 TATE BLVD SE", "postcode": "28602"}}},
{"geometry": {"type": "Point", "coordinates": [-81.302638244, 35.728278132]}, "type": "Feature", "properties": {"collection_times": [{"days": "Mon-Fri", "time": "2:00pm"}, {"days": "Sat", "time": "11:00am"}, {"days": "Sun", "time": "Closed"}], "id": "2860200059", "name": "USPS COLLECTION BOX - BLUE BOX", "address": {"city": "HICKORY", "state": "NC", "street": "1985 TATE BLVD SE", "postcode": "28602"}}},
{"geometry": {"type": "Point", "coordinates": [-81.318877439, 35.730247861]}, "type": "Feature", "properties": {"collection_times": [{"days": "Mon-Fri", "time": "2:00pm"}, {"days": "Sat", "time": "11:00am"}, {"days": "Sun", "time": "Closed"}], "id": "2860200060", "name": "USPS COLLECTION BOX - BLUE BOX", "address": {"city": "HICKORY", "state": "NC", "street": "915 TATE BLVD SE", "postcode": "28602"}}},
{"geometry": {"type": "Point", "coordinates": [-81.265133954, 35.714445152]}, "type": "Feature", "properties": {"collection_times": [{"days": "Mon-Fri", "time": "2:30pm"}, {"days": "Sat", "time": "11:00am"}, {"days": "Sun", "time": "Closed"}], "id": "2860200061", "name": "USPS COLLECTION BOX - BLUE BOX", "address": {"city": "HICKORY", "state": "NC", "street": "810 FAIRGROVE CHURCH RD", "postcode": "28602"}}},
{"geometry": {"type": "Point", "coordinates": [-81.299882407, 35.704432648]}, "type": "Feature", "properties": {"collection_times": [{"days": "Mon-Sat", "time": "11:00am"}, {"days": "Sun", "time": "Closed"}], "id": "2860200062", "name": "USPS COLLECTION BOX - BLUE BOX", "address": {"city": "HICKORY", "state": "NC", "street": "2134 US HIGHWAY 70 SE", "postcode": "28602"}}},
{"geometry": {"type": "Point", "coordinates": [-81.313108114, 35.718541375]}, "type": "Feature", "properties": {"collection_times": [{"days": "Mon-Fri", "time": "1:30pm"}, {"days": "Sat", "time": "11:00am"}, {"days": "Sun", "time": "Closed"}], "id": "2860200063", "name": "USPS COLLECTION BOX - BLUE BOX", "address": {"city": "HICKORY", "state": "NC", "street": "1091 13TH ST SE", "postcode": "28602"}}},
{"geometry": {"type": "Point", "coordinates": [-81.345435534, 35.722378632]}, "type": "Feature", "properties": {"collection_times": [{"days": "Mon-Fri", "time": "1:00pm"}, {"days": "Sat", "time": "11:00am"}, {"days": "Sun", "time": "Closed"}], "id": "2860200065", "name": "USPS COLLECTION BOX - BLUE BOX", "address": {"city": "HICKORY", "state": "NC", "street": "752 4TH ST SW", "postcode": "28602"}}},
{"geometry": {"type": "Point", "coordinates": [-81.340540967, 35.731393568]}, "type": "Feature", "properties": {"collection_times": [{"days": "Mon-Fri", "time": "5:00pm"}, {"days": "Sat", "time": "11:00am"}, {"days": "Sun", "time": "Closed"}], "id": "2860200068", "name": "USPS COLLECTION BOX - BLUE BOX", "address": {"city": "HICKORY", "state": "NC", "street": "231 GOVERNMENT AVE SW", "postcode": "28602"}}},
{"geometry": {"type": "Point", "coordinates": [-81.356712628, 35.691898904]}, "type": "Feature", "properties": {"collection_times": [{"days": "Mon-Fri", "time": "3:00pm"}, {"days": "Sat", "time": "12:00pm"}, {"days": "Sun", "time": "Closed"}], "id": "2860200069", "name": "USPS COLLECTION BOX - BLUE BOX", "address": {"city": "HICKORY", "state": "NC", "street": "2645 S NC 127 HWY", "postcode": "28602"}}},
{"geometry": {"type": "Point", "coordinates": [-81.339727799, 35.737851257]}, "type": "Feature", "properties": {"collection_times": [{"days": "Mon-Sat", "time": "3:00pm"}, {"days": "Sun", "time": "Closed"}], "id": "2860300091", "name": "USPS COLLECTION BOX - BLUE BOX", "address": {"city": "HICKORY", "state": "NC", "street": "110 SOMERSET DR", "postcode": "28603"}}},
{"geometry": {"type": "Point", "coordinates": [-81.871832752, 36.161773864]}, "type": "Feature", "properties": {"collection_times": [{"days": "Mon-Fri", "time": "4:00pm"}, {"days": "Sat", "time": "10:00am"}, {"days": "Sun", "time": "Closed"}], "id": "2860400001", "name": "USPS COLLECTION BOX - PO LOBBY", "address": {"city": "BANNER ELK", "state": "NC", "street": "155 CENTRAL WAY SW", "postcode": "28604"}}},
{"geometry": {"type": "Point", "coordinates": [-81.871832752, 36.161773864]}, "type": "Feature", "properties": {"collection_times": [{"days": "Mon-Fri", "time": "4:00pm"}, {"days": "Sat", "time": "10:00am"}, {"days": "Sun", "time": "Closed"}], "id": "2860400002", "name": "USPS COLLECTION BOX - BLUE BOX", "address": {"city": "BANNER ELK", "state": "NC", "street": "155 CENTRAL WAY SW", "postcode": "28604"}}},
{"geometry": {"type": "Point", "coordinates": [-81.877595228, 36.164773472]}, "type": "Feature", "properties": {"collection_times": [{"days": "Mon-Sat", "time": "10:00am"}, {"days": "Sun", "time": "Closed"}], "id": "2860400005", "name": "USPS COLLECTION BOX - BLUE BOX", "address": {"city": "BANNER ELK", "state": "NC", "street": "403 BEECH MOUNTAIN PKWY", "postcode": "28604"}}},
{"geometry": {"type": "Point", "coordinates": [-81.842145201, 36.121651605]}, "type": "Feature", "properties": {"collection_times": [{"days": "Mon-Sat", "time": "10:30am"}, {"days": "Sun", "time": "Closed"}], "id": "2860400009", "name": "USPS COLLECTION BOX - BLUE BOX", "address": {"city": "BANNER ELK", "state": "NC", "street": "4547 TYNECASTLE HWY", "postcode": "28604"}}},
{"geometry": {"type": "Point", "coordinates": [-81.786382646, 36.155091279]}, "type": "Feature", "properties": {"collection_times": [{"days": "Mon-Sat", "time": "9:30am"}, {"days": "Sun", "time": "Closed"}], "id": "2860400010", "name": "USPS COLLECTION BOX - BLUE BOX", "address": {"city": "BANNER ELK", "state": "NC", "street": "9855 NC HIGHWAY 105 S", "postcode": "28604"}}},
{"geometry": {"type": "Point", "coordinates": [-81.677904853, 36.134424968]}, "type": "Feature", "properties": {"collection_times": [{"days": "Mon-Fri", "time": "4:30pm"}, {"days": "Sat", "time": "10:30am"}, {"days": "Sun", "time": "Closed"}], "id": "2860500002", "name": "USPS COLLECTION BOX - BLUE BOX", "address": {"city": "BLOWING ROCK", "state": "NC", "street": "977 MAIN ST", "postcode": "28605"}}},
{"geometry": {"type": "Point", "coordinates": [-81.677904853, 36.134424968]}, "type": "Feature", "properties": {"collection_times": [{"days": "Mon-Fri", "time": "4:30pm"}, {"days": "Sat", "time": "10:30am"}, {"days": "Sun", "time": "Closed"}], "id": "2860500004", "name": "USPS COLLECTION BOX - PO LOBBY", "address": {"city": "BLOWING ROCK", "state": "NC", "street": "977 MAIN ST", "postcode": "28605"}}},
{"geometry": {"type": "Point", "coordinates": [-81.254551096, 36.067690571]}, "type": "Feature", "properties": {"collection_times": [{"days": "Mon-Fri", "time": "4:15pm"}, {"days": "Sat", "time": "10:30am"}, {"days": "Sun", "time": "Closed"}], "id": "2860600001", "name": "USPS COLLECTION BOX - BLUE BOX", "address": {"city": "BOOMER", "state": "NC", "street": "2716 BOOMER RD", "postcode": "28606"}}},
{"geometry": {"type": "Point", "coordinates": [-81.254551096, 36.067690571]}, "type": "Feature", "properties": {"collection_times": [{"days": "Mon-Fri", "time": "4:15pm"}, {"days": "Sat", "time": "10:30am"}, {"days": "Sun", "time": "Closed"}], "id": "2860600002", "name": "USPS COLLECTION BOX - PO LOBBY", "address": {"city": "BOOMER", "state": "NC", "street": "2716 BOOMER RD", "postcode": "28606"}}},
{"geometry": {"type": "Point", "coordinates": [-81.661505465, 36.200966578]}, "type": "Feature", "properties": {"collection_times": [{"days": "Mon-Fri", "time": "5:00pm"}, {"days": "Sat", "time": "4:00pm"}, {"days": "Sun", "time": "Closed"}], "id": "2860700001", "name": "USPS COLLECTION BOX - BLUE BOX", "address": {"city": "BOONE", "state": "NC", "street": "1544 BLOWING ROCK RD", "postcode": "28607"}}},
{"geometry": {"type": "Point", "coordinates": [-81.658100641, 36.196490336]}, "type": "Feature", "properties": {"collection_times": [{"days": "Mon-Sat", "time": "10:00am"}, {"days": "Sun", "time": "Closed"}], "id": "2860700003", "name": "USPS COLLECTION BOX - BLUE BOX", "address": {"city": "BOONE", "state": "NC", "street": "276 WATAUGA VILLAGE DR", "postcode": "28607"}}},
{"geometry": {"type": "Point", "coordinates": [-81.668873885, 36.198747427]}, "type": "Feature", "properties": {"collection_times": [{"days": "Mon-Sat", "time": "12:00pm"}, {"days": "Sun", "time": "Closed"}], "id": "2860700005", "name": "USPS COLLECTION BOX - BLUE BOX", "address": {"city": "BOONE", "state": "NC", "street": "643 GREENWAY RD", "postcode": "28607"}}},
{"geometry": {"type": "Point", "coordinates": [-81.663682657, 36.199599422]}, "type": "Feature", "properties": {"collection_times": [{"days": "Mon-Sat", "time": "9:15am"}, {"days": "Sun", "time": "Closed"}], "id": "2860700006", "name": "USPS COLLECTION BOX - BLUE BOX", "address": {"city": "BOONE", "state": "NC", "street": "314 MEADOWVIEW DR", "postcode": "28607"}}},
{"geometry": {"type": "Point", "coordinates": [-81.65236662, 36.198668171]}, "type": "Feature", "properties": {"collection_times": [{"days": "Mon-Sat", "time": "10:30am"}, {"days": "Sun", "time": "Closed"}], "id": "2860700007", "name": "USPS COLLECTION BOX - BLUE BOX", "address": {"city": "BOONE", "state": "NC", "street": "336 DEERFIELD RD", "postcode": "28607"}}},
{"geometry": {"type": "Point", "coordinates": [-81.667012549, 36.203944482]}, "type": "Feature", "properties": {"collection_times": [{"days": "Mon-Sat", "time": "12:00pm"}, {"days": "Sun", "time": "Closed"}], "id": "2860700009", "name": "USPS COLLECTION BOX - BLUE BOX", "address": {"city": "BOONE", "state": "NC", "street": "1180 BLOWING ROCK RD", "postcode": "28607"}}},
{"geometry": {"type": "Point", "coordinates": [-81.670366917, 36.20614615]}, "type": "Feature", "properties": {"collection_times": [{"days": "Mon-Sat", "time": "11:30am"}, {"days": "Sun", "time": "Closed"}], "id": "2860700010", "name": "USPS COLLECTION BOX - BLUE BOX", "address": {"city": "BOONE", "state": "NC", "street": "958 BLOWING ROCK RD", "postcode": "28607"}}},
{"geometry": {"type": "Point", "coordinates": [-81.696471077, 36.205614672]}, "type": "Feature", "properties": {"collection_times": [{"days": "Mon-Sat", "time": "9:00am"}, {"days": "Sun", "time": "Closed"}], "id": "2860700014", "name": "USPS COLLECTION BOX - BLUE BOX", "address": {"city": "BOONE", "state": "NC", "street": "2575 HIGHWAY 105", "postcode": "28607"}}},
{"geometry": {"type": "Point", "coordinates": [-81.662383149, 36.202807985]}, "type": "Feature", "properties": {"collection_times": [{"days": "Mon-Sat", "time": "9:00am"}, {"days": "Sun", "time": "Closed"}], "id": "2860700015", "name": "USPS COLLECTION BOX - BLUE BOX", "address": {"city": "BOONE", "state": "NC", "street": "240 SHADOWLINE DR", "postcode": "28607"}}},
{"geometry": {"type": "Point", "coordinates": [-81.68435639, 36.218981758]}, "type": "Feature", "properties": {"collection_times": [{"days": "Mon-Sat", "time": "10:00am"}, {"days": "Sun", "time": "Closed"}], "id": "2860700017", "name": "USPS COLLECTION BOX - BLUE BOX", "address": {"city": "BOONE", "state": "NC", "street": "680 W KING ST", "postcode": "28607"}}},
{"geometry": {"type": "Point", "coordinates": [-81.685374158, 36.219475041]}, "type": "Feature", "properties": {"collection_times": [{"days": "Mon-Sat", "time": "10:00am"}, {"days": "Sun", "time": "Closed"}], "id": "2860700018", "name": "USPS COLLECTION BOX - BLUE BOX", "address": {"city": "BOONE", "state": "NC", "street": "743 W KING ST", "postcode": "28607"}}},
{"geometry": {"type": "Point", "coordinates": [-81.683406759, 36.218336327]}, "type": "Feature", "properties": {"collection_times": [{"days": "Mon-Sat", "time": "10:00am"}, {"days": "Sun", "time": "Closed"}], "id": "2860700019", "name": "USPS COLLECTION BOX - BLUE BOX", "address": {"city": "BOONE", "state": "NC", "street": "607 W KING ST", "postcode": "28607"}}},
{"geometry": {"type": "Point", "coordinates": [-81.691490668, 36.220746049]}, "type": "Feature", "properties": {"collection_times": [{"days": "Mon-Fri", "time": "11:15am"}, {"days": "Sat-Sun", "time": "Closed"}], "id": "2860700021", "name": "USPS COLLECTION BOX - BLUE BOX", "address": {"city": "BOONE", "state": "NC", "street": "132 POPLAR GROVE CONNECTOR", "postcode": "28607"}}},
{"geometry": {"type": "Point", "coordinates": [-81.662284, 36.219682835]}, "type": "Feature", "properties": {"collection_times": [{"days": "Mon-Sat", "time": "10:00am"}, {"days": "Sun", "time": "Closed"}], "id": "2860700022", "name": "USPS COLLECTION BOX - BLUE BOX", "address": {"city": "BOONE", "state": "NC", "street": "235 NEW MARKET CTR", "postcode": "28607"}}},
{"geometry": {"type": "Point", "coordinates": [-81.646732495, 36.22115106]}, "type": "Feature", "properties": {"collection_times": [{"days": "Mon-Sat", "time": "12:00pm"}, {"days": "Sun", "time": "Closed"}], "id": "2860700023", "name": "USPS COLLECTION BOX - BLUE BOX", "address": {"city": "BOONE", "state": "NC", "street": "157 INDUSTRIAL PARK DR", "postcode": "28607"}}},
{"geometry": {"type": "Point", "coordinates": [-81.658554368, 36.203946813]}, "type": "Feature", "properties": {"collection_times": [{"days": "Mon-Sat", "time": "9:30am"}, {"days": "Sun", "time": "Closed"}], "id": "2860700024", "name": "USPS COLLECTION BOX - BLUE BOX", "address": {"city": "BOONE", "state": "NC", "street": "400 SHADOWLINE DR", "postcode": "28607"}}},
{"geometry": {"type": "Point", "coordinates": [-81.661505465, 36.200966578]}, "type": "Feature", "properties": {"collection_times": [{"days": "Mon-Fri", "time": "5:00pm"}, {"days": "Sat", "time": "4:00pm"}, {"days": "Sun", "time": "Closed"}], "id": "2860700026", "name": "USPS COLLECTION BOX - PO LOBBY", "address": {"city": "BOONE", "state": "NC", "street": "1544 BLOWING ROCK RD", "postcode": "28607"}}},
{"geometry": {"type": "Point", "coordinates": [-81.68435639, 36.218981758]}, "type": "Feature", "properties": {"collection_times": [{"days": "Mon-Fri", "time": "4:00pm"}, {"days": "Sat-Sun", "time": "Closed"}], "id": "2860700029", "name": "USPS COLLECTION BOX - PO LOBBY", "address": {"city": "BOONE", "state": "NC", "street": "680 W KING ST", "postcode": "28607"}}},
{"geometry": {"type": "Point", "coordinates": [-81.074894396, 35.707453779]}, "type": "Feature", "properties": {"collection_times": [{"days": "Mon-Fri", "time": "5:00pm"}, {"days": "Sat", "time": "12:00pm"}, {"days": "Sun", "time": "Closed"}], "id": "2860900001", "name": "USPS COLLECTION BOX - PO LOBBY", "address": {"city": "CATAWBA", "state": "NC", "street": "100 E CENTRAL AVE", "postcode": "28609"}}},
{"geometry": {"type": "Point", "coordinates": [-81.074894396, 35.707453779]}, "type": "Feature", "properties": {"collection_times": [{"days": "Mon-Fri", "time": "4:30pm"}, {"days": "Sat", "time": "12:00pm"}, {"days": "Sun", "time": "Closed"}], "id": "2860900002", "name": "USPS COLLECTION BOX - BLUE BOX", "address": {"city": "CATAWBA", "state": "NC", "street": "100 E CENTRAL AVE", "postcode": "28609"}}},
{"geometry": {"type": "Point", "coordinates": [-81.144411487, 35.715624345]}, "type": "Feature", "properties": {"collection_times": [{"days": "Mon-Fri", "time": "4:30pm"}, {"days": "Sat", "time": "11:30am"}, {"days": "Sun", "time": "Closed"}], "id": "2861000001", "name": "USPS COLLECTION BOX - BLUE BOX", "address": {"city": "CLAREMONT", "state": "NC", "street": "3327 E MAIN ST", "postcode": "28610"}}},
{"geometry": {"type": "Point", "coordinates": [-81.144411487, 35.715624345]}, "type": "Feature", "properties": {"collection_times": [{"days": "Mon-Fri", "time": "4:30pm"}, {"days": "Sat", "time": "11:30am"}, {"days": "Sun", "time": "Closed"}], "id": "2861000002", "name": "USPS COLLECTION BOX - PO LOBBY", "address": {"city": "CLAREMONT", "state": "NC", "street": "3327 E MAIN ST", "postcode": "28610"}}},
{"geometry": {"type": "Point", "coordinates": [-81.675185178, 35.925833836]}, "type": "Feature", "properties": {"collection_times": [{"days": "Mon-Fri", "time": "4:30pm"}, {"days": "Sat", "time": "12:00pm"}, {"days": "Sun", "time": "Closed"}], "id": "2861100001", "name": "USPS COLLECTION BOX - BLUE BOX", "address": {"city": "COLLETTSVILLE", "state": "NC", "street": "4323 COLLETTSVILLE RD", "postcode": "28611"}}},
{"geometry": {"type": "Point", "coordinates": [-81.675185178, 35.925833836]}, "type": "Feature", "properties": {"collection_times": [{"days": "Mon-Fri", "time": "4:30pm"}, {"days": "Sat", "time": "12:00pm"}, {"days": "Sun", "time": "Closed"}], "id": "2861100002", "name": "USPS COLLECTION BOX - PO LOBBY", "address": {"city": "COLLETTSVILLE", "state": "NC", "street": "4323 COLLETTSVILLE RD", "postcode": "28611"}}},
{"geometry": {"type": "Point", "coordinates": [-81.503101922, 35.740687427]}, "type": "Feature", "properties": {"collection_times": [{"days": "Mon-Fri", "time": "4:00pm"}, {"days": "Sat", "time": "10:30am"}, {"days": "Sun", "time": "Closed"}], "id": "2861200001", "name": "USPS COLLECTION BOX - BLUE BOX", "address": {"city": "CONNELLYS SPG", "state": "NC", "street": "1015 US HIGHWAY 70", "postcode": "28612"}}},
{"geometry": {"type": "Point", "coordinates": [-81.503101922, 35.740687427]}, "type": "Feature", "properties": {"collection_times": [{"days": "Mon-Fri", "time": "4:00pm"}, {"days": "Sat", "time": "10:30am"}, {"days": "Sun", "time": "Closed"}], "id": "2861200002", "name": "USPS COLLECTION BOX - PO LOBBY", "address": {"city": "CONNELLYS SPG", "state": "NC", "street": "1015 US HIGHWAY 70", "postcode": "28612"}}},
{"geometry": {"type": "Point", "coordinates": [-81.5858924, 35.588426739]}, "type": "Feature", "properties": {"collection_times": [{"days": "Mon-Sat", "time": "10:30am"}, {"days": "Sun", "time": "Closed"}], "id": "2861200003", "name": "USPS COLLECTION BOX - BLUE BOX", "address": {"city": "CONNELLYS SPG", "state": "NC", "street": "8456 WARDS GAP RD", "postcode": "28612"}}},
{"geometry": {"type": "Point", "coordinates": [-81.217572184, 35.70590521]}, "type": "Feature", "properties": {"collection_times": [{"days": "Mon-Fri", "time": "5:00pm"}, {"days": "Sat", "time": "10:00am"}, {"days": "Sun", "time": "Closed"}], "id": "2861300001", "name": "USPS COLLECTION BOX - BLUE BOX", "address": {"city": "CONOVER", "state": "NC", "street": "201 1ST ST E", "postcode": "28613"}}},
{"geometry": {"type": "Point", "coordinates": [-81.217572184, 35.70590521]}, "type": "Feature", "properties": {"collection_times": [{"days": "Mon-Fri", "time": "5:00pm"}, {"days": "Sat", "time": "10:00am"}, {"days": "Sun", "time": "Closed"}], "id": "2861300002", "name": "USPS COLLECTION BOX - BLUE BOX", "address": {"city": "CONOVER", "state": "NC", "street": "201 1ST ST E", "postcode": "28613"}}},
{"geometry": {"type": "Point", "coordinates": [-81.218527677, 35.706404267]}, "type": "Feature", "properties": {"collection_times": [{"days": "Mon-Sat", "time": "9:00am"}, {"days": "Sun", "time": "Closed"}], "id": "2861300004", "name": "USPS COLLECTION BOX - BLUE BOX", "address": {"city": "CONOVER", "state": "NC", "street": "100 1ST AVE S", "postcode": "28613"}}},
{"geometry": {"type": "Point", "coordinates": [-81.223759615, 35.69721841]}, "type": "Feature", "properties": {"collection_times": [{"days": "Mon-Sat", "time": "9:30am"}, {"days": "Sun", "time": "Closed"}], "id": "2861300010", "name": "USPS COLLECTION BOX - BLUE BOX", "address": {"city": "CONOVER", "state": "NC", "street": "420 CONOVER BLVD W", "postcode": "28613"}}},
{"geometry": {"type": "Point", "coordinates": [-81.230800229, 35.716373507]}, "type": "Feature", "properties": {"collection_times": [{"days": "Mon-Sat", "time": "1:00pm"}, {"days": "Sun", "time": "Closed"}], "id": "2861300011", "name": "USPS COLLECTION BOX - BLUE BOX", "address": {"city": "CONOVER", "state": "NC", "street": "508 10TH ST NW", "postcode": "28613"}}},
{"geometry": {"type": "Point", "coordinates": [-81.264320596, 35.700447836]}, "type": "Feature", "properties": {"collection_times": [{"days": "Mon-Sat", "time": "10:00am"}, {"days": "Sun", "time": "Closed"}], "id": "2861300012", "name": "USPS COLLECTION BOX - BLUE BOX", "address": {"city": "CONOVER", "state": "NC", "street": "3305 16TH AVE SE", "postcode": "28613"}}},
{"geometry": {"type": "Point", "coordinates": [-81.222258131, 35.719385211]}, "type": "Feature", "properties": {"collection_times": [{"days": "Mon-Sat", "time": "11:30am"}, {"days": "Sun", "time": "Closed"}], "id": "2861300013", "name": "USPS COLLECTION BOX - BLUE BOX", "address": {"city": "CONOVER", "state": "NC", "street": "301 10TH ST NW", "postcode": "28613"}}},
{"geometry": {"type": "Point", "coordinates": [-81.217572184, 35.70590521]}, "type": "Feature", "properties": {"collection_times": [{"days": "Mon-Fri", "time": "5:00pm"}, {"days": "Sat", "time": "10:00am"}, {"days": "Sun", "time": "Closed"}], "id": "2861300014", "name": "USPS COLLECTION BOX - PO LOBBY", "address": {"city": "CONOVER", "state": "NC", "street": "201 1ST ST E", "postcode": "28613"}}},
{"geometry": {"type": "Point", "coordinates": [-81.256947514, 35.698207706]}, "type": "Feature", "properties": {"collection_times": [{"days": "Mon-Sat", "time": "9:00am"}, {"days": "Sun", "time": "Closed"}], "id": "2861300015", "name": "USPS COLLECTION BOX - BLUE BOX", "address": {"city": "CONOVER", "state": "NC", "street": "1220 COMMERCE ST SW", "postcode": "28613"}}},
{"geometry": {"type": "Point", "coordinates": [-81.621744903, 36.424598469]}, "type": "Feature", "properties": {"collection_times": [{"days": "Mon-Fri", "time": "3:45pm"}, {"days": "Sat", "time": "10:30am"}, {"days": "Sun", "time": "Closed"}], "id": "2861500001", "name": "USPS COLLECTION BOX - PO LOBBY", "address": {"city": "CRESTON", "state": "NC", "street": "636 THREE TOP RD", "postcode": "28615"}}},
{"geometry": {"type": "Point", "coordinates": [-81.621744903, 36.424598469]}, "type": "Feature", "properties": {"collection_times": [{"days": "Mon-Fri", "time": "3:45pm"}, {"days": "Sat", "time": "10:30am"}, {"days": "Sun", "time": "Closed"}], "id": "2861500002", "name": "USPS COLLECTION BOX - BLUE BOX", "address": {"city": "CRESTON", "state": "NC", "street": "636 THREE TOP RD", "postcode": "28615"}}},
{"geometry": {"type": "Point", "coordinates": [-81.930828153, 36.022482655]}, "type": "Feature", "properties": {"collection_times": [{"days": "Mon-Fri", "time": "4:00pm"}, {"days": "Sat", "time": "12:00pm"}, {"days": "Sun", "time": "Closed"}], "id": "2861600001", "name": "USPS COLLECTION BOX - BLUE BOX", "address": {"city": "CROSSNORE", "state": "NC", "street": "3 FOUNTAIN CIR", "postcode": "28616"}}},
{"geometry": {"type": "Point", "coordinates": [-81.930828153, 36.022482655]}, "type": "Feature", "properties": {"collection_times": [{"days": "Mon-Fri", "time": "4:00pm"}, {"days": "Sat", "time": "12:00pm"}, {"days": "Sun", "time": "Closed"}], "id": "2861600002", "name": "USPS COLLECTION BOX - PO LOBBY", "address": {"city": "CROSSNORE", "state": "NC", "street": "3 FOUNTAIN CIR", "postcode": "28616"}}},
{"geometry": {"type": "Point", "coordinates": [-81.390572094, 36.503201164]}, "type": "Feature", "properties": {"collection_times": [{"days": "Mon-Fri", "time": "4:00pm"}, {"days": "Sat", "time": "10:15am"}, {"days": "Sun", "time": "Closed"}], "id": "2861700001", "name": "USPS COLLECTION BOX - BLUE BOX", "address": {"city": "CRUMPLER", "state": "NC", "street": "9247 OLD HIGHWAY 16", "postcode": "28617"}}},
{"geometry": {"type": "Point", "coordinates": [-81.522992765, 36.238890945]}, "type": "Feature", "properties": {"collection_times": [{"days": "Mon-Fri", "time": "4:30pm"}, {"days": "Sat", "time": "10:00am"}, {"days": "Sun", "time": "Closed"}], "id": "2861800001", "name": "USPS COLLECTION BOX - BLUE BOX", "address": {"city": "DEEP GAP", "state": "NC", "street": "7378 OLD 421 S", "postcode": "28618"}}},
{"geometry": {"type": "Point", "coordinates": [-81.522992765, 36.238890945]}, "type": "Feature", "properties": {"collection_times": [{"days": "Mon-Fri", "time": "4:30pm"}, {"days": "Sat", "time": "10:00am"}, {"days": "Sun", "time": "Closed"}], "id": "2861800003", "name": "USPS COLLECTION BOX - PO LOBBY", "address": {"city": "DEEP GAP", "state": "NC", "street": "7378 OLD 421 S", "postcode": "28618"}}},
{"geometry": {"type": "Point", "coordinates": [-81.605599864, 35.756938186]}, "type": "Feature", "properties": {"collection_times": [{"days": "Mon-Fri", "time": "4:00pm"}, {"days": "Sat", "time": "11:45am"}, {"days": "Sun", "time": "Closed"}], "id": "2861900001", "name": "USPS COLLECTION BOX - BLUE BOX", "address": {"city": "DREXEL", "state": "NC", "street": "200 CHURCH ST", "postcode": "28619"}}},
{"geometry": {"type": "Point", "coordinates": [-81.605599864, 35.756938186]}, "type": "Feature", "properties": {"collection_times": [{"days": "Mon-Fri", "time": "4:00pm"}, {"days": "Sat", "time": "11:45am"}, {"days": "Sun", "time": "Closed"}], "id": "2861900002", "name": "USPS COLLECTION BOX - PO LOBBY", "address": {"city": "DREXEL", "state": "NC", "street": "200 CHURCH ST", "postcode": "28619"}}},
{"geometry": {"type": "Point", "coordinates": [-80.852693854, 36.28737605]}, "type": "Feature", "properties": {"collection_times": [{"days": "Mon-Sat", "time": "11:30am"}, {"days": "Sun", "time": "Closed"}], "id": "2862100008", "name": "USPS COLLECTION BOX - BLUE BOX", "address": {"city": "ELKIN", "state": "NC", "street": "2125 N BRIDGE ST", "postcode": "28621"}}},
{"geometry": {"type": "Point", "coordinates": [-80.853010569, 36.273804738]}, "type": "Feature", "properties": {"collection_times": [{"days": "Mon-Sat", "time": "12:00pm"}, {"days": "Sun", "time": "Closed"}], "id": "2862100009", "name": "USPS COLLECTION BOX - BLUE BOX", "address": {"city": "ELKIN", "state": "NC", "street": "1631 N BRIDGE ST", "postcode": "28621"}}},
{"geometry": {"type": "Point", "coordinates": [-80.851057373, 36.245678271]}, "type": "Feature", "properties": {"collection_times": [{"days": "Mon-Sat", "time": "3:00pm"}, {"days": "Sun", "time": "Closed"}], "id": "2862100014", "name": "USPS COLLECTION BOX - BLUE BOX", "address": {"city": "ELKIN", "state": "NC", "street": "226 N BRIDGE ST", "postcode": "28621"}}},
{"geometry": {"type": "Point", "coordinates": [-80.851504932, 36.243977776]}, "type": "Feature", "properties": {"collection_times": [{"days": "Mon-Sat", "time": "3:00pm"}, {"days": "Sun", "time": "Closed"}], "id": "2862100015", "name": "USPS COLLECTION BOX - BLUE BOX", "address": {"city": "ELKIN", "state": "NC", "street": "102 W MAIN ST", "postcode": "28621"}}},
{"geometry": {"type": "Point", "coordinates": [-80.852816143, 36.243723692]}, "type": "Feature", "properties": {"collection_times": [{"days": "Mon-Fri", "time": "5:00pm"}, {"days": "Sat", "time": "4:00pm"}, {"days": "Sun", "time": "Closed"}], "id": "2862100016", "name": "USPS COLLECTION BOX - BLUE BOX", "address": {"city": "ELKIN", "state": "NC", "street": "213 W MAIN ST", "postcode": "28621"}}},
{"geometry": {"type": "Point", "coordinates": [-80.85333713, 36.271473567]}, "type": "Feature", "properties": {"collection_times": [{"days": "Mon-Sat", "time": "12:00pm"}, {"days": "Sun", "time": "Closed"}], "id": "2862100020", "name": "USPS COLLECTION BOX - BLUE BOX", "address": {"city": "ELKIN", "state": "NC", "street": "1500 N BRIDGE ST", "postcode": "28621"}}},
{"geometry": {"type": "Point", "coordinates": [-80.8381842, 36.262525868]}, "type": "Feature", "properties": {"collection_times": [{"days": "Mon-Sat", "time": "12:00pm"}, {"days": "Sun", "time": "Closed"}], "id": "2862100023", "name": "USPS COLLECTION BOX - BLUE BOX", "address": {"city": "ELKIN", "state": "NC", "street": "180 PARKWOOD DR", "postcode": "28621"}}},
{"geometry": {"type": "Point", "coordinates": [-80.852816143, 36.243723692]}, "type": "Feature", "properties": {"collection_times": [{"days": "Mon-Fri", "time": "5:00pm"}, {"days": "Sat", "time": "4:00pm"}, {"days": "Sun", "time": "Closed"}], "id": "2862100024", "name": "USPS COLLECTION BOX - PO LOBBY", "address": {"city": "ELKIN", "state": "NC", "street": "213 W MAIN ST", "postcode": "28621"}}},
{"geometry": {"type": "Point", "coordinates": [-80.848159888, 36.256904563]}, "type": "Feature", "properties": {"collection_times": [{"days": "Mon-Sat", "time": "12:00pm"}, {"days": "Sun", "time": "Closed"}], "id": "2862100025", "name": "USPS COLLECTION BOX - BLUE BOX", "address": {"city": "ELKIN", "state": "NC", "street": "811 N BRIDGE ST", "postcode": "28621"}}},
{"geometry": {"type": "Point", "coordinates": [-80.842642316, 36.273590152]}, "type": "Feature", "properties": {"collection_times": [{"days": "Mon-Sat", "time": "11:30am"}, {"days": "Sun", "time": "Closed"}], "id": "2862100026", "name": "USPS COLLECTION BOX - BLUE BOX", "address": {"city": "ELKIN", "state": "NC", "street": "985 JOHNSON RIDGE RD", "postcode": "28621"}}},
{"geometry": {"type": "Point", "coordinates": [-81.980290832, 36.157750555]}, "type": "Feature", "properties": {"collection_times": [{"days": "Mon-Fri", "time": "4:00pm"}, {"days": "Sat", "time": "10:45am"}, {"days": "Sun", "time": "Closed"}], "id": "2862200001", "name": "USPS COLLECTION BOX - PO LOBBY", "address": {"city": "ELK PARK", "state": "NC", "street": "153 MAIN ST", "postcode": "28622"}}},
{"geometry": {"type": "Point", "coordinates": [-81.980290832, 36.157750555]}, "type": "Feature", "properties": {"collection_times": [{"days": "Mon-Fri", "time": "4:00pm"}, {"days": "Sat", "time": "10:45am"}, {"days": "Sun", "time": "Closed"}], "id": "2862200002", "name": "USPS COLLECTION BOX - BLUE BOX", "address": {"city": "ELK PARK", "state": "NC", "street": "153 MAIN ST", "postcode": "28622"}}},
{"geometry": {"type": "Point", "coordinates": [-80.99119255, 36.522316864]}, "type": "Feature", "properties": {"collection_times": [{"days": "Mon-Fri", "time": "3:45pm"}, {"days": "Sat", "time": "11:00am"}, {"days": "Sun", "time": "Closed"}], "id": "2862300001", "name": "USPS COLLECTION BOX - PO LOBBY", "address": {"city": "ENNICE", "state": "NC", "street": "2529 BARRETT RD", "postcode": "28623"}}},
{"geometry": {"type": "Point", "coordinates": [-80.99119255, 36.522316864]}, "type": "Feature", "properties": {"collection_times": [{"days": "Mon-Fri", "time": "3:45pm"}, {"days": "Sat", "time": "11:00am"}, {"days": "Sun", "time": "Closed"}], "id": "2862300002", "name": "USPS COLLECTION BOX - BLUE BOX", "address": {"city": "ENNICE", "state": "NC", "street": "2529 BARRETT RD", "postcode": "28623"}}},
{"geometry": {"type": "Point", "coordinates": [-81.370071199, 36.08495006]}, "type": "Feature", "properties": {"collection_times": [{"days": "Mon-Fri", "time": "3:45pm"}, {"days": "Sat", "time": "11:00am"}, {"days": "Sun", "time": "Closed"}], "id": "2862400001", "name": "USPS COLLECTION BOX - BLUE BOX", "address": {"city": "FERGUSON", "state": "NC", "street": "12650 W NC HIGHWAY 268", "postcode": "28624"}}},
{"geometry": {"type": "Point", "coordinates": [-81.370071199, 36.08495006]}, "type": "Feature", "properties": {"collection_times": [{"days": "Mon-Fri", "time": "3:45pm"}, {"days": "Sat", "time": "11:00am"}, {"days": "Sun", "time": "Closed"}], "id": "2862400002", "name": "USPS COLLECTION BOX - PO LOBBY", "address": {"city": "FERGUSON", "state": "NC", "street": "12650 W NC HIGHWAY 268", "postcode": "28624"}}},
{"geometry": {"type": "Point", "coordinates": [-81.511099722, 36.30618626]}, "type": "Feature", "properties": {"collection_times": [{"days": "Mon-Fri", "time": "4:00pm"}, {"days": "Sat", "time": "10:45am"}, {"days": "Sun", "time": "Closed"}], "id": "2862600001", "name": "USPS COLLECTION BOX - BLUE BOX", "address": {"city": "FLEETWOOD", "state": "NC", "street": "910 RAILROAD GRADE RD", "postcode": "28626"}}},
{"geometry": {"type": "Point", "coordinates": [-81.050237812, 36.471221615]}, "type": "Feature", "properties": {"collection_times": [{"days": "Mon-Fri", "time": "4:00pm"}, {"days": "Sat", "time": "10:30am"}, {"days": "Sun", "time": "Closed"}], "id": "2862700001", "name": "USPS COLLECTION BOX - BLUE BOX", "address": {"city": "GLADE VALLEY", "state": "NC", "street": "18 GLADE VALLEY CHURCH RD", "postcode": "28627"}}},
{"geometry": {"type": "Point", "coordinates": [-81.050237812, 36.471221615]}, "type": "Feature", "properties": {"collection_times": [{"days": "Mon-Fri", "time": "4:00pm"}, {"days": "Sat", "time": "10:30am"}, {"days": "Sun", "time": "Closed"}], "id": "2862700002", "name": "USPS COLLECTION BOX - PO LOBBY", "address": {"city": "GLADE VALLEY", "state": "NC", "street": "18 GLADE VALLEY CHURCH RD", "postcode": "28627"}}},
{"geometry": {"type": "Point", "coordinates": [-81.779430499, 35.729009108]}, "type": "Feature", "properties": {"collection_times": [{"days": "Mon-Fri", "time": "4:30pm"}, {"days": "Sat", "time": "10:30am"}, {"days": "Sun", "time": "Closed"}], "id": "2862800001", "name": "USPS COLLECTION BOX - PO LOBBY", "address": {"city": "GLEN ALPINE", "state": "NC", "street": "102 CATAWBA ST", "postcode": "28628"}}},
{"geometry": {"type": "Point", "coordinates": [-81.779430499, 35.729009108]}, "type": "Feature", "properties": {"collection_times": [{"days": "Mon-Fri", "time": "4:15pm"}, {"days": "Sat", "time": "10:30am"}, {"days": "Sun", "time": "Closed"}], "id": "2862800002", "name": "USPS COLLECTION BOX - BLUE BOX", "address": {"city": "GLEN ALPINE", "state": "NC", "street": "102 CATAWBA ST", "postcode": "28628"}}},
{"geometry": {"type": "Point", "coordinates": [-81.370299256, 36.343171336]}, "type": "Feature", "properties": {"collection_times": [{"days": "Mon-Fri", "time": "3:45pm"}, {"days": "Sat", "time": "9:45am"}, {"days": "Sun", "time": "Closed"}], "id": "2862900001", "name": "USPS COLLECTION BOX - BLUE BOX", "address": {"city": "GLENDALE SPRINGS", "state": "NC", "street": "7471 NC HIGHWAY 16", "postcode": "28629"}}},
{"geometry": {"type": "Point", "coordinates": [-81.370299256, 36.343171336]}, "type": "Feature", "properties": {"collection_times": [{"days": "Mon-Fri", "time": "4:00pm"}, {"days": "Sat", "time": "10:00am"}, {"days": "Sun", "time": "Closed"}], "id": "2862900002", "name": "USPS COLLECTION BOX - PO LOBBY", "address": {"city": "GLENDALE SPRINGS", "state": "NC", "street": "7471 NC HIGHWAY 16", "postcode": "28629"}}},
{"geometry": {"type": "Point", "coordinates": [-81.434341774, 35.799145814]}, "type": "Feature", "properties": {"collection_times": [{"days": "Mon-Fri", "time": "3:30pm"}, {"days": "Sat", "time": "11:30am"}, {"days": "Sun", "time": "Closed"}], "id": "2863000002", "name": "USPS COLLECTION BOX - BLUE BOX", "address": {"city": "GRANITE FALLS", "state": "NC", "street": "1 LAKESIDE AVE", "postcode": "28630"}}},
{"geometry": {"type": "Point", "coordinates": [-81.43322321, 35.811357624]}, "type": "Feature", "properties": {"collection_times": [{"days": "Mon-Sat", "time": "11:00am"}, {"days": "Sun", "time": "Closed"}], "id": "2863000004", "name": "USPS COLLECTION BOX - BLUE BOX", "address": {"city": "GRANITE FALLS", "state": "NC", "street": "31 PINEWOOD RD", "postcode": "28630"}}},
{"geometry": {"type": "Point", "coordinates": [-81.425114622, 35.799496089]}, "type": "Feature", "properties": {"collection_times": [{"days": "Mon-Sat", "time": "12:00pm"}, {"days": "Sun", "time": "Closed"}], "id": "2863000007", "name": "USPS COLLECTION BOX - BLUE BOX", "address": {"city": "GRANITE FALLS", "state": "NC", "street": "47 FALLS AVE", "postcode": "28630"}}},
{"geometry": {"type": "Point", "coordinates": [-81.4275073, 35.804995754]}, "type": "Feature", "properties": {"collection_times": [{"days": "Mon-Sat", "time": "10:00am"}, {"days": "Sun", "time": "Closed"}], "id": "2863000010", "name": "USPS COLLECTION BOX - BLUE BOX", "address": {"city": "GRANITE FALLS", "state": "NC", "street": "4076 US HIGHWAY 321A", "postcode": "28630"}}},
{"geometry": {"type": "Point", "coordinates": [-81.530417057, 35.803474011]}, "type": "Feature", "properties": {"collection_times": [{"days": "Mon-Sat", "time": "11:00am"}, {"days": "Sun", "time": "Closed"}], "id": "2863000011", "name": "USPS COLLECTION BOX - BLUE BOX", "address": {"city": "GRANITE FALLS", "state": "NC", "street": "2630 CONNELLY SPRINGS RD", "postcode": "28630"}}},
{"geometry": {"type": "Point", "coordinates": [-81.432503292, 35.811355246]}, "type": "Feature", "properties": {"collection_times": [{"days": "Mon-Sat", "time": "10:00am"}, {"days": "Sun", "time": "Closed"}], "id": "2863000013", "name": "USPS COLLECTION BOX - BLUE BOX", "address": {"city": "GRANITE FALLS", "state": "NC", "street": "4919 HICKORY BLVD", "postcode": "28630"}}},
{"geometry": {"type": "Point", "coordinates": [-81.434341774, 35.799145814]}, "type": "Feature", "properties": {"collection_times": [{"days": "Mon-Fri", "time": "3:30pm"}, {"days": "Sat", "time": "11:30am"}, {"days": "Sun", "time": "Closed"}], "id": "2863000014", "name": "USPS COLLECTION BOX - PO LOBBY", "address": {"city": "GRANITE FALLS", "state": "NC", "street": "1 LAKESIDE AVE", "postcode": "28630"}}},
{"geometry": {"type": "Point", "coordinates": [-81.389465121, 36.57308839]}, "type": "Feature", "properties": {"collection_times": [{"days": "Mon-Fri", "time": "3:45pm"}, {"days": "Sat", "time": "9:45am"}, {"days": "Sun", "time": "Closed"}], "id": "2863100001", "name": "USPS COLLECTION BOX - BLUE BOX", "address": {"city": "GRASSY CREEK", "state": "NC", "street": "15500 OLD NC HIGHWAY 16", "postcode": "28631"}}},
{"geometry": {"type": "Point", "coordinates": [-81.389465121, 36.57308839]}, "type": "Feature", "properties": {"collection_times": [{"days": "Mon-Fri", "time": "3:45pm"}, {"days": "Sat", "time": "9:45am"}, {"days": "Sun", "time": "Closed"}], "id": "2863100002", "name": "USPS COLLECTION BOX - PO LOBBY", "address": {"city": "GRASSY CREEK", "state": "NC", "street": "15500 OLD NC HIGHWAY 16", "postcode": "28631"}}},
{"geometry": {"type": "Point", "coordinates": [-80.771607345, 35.956894955]}, "type": "Feature", "properties": {"collection_times": [{"days": "Mon-Fri", "time": "4:30pm"}, {"days": "Sat", "time": "11:00am"}, {"days": "Sun", "time": "Closed"}], "id": "2863400001", "name": "USPS COLLECTION BOX - BLUE BOX", "address": {"city": "HARMONY", "state": "NC", "street": "3348 HARMONY HWY", "postcode": "28634"}}},
{"geometry": {"type": "Point", "coordinates": [-80.771607345, 35.956894955]}, "type": "Feature", "properties": {"collection_times": [{"days": "Mon-Fri", "time": "4:30pm"}, {"days": "Sat", "time": "11:00am"}, {"days": "Sun", "time": "Closed"}], "id": "2863400005", "name": "USPS COLLECTION BOX - PO LOBBY", "address": {"city": "HARMONY", "state": "NC", "street": "3348 HARMONY HWY", "postcode": "28634"}}},
{"geometry": {"type": "Point", "coordinates": [-80.772723913, 35.95032142]}, "type": "Feature", "properties": {"collection_times": [{"days": "Mon-Sat", "time": "9:30am"}, {"days": "Sun", "time": "Closed"}], "id": "2863400006", "name": "USPS COLLECTION BOX - BLUE BOX", "address": {"city": "HARMONY", "state": "NC", "street": "3235 HARMONY HWY", "postcode": "28634"}}},
{"geometry": {"type": "Point", "coordinates": [-81.11691488, 36.24934097]}, "type": "Feature", "properties": {"collection_times": [{"days": "Mon-Fri", "time": "3:00pm"}, {"days": "Sat", "time": "10:00am"}, {"days": "Sun", "time": "Closed"}], "id": "2863500001", "name": "USPS COLLECTION BOX - BLUE BOX", "address": {"city": "HAYS", "state": "NC", "street": "5465 MOUNTAIN VIEW RD", "postcode": "28635"}}},
{"geometry": {"type": "Point", "coordinates": [-81.11691488, 36.24934097]}, "type": "Feature", "properties": {"collection_times": [{"days": "Mon-Fri", "time": "4:00pm"}, {"days": "Sat", "time": "10:00am"}, {"days": "Sun", "time": "Closed"}], "id": "2863500002", "name": "USPS COLLECTION BOX - PO LOBBY", "address": {"city": "HAYS", "state": "NC", "street": "5465 MOUNTAIN VIEW RD", "postcode": "28635"}}},
{"geometry": {"type": "Point", "coordinates": [-81.089869002, 35.900616638]}, "type": "Feature", "properties": {"collection_times": [{"days": "Mon-Fri", "time": "3:30pm"}, {"days": "Sat", "time": "12:00pm"}, {"days": "Sun", "time": "Closed"}], "id": "2863600001", "name": "USPS COLLECTION BOX - BLUE BOX", "address": {"city": "HIDDENITE", "state": "NC", "street": "5181 NC HIGHWAY 90 E", "postcode": "28636"}}},
{"geometry": {"type": "Point", "coordinates": [-81.089869002, 35.900616638]}, "type": "Feature", "properties": {"collection_times": [{"days": "Mon-Fri", "time": "3:30pm"}, {"days": "Sat", "time": "12:00pm"}, {"days": "Sun", "time": "Closed"}], "id": "2863600002", "name": "USPS COLLECTION BOX - PO LOBBY", "address": {"city": "HIDDENITE", "state": "NC", "street": "5181 NC HIGHWAY 90 E", "postcode": "28636"}}},
{"geometry": {"type": "Point", "coordinates": [-81.419851912, 35.715062343]}, "type": "Feature", "properties": {"collection_times": [{"days": "Mon-Fri", "time": "3:30pm"}, {"days": "Sat", "time": "10:00am"}, {"days": "Sun", "time": "Closed"}], "id": "2863700001", "name": "USPS COLLECTION BOX - PO LOBBY", "address": {"city": "HILDEBRAN", "state": "NC", "street": "511 US HIGHWAY 70 W STE D", "postcode": "28637"}}},
{"geometry": {"type": "Point", "coordinates": [-81.419851912, 35.715062343]}, "type": "Feature", "properties": {"collection_times": [{"days": "Mon-Fri", "time": "3:30pm"}, {"days": "Sat", "time": "10:00am"}, {"days": "Sun", "time": "Closed"}], "id": "2863700002", "name": "USPS COLLECTION BOX - BLUE BOX", "address": {"city": "HILDEBRAN", "state": "NC", "street": "511 US HIGHWAY 70 W STE D", "postcode": "28637"}}},
{"geometry": {"type": "Point", "coordinates": [-81.473373527, 35.845954112]}, "type": "Feature", "properties": {"collection_times": [{"days": "Mon-Sat", "time": "10:30am"}, {"days": "Sun", "time": "Closed"}], "id": "2863800001", "name": "USPS COLLECTION BOX - BLUE BOX", "address": {"city": "HUDSON", "state": "NC", "street": "3078 HICKORY BLVD", "postcode": "28638"}}},
{"geometry": {"type": "Point", "coordinates": [-81.495683226, 35.848428029]}, "type": "Feature", "properties": {"collection_times": [{"days": "Mon-Fri", "time": "4:30pm"}, {"days": "Sat", "time": "11:30am"}, {"days": "Sun", "time": "Closed"}], "id": "2863800004", "name": "USPS COLLECTION BOX - BLUE BOX", "address": {"city": "HUDSON", "state": "NC", "street": "104 FAIRWAY SHOPPING CTR", "postcode": "28638"}}},
{"geometry": {"type": "Point", "coordinates": [-81.495821874, 35.848045603]}, "type": "Feature", "properties": {"collection_times": [{"days": "Mon-Fri", "time": "4:30pm"}, {"days": "Sat", "time": "11:30am"}, {"days": "Sun", "time": "Closed"}], "id": "2863800009", "name": "USPS COLLECTION BOX - PO LOBBY", "address": {"city": "HUDSON", "state": "NC", "street": "101 FAIRWAY AVE", "postcode": "28638"}}},
{"geometry": {"type": "Point", "coordinates": [-81.468480139, 36.420882791]}, "type": "Feature", "properties": {"collection_times": [{"days": "Mon-Fri", "time": "4:30pm"}, {"days": "Sat", "time": "11:00am"}, {"days": "Sun", "time": "Closed"}], "id": "2864000001", "name": "USPS COLLECTION BOX - PO LOBBY", "address": {"city": "JEFFERSON", "state": "NC", "street": "410 E MAIN ST", "postcode": "28640"}}},
{"geometry": {"type": "Point", "coordinates": [-81.468480139, 36.420882791]}, "type": "Feature", "properties": {"collection_times": [{"days": "Mon-Fri", "time": "4:30pm"}, {"days": "Sat", "time": "11:00am"}, {"days": "Sun", "time": "Closed"}], "id": "2864000002", "name": "USPS COLLECTION BOX - BLUE BOX", "address": {"city": "JEFFERSON", "state": "NC", "street": "410 E MAIN ST", "postcode": "28640"}}},
{"geometry": {"type": "Point", "coordinates": [-81.89498907, 35.972390302]}, "type": "Feature", "properties": {"collection_times": [{"days": "Mon-Fri", "time": "4:30pm"}, {"days": "Sat", "time": "11:30am"}, {"days": "Sun", "time": "Closed"}], "id": "2864100002", "name": "USPS COLLECTION BOX - PO LOBBY", "address": {"city": "JONAS RIDGE", "state": "NC", "street": "9042 NC HWY 181", "postcode": "28641"}}},
{"geometry": {"type": "Point", "coordinates": [-81.89498907, 35.972390302]}, "type": "Feature", "properties": {"collection_times": [{"days": "Mon-Fri", "time": "4:30pm"}, {"days": "Sat", "time": "11:30am"}, {"days": "Sun", "time": "Closed"}], "id": "2864100003", "name": "USPS COLLECTION BOX - BLUE BOX", "address": {"city": "JONAS RIDGE", "state": "NC", "street": "9042 NC HWY 181", "postcode": "28641"}}},
{"geometry": {"type": "Point", "coordinates": [-80.842963999, 36.234925179]}, "type": "Feature", "properties": {"collection_times": [{"days": "Mon-Fri", "time": "4:30pm"}, {"days": "Sat", "time": "10:00am"}, {"days": "Sun", "time": "Closed"}], "id": "2864200001", "name": "USPS COLLECTION BOX - BLUE BOX", "address": {"city": "JONESVILLE", "state": "NC", "street": "127 N BRIDGE ST", "postcode": "28642"}}},
{"geometry": {"type": "Point", "coordinates": [-80.831451482, 36.238933342]}, "type": "Feature", "properties": {"collection_times": [{"days": "Mon-Sat", "time": "2:30pm"}, {"days": "Sun", "time": "Closed"}], "id": "2864200003", "name": "USPS COLLECTION BOX - BLUE BOX", "address": {"city": "JONESVILLE", "state": "NC", "street": "103 VALLEY DR", "postcode": "28642"}}},
{"geometry": {"type": "Point", "coordinates": [-80.833523187, 36.231244955]}, "type": "Feature", "properties": {"collection_times": [{"days": "Mon-Sat", "time": "2:30pm"}, {"days": "Sun", "time": "Closed"}], "id": "2864200004", "name": "USPS COLLECTION BOX - BLUE BOX", "address": {"city": "JONESVILLE", "state": "NC", "street": "140 N PARK DR", "postcode": "28642"}}},
{"geometry": {"type": "Point", "coordinates": [-80.843588718, 36.239298212]}, "type": "Feature", "properties": {"collection_times": [{"days": "Mon-Sat", "time": "2:30pm"}, {"days": "Sun", "time": "Closed"}], "id": "2864200005", "name": "USPS COLLECTION BOX - BLUE BOX", "address": {"city": "JONESVILLE", "state": "NC", "street": "207 WINSTON RD", "postcode": "28642"}}},
{"geometry": {"type": "Point", "coordinates": [-80.842963999, 36.234925179]}, "type": "Feature", "properties": {"collection_times": [{"days": "Mon-Fri", "time": "4:30pm"}, {"days": "Sat", "time": "10:00am"}, {"days": "Sun", "time": "Closed"}], "id": "2864200006", "name": "USPS COLLECTION BOX - PO LOBBY", "address": {"city": "JONESVILLE", "state": "NC", "street": "127 N BRIDGE ST", "postcode": "28642"}}},
{"geometry": {"type": "Point", "coordinates": [-81.510558921, 36.498532089]}, "type": "Feature", "properties": {"collection_times": [{"days": "Mon-Fri", "time": "3:45pm"}, {"days": "Sat", "time": "11:30am"}, {"days": "Sun", "time": "Closed"}], "id": "2864300001", "name": "USPS COLLECTION BOX - BLUE BOX", "address": {"city": "LANSING", "state": "NC", "street": "9294 NC HIGHWAY 194 N", "postcode": "28643"}}},
{"geometry": {"type": "Point", "coordinates": [-81.510558921, 36.498532089]}, "type": "Feature", "properties": {"collection_times": [{"days": "Mon-Fri", "time": "3:45pm"}, {"days": "Sat", "time": "11:30am"}, {"days": "Sun", "time": "Closed"}], "id": "2864300002", "name": "USPS COLLECTION BOX - PO LOBBY", "address": {"city": "LANSING", "state": "NC", "street": "9294 NC HIGHWAY 194 N", "postcode": "28643"}}},
{"geometry": {"type": "Point", "coordinates": [-81.26352338, 36.412507361]}, "type": "Feature", "properties": {"collection_times": [{"days": "Mon-Fri", "time": "4:15pm"}, {"days": "Sat", "time": "10:45am"}, {"days": "Sun", "time": "Closed"}], "id": "2864400001", "name": "USPS COLLECTION BOX - BLUE BOX", "address": {"city": "LAUREL SPRINGS", "state": "NC", "street": "12533 NC HIGHWAY 18 S", "postcode": "28644"}}},
{"geometry": {"type": "Point", "coordinates": [-81.26352338, 36.412507361]}, "type": "Feature", "properties": {"collection_times": [{"days": "Mon-Fri", "time": "4:15pm"}, {"days": "Sat", "time": "10:45am"}, {"days": "Sun", "time": "Closed"}], "id": "2864400002", "name": "USPS COLLECTION BOX - PO LOBBY", "address": {"city": "LAUREL SPRINGS", "state": "NC", "street": "12533 NC HIGHWAY 18 S", "postcode": "28644"}}},
{"geometry": {"type": "Point", "coordinates": [-81.537371718, 35.915253242]}, "type": "Feature", "properties": {"collection_times": [{"days": "Mon-Fri", "time": "5:00pm"}, {"days": "Sat", "time": "4:00pm"}, {"days": "Sun", "time": "Closed"}], "id": "2864500001", "name": "USPS COLLECTION BOX - BLUE BOX", "address": {"city": "LENOIR", "state": "NC", "street": "114 RIDGE ST NW", "postcode": "28645"}}},
{"geometry": {"type": "Point", "coordinates": [-81.537371718, 35.915253242]}, "type": "Feature", "properties": {"collection_times": [{"days": "Mon-Fri", "time": "5:00pm"}, {"days": "Sat", "time": "4:00pm"}, {"days": "Sun", "time": "Closed"}], "id": "2864500005", "name": "USPS COLLECTION BOX - PO LOBBY", "address": {"city": "LENOIR", "state": "NC", "street": "114 RIDGE ST NW", "postcode": "28645"}}},
{"geometry": {"type": "Point", "coordinates": [-81.537371718, 35.915253242]}, "type": "Feature", "properties": {"collection_times": [{"days": "Mon-Fri", "time": "5:00pm"}, {"days": "Sat", "time": "4:00pm"}, {"days": "Sun", "time": "Closed"}], "id": "2864500006", "name": "USPS COLLECTION BOX - PO LOBBY", "address": {"city": "LENOIR", "state": "NC", "street": "114 RIDGE ST NW", "postcode": "28645"}}},
{"geometry": {"type": "Point", "coordinates": [-81.539381872, 35.914168919]}, "type": "Feature", "properties": {"collection_times": [{"days": "Mon-Fri", "time": "11:00am"}, {"days": "Sat", "time": "9:00am"}, {"days": "Sun", "time": "Closed"}], "id": "2864500007", "name": "USPS COLLECTION BOX - BLUE BOX", "address": {"city": "LENOIR", "state": "NC", "street": "129 MAIN ST NW", "postcode": "28645"}}},
{"geometry": {"type": "Point", "coordinates": [-81.539993284, 35.915107373]}, "type": "Feature", "properties": {"collection_times": [{"days": "Mon-Fri", "time": "11:00am"}, {"days": "Sat", "time": "9:00am"}, {"days": "Sun", "time": "Closed"}], "id": "2864500011", "name": "USPS COLLECTION BOX - BLUE BOX", "address": {"city": "LENOIR", "state": "NC", "street": "225 MAIN ST NW", "postcode": "28645"}}},
{"geometry": {"type": "Point", "coordinates": [-81.536238624, 35.910733131]}, "type": "Feature", "properties": {"collection_times": [{"days": "Mon-Sat", "time": "10:00am"}, {"days": "Sun", "time": "Closed"}], "id": "2864500014", "name": "USPS COLLECTION BOX - BLUE BOX", "address": {"city": "LENOIR", "state": "NC", "street": "321 MULBERRY ST SW", "postcode": "28645"}}},
{"geometry": {"type": "Point", "coordinates": [-81.535426106, 35.909452367]}, "type": "Feature", "properties": {"collection_times": [{"days": "Mon-Sat", "time": "10:00am"}, {"days": "Sun", "time": "Closed"}], "id": "2864500016", "name": "USPS COLLECTION BOX - BLUE BOX", "address": {"city": "LENOIR", "state": "NC", "street": "401 MULBERRY ST SW", "postcode": "28645"}}},
{"geometry": {"type": "Point", "coordinates": [-81.535746363, 35.909840039]}, "type": "Feature", "properties": {"collection_times": [{"days": "Mon-Sat", "time": "10:00am"}, {"days": "Sun", "time": "Closed"}], "id": "2864500017", "name": "USPS COLLECTION BOX - BLUE BOX", "address": {"city": "LENOIR", "state": "NC", "street": "328 MULBERRY ST SW", "postcode": "28645"}}},
{"geometry": {"type": "Point", "coordinates": [-81.533025492, 35.907516518]}, "type": "Feature", "properties": {"collection_times": [{"days": "Mon-Sat", "time": "10:00am"}, {"days": "Sun", "time": "Closed"}], "id": "2864500018", "name": "USPS COLLECTION BOX - BLUE BOX", "address": {"city": "LENOIR", "state": "NC", "street": "675 PENNTON AVE SW", "postcode": "28645"}}},
{"geometry": {"type": "Point", "coordinates": [-81.537891539, 35.904153991]}, "type": "Feature", "properties": {"collection_times": [{"days": "Mon-Sat", "time": "9:30am"}, {"days": "Sun", "time": "Closed"}], "id": "2864500019", "name": "USPS COLLECTION BOX - BLUE BOX", "address": {"city": "LENOIR", "state": "NC", "street": "1031 MORGANTON BLVD SW", "postcode": "28645"}}},
{"geometry": {"type": "Point", "coordinates": [-81.529222559, 35.913754623]}, "type": "Feature", "properties": {"collection_times": [{"days": "Mon-Fri", "time": "11:00am"}, {"days": "Sat", "time": "9:00am"}, {"days": "Sun", "time": "Closed"}], "id": "2864500020", "name": "USPS COLLECTION BOX - BLUE BOX", "address": {"city": "LENOIR", "state": "NC", "street": "223 THRIFT ST SW", "postcode": "28645"}}},
{"geometry": {"type": "Point", "coordinates": [-81.527569854, 35.914333691]}, "type": "Feature", "properties": {"collection_times": [{"days": "Mon-Sat", "time": "9:45am"}, {"days": "Sun", "time": "Closed"}], "id": "2864500023", "name": "USPS COLLECTION BOX - BLUE BOX", "address": {"city": "LENOIR", "state": "NC", "street": "202 HARPER AVE NW", "postcode": "28645"}}},
{"geometry": {"type": "Point", "coordinates": [-81.524012727, 35.914326448]}, "type": "Feature", "properties": {"collection_times": [{"days": "Mon-Fri", "time": "11:00am"}, {"days": "Sat", "time": "10:00am"}, {"days": "Sun", "time": "Closed"}], "id": "2864500024", "name": "USPS COLLECTION BOX - BLUE BOX", "address": {"city": "LENOIR", "state": "NC", "street": "112 WILKESBORO BLVD SE", "postcode": "28645"}}},
{"geometry": {"type": "Point", "coordinates": [-81.513438685, 35.922708083]}, "type": "Feature", "properties": {"collection_times": [{"days": "Mon-Fri", "time": "3:00pm"}, {"days": "Sat", "time": "12:00pm"}, {"days": "Sun", "time": "Closed"}], "id": "2864500025", "name": "USPS COLLECTION BOX - BLUE BOX", "address": {"city": "LENOIR", "state": "NC", "street": "611 LOWER CREEK DR NE", "postcode": "28645"}}},
{"geometry": {"type": "Point", "coordinates": [-81.523056796, 35.92307505]}, "type": "Feature", "properties": {"collection_times": [{"days": "Mon-Fri", "time": "10:00am"}, {"days": "Sat", "time": "9:30am"}, {"days": "Sun", "time": "Closed"}], "id": "2864500026", "name": "USPS COLLECTION BOX - BLUE BOX", "address": {"city": "LENOIR", "state": "NC", "street": "120 HOSPITAL AVE NE", "postcode": "28645"}}},
{"geometry": {"type": "Point", "coordinates": [-81.531062756, 35.909049177]}, "type": "Feature", "properties": {"collection_times": [{"days": "Mon-Sat", "time": "9:45am"}, {"days": "Sun", "time": "Closed"}], "id": "2864500044", "name": "USPS COLLECTION BOX - BLUE BOX", "address": {"city": "LENOIR", "state": "NC", "street": "514 NORWOOD ST SW", "postcode": "28645"}}},
{"geometry": {"type": "Point", "coordinates": [-81.535900831, 35.913782355]}, "type": "Feature", "properties": {"collection_times": [{"days": "Mon-Sat", "time": "9:15am"}, {"days": "Sun", "time": "Closed"}], "id": "2864500045", "name": "USPS COLLECTION BOX - BLUE BOX", "address": {"city": "LENOIR", "state": "NC", "street": "203 NORWOOD ST SW", "postcode": "28645"}}},
{"geometry": {"type": "Point", "coordinates": [-81.524503074, 35.91858051]}, "type": "Feature", "properties": {"collection_times": [{"days": "Mon-Sat", "time": "9:30am"}, {"days": "Sun", "time": "Closed"}], "id": "2864500049", "name": "USPS COLLECTION BOX - BLUE BOX", "address": {"city": "LENOIR", "state": "NC", "street": "350 BLOWING ROCK BLVD", "postcode": "28645"}}},
{"geometry": {"type": "Point", "coordinates": [-81.537449808, 35.854788376]}, "type": "Feature", "properties": {"collection_times": [{"days": "Mon-Fri", "time": "12:00pm"}, {"days": "Sat", "time": "11:00am"}, {"days": "Sun", "time": "Closed"}], "id": "2864500051", "name": "USPS COLLECTION BOX - BLUE BOX", "address": {"city": "LENOIR", "state": "NC", "street": "1661 CONNELLY SPRINGS RD", "postcode": "28645"}}},
{"geometry": {"type": "Point", "coordinates": [-81.585343738, 35.881130704]}, "type": "Feature", "properties": {"collection_times": [{"days": "Mon-Sat", "time": "10:00am"}, {"days": "Sun", "time": "Closed"}], "id": "2864500052", "name": "USPS COLLECTION BOX - BLUE BOX", "address": {"city": "LENOIR", "state": "NC", "street": "2750 OLD MORGANTON RD", "postcode": "28645"}}},
{"geometry": {"type": "Point", "coordinates": [-81.525484575, 35.891538399]}, "type": "Feature", "properties": {"collection_times": [{"days": "Mon-Fri", "time": "12:00pm"}, {"days": "Sat", "time": "10:00am"}, {"days": "Sun", "time": "Closed"}], "id": "2864500053", "name": "USPS COLLECTION BOX - BLUE BOX", "address": {"city": "LENOIR", "state": "NC", "street": "1257 NORWOOD ST SW", "postcode": "28645"}}},
{"geometry": {"type": "Point", "coordinates": [-81.871297497, 36.071126837]}, "type": "Feature", "properties": {"collection_times": [{"days": "Mon-Fri", "time": "4:00pm"}, {"days": "Sat", "time": "11:00am"}, {"days": "Sun", "time": "Closed"}], "id": "2864600001", "name": "USPS COLLECTION BOX - BLUE BOX", "address": {"city": "LINVILLE", "state": "NC", "street": "4235 MITCHELL AVE", "postcode": "28646"}}},
{"geometry": {"type": "Point", "coordinates": [-81.871297497, 36.071126837]}, "type": "Feature", "properties": {"collection_times": [{"days": "Mon-Fri", "time": "4:00pm"}, {"days": "Sat", "time": "11:00am"}, {"days": "Sun", "time": "Closed"}], "id": "2864600002", "name": "USPS COLLECTION BOX - PO LOBBY", "address": {"city": "LINVILLE", "state": "NC", "street": "4235 MITCHELL AVE", "postcode": "28646"}}},
{"geometry": {"type": "Point", "coordinates": [-81.942988345, 35.95909024]}, "type": "Feature", "properties": {"collection_times": [{"days": "Mon-Fri", "time": "3:45pm"}, {"days": "Sat", "time": "12:00pm"}, {"days": "Sun", "time": "Closed"}], "id": "2864700001", "name": "USPS COLLECTION BOX - BLUE BOX", "address": {"city": "LINVILLE FALLS", "state": "NC", "street": "8890 NC HIGHWAY 183", "postcode": "28647"}}},
{"geometry": {"type": "Point", "coordinates": [-81.942988345, 35.95909024]}, "type": "Feature", "properties": {"collection_times": [{"days": "Mon-Fri", "time": "3:45pm"}, {"days": "Sat", "time": "12:00pm"}, {"days": "Sun", "time": "Closed"}], "id": "2864700002", "name": "USPS COLLECTION BOX - PO LOBBY", "address": {"city": "LINVILLE FALLS", "state": "NC", "street": "8890 NC HIGHWAY 183", "postcode": "28647"}}},
{"geometry": {"type": "Point", "coordinates": [-81.224396861, 36.326869586]}, "type": "Feature", "properties": {"collection_times": [{"days": "Mon-Fri", "time": "3:45pm"}, {"days": "Sat", "time": "10:15am"}, {"days": "Sun", "time": "Closed"}], "id": "2864900002", "name": "USPS COLLECTION BOX - BLUE BOX", "address": {"city": "MCGRADY", "state": "NC", "street": "11532 SPARTA RD", "postcode": "28649"}}},
{"geometry": {"type": "Point", "coordinates": [-81.224396861, 36.326869586]}, "type": "Feature", "properties": {"collection_times": [{"days": "Mon-Fri", "time": "3:45pm"}, {"days": "Sat", "time": "10:15am"}, {"days": "Sun", "time": "Closed"}], "id": "2864900003", "name": "USPS COLLECTION BOX - PO LOBBY", "address": {"city": "MCGRADY", "state": "NC", "street": "11532 SPARTA RD", "postcode": "28649"}}},
{"geometry": {"type": "Point", "coordinates": [-81.215463147, 35.576994752]}, "type": "Feature", "properties": {"collection_times": [{"days": "Mon-Sat", "time": "9:30am"}, {"days": "Sun", "time": "Closed"}], "id": "2865000001", "name": "USPS COLLECTION BOX - BLUE BOX", "address": {"city": "MAIDEN", "state": "NC", "street": "204 W MAIN ST", "postcode": "28650"}}},
{"geometry": {"type": "Point", "coordinates": [-81.196637662, 35.561296358]}, "type": "Feature", "properties": {"collection_times": [{"days": "Mon-Fri", "time": "4:45pm"}, {"days": "Sat", "time": "10:15am"}, {"days": "Sun", "time": "Closed"}], "id": "2865000002", "name": "USPS COLLECTION BOX - BLUE BOX", "address": {"city": "MAIDEN", "state": "NC", "street": "512 ISLAND FORD RD", "postcode": "28650"}}},
{"geometry": {"type": "Point", "coordinates": [-81.213467776, 35.582584588]}, "type": "Feature", "properties": {"collection_times": [{"days": "Mon-Sat", "time": "9:00am"}, {"days": "Sun", "time": "Closed"}], "id": "2865000004", "name": "USPS COLLECTION BOX - BLUE BOX", "address": {"city": "MAIDEN", "state": "NC", "street": "600 N MAIN AVE", "postcode": "28650"}}},
{"geometry": {"type": "Point", "coordinates": [-81.202815253, 35.572523221]}, "type": "Feature", "properties": {"collection_times": [{"days": "Mon-Fri", "time": "12:00pm"}, {"days": "Sat", "time": "11:45am"}, {"days": "Sun", "time": "Closed"}], "id": "2865000005", "name": "USPS COLLECTION BOX - BLUE BOX", "address": {"city": "MAIDEN", "state": "NC", "street": "719 E MAIN ST", "postcode": "28650"}}},
{"geometry": {"type": "Point", "coordinates": [-81.194567698, 35.565858204]}, "type": "Feature", "properties": {"collection_times": [{"days": "Mon-Sat", "time": "10:00am"}, {"days": "Sun", "time": "Closed"}], "id": "2865000009", "name": "USPS COLLECTION BOX - BLUE BOX", "address": {"city": "MAIDEN", "state": "NC", "street": "201 ISLAND FORD RD", "postcode": "28650"}}},
{"geometry": {"type": "Point", "coordinates": [-81.196637662, 35.561296358]}, "type": "Feature", "properties": {"collection_times": [{"days": "Mon-Fri", "time": "4:45pm"}, {"days": "Sat", "time": "10:15am"}, {"days": "Sun", "time": "Closed"}], "id": "2865000010", "name": "USPS COLLECTION BOX - PO LOBBY", "address": {"city": "MAIDEN", "state": "NC", "street": "512 ISLAND FORD RD", "postcode": "28650"}}},
{"geometry": {"type": "Point", "coordinates": [-81.237856325, 36.187570759]}, "type": "Feature", "properties": {"collection_times": [{"days": "Mon-Fri", "time": "5:00pm"}, {"days": "Sat", "time": "10:30am"}, {"days": "Sun", "time": "Closed"}], "id": "2865100003", "name": "USPS COLLECTION BOX - PO LOBBY", "address": {"city": "MILLERS CREEK", "state": "NC", "street": "148 POST OFFICE DR", "postcode": "28651"}}},
{"geometry": {"type": "Point", "coordinates": [-81.237856325, 36.187570759]}, "type": "Feature", "properties": {"collection_times": [{"days": "Mon-Fri", "time": "5:00pm"}, {"days": "Sat", "time": "10:30am"}, {"days": "Sun", "time": "Closed"}], "id": "2865100004", "name": "USPS COLLECTION BOX - BLUE BOX", "address": {"city": "MILLERS CREEK", "state": "NC", "street": "148 POST OFFICE DR", "postcode": "28651"}}},
{"geometry": {"type": "Point", "coordinates": [-81.987198775, 36.099090659]}, "type": "Feature", "properties": {"collection_times": [{"days": "Mon-Fri", "time": "4:00pm"}, {"days": "Sat", "time": "11:45am"}, {"days": "Sun", "time": "Closed"}], "id": "2865200001", "name": "USPS COLLECTION BOX - BLUE BOX", "address": {"city": "MINNEAPOLIS", "state": "NC", "street": "2751 US HIGHWAY 19 E", "postcode": "28652"}}},
{"geometry": {"type": "Point", "coordinates": [-81.987198775, 36.099090659]}, "type": "Feature", "properties": {"collection_times": [{"days": "Mon-Fri", "time": "4:00pm"}, {"days": "Sat", "time": "11:45am"}, {"days": "Sun", "time": "Closed"}], "id": "2865200002", "name": "USPS COLLECTION BOX - PO LOBBY", "address": {"city": "MINNEAPOLIS", "state": "NC", "street": "2751 US HIGHWAY 19 E", "postcode": "28652"}}},
{"geometry": {"type": "Point", "coordinates": [-81.90269711, 36.065004092]}, "type": "Feature", "properties": {"collection_times": [{"days": "Mon-Fri", "time": "4:30pm"}, {"days": "Sat", "time": "11:30am"}, {"days": "Sun", "time": "Closed"}], "id": "2865300000", "name": "USPS COLLECTION BOX - BLUE BOX", "address": {"city": "MONTEZUMA", "state": "NC", "street": "380 OLD NC HIGHWAY 181", "postcode": "28653"}}},
{"geometry": {"type": "Point", "coordinates": [-81.90269711, 36.065004092]}, "type": "Feature", "properties": {"collection_times": [{"days": "Mon-Fri", "time": "4:30pm"}, {"days": "Sat", "time": "11:30am"}, {"days": "Sun", "time": "Closed"}], "id": "2865300001", "name": "USPS COLLECTION BOX - PO LOBBY", "address": {"city": "MONTEZUMA", "state": "NC", "street": "380 OLD NC HIGHWAY 181", "postcode": "28653"}}},
{"geometry": {"type": "Point", "coordinates": [-81.181520862, 36.098517336]}, "type": "Feature", "properties": {"collection_times": [{"days": "Mon-Fri", "time": "4:15pm"}, {"days": "Sat", "time": "10:30am"}, {"days": "Sun", "time": "Closed"}], "id": "2865400001", "name": "USPS COLLECTION BOX - BLUE BOX", "address": {"city": "MORAVIAN FALLS", "state": "NC", "street": "1933 MORAVIAN FALLS RD", "postcode": "28654"}}},
{"geometry": {"type": "Point", "coordinates": [-81.181520862, 36.098517336]}, "type": "Feature", "properties": {"collection_times": [{"days": "Mon-Fri", "time": "4:15pm"}, {"days": "Sat", "time": "10:30am"}, {"days": "Sun", "time": "Closed"}], "id": "2865400002", "name": "USPS COLLECTION BOX - PO LOBBY", "address": {"city": "MORAVIAN FALLS", "state": "NC", "street": "1933 MORAVIAN FALLS RD", "postcode": "28654"}}},
{"geometry": {"type": "Point", "coordinates": [-81.704376802, 35.748848401]}, "type": "Feature", "properties": {"collection_times": [{"days": "Mon-Fri", "time": "5:00pm"}, {"days": "Sat", "time": "4:45pm"}, {"days": "Sun", "time": "Closed"}], "id": "2865500004", "name": "USPS COLLECTION BOX - BLUE BOX", "address": {"city": "MORGANTON", "state": "NC", "street": "320 SANFORD DR", "postcode": "28655"}}},
{"geometry": {"type": "Point", "coordinates": [-81.716330235, 35.754773232]}, "type": "Feature", "properties": {"collection_times": [{"days": "Mon-Fri", "time": "1:00pm"}, {"days": "Sat", "time": "9:00am"}, {"days": "Sun", "time": "Closed"}], "id": "2865500007", "name": "USPS COLLECTION BOX - BLUE BOX", "address": {"city": "MORGANTON", "state": "NC", "street": "110 BOST RD", "postcode": "28655"}}},
{"geometry": {"type": "Point", "coordinates": [-81.689845093, 35.747567495]}, "type": "Feature", "properties": {"collection_times": [{"days": "Mon-Fri", "time": "2:00pm"}, {"days": "Sat", "time": "10:00am"}, {"days": "Sun", "time": "Closed"}], "id": "2865500008", "name": "USPS COLLECTION BOX - BLUE BOX", "address": {"city": "MORGANTON", "state": "NC", "street": "300 N GREEN ST", "postcode": "28655"}}},
{"geometry": {"type": "Point", "coordinates": [-81.688477938, 35.745816882]}, "type": "Feature", "properties": {"collection_times": [{"days": "Mon-Sat", "time": "10:00am"}, {"days": "Sun", "time": "Closed"}], "id": "2865500014", "name": "USPS COLLECTION BOX - BLUE BOX", "address": {"city": "MORGANTON", "state": "NC", "street": "107 N STERLING ST", "postcode": "28655"}}},
{"geometry": {"type": "Point", "coordinates": [-81.686853203, 35.75120858]}, "type": "Feature", "properties": {"collection_times": [{"days": "Mon-Fri", "time": "9:30am"}, {"days": "Sat", "time": "10:00am"}, {"days": "Sun", "time": "Closed"}], "id": "2865500018", "name": "USPS COLLECTION BOX - BLUE BOX", "address": {"city": "MORGANTON", "state": "NC", "street": "243 AVERY AVE", "postcode": "28655"}}},
{"geometry": {"type": "Point", "coordinates": [-81.685183165, 35.746481944]}, "type": "Feature", "properties": {"collection_times": [{"days": "Mon-Fri", "time": "12:00pm"}, {"days": "Sat", "time": "10:00am"}, {"days": "Sun", "time": "Closed"}], "id": "2865500019", "name": "USPS COLLECTION BOX - BLUE BOX", "address": {"city": "MORGANTON", "state": "NC", "street": "300 E MEETING ST", "postcode": "28655"}}},
{"geometry": {"type": "Point", "coordinates": [-81.685754117, 35.74509426]}, "type": "Feature", "properties": {"collection_times": [{"days": "Mon-Fri", "time": "2:00pm"}, {"days": "Sat", "time": "10:00am"}, {"days": "Sun", "time": "Closed"}], "id": "2865500027", "name": "USPS COLLECTION BOX - BLUE BOX", "address": {"city": "MORGANTON", "state": "NC", "street": "201 S GREEN ST", "postcode": "28655"}}},
{"geometry": {"type": "Point", "coordinates": [-81.704376802, 35.748848401]}, "type": "Feature", "properties": {"collection_times": [{"days": "Mon-Fri", "time": "5:00pm"}, {"days": "Sat", "time": "4:45pm"}, {"days": "Sun", "time": "Closed"}], "id": "2865500029", "name": "USPS COLLECTION BOX - BLUE BOX", "address": {"city": "MORGANTON", "state": "NC", "street": "320 SANFORD DR", "postcode": "28655"}}},
{"geometry": {"type": "Point", "coordinates": [-81.696145857, 35.716135736]}, "type": "Feature", "properties": {"collection_times": [{"days": "Mon-Sat", "time": "10:00am"}, {"days": "Sun", "time": "Closed"}], "id": "2865500034", "name": "USPS COLLECTION BOX - BLUE BOX", "address": {"city": "MORGANTON", "state": "NC", "street": "1247 BURKEMONT AVE STE A", "postcode": "28655"}}},
{"geometry": {"type": "Point", "coordinates": [-81.711296496, 35.735603428]}, "type": "Feature", "properties": {"collection_times": [{"days": "Mon-Fri", "time": "12:30pm"}, {"days": "Sat", "time": "9:00am"}, {"days": "Sun", "time": "Closed"}], "id": "2865500036", "name": "USPS COLLECTION BOX - BLUE BOX", "address": {"city": "MORGANTON", "state": "NC", "street": "911 W UNION ST", "postcode": "28655"}}},
{"geometry": {"type": "Point", "coordinates": [-81.673116, 35.724457699]}, "type": "Feature", "properties": {"collection_times": [{"days": "Mon-Fri", "time": "1:00pm"}, {"days": "Sat", "time": "10:00am"}, {"days": "Sun", "time": "Closed"}], "id": "2865500037", "name": "USPS COLLECTION BOX - BLUE BOX", "address": {"city": "MORGANTON", "state": "NC", "street": "401 OLD NC 18", "postcode": "28655"}}},
{"geometry": {"type": "Point", "coordinates": [-81.657737901, 35.723457764]}, "type": "Feature", "properties": {"collection_times": [{"days": "Mon-Sat", "time": "10:00am"}, {"days": "Sun", "time": "Closed"}], "id": "2865500038", "name": "USPS COLLECTION BOX - BLUE BOX", "address": {"city": "MORGANTON", "state": "NC", "street": "2203 S STERLING ST", "postcode": "28655"}}},
{"geometry": {"type": "Point", "coordinates": [-81.656026354, 35.72902523]}, "type": "Feature", "properties": {"collection_times": [{"days": "Mon-Sat", "time": "10:00am"}, {"days": "Sun", "time": "Closed"}], "id": "2865500039", "name": "USPS COLLECTION BOX - BLUE BOX", "address": {"city": "MORGANTON", "state": "NC", "street": "350 E PARKER RD", "postcode": "28655"}}},
{"geometry": {"type": "Point", "coordinates": [-81.672454364, 35.715006351]}, "type": "Feature", "properties": {"collection_times": [{"days": "Mon-Fri", "time": "1:00pm"}, {"days": "Sat-Sun", "time": "Closed"}], "id": "2865500040", "name": "USPS COLLECTION BOX - BLUE BOX", "address": {"city": "MORGANTON", "state": "NC", "street": "300 ENOLA RD", "postcode": "28655"}}},
{"geometry": {"type": "Point", "coordinates": [-81.689762342, 35.742875109]}, "type": "Feature", "properties": {"collection_times": [{"days": "Mon-Fri", "time": "10:30am"}, {"days": "Sat", "time": "10:00am"}, {"days": "Sun", "time": "Closed"}], "id": "2865500052", "name": "USPS COLLECTION BOX - BLUE BOX", "address": {"city": "MORGANTON", "state": "NC", "street": "301 W UNION ST", "postcode": "28655"}}},
{"geometry": {"type": "Point", "coordinates": [-81.695774096, 35.716660225]}, "type": "Feature", "properties": {"collection_times": [{"days": "Mon-Sat", "time": "10:00am"}, {"days": "Sun", "time": "Closed"}], "id": "2865500054", "name": "USPS COLLECTION BOX - BLUE BOX", "address": {"city": "MORGANTON", "state": "NC", "street": "1224 BURKEMONT AVE", "postcode": "28655"}}},
{"geometry": {"type": "Point", "coordinates": [-81.681340291, 35.735766601]}, "type": "Feature", "properties": {"collection_times": [{"days": "Mon-Fri", "time": "1:45pm"}, {"days": "Sat", "time": "10:00am"}, {"days": "Sun", "time": "Closed"}], "id": "2865500056", "name": "USPS COLLECTION BOX - BLUE BOX", "address": {"city": "MORGANTON", "state": "NC", "street": "240 W FLEMING DR", "postcode": "28655"}}},
{"geometry": {"type": "Point", "coordinates": [-81.67975912, 35.74022194]}, "type": "Feature", "properties": {"collection_times": [{"days": "Mon-Sat", "time": "10:00am"}, {"days": "Sun", "time": "Closed"}], "id": "2865500057", "name": "USPS COLLECTION BOX - BLUE BOX", "address": {"city": "MORGANTON", "state": "NC", "street": "108 E FLEMING DR", "postcode": "28655"}}},
{"geometry": {"type": "Point", "coordinates": [-81.704376802, 35.748848401]}, "type": "Feature", "properties": {"collection_times": [{"days": "Mon-Fri", "time": "5:00pm"}, {"days": "Sat", "time": "4:45pm"}, {"days": "Sun", "time": "Closed"}], "id": "2865500058", "name": "USPS COLLECTION BOX - PO LOBBY", "address": {"city": "MORGANTON", "state": "NC", "street": "320 SANFORD DR", "postcode": "28655"}}},
{"geometry": {"type": "Point", "coordinates": [-81.671291208, 35.715305937]}, "type": "Feature", "properties": {"collection_times": [{"days": "Mon-Fri", "time": "1:00pm"}, {"days": "Sat", "time": "9:00am"}, {"days": "Sun", "time": "Closed"}], "id": "2865500059", "name": "USPS COLLECTION BOX - BLUE BOX", "address": {"city": "MORGANTON", "state": "NC", "street": "122 FIDDLERS RUN BLVD", "postcode": "28655"}}},
{"geometry": {"type": "Point", "coordinates": [-81.925556986, 36.0884915142]}, "type": "Feature", "properties": {"collection_times": [{"days": "Mon-Fri", "time": "4:30pm"}, {"days": "Sat", "time": "12:00pm"}, {"days": "Sun", "time": "Closed"}], "id": "2865700001", "name": "USPS COLLECTION BOX - BLUE BOX", "address": {"city": "NEWLAND", "state": "NC", "street": "124 ELK ST", "postcode": "28657"}}},
{"geometry": {"type": "Point", "coordinates": [-81.925556986, 36.088491514]}, "type": "Feature", "properties": {"collection_times": [{"days": "Mon-Fri", "time": "4:30pm"}, {"days": "Sat", "time": "12:00pm"}, {"days": "Sun", "time": "Closed"}], "id": "2865700002", "name": "USPS COLLECTION BOX - PO LOBBY", "address": {"city": "NEWLAND", "state": "NC", "street": "124 ELK ST", "postcode": "28657"}}},
{"geometry": {"type": "Point", "coordinates": [-81.223371203, 35.660761868]}, "type": "Feature", "properties": {"collection_times": [{"days": "Mon-Fri", "time": "5:00pm"}, {"days": "Sat", "time": "3:00pm"}, {"days": "Sun", "time": "Closed"}], "id": "2865800001", "name": "USPS COLLECTION BOX - BLUE BOX", "address": {"city": "NEWTON", "state": "NC", "street": "218 S MAIN AVE", "postcode": "28658"}}},
{"geometry": {"type": "Point", "coordinates": [-81.223371203, 35.660761868]}, "type": "Feature", "properties": {"collection_times": [{"days": "Mon-Fri", "time": "5:00pm"}, {"days": "Sat", "time": "3:00pm"}, {"days": "Sun", "time": "Closed"}], "id": "2865800002", "name": "USPS COLLECTION BOX - BLUE BOX", "address": {"city": "NEWTON", "state": "NC", "street": "218 S MAIN AVE", "postcode": "28658"}}},
{"geometry": {"type": "Point", "coordinates": [-81.229353865, 35.680875851]}, "type": "Feature", "properties": {"collection_times": [{"days": "Mon-Sat", "time": "9:30am"}, {"days": "Sun", "time": "Closed"}], "id": "2865800012", "name": "USPS COLLECTION BOX - BLUE BOX", "address": {"city": "NEWTON", "state": "NC", "street": "1905 NORTHWEST BLVD", "postcode": "28658"}}},
{"geometry": {"type": "Point", "coordinates": [-81.226382908, 35.693649356]}, "type": "Feature", "properties": {"collection_times": [{"days": "Mon-Sat", "time": "9:00am"}, {"days": "Sun", "time": "Closed"}], "id": "2865800014", "name": "USPS COLLECTION BOX - BLUE BOX", "address": {"city": "NEWTON", "state": "NC", "street": "2725 NORTHWEST BLVD", "postcode": "28658"}}},
{"geometry": {"type": "Point", "coordinates": [-81.206742223, 35.655203884]}, "type": "Feature", "properties": {"collection_times": [{"days": "Mon-Sat", "time": "10:00am"}, {"days": "Sun", "time": "Closed"}], "id": "2865800019", "name": "USPS COLLECTION BOX - BLUE BOX", "address": {"city": "NEWTON", "state": "NC", "street": "1390 NC HIGHWAY 16 S", "postcode": "28658"}}},
{"geometry": {"type": "Point", "coordinates": [-81.224189648, 35.645856755]}, "type": "Feature", "properties": {"collection_times": [{"days": "Mon-Sat", "time": "1:00pm"}, {"days": "Sun", "time": "Closed"}], "id": "2865800020", "name": "USPS COLLECTION BOX - BLUE BOX", "address": {"city": "NEWTON", "state": "NC", "street": "1175 S BRADY AVE", "postcode": "28658"}}},
{"geometry": {"type": "Point", "coordinates": [-81.230394629, 35.660918047]}, "type": "Feature", "properties": {"collection_times": [{"days": "Mon-Sat", "time": "2:00pm"}, {"days": "Sun", "time": "Closed"}], "id": "2865800022", "name": "USPS COLLECTION BOX - BLUE BOX", "address": {"city": "NEWTON", "state": "NC", "street": "100 SOUTHWEST BLVD", "postcode": "28658"}}},
{"geometry": {"type": "Point", "coordinates": [-81.2286732066, 35.6641166059]}, "type": "Feature", "properties": {"collection_times": [{"days": "Mon-Sat", "time": "9:00am"}, {"days": "Sun", "time": "Closed"}], "id": "2865800023", "name": "USPS COLLECTION BOX - BLUE BOX", "address": {"city": "NEWTON", "state": "NC", "street": "421 W A ST", "postcode": "28658"}}},
{"geometry": {"type": "Point", "coordinates": [-81.221295778, 35.663574619]}, "type": "Feature", "properties": {"collection_times": [{"days": "Mon-Sat", "time": "9:00am"}, {"days": "Sun", "time": "Closed"}], "id": "2865800025", "name": "USPS COLLECTION BOX - BLUE BOX", "address": {"city": "NEWTON", "state": "NC", "street": "118 N COLLEGE AVE", "postcode": "28658"}}},
{"geometry": {"type": "Point", "coordinates": [-81.223371203, 35.660761868]}, "type": "Feature", "properties": {"collection_times": [{"days": "Mon-Fri", "time": "5:00pm"}, {"days": "Sat", "time": "3:00pm"}, {"days": "Sun", "time": "Closed"}], "id": "2865800028", "name": "USPS COLLECTION BOX - PO LOBBY", "address": {"city": "NEWTON", "state": "NC", "street": "218 S MAIN AVE", "postcode": "28658"}}},
{"geometry": {"type": "Point", "coordinates": [-81.223371203, 35.660761868]}, "type": "Feature", "properties": {"collection_times": [{"days": "Mon-Fri", "time": "5:00pm"}, {"days": "Sat", "time": "3:00pm"}, {"days": "Sun", "time": "Closed"}], "id": "2865800029", "name": "USPS COLLECTION BOX - PO LOBBY", "address": {"city": "NEWTON", "state": "NC", "street": "218 S MAIN AVE", "postcode": "28658"}}},
{"geometry": {"type": "Point", "coordinates": [-81.145817693, 36.161443372]}, "type": "Feature", "properties": {"collection_times": [{"days": "Mon-Sat", "time": "5:00pm"}, {"days": "Sun", "time": "Closed"}], "id": "2865900001", "name": "USPS COLLECTION BOX - BLUE BOX", "address": {"city": "N WILKESBORO", "state": "NC", "street": "300 8TH ST", "postcode": "28659"}}},
{"geometry": {"type": "Point", "coordinates": [-81.145817693, 36.161443372]}, "type": "Feature", "properties": {"collection_times": [{"days": "Mon-Fri", "time": "5:00pm"}, {"days": "Sat", "time": "12:00pm"}, {"days": "Sun", "time": "Closed"}], "id": "2865900029", "name": "USPS COLLECTION BOX - PO LOBBY", "address": {"city": "N WILKESBORO", "state": "NC", "street": "300 8TH ST", "postcode": "28659"}}},
{"geometry": {"type": "Point", "coordinates": [-80.8423742457, 35.9489659192]}, "type": "Feature", "properties": {"collection_times": [{"days": "Mon-Fri", "time": "4:00pm"}, {"days": "Sat", "time": "10:30am"}, {"days": "Sun", "time": "Closed"}], "id": "2866000001", "name": "USPS COLLECTION BOX - BLUE BOX", "address": {"city": "OLIN", "state": "NC", "street": "583 OLIN LOOP", "postcode": "28660"}}},
{"geometry": {"type": "Point", "coordinates": [-80.842374246, 35.948965919]}, "type": "Feature", "properties": {"collection_times": [{"days": "Mon-Fri", "time": "4:00pm"}, {"days": "Sat", "time": "10:30am"}, {"days": "Sun", "time": "Closed"}], "id": "2866000002", "name": "USPS COLLECTION BOX - PO LOBBY", "address": {"city": "OLIN", "state": "NC", "street": "583 OLIN LOOP", "postcode": "28660"}}},
{"geometry": {"type": "Point", "coordinates": [-81.5640864964, 35.9990903601]}, "type": "Feature", "properties": {"collection_times": [{"days": "Mon-Fri", "time": "4:30pm"}, {"days": "Sat", "time": "11:00am"}, {"days": "Sun", "time": "Closed"}], "id": "2866100001", "name": "USPS COLLECTION BOX - BLUE BOX", "address": {"city": "PATTERSON", "state": "NC", "street": "2008 ROBY MARTIN RD", "postcode": "28661"}}},
{"geometry": {"type": "Point", "coordinates": [-81.5640864964, 35.9990903601]}, "type": "Feature", "properties": {"collection_times": [{"days": "Mon-Fri", "time": "4:30pm"}, {"days": "Sat", "time": "11:00am"}, {"days": "Sun", "time": "Closed"}], "id": "2866100002", "name": "USPS COLLECTION BOX - PO LOBBY", "address": {"city": "PATTERSON", "state": "NC", "street": "2008 ROBY MARTIN RD", "postcode": "28661"}}},
{"geometry": {"type": "Point", "coordinates": [-81.891599966, 36.0283018313]}, "type": "Feature", "properties": {"collection_times": [{"days": "Mon-Fri", "time": "4:00pm"}, {"days": "Sat", "time": "11:30am"}, {"days": "Sun", "time": "Closed"}], "id": "2866200001", "name": "USPS COLLECTION BOX - BLUE BOX", "address": {"city": "PINEOLA", "state": "NC", "street": "2884 LINVILLE FALLS HWY", "postcode": "28662"}}},
{"geometry": {"type": "Point", "coordinates": [-81.891599966, 36.028301831]}, "type": "Feature", "properties": {"collection_times": [{"days": "Mon-Fri", "time": "4:15pm"}, {"days": "Sat", "time": "11:30am"}, {"days": "Sun", "time": "Closed"}], "id": "2866200002", "name": "USPS COLLECTION BOX - PO LOBBY", "address": {"city": "PINEOLA", "state": "NC", "street": "2884 LINVILLE FALLS HWY", "postcode": "28662"}}},
{"geometry": {"type": "Point", "coordinates": [-81.287717252, 36.550827823]}, "type": "Feature", "properties": {"collection_times": [{"days": "Mon-Fri", "time": "3:45pm"}, {"days": "Sat", "time": "9:45am"}, {"days": "Sun", "time": "Closed"}], "id": "2866300001", "name": "USPS COLLECTION BOX - PO LOBBY", "address": {"city": "PINEY CREEK", "state": "NC", "street": "4216 PINEY POST OFFICE RD", "postcode": "28663"}}},
{"geometry": {"type": "Point", "coordinates": [-81.2877172521, 36.5508278231]}, "type": "Feature", "properties": {"collection_times": [{"days": "Mon-Fri", "time": "3:45pm"}, {"days": "Sat", "time": "9:45am"}, {"days": "Sun", "time": "Closed"}], "id": "2866300002", "name": "USPS COLLECTION BOX - BLUE BOX", "address": {"city": "PINEY CREEK", "state": "NC", "street": "4216 PINEY POST OFFICE RD", "postcode": "28663"}}},
{"geometry": {"type": "Point", "coordinates": [-82.00784624, 36.025182117]}, "type": "Feature", "properties": {"collection_times": [{"days": "Mon-Fri", "time": "3:45pm"}, {"days": "Sat", "time": "11:45am"}, {"days": "Sun", "time": "Closed"}], "id": "2866400001", "name": "USPS COLLECTION BOX - BLUE BOX", "address": {"city": "PLUMTREE", "state": "NC", "street": "4420 US HIGHWAY 19E S", "postcode": "28664"}}},
{"geometry": {"type": "Point", "coordinates": [-82.00784624, 36.025182117]}, "type": "Feature", "properties": {"collection_times": [{"days": "Mon-Fri", "time": "4:00pm"}, {"days": "Sat", "time": "11:45am"}, {"days": "Sun", "time": "Closed"}], "id": "2866400002", "name": "USPS COLLECTION BOX - PO LOBBY", "address": {"city": "PLUMTREE", "state": "NC", "street": "4420 US HIGHWAY 19E S", "postcode": "28664"}}},
{"geometry": {"type": "Point", "coordinates": [-81.284988994, 36.183326056]}, "type": "Feature", "properties": {"collection_times": [{"days": "Mon-Fri", "time": "4:15pm"}, {"days": "Sat", "time": "10:30am"}, {"days": "Sun", "time": "Closed"}], "id": "2866500001", "name": "USPS COLLECTION BOX - BLUE BOX", "address": {"city": "PURLEAR", "state": "NC", "street": "226 PURLEAR RD", "postcode": "28665"}}},
{"geometry": {"type": "Point", "coordinates": [-81.284988994, 36.183326056]}, "type": "Feature", "properties": {"collection_times": [{"days": "Mon-Fri", "time": "4:15pm"}, {"days": "Sat", "time": "10:30am"}, {"days": "Sun", "time": "Closed"}], "id": "2866500002", "name": "USPS COLLECTION BOX - PO LOBBY", "address": {"city": "PURLEAR", "state": "NC", "street": "226 PURLEAR RD", "postcode": "28665"}}},
{"geometry": {"type": "Point", "coordinates": [-81.470799231, 35.727192959]}, "type": "Feature", "properties": {"collection_times": [{"days": "Mon-Fri", "time": "4:00pm"}, {"days": "Sat", "time": "10:30am"}, {"days": "Sun", "time": "Closed"}], "id": "2866600003", "name": "USPS COLLECTION BOX - PO LOBBY", "address": {"city": "ICARD", "state": "NC", "street": "3462 MILLER BRIDGE RD", "postcode": "28666"}}},
{"geometry": {"type": "Point", "coordinates": [-81.4707992306, 35.7271929588]}, "type": "Feature", "properties": {"collection_times": [{"days": "Mon-Fri", "time": "4:00pm"}, {"days": "Sat", "time": "10:30am"}, {"days": "Sun", "time": "Closed"}], "id": "2866600004", "name": "USPS COLLECTION BOX - BLUE BOX", "address": {"city": "ICARD", "state": "NC", "street": "3462 MILLER BRIDGE RD", "postcode": "28666"}}},
{"geometry": {"type": "Point", "coordinates": [-81.428915573, 35.778327359]}, "type": "Feature", "properties": {"collection_times": [{"days": "Mon-Fri", "time": "4:30pm"}, {"days": "Sat", "time": "10:30am"}, {"days": "Sun", "time": "Closed"}], "id": "2866700001", "name": "USPS COLLECTION BOX - BLUE BOX", "address": {"city": "RHODHISS", "state": "NC", "street": "206 CHURCH ST", "postcode": "28667"}}},
{"geometry": {"type": "Point", "coordinates": [-81.428915573, 35.778327359]}, "type": "Feature", "properties": {"collection_times": [{"days": "Mon-Fri", "time": "4:30pm"}, {"days": "Sat", "time": "10:30am"}, {"days": "Sun", "time": "Closed"}], "id": "2866700002", "name": "USPS COLLECTION BOX - PO LOBBY", "address": {"city": "RHODHISS", "state": "NC", "street": "206 CHURCH ST", "postcode": "28667"}}},
{"geometry": {"type": "Point", "coordinates": [-80.985983839, 36.398255377]}, "type": "Feature", "properties": {"collection_times": [{"days": "Mon-Fri", "time": "4:00pm"}, {"days": "Sat", "time": "11:00am"}, {"days": "Sun", "time": "Closed"}], "id": "2866800001", "name": "USPS COLLECTION BOX - BLUE BOX", "address": {"city": "ROARING GAP", "state": "NC", "street": "11370 US HIGHWAY 21 S", "postcode": "28668"}}},
{"geometry": {"type": "Point", "coordinates": [-80.985983839, 36.398255377]}, "type": "Feature", "properties": {"collection_times": [{"days": "Mon-Fri", "time": "4:00pm"}, {"days": "Sat", "time": "11:00am"}, {"days": "Sun", "time": "Closed"}], "id": "2866800002", "name": "USPS COLLECTION BOX - PO LOBBY", "address": {"city": "ROARING GAP", "state": "NC", "street": "11370 US HIGHWAY 21 S", "postcode": "28668"}}},
{"geometry": {"type": "Point", "coordinates": [-81.008729086, 36.205170449]}, "type": "Feature", "properties": {"collection_times": [{"days": "Mon-Fri", "time": "4:15pm"}, {"days": "Sat", "time": "10:30am"}, {"days": "Sun", "time": "Closed"}], "id": "2866900001", "name": "USPS COLLECTION BOX - BLUE BOX", "address": {"city": "ROARING RIVER", "state": "NC", "street": "7953 ELKIN HIGHWAY 268", "postcode": "28669"}}},
{"geometry": {"type": "Point", "coordinates": [-81.0087290859, 36.2051704486]}, "type": "Feature", "properties": {"collection_times": [{"days": "Mon-Fri", "time": "4:15pm"}, {"days": "Sat", "time": "10:30am"}, {"days": "Sun", "time": "Closed"}], "id": "2866900002", "name": "USPS COLLECTION BOX - PO LOBBY", "address": {"city": "ROARING RIVER", "state": "NC", "street": "7953 ELKIN HIGHWAY 268", "postcode": "28669"}}},
{"geometry": {"type": "Point", "coordinates": [-80.9426707708, 36.2173234901]}, "type": "Feature", "properties": {"collection_times": [{"days": "Mon-Fri", "time": "4:00pm"}, {"days": "Sat", "time": "10:00am"}, {"days": "Sun", "time": "Closed"}], "id": "2867000001", "name": "USPS COLLECTION BOX - BLUE BOX", "address": {"city": "RONDA", "state": "NC", "street": "383 THIRD ST", "postcode": "28670"}}},
{"geometry": {"type": "Point", "coordinates": [-80.9426707708, 36.2173234901]}, "type": "Feature", "properties": {"collection_times": [{"days": "Mon-Fri", "time": "4:00pm"}, {"days": "Sat", "time": "10:00am"}, {"days": "Sun", "time": "Closed"}], "id": "2867000002", "name": "USPS COLLECTION BOX - PO LOBBY", "address": {"city": "RONDA", "state": "NC", "street": "383 THIRD ST", "postcode": "28670"}}},
{"geometry": {"type": "Point", "coordinates": [-81.526098114, 35.751903005]}, "type": "Feature", "properties": {"collection_times": [{"days": "Mon-Fri", "time": "4:30pm"}, {"days": "Sat", "time": "10:30am"}, {"days": "Sun", "time": "Closed"}], "id": "2867100001", "name": "USPS COLLECTION BOX - BLUE BOX", "address": {"city": "RUTHERFORD COLLE", "state": "NC", "street": "721C MALCOLM BLVD", "postcode": "28671"}}},
{"geometry": {"type": "Point", "coordinates": [-81.526098114, 35.751903005]}, "type": "Feature", "properties": {"collection_times": [{"days": "Mon-Fri", "time": "4:30pm"}, {"days": "Sat", "time": "10:30am"}, {"days": "Sun", "time": "Closed"}], "id": "2867100002", "name": "USPS COLLECTION BOX - PO LOBBY", "address": {"city": "RUTHERFORD COLLE", "state": "NC", "street": "721C MALCOLM BLVD", "postcode": "28671"}}},
{"geometry": {"type": "Point", "coordinates": [-80.9859069148, 35.6183404222]}, "type": "Feature", "properties": {"collection_times": [{"days": "Mon-Fri", "time": "4:00pm"}, {"days": "Sat", "time": "10:00am"}, {"days": "Sun", "time": "Closed"}], "id": "2867300001", "name": "USPS COLLECTION BOX - BLUE BOX", "address": {"city": "SHERRILLS FORD", "state": "NC", "street": "8220 SHERRILLS FORD RD", "postcode": "28673"}}},
{"geometry": {"type": "Point", "coordinates": [-80.985906915, 35.618340422]}, "type": "Feature", "properties": {"collection_times": [{"days": "Mon-Fri", "time": "4:00pm"}, {"days": "Sat", "time": "10:00am"}, {"days": "Sun", "time": "Closed"}], "id": "2867300002", "name": "USPS COLLECTION BOX - PO LOBBY", "address": {"city": "SHERRILLS FORD", "state": "NC", "street": "8220 SHERRILLS FORD RD", "postcode": "28673"}}},
{"geometry": {"type": "Point", "coordinates": [-81.111522039, 36.500283867]}, "type": "Feature", "properties": {"collection_times": [{"days": "Mon-Sat", "time": "11:30am"}, {"days": "Sun", "time": "Closed"}], "id": "2867500001", "name": "USPS COLLECTION BOX - BLUE BOX", "address": {"city": "SPARTA", "state": "NC", "street": "665 S MAIN ST", "postcode": "28675"}}},
{"geometry": {"type": "Point", "coordinates": [-81.11879139, 36.505933143]}, "type": "Feature", "properties": {"collection_times": [{"days": "Mon-Fri", "time": "4:30pm"}, {"days": "Sat", "time": "12:15pm"}, {"days": "Sun", "time": "Closed"}], "id": "2867500002", "name": "USPS COLLECTION BOX - BLUE BOX", "address": {"city": "SPARTA", "state": "NC", "street": "79 S GRAYSON ST", "postcode": "28675"}}},
{"geometry": {"type": "Point", "coordinates": [-81.11879139, 36.505933143]}, "type": "Feature", "properties": {"collection_times": [{"days": "Mon-Fri", "time": "4:30pm"}, {"days": "Sat", "time": "12:15pm"}, {"days": "Sun", "time": "Closed"}], "id": "2867500003", "name": "USPS COLLECTION BOX - PO LOBBY", "address": {"city": "SPARTA", "state": "NC", "street": "79 S GRAYSON ST", "postcode": "28675"}}},
{"geometry": {"type": "Point", "coordinates": [-80.862076202, 36.316237709]}, "type": "Feature", "properties": {"collection_times": [{"days": "Mon-Fri", "time": "4:15pm"}, {"days": "Sat", "time": "10:00am"}, {"days": "Sun", "time": "Closed"}], "id": "2867600001", "name": "USPS COLLECTION BOX - BLUE BOX", "address": {"city": "STATE ROAD", "state": "NC", "street": "950 KLONDIKE RD", "postcode": "28676"}}},
{"geometry": {"type": "Point", "coordinates": [-80.8620762019, 36.3162377087]}, "type": "Feature", "properties": {"collection_times": [{"days": "Mon-Fri", "time": "4:15pm"}, {"days": "Sat", "time": "10:00am"}, {"days": "Sun", "time": "Closed"}], "id": "2867600002", "name": "USPS COLLECTION BOX - PO LOBBY", "address": {"city": "STATE ROAD", "state": "NC", "street": "950 KLONDIKE RD", "postcode": "28676"}}},
{"geometry": {"type": "Point", "coordinates": [-80.89035514, 35.785038213]}, "type": "Feature", "properties": {"collection_times": [{"days": "Mon-Fri", "time": "5:00pm"}, {"days": "Sat", "time": "12:00pm"}, {"days": "Sun", "time": "Closed"}], "id": "2867700003", "name": "USPS COLLECTION BOX - BLUE BOX", "address": {"city": "STATESVILLE", "state": "NC", "street": "120 MEETING ST", "postcode": "28677"}}},
{"geometry": {"type": "Point", "coordinates": [-80.9391247485, 35.7973845472]}, "type": "Feature", "properties": {"collection_times": [{"days": "Mon-Sat", "time": "9:00am"}, {"days": "Sun", "time": "Closed"}], "id": "2867700010", "name": "USPS COLLECTION BOX - BLUE BOX", "address": {"city": "STATESVILLE", "state": "NC", "street": "3219 TAYLORSVILLE HWY", "postcode": "28677"}}},
{"geometry": {"type": "Point", "coordinates": [-80.884444869, 35.769502588]}, "type": "Feature", "properties": {"collection_times": [{"days": "Mon-Sat", "time": "9:30am"}, {"days": "Sun", "time": "Closed"}], "id": "2867700021", "name": "USPS COLLECTION BOX - BLUE BOX", "address": {"city": "STATESVILLE", "state": "NC", "street": "1112 SHELTON AVE", "postcode": "28677"}}},
{"geometry": {"type": "Point", "coordinates": [-80.851433365, 35.79041419]}, "type": "Feature", "properties": {"collection_times": [{"days": "Mon-Fri", "time": "4:15pm"}, {"days": "Sat", "time": "12:00pm"}, {"days": "Sun", "time": "Closed"}], "id": "2867700026", "name": "USPS COLLECTION BOX - BLUE BOX", "address": {"city": "STATESVILLE", "state": "NC", "street": "1867 E BROAD ST", "postcode": "28677"}}},
{"geometry": {"type": "Point", "coordinates": [-80.876384131, 35.804275888]}, "type": "Feature", "properties": {"collection_times": [{"days": "Mon-Fri", "time": "3:15pm"}, {"days": "Sat", "time": "12:00pm"}, {"days": "Sun", "time": "Closed"}], "id": "2867700037", "name": "USPS COLLECTION BOX - BLUE BOX", "address": {"city": "STATESVILLE", "state": "NC", "street": "701 SULLIVAN RD", "postcode": "28677"}}},
{"geometry": {"type": "Point", "coordinates": [-80.870755908, 35.810639908]}, "type": "Feature", "properties": {"collection_times": [{"days": "Mon-Sat", "time": "9:30am"}, {"days": "Sun", "time": "Closed"}], "id": "2867700039", "name": "USPS COLLECTION BOX - BLUE BOX", "address": {"city": "STATESVILLE", "state": "NC", "street": "1070 CROSSROADS DR", "postcode": "28677"}}},
{"geometry": {"type": "Point", "coordinates": [-80.8795018975, 35.7987536526]}, "type": "Feature", "properties": {"collection_times": [{"days": "Mon-Fri", "time": "3:15pm"}, {"days": "Sat", "time": "10:00am"}, {"days": "Sun", "time": "Closed"}], "id": "2867700040", "name": "USPS COLLECTION BOX - BLUE BOX", "address": {"city": "STATESVILLE", "state": "NC", "street": "750 HARTNESS RD", "postcode": "28677"}}},
{"geometry": {"type": "Point", "coordinates": [-80.856776767, 35.7907033]}, "type": "Feature", "properties": {"collection_times": [{"days": "Mon-Fri", "time": "4:00pm"}, {"days": "Sat", "time": "12:00pm"}, {"days": "Sun", "time": "Closed"}], "id": "2867700047", "name": "USPS COLLECTION BOX - BLUE BOX", "address": {"city": "STATESVILLE", "state": "NC", "street": "1655 E BROAD ST", "postcode": "28677"}}},
{"geometry": {"type": "Point", "coordinates": [-80.8818014685, 35.7865937789]}, "type": "Feature", "properties": {"collection_times": [{"days": "Mon-Fri", "time": "4:00pm"}, {"days": "Sat", "time": "12:00pm"}, {"days": "Sun", "time": "Closed"}], "id": "2867700052", "name": "USPS COLLECTION BOX - BLUE BOX", "address": {"city": "STATESVILLE", "state": "NC", "street": "402 E BROAD ST", "postcode": "28677"}}},
{"geometry": {"type": "Point", "coordinates": [-80.885887738, 35.787160845]}, "type": "Feature", "properties": {"collection_times": [{"days": "Mon-Fri", "time": "3:15pm"}, {"days": "Sat", "time": "12:00pm"}, {"days": "Sun", "time": "Closed"}], "id": "2867700055", "name": "USPS COLLECTION BOX - BLUE BOX", "address": {"city": "STATESVILLE", "state": "NC", "street": "211 E WATER ST", "postcode": "28677"}}},
{"geometry": {"type": "Point", "coordinates": [-80.8537256801, 35.7685649619]}, "type": "Feature", "properties": {"collection_times": [{"days": "Mon-Fri", "time": "4:00pm"}, {"days": "Sat", "time": "12:00pm"}, {"days": "Sun", "time": "Closed"}], "id": "2867700058", "name": "USPS COLLECTION BOX - BLUE BOX", "address": {"city": "STATESVILLE", "state": "NC", "street": "1547 SALISBURY RD", "postcode": "28677"}}},
{"geometry": {"type": "Point", "coordinates": [-80.8869087795, 35.7839060884]}, "type": "Feature", "properties": {"collection_times": [{"days": "Mon-Fri", "time": "5:00pm"}, {"days": "Sat", "time": "12:00pm"}, {"days": "Sun", "time": "Closed"}], "id": "2867700065", "name": "USPS COLLECTION BOX - BLUE BOX", "address": {"city": "STATESVILLE", "state": "NC", "street": "204 COOPER ST", "postcode": "28677"}}},
{"geometry": {"type": "Point", "coordinates": [-80.88690878, 35.783906088]}, "type": "Feature", "properties": {"collection_times": [{"days": "Mon-Fri", "time": "5:00pm"}, {"days": "Sat", "time": "12:00pm"}, {"days": "Sun", "time": "Closed"}], "id": "2867700066", "name": "USPS COLLECTION BOX - BLUE BOX", "address": {"city": "STATESVILLE", "state": "NC", "street": "204 COOPER ST", "postcode": "28677"}}},
{"geometry": {"type": "Point", "coordinates": [-80.88690878, 35.783906088]}, "type": "Feature", "properties": {"collection_times": [{"days": "Mon-Fri", "time": "5:00pm"}, {"days": "Sat", "time": "12:00pm"}, {"days": "Sun", "time": "Closed"}], "id": "2867700067", "name": "USPS COLLECTION BOX - BLUE BOX", "address": {"city": "STATESVILLE", "state": "NC", "street": "204 COOPER ST", "postcode": "28677"}}},
{"geometry": {"type": "Point", "coordinates": [-80.88690878, 35.783906088]}, "type": "Feature", "properties": {"collection_times": [{"days": "Mon-Fri", "time": "5:00pm"}, {"days": "Sat", "time": "12:00pm"}, {"days": "Sun", "time": "Closed"}], "id": "2867700068", "name": "USPS COLLECTION BOX - BLUE BOX", "address": {"city": "STATESVILLE", "state": "NC", "street": "204 COOPER ST", "postcode": "28677"}}},
{"geometry": {"type": "Point", "coordinates": [-80.9104651113, 35.7777626306]}, "type": "Feature", "properties": {"collection_times": [{"days": "Mon-Fri", "time": "5:00pm"}, {"days": "Sat", "time": "12:00pm"}, {"days": "Sun", "time": "Closed"}], "id": "2867700071", "name": "USPS COLLECTION BOX - BLUE BOX", "address": {"city": "STATESVILLE", "state": "NC", "street": "301 S OAKLAND AVE", "postcode": "28677"}}},
{"geometry": {"type": "Point", "coordinates": [-80.9104651113, 35.7777626306]}, "type": "Feature", "properties": {"collection_times": [{"days": "Mon-Fri", "time": "5:00pm"}, {"days": "Sat", "time": "12:00pm"}, {"days": "Sun", "time": "Closed"}], "id": "2867700072", "name": "USPS COLLECTION BOX - BLUE BOX", "address": {"city": "STATESVILLE", "state": "NC", "street": "301 S OAKLAND AVE", "postcode": "28677"}}},
{"geometry": {"type": "Point", "coordinates": [-80.875941252, 35.819975894]}, "type": "Feature", "properties": {"collection_times": [{"days": "Mon-Fri", "time": "3:30pm"}, {"days": "Sat", "time": "12:00pm"}, {"days": "Sun", "time": "Closed"}], "id": "2867700076", "name": "USPS COLLECTION BOX - BLUE BOX", "address": {"city": "STATESVILLE", "state": "NC", "street": "318 TURNERSBURG HWY", "postcode": "28677"}}},
{"geometry": {"type": "Point", "coordinates": [-80.830945718, 35.818205782]}, "type": "Feature", "properties": {"collection_times": [{"days": "Mon-Fri", "time": "3:30pm"}, {"days": "Sat", "time": "12:00pm"}, {"days": "Sun", "time": "Closed"}], "id": "2867700079", "name": "USPS COLLECTION BOX - BLUE BOX", "address": {"city": "STATESVILLE", "state": "NC", "street": "218 OLD MOCKSVILLE RD", "postcode": "28677"}}},
{"geometry": {"type": "Point", "coordinates": [-80.851457619, 35.804835778]}, "type": "Feature", "properties": {"collection_times": [{"days": "Mon-Fri", "time": "3:30pm"}, {"days": "Sat", "time": "12:00pm"}, {"days": "Sun", "time": "Closed"}], "id": "2867700081", "name": "USPS COLLECTION BOX - BLUE BOX", "address": {"city": "STATESVILLE", "state": "NC", "street": "647 SIGNAL HILL DRIVE EXT", "postcode": "28677"}}},
{"geometry": {"type": "Point", "coordinates": [-80.8461380955, 35.8230083241]}, "type": "Feature", "properties": {"collection_times": [{"days": "Mon-Fri", "time": "3:30pm"}, {"days": "Sat", "time": "12:00pm"}, {"days": "Sun", "time": "Closed"}], "id": "2867700083", "name": "USPS COLLECTION BOX - BLUE BOX", "address": {"city": "STATESVILLE", "state": "NC", "street": "284 CRAWFORD RD", "postcode": "28677"}}},
{"geometry": {"type": "Point", "coordinates": [-80.910692987, 35.809625309]}, "type": "Feature", "properties": {"collection_times": [{"days": "Mon-Sat", "time": "10:00am"}, {"days": "Sun", "time": "Closed"}], "id": "2867700085", "name": "USPS COLLECTION BOX - BLUE BOX", "address": {"city": "STATESVILLE", "state": "NC", "street": "1737 WILKESBORO HWY", "postcode": "28677"}}},
{"geometry": {"type": "Point", "coordinates": [-80.889232826, 35.782174125]}, "type": "Feature", "properties": {"collection_times": [{"days": "Mon-Fri", "time": "5:00pm"}, {"days": "Sat", "time": "1:00pm"}, {"days": "Sun", "time": "Closed"}], "id": "2867700088", "name": "USPS COLLECTION BOX - BLUE BOX", "address": {"city": "STATESVILLE", "state": "NC", "street": "205 W FRONT ST", "postcode": "28677"}}},
{"geometry": {"type": "Point", "coordinates": [-80.869295435, 35.797716339]}, "type": "Feature", "properties": {"collection_times": [{"days": "Mon-Fri", "time": "3:30pm"}, {"days": "Sat", "time": "12:00pm"}, {"days": "Sun", "time": "Closed"}], "id": "2867700090", "name": "USPS COLLECTION BOX - BLUE BOX", "address": {"city": "STATESVILLE", "state": "NC", "street": "1318 DAVIE AVE", "postcode": "28677"}}},
{"geometry": {"type": "Point", "coordinates": [-80.910465111, 35.777762631]}, "type": "Feature", "properties": {"collection_times": [{"days": "Mon-Fri", "time": "5:00pm"}, {"days": "Sat", "time": "12:00pm"}, {"days": "Sun", "time": "Closed"}], "id": "2867700091", "name": "USPS COLLECTION BOX - PO LOBBY", "address": {"city": "STATESVILLE", "state": "NC", "street": "301 S OAKLAND AVE", "postcode": "28677"}}},
{"geometry": {"type": "Point", "coordinates": [-81.046860134, 35.862498293]}, "type": "Feature", "properties": {"collection_times": [{"days": "Mon-Fri", "time": "4:00pm"}, {"days": "Sat", "time": "12:00pm"}, {"days": "Sun", "time": "Closed"}], "id": "2867800001", "name": "USPS COLLECTION BOX - BLUE BOX", "address": {"city": "STONY POINT", "state": "NC", "street": "8814 NC HWY 90 E", "postcode": "28678"}}},
{"geometry": {"type": "Point", "coordinates": [-81.046860134, 35.862498293]}, "type": "Feature", "properties": {"collection_times": [{"days": "Mon-Fri", "time": "4:00pm"}, {"days": "Sat", "time": "12:00pm"}, {"days": "Sun", "time": "Closed"}], "id": "2867800002", "name": "USPS COLLECTION BOX - PO LOBBY", "address": {"city": "STONY POINT", "state": "NC", "street": "8814 NC HWY 90 E", "postcode": "28678"}}},
{"geometry": {"type": "Point", "coordinates": [-81.788893177, 36.253134245]}, "type": "Feature", "properties": {"collection_times": [{"days": "Mon-Fri", "time": "4:30pm"}, {"days": "Sat", "time": "11:00am"}, {"days": "Sun", "time": "Closed"}], "id": "2867900001", "name": "USPS COLLECTION BOX - BLUE BOX", "address": {"city": "SUGAR GROVE", "state": "NC", "street": "1205 US HIGHWAY 321 N", "postcode": "28679"}}},
{"geometry": {"type": "Point", "coordinates": [-81.788893177, 36.253134245]}, "type": "Feature", "properties": {"collection_times": [{"days": "Mon-Fri", "time": "4:30pm"}, {"days": "Sat", "time": "11:00am"}, {"days": "Sun", "time": "Closed"}], "id": "2867900002", "name": "USPS COLLECTION BOX - PO LOBBY", "address": {"city": "SUGAR GROVE", "state": "NC", "street": "1205 US HIGHWAY 321 N", "postcode": "28679"}}},
{"geometry": {"type": "Point", "coordinates": [-81.178647855, 35.920177566]}, "type": "Feature", "properties": {"collection_times": [{"days": "Mon-Fri", "time": "5:00pm"}, {"days": "Sat", "time": "12:00pm"}, {"days": "Sun", "time": "Closed"}], "id": "2868100001", "name": "USPS COLLECTION BOX - BLUE BOX", "address": {"city": "TAYLORSVILLE", "state": "NC", "street": "220 1ST AVE SW", "postcode": "28681"}}},
{"geometry": {"type": "Point", "coordinates": [-81.178647855, 35.920177566]}, "type": "Feature", "properties": {"collection_times": [{"days": "Mon-Fri", "time": "5:00pm"}, {"days": "Sat", "time": "12:00pm"}, {"days": "Sun", "time": "Closed"}], "id": "2868100010", "name": "USPS COLLECTION BOX - PO LOBBY", "address": {"city": "TAYLORSVILLE", "state": "NC", "street": "220 1ST AVE SW", "postcode": "28681"}}},
{"geometry": {"type": "Point", "coordinates": [-80.9780590457, 35.5888612004]}, "type": "Feature", "properties": {"collection_times": [{"days": "Mon-Fri", "time": "4:00pm"}, {"days": "Sat", "time": "11:00am"}, {"days": "Sun", "time": "Closed"}], "id": "2868200001", "name": "USPS COLLECTION BOX - BLUE BOX", "address": {"city": "TERRELL", "state": "NC", "street": "7985 NC HIGHWAY 150 E", "postcode": "28682"}}},
{"geometry": {"type": "Point", "coordinates": [-80.978059046, 35.5888612]}, "type": "Feature", "properties": {"collection_times": [{"days": "Mon-Fri", "time": "4:30pm"}, {"days": "Sat", "time": "11:00am"}, {"days": "Sun", "time": "Closed"}], "id": "2868200002", "name": "USPS COLLECTION BOX - PO LOBBY", "address": {"city": "TERRELL", "state": "NC", "street": "7985 NC HIGHWAY 150 E", "postcode": "28682"}}},
{"geometry": {"type": "Point", "coordinates": [-80.925462135, 36.365642973]}, "type": "Feature", "properties": {"collection_times": [{"days": "Mon-Fri", "time": "4:30pm"}, {"days": "Sat", "time": "10:30am"}, {"days": "Sun", "time": "Closed"}], "id": "2868300001", "name": "USPS COLLECTION BOX - PO LOBBY", "address": {"city": "THURMOND", "state": "NC", "street": "2301 THURMOND RD", "postcode": "28683"}}},
{"geometry": {"type": "Point", "coordinates": [-80.9254621347, 36.3656429734]}, "type": "Feature", "properties": {"collection_times": [{"days": "Mon-Fri", "time": "4:30pm"}, {"days": "Sat", "time": "10:30am"}, {"days": "Sun", "time": "Closed"}], "id": "2868300002", "name": "USPS COLLECTION BOX - BLUE BOX", "address": {"city": "THURMOND", "state": "NC", "street": "2301 THURMOND RD", "postcode": "28683"}}},
{"geometry": {"type": "Point", "coordinates": [-81.555187925, 36.338574321]}, "type": "Feature", "properties": {"collection_times": [{"days": "Mon-Fri", "time": "3:45pm"}, {"days": "Sat", "time": "10:45am"}, {"days": "Sun", "time": "Closed"}], "id": "2868400001", "name": "USPS COLLECTION BOX - BLUE BOX", "address": {"city": "TODD", "state": "NC", "street": "4021 TODD RR GRADE RD", "postcode": "28684"}}},
{"geometry": {"type": "Point", "coordinates": [-81.555187925, 36.338574321]}, "type": "Feature", "properties": {"collection_times": [{"days": "Mon-Fri", "time": "3:45pm"}, {"days": "Sat", "time": "11:00am"}, {"days": "Sun", "time": "Closed"}], "id": "2868400002", "name": "USPS COLLECTION BOX - PO LOBBY", "address": {"city": "TODD", "state": "NC", "street": "4021 TODD RR GRADE RD", "postcode": "28684"}}},
{"geometry": {"type": "Point", "coordinates": [-81.033678099, 36.345010911]}, "type": "Feature", "properties": {"collection_times": [{"days": "Mon-Fri", "time": "4:00pm"}, {"days": "Sat", "time": "10:30am"}, {"days": "Sun", "time": "Closed"}], "id": "2868500001", "name": "USPS COLLECTION BOX - BLUE BOX", "address": {"city": "TRAPHILL", "state": "NC", "street": "9550 TRAPHILL RD", "postcode": "28685"}}},
{"geometry": {"type": "Point", "coordinates": [-81.0336780988, 36.3450109105]}, "type": "Feature", "properties": {"collection_times": [{"days": "Mon-Fri", "time": "4:00pm"}, {"days": "Sat", "time": "10:30am"}, {"days": "Sun", "time": "Closed"}], "id": "2868500002", "name": "USPS COLLECTION BOX - PO LOBBY", "address": {"city": "TRAPHILL", "state": "NC", "street": "9550 TRAPHILL RD", "postcode": "28685"}}},
{"geometry": {"type": "Point", "coordinates": [-80.8062958338, 35.9092834446]}, "type": "Feature", "properties": {"collection_times": [{"days": "Mon-Fri", "time": "4:15pm"}, {"days": "Sat", "time": "10:45am"}, {"days": "Sun", "time": "Closed"}], "id": "2868800001", "name": "USPS COLLECTION BOX - BLUE BOX", "address": {"city": "TURNERSBURG", "state": "NC", "street": "2223 TURNERSBURG HWY", "postcode": "28688"}}},
{"geometry": {"type": "Point", "coordinates": [-80.806295834, 35.909283445]}, "type": "Feature", "properties": {"collection_times": [{"days": "Mon-Fri", "time": "4:15pm"}, {"days": "Sat", "time": "10:45am"}, {"days": "Sun", "time": "Closed"}], "id": "2868800002", "name": "USPS COLLECTION BOX - PO LOBBY", "address": {"city": "TURNERSBURG", "state": "NC", "street": "2223 TURNERSBURG HWY", "postcode": "28688"}}},
{"geometry": {"type": "Point", "coordinates": [-80.836617937, 36.048713414]}, "type": "Feature", "properties": {"collection_times": [{"days": "Mon-Fri", "time": "4:00pm"}, {"days": "Sat", "time": "10:00am"}, {"days": "Sun", "time": "Closed"}], "id": "2868900001", "name": "USPS COLLECTION BOX - BLUE BOX", "address": {"city": "UNION GROVE", "state": "NC", "street": "1501 UNION GROVE RD", "postcode": "28689"}}},
{"geometry": {"type": "Point", "coordinates": [-80.8366179371, 36.0487134137]}, "type": "Feature", "properties": {"collection_times": [{"days": "Mon-Fri", "time": "4:00pm"}, {"days": "Sat", "time": "10:00am"}, {"days": "Sun", "time": "Closed"}], "id": "2868900002", "name": "USPS COLLECTION BOX - PO LOBBY", "address": {"city": "UNION GROVE", "state": "NC", "street": "1501 UNION GROVE RD", "postcode": "28689"}}},
{"geometry": {"type": "Point", "coordinates": [-81.563121559, 35.741991645]}, "type": "Feature", "properties": {"collection_times": [{"days": "Mon-Fri", "time": "5:00pm"}, {"days": "Sat", "time": "12:00pm"}, {"days": "Sun", "time": "Closed"}], "id": "2869000002", "name": "USPS COLLECTION BOX - PO LOBBY", "address": {"city": "VALDESE", "state": "NC", "street": "300 RODORET ST S", "postcode": "28690"}}},
{"geometry": {"type": "Point", "coordinates": [-81.562532567, 35.743396246]}, "type": "Feature", "properties": {"collection_times": [{"days": "Mon-Sat", "time": "2:00pm"}, {"days": "Sun", "time": "Closed"}], "id": "2869000003", "name": "USPS COLLECTION BOX - BLUE BOX", "address": {"city": "VALDESE", "state": "NC", "street": "100 MAIN ST E", "postcode": "28690"}}},
{"geometry": {"type": "Point", "coordinates": [-81.575287738, 35.745536475]}, "type": "Feature", "properties": {"collection_times": [{"days": "Mon-Sat", "time": "10:00am"}, {"days": "Sun", "time": "Closed"}], "id": "2869000007", "name": "USPS COLLECTION BOX - BLUE BOX", "address": {"city": "VALDESE", "state": "NC", "street": "827 MAIN ST W", "postcode": "28690"}}},
{"geometry": {"type": "Point", "coordinates": [-81.5631215589, 35.7419916448]}, "type": "Feature", "properties": {"collection_times": [{"days": "Mon-Fri", "time": "5:00pm"}, {"days": "Sat", "time": "12:00pm"}, {"days": "Sun", "time": "Closed"}], "id": "2869000015", "name": "USPS COLLECTION BOX - BLUE BOX", "address": {"city": "VALDESE", "state": "NC", "street": "300 RODORET ST S", "postcode": "28690"}}},
{"geometry": {"type": "Point", "coordinates": [-81.7688883622, 36.2479678825]}, "type": "Feature", "properties": {"collection_times": [{"days": "Mon-Fri", "time": "4:15pm"}, {"days": "Sat", "time": "11:15am"}, {"days": "Sun", "time": "Closed"}], "id": "2869200001", "name": "USPS COLLECTION BOX - BLUE BOX", "address": {"city": "VILAS", "state": "NC", "street": "6141 US HIGHWAY 421 N", "postcode": "28692"}}},
{"geometry": {"type": "Point", "coordinates": [-81.768888362, 36.247967883]}, "type": "Feature", "properties": {"collection_times": [{"days": "Mon-Fri", "time": "4:15pm"}, {"days": "Sat", "time": "11:15am"}, {"days": "Sun", "time": "Closed"}], "id": "2869200002", "name": "USPS COLLECTION BOX - PO LOBBY", "address": {"city": "VILAS", "state": "NC", "street": "6141 US HIGHWAY 421 N", "postcode": "28692"}}},
{"geometry": {"type": "Point", "coordinates": [-81.518129069, 36.460931038]}, "type": "Feature", "properties": {"collection_times": [{"days": "Mon-Fri", "time": "4:00pm"}, {"days": "Sat", "time": "11:00am"}, {"days": "Sun", "time": "Closed"}], "id": "2869300001", "name": "USPS COLLECTION BOX - BLUE BOX", "address": {"city": "WARRENSVILLE", "state": "NC", "street": "122 NW SCHOOL RD", "postcode": "28693"}}},
{"geometry": {"type": "Point", "coordinates": [-81.518129069, 36.460931038]}, "type": "Feature", "properties": {"collection_times": [{"days": "Mon-Fri", "time": "4:00pm"}, {"days": "Sat", "time": "11:00am"}, {"days": "Sun", "time": "Closed"}], "id": "2869300002", "name": "USPS COLLECTION BOX - PO LOBBY", "address": {"city": "WARRENSVILLE", "state": "NC", "street": "122 NW SCHOOL RD", "postcode": "28693"}}},
{"geometry": {"type": "Point", "coordinates": [-81.489138987, 36.405365052]}, "type": "Feature", "properties": {"collection_times": [{"days": "Mon-Fri", "time": "4:15pm"}, {"days": "Sat", "time": "12:00pm"}, {"days": "Sun", "time": "Closed"}], "id": "2869400001", "name": "USPS COLLECTION BOX - BLUE BOX", "address": {"city": "WEST JEFFERSON", "state": "NC", "street": "419 E 2ND ST", "postcode": "28694"}}},
{"geometry": {"type": "Point", "coordinates": [-81.492200809, 36.401903457]}, "type": "Feature", "properties": {"collection_times": [{"days": "Mon-Fri", "time": "1:00pm"}, {"days": "Sat", "time": "12:00pm"}, {"days": "Sun", "time": "Closed"}], "id": "2869400002", "name": "USPS COLLECTION BOX - BLUE BOX", "address": {"city": "WEST JEFFERSON", "state": "NC", "street": "1 S JEFFERSON AVE", "postcode": "28694"}}},
{"geometry": {"type": "Point", "coordinates": [-81.482062095, 36.390840774]}, "type": "Feature", "properties": {"collection_times": [{"days": "Mon-Sat", "time": "12:00pm"}, {"days": "Sun", "time": "Closed"}], "id": "2869400004", "name": "USPS COLLECTION BOX - BLUE BOX", "address": {"city": "WEST JEFFERSON", "state": "NC", "street": "1489 MOUNT JEFFERSON RD", "postcode": "28694"}}},
{"geometry": {"type": "Point", "coordinates": [-81.4891389873, 36.4053650525]}, "type": "Feature", "properties": {"collection_times": [{"days": "Mon-Fri", "time": "4:30pm"}, {"days": "Sat", "time": "12:00pm"}, {"days": "Sun", "time": "Closed"}], "id": "2869400005", "name": "USPS COLLECTION BOX - PO LOBBY", "address": {"city": "WEST JEFFERSON", "state": "NC", "street": "419 E 2ND ST", "postcode": "28694"}}},
{"geometry": {"type": "Point", "coordinates": [-81.155093853, 36.147543785]}, "type": "Feature", "properties": {"collection_times": [{"days": "Mon-Fri", "time": "5:00pm"}, {"days": "Sat", "time": "12:00pm"}, {"days": "Sun", "time": "Closed"}], "id": "2869700001", "name": "USPS COLLECTION BOX - BLUE BOX", "address": {"city": "WILKESBORO", "state": "NC", "street": "207 W MAIN ST", "postcode": "28697"}}},
{"geometry": {"type": "Point", "coordinates": [-81.170595564, 36.147379971]}, "type": "Feature", "properties": {"collection_times": [{"days": "Mon-Sat", "time": "9:00am"}, {"days": "Sun", "time": "Closed"}], "id": "2869700002", "name": "USPS COLLECTION BOX - BLUE BOX", "address": {"city": "WILKESBORO", "state": "NC", "street": "798 CURTIS BRIDGE RD", "postcode": "28697"}}},
{"geometry": {"type": "Point", "coordinates": [-81.181764456, 36.136505142]}, "type": "Feature", "properties": {"collection_times": [{"days": "Mon-Fri", "time": "9:00am"}, {"days": "Sat-Sun", "time": "Closed"}], "id": "2869700006", "name": "USPS COLLECTION BOX - BLUE BOX", "address": {"city": "WILKESBORO", "state": "NC", "street": "1328 S COLLEGIATE DR", "postcode": "28697"}}},
{"geometry": {"type": "Point", "coordinates": [-81.177118692, 36.14136303]}, "type": "Feature", "properties": {"collection_times": [{"days": "Mon-Sat", "time": "9:00am"}, {"days": "Sun", "time": "Closed"}], "id": "2869700007", "name": "USPS COLLECTION BOX - BLUE BOX", "address": {"city": "WILKESBORO", "state": "NC", "street": "1207 RIVER ST", "postcode": "28697"}}},
{"geometry": {"type": "Point", "coordinates": [-81.150543661, 36.142006398]}, "type": "Feature", "properties": {"collection_times": [{"days": "Mon-Fri", "time": "9:30am"}, {"days": "Sat-Sun", "time": "Closed"}], "id": "2869700009", "name": "USPS COLLECTION BOX - BLUE BOX", "address": {"city": "WILKESBORO", "state": "NC", "street": "500 COURTHOUSE DR", "postcode": "28697"}}},
{"geometry": {"type": "Point", "coordinates": [-81.193233579, 36.150247113]}, "type": "Feature", "properties": {"collection_times": [{"days": "Mon-Sat", "time": "9:00am"}, {"days": "Sun", "time": "Closed"}], "id": "2869700010", "name": "USPS COLLECTION BOX - BLUE BOX", "address": {"city": "WILKESBORO", "state": "NC", "street": "1809 US HIGHWAY 421", "postcode": "28697"}}},
{"geometry": {"type": "Point", "coordinates": [-81.193931323, 36.150557821]}, "type": "Feature", "properties": {"collection_times": [{"days": "Mon-Sat", "time": "9:00am"}, {"days": "Sun", "time": "Closed"}], "id": "2869700011", "name": "USPS COLLECTION BOX - BLUE BOX", "address": {"city": "WILKESBORO", "state": "NC", "street": "1834 WINKLER ST", "postcode": "28697"}}},
{"geometry": {"type": "Point", "coordinates": [-81.1661593041, 36.1316938733]}, "type": "Feature", "properties": {"collection_times": [{"days": "Mon-Sat", "time": "12:30pm"}, {"days": "Sun", "time": "Closed"}], "id": "2869700012", "name": "USPS COLLECTION BOX - BLUE BOX", "address": {"city": "WILKESBORO", "state": "NC", "street": "1301 WESTWOOD LN", "postcode": "28697"}}},
{"geometry": {"type": "Point", "coordinates": [-81.1550938532, 36.1475437849]}, "type": "Feature", "properties": {"collection_times": [{"days": "Mon-Fri", "time": "5:00pm"}, {"days": "Sat", "time": "12:00pm"}, {"days": "Sun", "time": "Closed"}], "id": "2869700013", "name": "USPS COLLECTION BOX - PO LOBBY", "address": {"city": "WILKESBORO", "state": "NC", "street": "207 W MAIN ST", "postcode": "28697"}}},
{"geometry": {"type": "Point", "coordinates": [-81.735707155, 36.326480302]}, "type": "Feature", "properties": {"collection_times": [{"days": "Mon-Fri", "time": "4:15pm"}, {"days": "Sat", "time": "11:00am"}, {"days": "Sun", "time": "Closed"}], "id": "2869800001", "name": "USPS COLLECTION BOX - BLUE BOX", "address": {"city": "ZIONVILLE", "state": "NC", "street": "12416 US HIGHWAY 421 N", "postcode": "28698"}}},
{"geometry": {"type": "Point", "coordinates": [-81.735707155, 36.3264803015]}, "type": "Feature", "properties": {"collection_times": [{"days": "Mon-Fri", "time": "4:15pm"}, {"days": "Sat", "time": "11:00am"}, {"days": "Sun", "time": "Closed"}], "id": "2869800002", "name": "USPS COLLECTION BOX - PO LOBBY", "address": {"city": "ZIONVILLE", "state": "NC", "street": "12416 US HIGHWAY 421 N", "postcode": "28698"}}},
{"geometry": {"type": "Point", "coordinates": [-81.00938573, 35.842700582]}, "type": "Feature", "properties": {"collection_times": [{"days": "Mon-Fri", "time": "4:00pm"}, {"days": "Sat", "time": "11:00am"}, {"days": "Sun", "time": "Closed"}], "id": "2869900001", "name": "USPS COLLECTION BOX - BLUE BOX", "address": {"city": "SCOTTS", "state": "NC", "street": "4700 TAYLORSVILLE RD", "postcode": "28699"}}},
{"geometry": {"type": "Point", "coordinates": [-81.00938573, 35.842700582]}, "type": "Feature", "properties": {"collection_times": [{"days": "Mon-Fri", "time": "4:00pm"}, {"days": "Sat", "time": "11:00am"}, {"days": "Sun", "time": "Closed"}], "id": "2869900002", "name": "USPS COLLECTION BOX - PO LOBBY", "address": {"city": "SCOTTS", "state": "NC", "street": "4700 TAYLORSVILLE RD", "postcode": "28699"}}}
]}
