{"type": "FeatureCollection", "features": [
{"geometry": {"type": "Point", "coordinates": [-82.6179791512, 35.7070665492]}, "type": "Feature", "properties": {"collection_times": [{"days": "Mon-Fri", "time": "4:15pm"}, {"days": "Sat", "time": "10:00am"}, {"days": "Sun", "time": "Closed"}], "id": "2870100004", "name": "USPS COLLECTION BOX - PO LOBBY", "address": {"city": "ALEXANDER", "state": "NC", "street": "2350 OLD MARSHALL HWY", "postcode": "28701"}}},
{"geometry": {"type": "Point", "coordinates": [-83.6281268524, 35.3904922518]}, "type": "Feature", "properties": {"collection_times": [{"days": "Mon-Fri", "time": "4:30pm"}, {"days": "Sat", "time": "9:30am"}, {"days": "Sun", "time": "Closed"}], "id": "2870200001", "name": "USPS COLLECTION BOX - BLUE BOX", "address": {"city": "ALMOND", "state": "NC", "street": "1940 NC HIGHWAY 28 N", "postcode": "28702"}}},
{"geometry": {"type": "Point", "coordinates": [-83.6281268524, 35.3904922518]}, "type": "Feature", "properties": {"collection_times": [{"days": "Mon-Fri", "time": "4:30pm"}, {"days": "Sat", "time": "9:30am"}, {"days": "Sun", "time": "Closed"}], "id": "2870200002", "name": "USPS COLLECTION BOX - PO LOBBY", "address": {"city": "ALMOND", "state": "NC", "street": "1940 NC HIGHWAY 28 N", "postcode": "28702"}}},
{"geometry": {"type": "Point", "coordinates": [-83.6281268524, 35.3904922518]}, "type": "Feature", "properties": {"collection_times": [{"days": "Mon-Fri", "time": "4:30pm"}, {"days": "Sat", "time": "9:30am"}, {"days": "Sun", "time": "Closed"}], "id": "2870200003", "name": "USPS COLLECTION BOX - PO LOBBY", "address": {"city": "ALMOND", "state": "NC", "street": "1940 NC HIGHWAY 28 N", "postcode": "28702"}}},
{"geometry": {"type": "Point", "coordinates": [-82.5146098309, 35.4631699846]}, "type": "Feature", "properties": {"collection_times": [{"days": "Mon-Fri", "time": "5:00pm"}, {"days": "Sat", "time": "12:00pm"}, {"days": "Sun", "time": "Closed"}], "id": "2870400002", "name": "USPS COLLECTION BOX - BLUE BOX", "address": {"city": "ARDEN", "state": "NC", "street": "2385 HENDERSONVILLE RD", "postcode": "28704"}}},
{"geometry": {"type": "Point", "coordinates": [-82.5489333853, 35.4803075111]}, "type": "Feature", "properties": {"collection_times": [{"days": "Mon-Sat", "time": "10:00am"}, {"days": "Sun", "time": "Closed"}], "id": "2870400003", "name": "USPS COLLECTION BOX - BLUE BOX", "address": {"city": "ARDEN", "state": "NC", "street": "301 LONG SHOALS RD", "postcode": "28704"}}},
{"geometry": {"type": "Point", "coordinates": [-82.5146098309, 35.4631699846]}, "type": "Feature", "properties": {"collection_times": [{"days": "Mon-Fri", "time": "5:00pm"}, {"days": "Sat", "time": "12:00pm"}, {"days": "Sun", "time": "Closed"}], "id": "2870400005", "name": "USPS COLLECTION BOX - PO LOBBY", "address": {"city": "ARDEN", "state": "NC", "street": "2385 HENDERSONVILLE RD", "postcode": "28704"}}},
{"geometry": {"type": "Point", "coordinates": [-82.5146098309, 35.4631699846]}, "type": "Feature", "properties": {"collection_times": [{"days": "Mon-Fri", "time": "5:00pm"}, {"days": "Sat", "time": "12:00pm"}, {"days": "Sun", "time": "Closed"}], "id": "2870400006", "name": "USPS COLLECTION BOX - PO LOBBY", "address": {"city": "ARDEN", "state": "NC", "street": "2385 HENDERSONVILLE RD", "postcode": "28704"}}},
{"geometry": {"type": "Point", "coordinates": [-82.1539791445, 36.0257043303]}, "type": "Feature", "properties": {"collection_times": [{"days": "Mon-Fri", "time": "4:20pm"}, {"days": "Sat", "time": "10:00am"}, {"days": "Sun", "time": "Closed"}], "id": "2870500004", "name": "USPS COLLECTION BOX - PO LOBBY", "address": {"city": "BAKERSVILLE", "state": "NC", "street": "130 HEMLOCK DR", "postcode": "28705"}}},
{"geometry": {"type": "Point", "coordinates": [-82.1565539757, 36.0145730475]}, "type": "Feature", "properties": {"collection_times": [{"days": "Mon-Fri", "time": "4:20pm"}, {"days": "Sat", "time": "10:00am"}, {"days": "Sun", "time": "Closed"}], "id": "2870500005", "name": "USPS COLLECTION BOX - PO LOBBY", "address": {"city": "BAKERSVILLE", "state": "NC", "street": "130 HEMLOCK DR", "postcode": "28705"}}},
{"geometry": {"type": "Point", "coordinates": [-82.1565539757, 36.0145730475]}, "type": "Feature", "properties": {"collection_times": [{"days": "Mon-Fri", "time": "4:20pm"}, {"days": "Sat", "time": "10:00am"}, {"days": "Sun", "time": "Closed"}], "id": "2870500008", "name": "USPS COLLECTION BOX - BLUE BOX", "address": {"city": "BAKERSVILLE", "state": "NC", "street": "130 HEMLOCK DR", "postcode": "28705"}}},
{"geometry": {"type": "Point", "coordinates": [-83.0807961805, 35.4314525619]}, "type": "Feature", "properties": {"collection_times": [{"days": "Mon-Fri", "time": "4:30pm"}, {"days": "Sat-Sun", "time": "Closed"}], "id": "2870700001", "name": "USPS COLLECTION BOX - BLUE BOX", "address": {"city": "BALSAM", "state": "NC", "street": "103 CABIN FLATS RD", "postcode": "28707"}}},
{"geometry": {"type": "Point", "coordinates": [-83.0807961805, 35.4314525619]}, "type": "Feature", "properties": {"collection_times": [{"days": "Mon-Fri", "time": "4:30pm"}, {"days": "Sat", "time": "9:00am"}, {"days": "Sun", "time": "Closed"}], "id": "2870700002", "name": "USPS COLLECTION BOX - PO LOBBY", "address": {"city": "BALSAM", "state": "NC", "street": "103 CABIN FLATS RD", "postcode": "28707"}}},
{"geometry": {"type": "Point", "coordinates": [-82.8822076169, 35.2438288773]}, "type": "Feature", "properties": {"collection_times": [{"days": "Mon-Fri", "time": "12:45pm"}, {"days": "Sat", "time": "12:00pm"}, {"days": "Sun", "time": "Closed"}], "id": "2870800002", "name": "USPS COLLECTION BOX - PO LOBBY", "address": {"city": "BALSAM GROVE", "state": "NC", "street": "8125 PARKWAY RD", "postcode": "28708"}}},
{"geometry": {"type": "Point", "coordinates": [-82.4554938226, 35.7779068639]}, "type": "Feature", "properties": {"collection_times": [{"days": "Mon-Fri", "time": "4:30pm"}, {"days": "Sat", "time": "10:30am"}, {"days": "Sun", "time": "Closed"}], "id": "2870900002", "name": "USPS COLLECTION BOX - BLUE BOX", "address": {"city": "BARNARDSVILLE", "state": "NC", "street": "1664 BARNARDSVILLE HWY", "postcode": "28709"}}},
{"geometry": {"type": "Point", "coordinates": [-82.4354790158, 35.7689840254]}, "type": "Feature", "properties": {"collection_times": [{"days": "Mon-Fri", "time": "4:30pm"}, {"days": "Sat", "time": "10:30am"}, {"days": "Sun", "time": "Closed"}], "id": "2870900003", "name": "USPS COLLECTION BOX - PO LOBBY", "address": {"city": "BARNARDSVILLE", "state": "NC", "street": "1664 BARNARDSVILLE HWY", "postcode": "28709"}}},
{"geometry": {"type": "Point", "coordinates": [-82.2869086421, 35.4518843722]}, "type": "Feature", "properties": {"collection_times": [{"days": "Mon-Fri", "time": "4:00pm"}, {"days": "Sat", "time": "10:00am"}, {"days": "Sun", "time": "Closed"}], "id": "2871000001", "name": "USPS COLLECTION BOX - BLUE BOX", "address": {"city": "BAT CAVE", "state": "NC", "street": "89 LAKE LURE HWY", "postcode": "28710"}}},
{"geometry": {"type": "Point", "coordinates": [-82.2869086421, 35.4518843722]}, "type": "Feature", "properties": {"collection_times": [{"days": "Mon-Fri", "time": "4:00pm"}, {"days": "Sat", "time": "10:00am"}, {"days": "Sun", "time": "Closed"}], "id": "2871000002", "name": "USPS COLLECTION BOX - PO LOBBY", "address": {"city": "BAT CAVE", "state": "NC", "street": "89 LAKE LURE HWY", "postcode": "28710"}}},
{"geometry": {"type": "Point", "coordinates": [-82.2869086421, 35.4518843722]}, "type": "Feature", "properties": {"collection_times": [{"days": "Mon-Fri", "time": "4:00pm"}, {"days": "Sat", "time": "10:00am"}, {"days": "Sun", "time": "Closed"}], "id": "2871000003", "name": "USPS COLLECTION BOX - PO LOBBY", "address": {"city": "BAT CAVE", "state": "NC", "street": "89 LAKE LURE HWY", "postcode": "28710"}}},
{"geometry": {"type": "Point", "coordinates": [-82.3096693816, 35.6007019624]}, "type": "Feature", "properties": {"collection_times": [{"days": "Mon-Fri", "time": "5:00pm"}, {"days": "Sat", "time": "3:00pm"}, {"days": "Sun", "time": "Closed"}], "id": "2871100002", "name": "USPS COLLECTION BOX - BLUE BOX", "address": {"city": "BLACK MOUNTAIN", "state": "NC", "street": "106 RICHARDSON BLVD", "postcode": "28711"}}},
{"geometry": {"type": "Point", "coordinates": [-82.3506670968, 35.6143249323]}, "type": "Feature", "properties": {"collection_times": [{"days": "Mon-Sat", "time": "10:00am"}, {"days": "Sun", "time": "Closed"}], "id": "2871100007", "name": "USPS COLLECTION BOX - BLUE BOX", "address": {"city": "BLACK MOUNTAIN", "state": "NC", "street": "200 TABERNACLE RD", "postcode": "28711"}}},
{"geometry": {"type": "Point", "coordinates": [-82.3191270449, 35.6180997543]}, "type": "Feature", "properties": {"collection_times": [{"days": "Mon-Fri", "time": "5:00pm"}, {"days": "Sat", "time": "3:00pm"}, {"days": "Sun", "time": "Closed"}], "id": "2871100013", "name": "USPS COLLECTION BOX - PO LOBBY", "address": {"city": "BLACK MOUNTAIN", "state": "NC", "street": "106 RICHARDSON BLVD", "postcode": "28711"}}},
{"geometry": {"type": "Point", "coordinates": [-82.3191270449, 35.6180997543]}, "type": "Feature", "properties": {"collection_times": [{"days": "Mon-Fri", "time": "5:00pm"}, {"days": "Sat", "time": "3:00pm"}, {"days": "Sun", "time": "Closed"}], "id": "2871100014", "name": "USPS COLLECTION BOX - PO LOBBY", "address": {"city": "BLACK MOUNTAIN", "state": "NC", "street": "106 RICHARDSON BLVD", "postcode": "28711"}}},
{"geometry": {"type": "Point", "coordinates": [-82.7381942027, 35.2354653144]}, "type": "Feature", "properties": {"collection_times": [{"days": "Mon-Fri", "time": "4:45pm"}, {"days": "Sat", "time": "12:00pm"}, {"days": "Sun", "time": "Closed"}], "id": "2871200001", "name": "USPS COLLECTION BOX - BLUE BOX", "address": {"city": "BREVARD", "state": "NC", "street": "211 W MAIN ST", "postcode": "28712"}}},
{"geometry": {"type": "Point", "coordinates": [-82.7381942027, 35.2354653144]}, "type": "Feature", "properties": {"collection_times": [{"days": "Mon-Fri", "time": "4:45pm"}, {"days": "Sat", "time": "12:00pm"}, {"days": "Sun", "time": "Closed"}], "id": "2871200002", "name": "USPS COLLECTION BOX - BLUE BOX", "address": {"city": "BREVARD", "state": "NC", "street": "211 W MAIN ST", "postcode": "28712"}}},
{"geometry": {"type": "Point", "coordinates": [-82.7381942027, 35.2354653144]}, "type": "Feature", "properties": {"collection_times": [{"days": "Mon-Fri", "time": "4:45pm"}, {"days": "Sat", "time": "12:00pm"}, {"days": "Sun", "time": "Closed"}], "id": "2871200021", "name": "USPS COLLECTION BOX - PO LOBBY", "address": {"city": "BREVARD", "state": "NC", "street": "211 W MAIN ST", "postcode": "28712"}}},
{"geometry": {"type": "Point", "coordinates": [-82.7381942027, 35.2354653144]}, "type": "Feature", "properties": {"collection_times": [{"days": "Mon-Fri", "time": "4:45pm"}, {"days": "Sat", "time": "12:00pm"}, {"days": "Sun", "time": "Closed"}], "id": "2871200022", "name": "USPS COLLECTION BOX - PO LOBBY", "address": {"city": "BREVARD", "state": "NC", "street": "211 W MAIN ST", "postcode": "28712"}}},
{"geometry": {"type": "Point", "coordinates": [-83.4495378387, 35.428069634]}, "type": "Feature", "properties": {"collection_times": [{"days": "Mon-Fri", "time": "4:30pm"}, {"days": "Sat", "time": "3:00pm"}, {"days": "Sun", "time": "Closed"}], "id": "2871300002", "name": "USPS COLLECTION BOX - BLUE BOX", "address": {"city": "BRYSON CITY", "state": "NC", "street": "130 SLOPE ST", "postcode": "28713"}}},
{"geometry": {"type": "Point", "coordinates": [-83.4789798817, 35.3941708159]}, "type": "Feature", "properties": {"collection_times": [{"days": "Mon-Fri", "time": "4:30pm"}, {"days": "Sat", "time": "3:00pm"}, {"days": "Sun", "time": "Closed"}], "id": "2871300003", "name": "USPS COLLECTION BOX - PO LOBBY", "address": {"city": "BRYSON CITY", "state": "NC", "street": "130 SLOPE ST", "postcode": "28713"}}},
{"geometry": {"type": "Point", "coordinates": [-83.4495378387, 35.428069634]}, "type": "Feature", "properties": {"collection_times": [{"days": "Mon-Fri", "time": "4:30pm"}, {"days": "Sat", "time": "3:00pm"}, {"days": "Sun", "time": "Closed"}], "id": "2871300004", "name": "USPS COLLECTION BOX - PO LOBBY", "address": {"city": "BRYSON CITY", "state": "NC", "street": "130 SLOPE ST", "postcode": "28713"}}},
{"geometry": {"type": "Point", "coordinates": [-82.3105810251, 35.9141815456]}, "type": "Feature", "properties": {"collection_times": [{"days": "Mon-Fri", "time": "3:15pm"}, {"days": "Sat", "time": "12:00pm"}, {"days": "Sun", "time": "Closed"}], "id": "2871400004", "name": "USPS COLLECTION BOX - BLUE BOX", "address": {"city": "BURNSVILLE", "state": "NC", "street": "670 W MAIN ST", "postcode": "28714"}}},
{"geometry": {"type": "Point", "coordinates": [-82.3105810251, 35.9141815456]}, "type": "Feature", "properties": {"collection_times": [{"days": "Mon-Fri", "time": "3:15pm"}, {"days": "Sat", "time": "12:00pm"}, {"days": "Sun", "time": "Closed"}], "id": "2871400005", "name": "USPS COLLECTION BOX - BLUE BOX", "address": {"city": "BURNSVILLE", "state": "NC", "street": "670 W MAIN ST", "postcode": "28714"}}},
{"geometry": {"type": "Point", "coordinates": [-82.3105810251, 35.9141815456]}, "type": "Feature", "properties": {"collection_times": [{"days": "Mon-Fri", "time": "3:15pm"}, {"days": "Sat", "time": "12:00pm"}, {"days": "Sun", "time": "Closed"}], "id": "2871400006", "name": "USPS COLLECTION BOX - PO LOBBY", "address": {"city": "BURNSVILLE", "state": "NC", "street": "670 W MAIN ST", "postcode": "28714"}}},
{"geometry": {"type": "Point", "coordinates": [-82.3105810251, 35.9141815456]}, "type": "Feature", "properties": {"collection_times": [{"days": "Mon-Fri", "time": "3:15pm"}, {"days": "Sat", "time": "12:00pm"}, {"days": "Sun", "time": "Closed"}], "id": "2871400007", "name": "USPS COLLECTION BOX - PO LOBBY", "address": {"city": "BURNSVILLE", "state": "NC", "street": "670 W MAIN ST", "postcode": "28714"}}},
{"geometry": {"type": "Point", "coordinates": [-82.3105810251, 35.9141815456]}, "type": "Feature", "properties": {"collection_times": [{"days": "Mon-Fri", "time": "3:15pm"}, {"days": "Sat", "time": "12:00pm"}, {"days": "Sun", "time": "Closed"}], "id": "2871400008", "name": "USPS COLLECTION BOX - PO LOBBY", "address": {"city": "BURNSVILLE", "state": "NC", "street": "670 W MAIN ST", "postcode": "28714"}}},
{"geometry": {"type": "Point", "coordinates": [-82.664193325, 35.545876523]}, "type": "Feature", "properties": {"collection_times": [{"days": "Mon-Fri", "time": "4:30pm"}, {"days": "Sat", "time": "12:00pm"}, {"days": "Sun", "time": "Closed"}], "id": "2871500002", "name": "USPS COLLECTION BOX - BLUE BOX", "address": {"city": "CANDLER", "state": "NC", "street": "99 RUTHERFORD RD", "postcode": "28715"}}},
{"geometry": {"type": "Point", "coordinates": [-82.7163778526, 35.5144116998]}, "type": "Feature", "properties": {"collection_times": [{"days": "Mon-Sat", "time": "11:00am"}, {"days": "Sun", "time": "Closed"}], "id": "2871500003", "name": "USPS COLLECTION BOX - BLUE BOX", "address": {"city": "CANDLER", "state": "NC", "street": "32 WESTRIDGE MARKET PL", "postcode": "28715"}}},
{"geometry": {"type": "Point", "coordinates": [-82.6974785025, 35.5326331062]}, "type": "Feature", "properties": {"collection_times": [{"days": "Mon-Fri", "time": "4:30pm"}, {"days": "Sat", "time": "12:00pm"}, {"days": "Sun", "time": "Closed"}], "id": "2871500005", "name": "USPS COLLECTION BOX - PO LOBBY", "address": {"city": "CANDLER", "state": "NC", "street": "99 RUTHERFORD RD", "postcode": "28715"}}},
{"geometry": {"type": "Point", "coordinates": [-82.6641251975, 35.5457310567]}, "type": "Feature", "properties": {"collection_times": [{"days": "Mon-Fri", "time": "4:30pm"}, {"days": "Sat", "time": "12:00pm"}, {"days": "Sun", "time": "Closed"}], "id": "2871500006", "name": "USPS COLLECTION BOX - PO LOBBY", "address": {"city": "CANDLER", "state": "NC", "street": "99 RUTHERFORD RD", "postcode": "28715"}}},
{"geometry": {"type": "Point", "coordinates": [-82.8404381335, 35.5322346778]}, "type": "Feature", "properties": {"collection_times": [{"days": "Mon-Fri", "time": "3:00pm"}, {"days": "Sat", "time": "10:00am"}, {"days": "Sun", "time": "Closed"}], "id": "2871600003", "name": "USPS COLLECTION BOX - BLUE BOX", "address": {"city": "CANTON", "state": "NC", "street": "183 PARK ST", "postcode": "28716"}}},
{"geometry": {"type": "Point", "coordinates": [-82.8404381335, 35.5322346778]}, "type": "Feature", "properties": {"collection_times": [{"days": "Mon-Fri", "time": "3:00pm"}, {"days": "Sat", "time": "10:00am"}, {"days": "Sun", "time": "Closed"}], "id": "2871600004", "name": "USPS COLLECTION BOX - BLUE BOX", "address": {"city": "CANTON", "state": "NC", "street": "183 PARK ST", "postcode": "28716"}}},
{"geometry": {"type": "Point", "coordinates": [-82.8401858631, 35.5083619055]}, "type": "Feature", "properties": {"collection_times": [{"days": "Mon-Fri", "time": "3:00pm"}, {"days": "Sat", "time": "10:00am"}, {"days": "Sun", "time": "Closed"}], "id": "2871600015", "name": "USPS COLLECTION BOX - PO LOBBY", "address": {"city": "CANTON", "state": "NC", "street": "183 PARK ST", "postcode": "28716"}}},
{"geometry": {"type": "Point", "coordinates": [-82.8404381335, 35.5322346778]}, "type": "Feature", "properties": {"collection_times": [{"days": "Mon-Fri", "time": "3:00pm"}, {"days": "Sat", "time": "10:00am"}, {"days": "Sun", "time": "Closed"}], "id": "2871600016", "name": "USPS COLLECTION BOX - PO LOBBY", "address": {"city": "CANTON", "state": "NC", "street": "183 PARK ST", "postcode": "28716"}}},
{"geometry": {"type": "Point", "coordinates": [-83.1015749638, 35.1104238957]}, "type": "Feature", "properties": {"collection_times": [{"days": "Mon-Fri", "time": "4:00pm"}, {"days": "Sat", "time": "12:00pm"}, {"days": "Sun", "time": "Closed"}], "id": "2871700004", "name": "USPS COLLECTION BOX - BLUE BOX", "address": {"city": "CASHIERS", "state": "NC", "street": "230 FRANK ALLEN RD", "postcode": "28717"}}},
{"geometry": {"type": "Point", "coordinates": [-83.1015749638, 35.1104238957]}, "type": "Feature", "properties": {"collection_times": [{"days": "Mon-Fri", "time": "4:00pm"}, {"days": "Sat", "time": "12:00pm"}, {"days": "Sun", "time": "Closed"}], "id": "2871700005", "name": "USPS COLLECTION BOX - BLUE BOX", "address": {"city": "CASHIERS", "state": "NC", "street": "230 FRANK ALLEN RD", "postcode": "28717"}}},
{"geometry": {"type": "Point", "coordinates": [-83.0770809809, 35.1243284706]}, "type": "Feature", "properties": {"collection_times": [{"days": "Mon-Sat", "time": "11:00am"}, {"days": "Sun", "time": "Closed"}], "id": "2871700007", "name": "USPS COLLECTION BOX - BLUE BOX", "address": {"city": "CASHIERS", "state": "NC", "street": "815 US HIGHWAY 64 E", "postcode": "28717"}}},
{"geometry": {"type": "Point", "coordinates": [-83.1155375517, 35.1050324249]}, "type": "Feature", "properties": {"collection_times": [{"days": "Mon-Fri", "time": "4:00pm"}, {"days": "Sat", "time": "12:00pm"}, {"days": "Sun", "time": "Closed"}], "id": "2871700008", "name": "USPS COLLECTION BOX - PO LOBBY", "address": {"city": "CASHIERS", "state": "NC", "street": "230 FRANK ALLEN RD", "postcode": "28717"}}},
{"geometry": {"type": "Point", "coordinates": [-83.1015749638, 35.1104238957]}, "type": "Feature", "properties": {"collection_times": [{"days": "Mon-Fri", "time": "4:00pm"}, {"days": "Sat", "time": "12:00pm"}, {"days": "Sun", "time": "Closed"}], "id": "2871700009", "name": "USPS COLLECTION BOX - PO LOBBY", "address": {"city": "CASHIERS", "state": "NC", "street": "230 FRANK ALLEN RD", "postcode": "28717"}}},
{"geometry": {"type": "Point", "coordinates": [-83.0937269856, 35.0396080812]}, "type": "Feature", "properties": {"collection_times": [{"days": "Mon-Sat", "time": "11:45am"}, {"days": "Sun", "time": "Closed"}], "id": "2871700011", "name": "USPS COLLECTION BOX - BLUE BOX", "address": {"city": "CASHIERS", "state": "NC", "street": "48 LINKS DR", "postcode": "28717"}}},
{"geometry": {"type": "Point", "coordinates": [-82.6466778396, 35.1476715327]}, "type": "Feature", "properties": {"collection_times": [{"days": "Mon-Fri", "time": "4:00pm"}, {"days": "Sat", "time": "10:30am"}, {"days": "Sun", "time": "Closed"}], "id": "2871800001", "name": "USPS COLLECTION BOX - BLUE BOX", "address": {"city": "CEDAR MOUNTAIN", "state": "NC", "street": "9515 GREENVILLE HWY", "postcode": "28718"}}},
{"geometry": {"type": "Point", "coordinates": [-82.6466778396, 35.1476715327]}, "type": "Feature", "properties": {"collection_times": [{"days": "Mon-Fri", "time": "4:00pm"}, {"days": "Sat", "time": "10:30am"}, {"days": "Sun", "time": "Closed"}], "id": "2871800004", "name": "USPS COLLECTION BOX - PO LOBBY", "address": {"city": "CEDAR MOUNTAIN", "state": "NC", "street": "9515 GREENVILLE HWY", "postcode": "28718"}}},
{"geometry": {"type": "Point", "coordinates": [-82.6466778396, 35.1476715327]}, "type": "Feature", "properties": {"collection_times": [{"days": "Mon-Fri", "time": "4:00pm"}, {"days": "Sat", "time": "10:30am"}, {"days": "Sun", "time": "Closed"}], "id": "2871800005", "name": "USPS COLLECTION BOX - PO LOBBY", "address": {"city": "CEDAR MOUNTAIN", "state": "NC", "street": "9515 GREENVILLE HWY", "postcode": "28718"}}},
{"geometry": {"type": "Point", "coordinates": [-83.2165510084, 35.6154820832]}, "type": "Feature", "properties": {"collection_times": [{"days": "Mon-Fri", "time": "4:30pm"}, {"days": "Sat", "time": "11:30am"}, {"days": "Sun", "time": "Closed"}], "id": "2871900002", "name": "USPS COLLECTION BOX - BLUE BOX", "address": {"city": "CHEROKEE", "state": "NC", "street": "@ N HWY 441", "postcode": "28719"}}},
{"geometry": {"type": "Point", "coordinates": [-83.2165510084, 35.6154820832]}, "type": "Feature", "properties": {"collection_times": [{"days": "Mon-Fri", "time": "4:30pm"}, {"days": "Sat", "time": "11:30am"}, {"days": "Sun", "time": "Closed"}], "id": "2871900004", "name": "USPS COLLECTION BOX - PO LOBBY", "address": {"city": "CHEROKEE", "state": "NC", "street": "@ N  HWY 441", "postcode": "28719"}}},
{"geometry": {"type": "Point", "coordinates": [-83.2165510084, 35.6154820832]}, "type": "Feature", "properties": {"collection_times": [{"days": "Mon-Fri", "time": "4:30pm"}, {"days": "Sat", "time": "11:30am"}, {"days": "Sun", "time": "Closed"}], "id": "2871900005", "name": "USPS COLLECTION BOX - PO LOBBY", "address": {"city": "CHEROKEE", "state": "NC", "street": "@ N HWY 441", "postcode": "28719"}}},
{"geometry": {"type": "Point", "coordinates": [-82.2460578982, 35.4387975684]}, "type": "Feature", "properties": {"collection_times": [{"days": "Mon-Fri", "time": "4:15pm"}, {"days": "Sat", "time": "9:30am"}, {"days": "Sun", "time": "Closed"}], "id": "2872000001", "name": "USPS COLLECTION BOX - BLUE BOX", "address": {"city": "CHIMNEY ROCK", "state": "NC", "street": "366 MAIN ST", "postcode": "28720"}}},
{"geometry": {"type": "Point", "coordinates": [-82.2460578982, 35.4387975684]}, "type": "Feature", "properties": {"collection_times": [{"days": "Mon-Fri", "time": "4:15pm"}, {"days": "Sat", "time": "9:30am"}, {"days": "Sun", "time": "Closed"}], "id": "2872000002", "name": "USPS COLLECTION BOX - PO LOBBY", "address": {"city": "CHIMNEY ROCK", "state": "NC", "street": "366 MAIN ST", "postcode": "28720"}}},
{"geometry": {"type": "Point", "coordinates": [-82.9151987741, 35.532432232]}, "type": "Feature", "properties": {"collection_times": [{"days": "Mon-Fri", "time": "4:30pm"}, {"days": "Sat", "time": "12:00pm"}, {"days": "Sun", "time": "Closed"}], "id": "2872100003", "name": "USPS COLLECTION BOX - BLUE BOX", "address": {"city": "CLYDE", "state": "NC", "street": "8639 CAROLINA BLVD", "postcode": "28721"}}},
{"geometry": {"type": "Point", "coordinates": [-82.9548101551, 35.5254291149]}, "type": "Feature", "properties": {"collection_times": [{"days": "Mon-Sat", "time": "12:00pm"}, {"days": "Sun", "time": "Closed"}], "id": "2872100005", "name": "USPS COLLECTION BOX - BLUE BOX", "address": {"city": "CLYDE", "state": "NC", "street": "201 PARAGON PKWY", "postcode": "28721"}}},
{"geometry": {"type": "Point", "coordinates": [-82.9486057958, 35.5269686721]}, "type": "Feature", "properties": {"collection_times": [{"days": "Mon-Sat", "time": "1:00pm"}, {"days": "Sun", "time": "Closed"}], "id": "2872100006", "name": "USPS COLLECTION BOX - BLUE BOX", "address": {"city": "CLYDE", "state": "NC", "street": "2 SPICEWOOD DR", "postcode": "28721"}}},
{"geometry": {"type": "Point", "coordinates": [-82.9439979101, 35.5257556116]}, "type": "Feature", "properties": {"collection_times": [{"days": "Mon-Sat", "time": "1:15pm"}, {"days": "Sun", "time": "Closed"}], "id": "2872100007", "name": "USPS COLLECTION BOX - BLUE BOX", "address": {"city": "CLYDE", "state": "NC", "street": "262 LEROY GEORGE DR", "postcode": "28721"}}},
{"geometry": {"type": "Point", "coordinates": [-82.9240488143, 35.5825528744]}, "type": "Feature", "properties": {"collection_times": [{"days": "Mon-Fri", "time": "4:30pm"}, {"days": "Sat", "time": "12:00pm"}, {"days": "Sun", "time": "Closed"}], "id": "2872100008", "name": "USPS COLLECTION BOX - PO LOBBY", "address": {"city": "CLYDE", "state": "NC", "street": "8639 CAROLINA BLVD", "postcode": "28721"}}},
{"geometry": {"type": "Point", "coordinates": [-82.9151987741, 35.532432232]}, "type": "Feature", "properties": {"collection_times": [{"days": "Mon-Fri", "time": "4:30pm"}, {"days": "Sat", "time": "12:00pm"}, {"days": "Sun", "time": "Closed"}], "id": "2872100009", "name": "USPS COLLECTION BOX - PO LOBBY", "address": {"city": "CLYDE", "state": "NC", "street": "8639 CAROLINA BLVD", "postcode": "28721"}}},
{"geometry": {"type": "Point", "coordinates": [-82.1987563079, 35.2503750136]}, "type": "Feature", "properties": {"collection_times": [{"days": "Mon-Fri", "time": "4:15pm"}, {"days": "Sat", "time": "11:00am"}, {"days": "Sun", "time": "Closed"}], "id": "2872200003", "name": "USPS COLLECTION BOX - BLUE BOX", "address": {"city": "COLUMBUS", "state": "NC", "street": "126 WARD ST", "postcode": "28722"}}},
{"geometry": {"type": "Point", "coordinates": [-82.1987563079, 35.2503750136]}, "type": "Feature", "properties": {"collection_times": [{"days": "Mon-Fri", "time": "4:15pm"}, {"days": "Sat", "time": "11:00am"}, {"days": "Sun", "time": "Closed"}], "id": "2872200005", "name": "USPS COLLECTION BOX - PO LOBBY", "address": {"city": "COLUMBUS", "state": "NC", "street": "126 WARD ST", "postcode": "28722"}}},
{"geometry": {"type": "Point", "coordinates": [-82.1987563079, 35.2503750136]}, "type": "Feature", "properties": {"collection_times": [{"days": "Mon-Fri", "time": "4:15pm"}, {"days": "Sat", "time": "11:00am"}, {"days": "Sun", "time": "Closed"}], "id": "2872200006", "name": "USPS COLLECTION BOX - PO LOBBY", "address": {"city": "COLUMBUS", "state": "NC", "street": "126 WARD ST", "postcode": "28722"}}},
{"geometry": {"type": "Point", "coordinates": [-83.0335283246, 35.3311417995]}, "type": "Feature", "properties": {"collection_times": [{"days": "Mon-Fri", "time": "4:30pm"}, {"days": "Sat", "time": "12:00pm"}, {"days": "Sun", "time": "Closed"}], "id": "2872300003", "name": "USPS COLLECTION BOX - BLUE BOX", "address": {"city": "CULLOWHEE", "state": "NC", "street": "4710 LITTLE SAVANNAH RD", "postcode": "28723"}}},
{"geometry": {"type": "Point", "coordinates": [-83.1761981734, 35.2556607306]}, "type": "Feature", "properties": {"collection_times": [{"days": "Mon-Fri", "time": "1:00pm"}, {"days": "Sat", "time": "12:00pm"}, {"days": "Sun", "time": "Closed"}], "id": "2872300007", "name": "USPS COLLECTION BOX - BLUE BOX", "address": {"city": "CULLOWHEE", "state": "NC", "street": "CENTENNIAL DR", "postcode": "28723"}}},
{"geometry": {"type": "Point", "coordinates": [-83.1761981734, 35.2556607306]}, "type": "Feature", "properties": {"collection_times": [{"days": "Mon-Fri", "time": "4:30pm"}, {"days": "Sat", "time": "12:00pm"}, {"days": "Sun", "time": "Closed"}], "id": "2872300008", "name": "USPS COLLECTION BOX - PO LOBBY", "address": {"city": "CULLOWHEE", "state": "NC", "street": "4710 LITTLE SAVANNAH RD", "postcode": "28723"}}},
{"geometry": {"type": "Point", "coordinates": [-83.0335283246, 35.3311417995]}, "type": "Feature", "properties": {"collection_times": [{"days": "Mon-Fri", "time": "4:30pm"}, {"days": "Sat", "time": "12:00pm"}, {"days": "Sun", "time": "Closed"}], "id": "2872300009", "name": "USPS COLLECTION BOX - PO LOBBY", "address": {"city": "CULLOWHEE", "state": "NC", "street": "4710 LITTLE SAVANNAH RD", "postcode": "28723"}}},
{"geometry": {"type": "Point", "coordinates": [-82.3752530542, 35.3294013378]}, "type": "Feature", "properties": {"collection_times": [{"days": "Mon-Fri", "time": "4:00pm"}, {"days": "Sat", "time": "9:30am"}, {"days": "Sun", "time": "Closed"}], "id": "2872400001", "name": "USPS COLLECTION BOX - BLUE BOX", "address": {"city": "DANA", "state": "NC", "street": "10 RIDGE RD", "postcode": "28724"}}},
{"geometry": {"type": "Point", "coordinates": [-82.3754962149, 35.3291000136]}, "type": "Feature", "properties": {"collection_times": [{"days": "Mon-Fri", "time": "4:00pm"}, {"days": "Sat", "time": "9:30am"}, {"days": "Sun", "time": "Closed"}], "id": "2872400002", "name": "USPS COLLECTION BOX - PO LOBBY", "address": {"city": "DANA", "state": "NC", "street": "10 RIDGE RD", "postcode": "28724"}}},
{"geometry": {"type": "Point", "coordinates": [-82.3752530542, 35.3294013378]}, "type": "Feature", "properties": {"collection_times": [{"days": "Mon-Fri", "time": "4:00pm"}, {"days": "Sat", "time": "9:30am"}, {"days": "Sun", "time": "Closed"}], "id": "2872400003", "name": "USPS COLLECTION BOX - PO LOBBY", "address": {"city": "DANA", "state": "NC", "street": "10 RIDGE RD", "postcode": "28724"}}},
{"geometry": {"type": "Point", "coordinates": [-83.2494663348, 35.3703554658]}, "type": "Feature", "properties": {"collection_times": [{"days": "Mon-Fri", "time": "4:15pm"}, {"days": "Sat", "time": "9:30am"}, {"days": "Sun", "time": "Closed"}], "id": "2872500001", "name": "USPS COLLECTION BOX - BLUE BOX", "address": {"city": "DILLSBORO", "state": "NC", "street": "385 HAYWOOD RD", "postcode": "28725"}}},
{"geometry": {"type": "Point", "coordinates": [-83.25249647, 35.3691001342]}, "type": "Feature", "properties": {"collection_times": [{"days": "Mon-Fri", "time": "4:15pm"}, {"days": "Sat", "time": "9:30am"}, {"days": "Sun", "time": "Closed"}], "id": "2872500004", "name": "USPS COLLECTION BOX - PO LOBBY", "address": {"city": "DILLSBORO", "state": "NC", "street": "385 HAYWOOD RD", "postcode": "28725"}}},
{"geometry": {"type": "Point", "coordinates": [-83.2494663348, 35.3703554658]}, "type": "Feature", "properties": {"collection_times": [{"days": "Mon-Fri", "time": "4:15pm"}, {"days": "Sat", "time": "9:30am"}, {"days": "Sun", "time": "Closed"}], "id": "2872500005", "name": "USPS COLLECTION BOX - PO LOBBY", "address": {"city": "DILLSBORO", "state": "NC", "street": "385 HAYWOOD RD", "postcode": "28725"}}},
{"geometry": {"type": "Point", "coordinates": [-82.4219851966, 35.2795666583]}, "type": "Feature", "properties": {"collection_times": [{"days": "Mon-Fri", "time": "2:00pm"}, {"days": "Sat", "time": "10:00am"}, {"days": "Sun", "time": "Closed"}], "id": "2872600001", "name": "USPS COLLECTION BOX - BLUE BOX", "address": {"city": "EAST FLAT ROCK", "state": "NC", "street": "125 W BLUE RIDGE RD", "postcode": "28726"}}},
{"geometry": {"type": "Point", "coordinates": [-82.4186768796, 35.2823303743]}, "type": "Feature", "properties": {"collection_times": [{"days": "Mon-Fri", "time": "4:30pm"}, {"days": "Sat", "time": "10:00am"}, {"days": "Sun", "time": "Closed"}], "id": "2872600002", "name": "USPS COLLECTION BOX - PO LOBBY", "address": {"city": "EAST FLAT ROCK", "state": "NC", "street": "125 W BLUE RIDGE RD", "postcode": "28726"}}},
{"geometry": {"type": "Point", "coordinates": [-82.4219851966, 35.2795666583]}, "type": "Feature", "properties": {"collection_times": [{"days": "Mon-Fri", "time": "4:30pm"}, {"days": "Sat", "time": "10:00am"}, {"days": "Sun", "time": "Closed"}], "id": "2872600003", "name": "USPS COLLECTION BOX - PO LOBBY", "address": {"city": "EAST FLAT ROCK", "state": "NC", "street": "125 W BLUE RIDGE RD", "postcode": "28726"}}},
{"geometry": {"type": "Point", "coordinates": [-82.3427668049, 35.3938737201]}, "type": "Feature", "properties": {"collection_times": [{"days": "Mon-Fri", "time": "4:00pm"}, {"days": "Sat", "time": "9:00am"}, {"days": "Sun", "time": "Closed"}], "id": "2872700002", "name": "USPS COLLECTION BOX - BLUE BOX", "address": {"city": "EDNEYVILLE", "state": "NC", "street": "3979 CHIMNEY ROCK RD", "postcode": "28727"}}},
{"geometry": {"type": "Point", "coordinates": [-82.3401887002, 35.3946531115]}, "type": "Feature", "properties": {"collection_times": [{"days": "Mon-Fri", "time": "4:00pm"}, {"days": "Sat", "time": "9:00am"}, {"days": "Sun", "time": "Closed"}], "id": "2872700003", "name": "USPS COLLECTION BOX - PO LOBBY", "address": {"city": "EDNEYVILLE", "state": "NC", "street": "3979 CHIMNEY ROCK RD", "postcode": "28727"}}},
{"geometry": {"type": "Point", "coordinates": [-82.6516681992, 35.5392115022]}, "type": "Feature", "properties": {"collection_times": [{"days": "Mon-Fri", "time": "4:45pm"}, {"days": "Sat", "time": "12:00pm"}, {"days": "Sun", "time": "Closed"}], "id": "2872800002", "name": "USPS COLLECTION BOX - BLUE BOX", "address": {"city": "ENKA", "state": "NC", "street": "1400 SAND HILL RD", "postcode": "28728"}}},
{"geometry": {"type": "Point", "coordinates": [-82.6516681992, 35.5392115022]}, "type": "Feature", "properties": {"collection_times": [{"days": "Mon-Fri", "time": "4:45pm"}, {"days": "Sat", "time": "12:00pm"}, {"days": "Sun", "time": "Closed"}], "id": "2872800003", "name": "USPS COLLECTION BOX - PO LOBBY", "address": {"city": "ENKA", "state": "NC", "street": "1400 SAND HILL RD", "postcode": "28728"}}},
{"geometry": {"type": "Point", "coordinates": [-82.5972477954, 35.3164215591]}, "type": "Feature", "properties": {"collection_times": [{"days": "Mon-Fri", "time": "4:30pm"}, {"days": "Sat", "time": "1:00pm"}, {"days": "Sun", "time": "Closed"}], "id": "2872900003", "name": "USPS COLLECTION BOX - BLUE BOX", "address": {"city": "ETOWAH", "state": "NC", "street": "123 ETOWAH CENTER DR", "postcode": "28729"}}},
{"geometry": {"type": "Point", "coordinates": [-82.5972477954, 35.3164215591]}, "type": "Feature", "properties": {"collection_times": [{"days": "Mon-Fri", "time": "4:30pm"}, {"days": "Sat", "time": "1:00pm"}, {"days": "Sun", "time": "Closed"}], "id": "2872900005", "name": "USPS COLLECTION BOX - PO LOBBY", "address": {"city": "ETOWAH", "state": "NC", "street": "123 ETOWAH CENTER DR", "postcode": "28729"}}},
{"geometry": {"type": "Point", "coordinates": [-82.4113768265, 35.524149592]}, "type": "Feature", "properties": {"collection_times": [{"days": "Mon-Fri", "time": "4:30pm"}, {"days": "Sat", "time": "12:15pm"}, {"days": "Sun", "time": "Closed"}], "id": "2873000002", "name": "USPS COLLECTION BOX - BLUE BOX", "address": {"city": "FAIRVIEW", "state": "NC", "street": "1352 CHARLOTTE HWY", "postcode": "28730"}}},
{"geometry": {"type": "Point", "coordinates": [-82.3910991296, 35.528514041]}, "type": "Feature", "properties": {"collection_times": [{"days": "Mon-Fri", "time": "4:30pm"}, {"days": "Sat", "time": "12:15pm"}, {"days": "Sun", "time": "Closed"}], "id": "2873000004", "name": "USPS COLLECTION BOX - PO LOBBY", "address": {"city": "FAIRVIEW", "state": "NC", "street": "1352 CHARLOTTE HWY", "postcode": "28730"}}},
{"geometry": {"type": "Point", "coordinates": [-82.4113768265, 35.524149592]}, "type": "Feature", "properties": {"collection_times": [{"days": "Mon-Fri", "time": "4:30pm"}, {"days": "Sat", "time": "12:15pm"}, {"days": "Sun", "time": "Closed"}], "id": "2873000005", "name": "USPS COLLECTION BOX - PO LOBBY", "address": {"city": "FAIRVIEW", "state": "NC", "street": "1352 CHARLOTTE HWY", "postcode": "28730"}}},
{"geometry": {"type": "Point", "coordinates": [-82.4386329645, 35.2609504719]}, "type": "Feature", "properties": {"collection_times": [{"days": "Mon-Fri", "time": "4:00pm"}, {"days": "Sat", "time": "11:00am"}, {"days": "Sun", "time": "Closed"}], "id": "2873100002", "name": "USPS COLLECTION BOX - BLUE BOX", "address": {"city": "FLAT ROCK", "state": "NC", "street": "2687 GREENVILLE HWY", "postcode": "28731"}}},
{"geometry": {"type": "Point", "coordinates": [-82.4386329645, 35.2609504719]}, "type": "Feature", "properties": {"collection_times": [{"days": "Mon-Fri", "time": "4:00pm"}, {"days": "Sat", "time": "11:00am"}, {"days": "Sun", "time": "Closed"}], "id": "2873100004", "name": "USPS COLLECTION BOX - PO LOBBY", "address": {"city": "FLAT ROCK", "state": "NC", "street": "2687 GREENVILLE HWY", "postcode": "28731"}}},
{"geometry": {"type": "Point", "coordinates": [-82.4386329645, 35.2609504719]}, "type": "Feature", "properties": {"collection_times": [{"days": "Mon-Fri", "time": "4:00pm"}, {"days": "Sat", "time": "11:00am"}, {"days": "Sun", "time": "Closed"}], "id": "2873100005", "name": "USPS COLLECTION BOX - PO LOBBY", "address": {"city": "FLAT ROCK", "state": "NC", "street": "2687 GREENVILLE HWY", "postcode": "28731"}}},
{"geometry": {"type": "Point", "coordinates": [-82.5043995669, 35.4213646109]}, "type": "Feature", "properties": {"collection_times": [{"days": "Mon-Fri", "time": "5:00pm"}, {"days": "Sat", "time": "12:00pm"}, {"days": "Sun", "time": "Closed"}], "id": "2873200002", "name": "USPS COLLECTION BOX - BLUE BOX", "address": {"city": "FLETCHER", "state": "NC", "street": "3616 HENDERSONVILLE RD", "postcode": "28732"}}},
{"geometry": {"type": "Point", "coordinates": [-82.4614961253, 35.4488339468]}, "type": "Feature", "properties": {"collection_times": [{"days": "Mon-Sat", "time": "11:00am"}, {"days": "Sun", "time": "Closed"}], "id": "2873200003", "name": "USPS COLLECTION BOX - BLUE BOX", "address": {"city": "FLETCHER", "state": "NC", "street": "@ FLETCHER ACADEMY", "postcode": "28732"}}},
{"geometry": {"type": "Point", "coordinates": [-82.5043995669, 35.4213646109]}, "type": "Feature", "properties": {"collection_times": [{"days": "Mon-Fri", "time": "5:00pm"}, {"days": "Sat", "time": "12:00pm"}, {"days": "Sun", "time": "Closed"}], "id": "2873200004", "name": "USPS COLLECTION BOX - BLUE BOX", "address": {"city": "FLETCHER", "state": "NC", "street": "3616 HENDERSONVILLE RD", "postcode": "28732"}}},
{"geometry": {"type": "Point", "coordinates": [-82.4789073458, 35.4426741123]}, "type": "Feature", "properties": {"collection_times": [{"days": "Mon-Sat", "time": "11:00am"}, {"days": "Sun", "time": "Closed"}], "id": "2873200005", "name": "USPS COLLECTION BOX - BLUE BOX", "address": {"city": "FLETCHER", "state": "NC", "street": "TERMINAL DRIVE", "postcode": "28732"}}},
{"geometry": {"type": "Point", "coordinates": [-82.4789073458, 35.4426741123]}, "type": "Feature", "properties": {"collection_times": [{"days": "Mon-Fri", "time": "5:00pm"}, {"days": "Sat", "time": "12:00pm"}, {"days": "Sun", "time": "Closed"}], "id": "2873200006", "name": "USPS COLLECTION BOX - PO LOBBY", "address": {"city": "FLETCHER", "state": "NC", "street": "3616 HENDERSONVILLE RD", "postcode": "28732"}}},
{"geometry": {"type": "Point", "coordinates": [-82.5043995669, 35.4213646109]}, "type": "Feature", "properties": {"collection_times": [{"days": "Mon-Fri", "time": "5:00pm"}, {"days": "Sat", "time": "12:00pm"}, {"days": "Sun", "time": "Closed"}], "id": "2873200007", "name": "USPS COLLECTION BOX - PO LOBBY", "address": {"city": "FLETCHER", "state": "NC", "street": "3616 HENDERSONVILLE RD", "postcode": "28732"}}},
{"geometry": {"type": "Point", "coordinates": [-83.8176905928, 35.4467197468]}, "type": "Feature", "properties": {"collection_times": [{"days": "Mon-Fri", "time": "3:45pm"}, {"days": "Sat", "time": "11:30am"}, {"days": "Sun", "time": "Closed"}], "id": "2873300002", "name": "USPS COLLECTION BOX - BLUE BOX", "address": {"city": "FONTANA DAM", "state": "NC", "street": "50 FONTANA RD", "postcode": "28733"}}},
{"geometry": {"type": "Point", "coordinates": [-83.8176905928, 35.4467197468]}, "type": "Feature", "properties": {"collection_times": [{"days": "Mon-Fri", "time": "3:45pm"}, {"days": "Sat", "time": "11:30am"}, {"days": "Sun", "time": "Closed"}], "id": "2873300003", "name": "USPS COLLECTION BOX - PO LOBBY", "address": {"city": "FONTANA DAM", "state": "NC", "street": "50 FONTANA RD", "postcode": "28733"}}},
{"geometry": {"type": "Point", "coordinates": [-83.3729850079, 35.1809507058]}, "type": "Feature", "properties": {"collection_times": [{"days": "Mon-Fri", "time": "5:00pm"}, {"days": "Sat", "time": "3:00pm"}, {"days": "Sun", "time": "Closed"}], "id": "2873400003", "name": "USPS COLLECTION BOX - BLUE BOX", "address": {"city": "FRANKLIN", "state": "NC", "street": "250 DEPOT ST", "postcode": "28734"}}},
{"geometry": {"type": "Point", "coordinates": [-83.3729850079, 35.1809507058]}, "type": "Feature", "properties": {"collection_times": [{"days": "Mon-Fri", "time": "5:00pm"}, {"days": "Sat", "time": "3:00pm"}, {"days": "Sun", "time": "Closed"}], "id": "2873400004", "name": "USPS COLLECTION BOX - BLUE BOX", "address": {"city": "FRANKLIN", "state": "NC", "street": "250 DEPOT ST", "postcode": "28734"}}},
{"geometry": {"type": "Point", "coordinates": [-83.3781605924, 35.1827962802]}, "type": "Feature", "properties": {"collection_times": [{"days": "Mon-Sat", "time": "3:00pm"}, {"days": "Sun", "time": "Closed"}], "id": "2873400005", "name": "USPS COLLECTION BOX - BLUE BOX", "address": {"city": "FRANKLIN", "state": "NC", "street": "130 E MAIN ST", "postcode": "28734"}}},
{"geometry": {"type": "Point", "coordinates": [-83.3799818683, 35.1822862389]}, "type": "Feature", "properties": {"collection_times": [{"days": "Mon-Sat", "time": "3:00pm"}, {"days": "Sun", "time": "Closed"}], "id": "2873400006", "name": "USPS COLLECTION BOX - BLUE BOX", "address": {"city": "FRANKLIN", "state": "NC", "street": "60 E MAIN ST", "postcode": "28734"}}},
{"geometry": {"type": "Point", "coordinates": [-83.3817779002, 35.1817168388]}, "type": "Feature", "properties": {"collection_times": [{"days": "Mon-Sat", "time": "3:00pm"}, {"days": "Sun", "time": "Closed"}], "id": "2873400007", "name": "USPS COLLECTION BOX - BLUE BOX", "address": {"city": "FRANKLIN", "state": "NC", "street": "5 W MAIN ST", "postcode": "28734"}}},
{"geometry": {"type": "Point", "coordinates": [-83.3887261506, 35.18612973]}, "type": "Feature", "properties": {"collection_times": [{"days": "Mon-Sat", "time": "2:00pm"}, {"days": "Sun", "time": "Closed"}], "id": "2873400011", "name": "USPS COLLECTION BOX - BLUE BOX", "address": {"city": "FRANKLIN", "state": "NC", "street": "393 BIDWELL ST", "postcode": "28734"}}},
{"geometry": {"type": "Point", "coordinates": [-83.3542173335, 35.1846494242]}, "type": "Feature", "properties": {"collection_times": [{"days": "Mon-Sat", "time": "12:00pm"}, {"days": "Sun", "time": "Closed"}], "id": "2873400014", "name": "USPS COLLECTION BOX - BLUE BOX", "address": {"city": "FRANKLIN", "state": "NC", "street": "305 HOLLY SPRINGS PLZ", "postcode": "28734"}}},
{"geometry": {"type": "Point", "coordinates": [-83.3919545567, 35.1656493996]}, "type": "Feature", "properties": {"collection_times": [{"days": "Mon-Sat", "time": "9:00am"}, {"days": "Sun", "time": "Closed"}], "id": "2873400015", "name": "USPS COLLECTION BOX - BLUE BOX", "address": {"city": "FRANKLIN", "state": "NC", "street": "225 FRANKLIN PLAZA DR", "postcode": "28734"}}},
{"geometry": {"type": "Point", "coordinates": [-83.3886472174, 35.1799620448]}, "type": "Feature", "properties": {"collection_times": [{"days": "Mon-Fri", "time": "5:00pm"}, {"days": "Sat", "time": "3:00pm"}, {"days": "Sun", "time": "Closed"}], "id": "2873400017", "name": "USPS COLLECTION BOX - PO LOBBY", "address": {"city": "FRANKLIN", "state": "NC", "street": "250 DEPOT ST", "postcode": "28734"}}},
{"geometry": {"type": "Point", "coordinates": [-83.3729850079, 35.1809507058]}, "type": "Feature", "properties": {"collection_times": [{"days": "Mon-Fri", "time": "5:00pm"}, {"days": "Sat", "time": "3:00pm"}, {"days": "Sun", "time": "Closed"}], "id": "2873400018", "name": "USPS COLLECTION BOX - PO LOBBY", "address": {"city": "FRANKLIN", "state": "NC", "street": "250 DEPOT ST", "postcode": "28734"}}},
{"geometry": {"type": "Point", "coordinates": [-83.3729850079, 35.1809507058]}, "type": "Feature", "properties": {"collection_times": [{"days": "Mon-Fri", "time": "5:00pm"}, {"days": "Sat", "time": "3:00pm"}, {"days": "Sun", "time": "Closed"}], "id": "2873400019", "name": "USPS COLLECTION BOX - PO LOBBY", "address": {"city": "FRANKLIN", "state": "NC", "street": "250 DEPOT ST", "postcode": "28734"}}},
{"geometry": {"type": "Point", "coordinates": [-83.3864546287, 35.1803553469]}, "type": "Feature", "properties": {"collection_times": [{"days": "Mon-Sat", "time": "3:00pm"}, {"days": "Sun", "time": "Closed"}], "id": "2873400020", "name": "USPS COLLECTION BOX - BLUE BOX", "address": {"city": "FRANKLIN", "state": "NC", "street": "376 W MAIN ST", "postcode": "28734"}}},
{"geometry": {"type": "Point", "coordinates": [-83.3886472174, 35.1799620448]}, "type": "Feature", "properties": {"collection_times": [{"days": "Mon-Fri", "time": "5:00pm"}, {"days": "Sat", "time": "3:00pm"}, {"days": "Sun", "time": "Closed"}], "id": "2873400021", "name": "USPS COLLECTION BOX - APC", "address": {"city": "FRANKLIN", "state": "NC", "street": "250 DEPOT ST", "postcode": "28734"}}},
{"geometry": {"type": "Point", "coordinates": [-82.3466700278, 35.4785754877]}, "type": "Feature", "properties": {"collection_times": [{"days": "Mon-Fri", "time": "4:00pm"}, {"days": "Sat", "time": "9:30am"}, {"days": "Sun", "time": "Closed"}], "id": "2873500001", "name": "USPS COLLECTION BOX - BLUE BOX", "address": {"city": "GERTON", "state": "NC", "street": "5000 GERTON HWY", "postcode": "28735"}}},
{"geometry": {"type": "Point", "coordinates": [-82.3600975154, 35.4804930402]}, "type": "Feature", "properties": {"collection_times": [{"days": "Mon-Fri", "time": "4:00pm"}, {"days": "Sat", "time": "9:30am"}, {"days": "Sun", "time": "Closed"}], "id": "2873500002", "name": "USPS COLLECTION BOX - PO LOBBY", "address": {"city": "GERTON", "state": "NC", "street": "5000 GERTON HWY", "postcode": "28735"}}},
{"geometry": {"type": "Point", "coordinates": [-82.3466700278, 35.4785754877]}, "type": "Feature", "properties": {"collection_times": [{"days": "Mon-Fri", "time": "4:00pm"}, {"days": "Sat", "time": "9:30am"}, {"days": "Sun", "time": "Closed"}], "id": "2873500003", "name": "USPS COLLECTION BOX - PO LOBBY", "address": {"city": "GERTON", "state": "NC", "street": "5000 GERTON HWY", "postcode": "28735"}}},
{"geometry": {"type": "Point", "coordinates": [-83.1171749395, 35.142039981]}, "type": "Feature", "properties": {"collection_times": [{"days": "Mon-Fri", "time": "4:15pm"}, {"days": "Sat", "time": "9:30am"}, {"days": "Sun", "time": "Closed"}], "id": "2873600002", "name": "USPS COLLECTION BOX - BLUE BOX", "address": {"city": "GLENVILLE", "state": "NC", "street": "4907 N HIGHWAY 107", "postcode": "28736"}}},
{"geometry": {"type": "Point", "coordinates": [-83.1171749395, 35.142039981]}, "type": "Feature", "properties": {"collection_times": [{"days": "Mon-Fri", "time": "4:15pm"}, {"days": "Sat", "time": "9:30am"}, {"days": "Sun", "time": "Closed"}], "id": "2873600003", "name": "USPS COLLECTION BOX - PO LOBBY", "address": {"city": "GLENVILLE", "state": "NC", "street": "4907 N HIGHWAY 107", "postcode": "28736"}}},
{"geometry": {"type": "Point", "coordinates": [-82.4613178143, 35.315704131]}, "type": "Feature", "properties": {"collection_times": [{"days": "Mon-Fri", "time": "2:30pm"}, {"days": "Sat", "time": "1:30pm"}, {"days": "Sun", "time": "Closed"}], "id": "2873900000", "name": "USPS COLLECTION BOX - BLUE BOX", "address": {"city": "HENDERSONVILLE", "state": "NC", "street": "200 3RD AVE W", "postcode": "28739"}}},
{"geometry": {"type": "Point", "coordinates": [-82.4747789422, 35.3387941639]}, "type": "Feature", "properties": {"collection_times": [{"days": "Mon-Fri", "time": "2:00pm"}, {"days": "Sat", "time": "1:30pm"}, {"days": "Sun", "time": "Closed"}], "id": "2873900009", "name": "USPS COLLECTION BOX - BLUE BOX", "address": {"city": "HENDERSONVILLE", "state": "NC", "street": "2111 ASHEVILLE HWY", "postcode": "28739"}}},
{"geometry": {"type": "Point", "coordinates": [-82.4846395656, 35.3139610044]}, "type": "Feature", "properties": {"collection_times": [{"days": "Mon-Fri", "time": "2:30pm"}, {"days": "Sat", "time": "1:30pm"}, {"days": "Sun", "time": "Closed"}], "id": "2873900017", "name": "USPS COLLECTION BOX - BLUE BOX", "address": {"city": "HENDERSONVILLE", "state": "NC", "street": "441 WHITE PINE DR", "postcode": "28739"}}},
{"geometry": {"type": "Point", "coordinates": [-82.4652189282, 35.3170627228]}, "type": "Feature", "properties": {"collection_times": [{"days": "Mon-Fri", "time": "5:00pm"}, {"days": "Sat", "time": "1:00pm"}, {"days": "Sun", "time": "Closed"}], "id": "2873900018", "name": "USPS COLLECTION BOX - BLUE BOX", "address": {"city": "HENDERSONVILLE", "state": "NC", "street": "427 5TH AVE W", "postcode": "28739"}}},
{"geometry": {"type": "Point", "coordinates": [-82.4652189282, 35.3170627228]}, "type": "Feature", "properties": {"collection_times": [{"days": "Mon-Fri", "time": "5:00pm"}, {"days": "Sat", "time": "1:00pm"}, {"days": "Sun", "time": "Closed"}], "id": "2873900019", "name": "USPS COLLECTION BOX - BLUE BOX", "address": {"city": "HENDERSONVILLE", "state": "NC", "street": "427 5TH AVE W", "postcode": "28739"}}},
{"geometry": {"type": "Point", "coordinates": [-82.4652189282, 35.3170627228]}, "type": "Feature", "properties": {"collection_times": [{"days": "Mon-Fri", "time": "5:00pm"}, {"days": "Sat", "time": "12:00pm"}, {"days": "Sun", "time": "Closed"}], "id": "2873900022", "name": "USPS COLLECTION BOX - PO LOBBY", "address": {"city": "HENDERSONVILLE", "state": "NC", "street": "427 5TH AVE W", "postcode": "28739"}}},
{"geometry": {"type": "Point", "coordinates": [-82.4652189282, 35.3170627228]}, "type": "Feature", "properties": {"collection_times": [{"days": "Mon-Fri", "time": "5:00pm"}, {"days": "Sat", "time": "12:00pm"}, {"days": "Sun", "time": "Closed"}], "id": "2873900023", "name": "USPS COLLECTION BOX - PO LOBBY", "address": {"city": "HENDERSONVILLE", "state": "NC", "street": "427 5TH AVE W", "postcode": "28739"}}},
{"geometry": {"type": "Point", "coordinates": [-82.2270239747, 35.9777140637]}, "type": "Feature", "properties": {"collection_times": [{"days": "Mon-Fri", "time": "4:00pm"}, {"days": "Sat", "time": "9:00am"}, {"days": "Sun", "time": "Closed"}], "id": "2874000002", "name": "USPS COLLECTION BOX - BLUE BOX", "address": {"city": "GREENMOUNTAIN", "state": "NC", "street": "291 TOE RIVER RD", "postcode": "28740"}}},
{"geometry": {"type": "Point", "coordinates": [-82.3107165279, 36.0199819581]}, "type": "Feature", "properties": {"collection_times": [{"days": "Mon-Fri", "time": "4:00pm"}, {"days": "Sat", "time": "9:00am"}, {"days": "Sun", "time": "Closed"}], "id": "2874000003", "name": "USPS COLLECTION BOX - PO LOBBY", "address": {"city": "GREENMOUNTAIN", "state": "NC", "street": "291 TOE RIVER RD", "postcode": "28740"}}},
{"geometry": {"type": "Point", "coordinates": [-83.2020415565, 35.0508649128]}, "type": "Feature", "properties": {"collection_times": [{"days": "Mon-Sat", "time": "11:30am"}, {"days": "Sun", "time": "Closed"}], "id": "2874100002", "name": "USPS COLLECTION BOX - BLUE BOX", "address": {"city": "HIGHLANDS", "state": "NC", "street": "675 S 4TH ST", "postcode": "28741"}}},
{"geometry": {"type": "Point", "coordinates": [-83.1989964173, 35.0690601244]}, "type": "Feature", "properties": {"collection_times": [{"days": "Mon-Fri", "time": "4:15pm"}, {"days": "Sat", "time": "2:45pm"}, {"days": "Sun", "time": "Closed"}], "id": "2874100006", "name": "USPS COLLECTION BOX - BLUE BOX", "address": {"city": "HIGHLANDS", "state": "NC", "street": "43 DILLARD RD", "postcode": "28741"}}},
{"geometry": {"type": "Point", "coordinates": [-83.1989964173, 35.0690601244]}, "type": "Feature", "properties": {"collection_times": [{"days": "Mon-Fri", "time": "4:15pm"}, {"days": "Sat", "time": "2:45pm"}, {"days": "Sun", "time": "Closed"}], "id": "2874100008", "name": "USPS COLLECTION BOX - BLUE BOX", "address": {"city": "HIGHLANDS", "state": "NC", "street": "43 DILLARD RD", "postcode": "28741"}}},
{"geometry": {"type": "Point", "coordinates": [-83.1989964173, 35.0690601244]}, "type": "Feature", "properties": {"collection_times": [{"days": "Mon-Fri", "time": "4:15pm"}, {"days": "Sat", "time": "2:45pm"}, {"days": "Sun", "time": "Closed"}], "id": "2874100011", "name": "USPS COLLECTION BOX - PO LOBBY", "address": {"city": "HIGHLANDS", "state": "NC", "street": "43 DILLARD RD", "postcode": "28741"}}},
{"geometry": {"type": "Point", "coordinates": [-82.5500216178, 35.343058026]}, "type": "Feature", "properties": {"collection_times": [{"days": "Mon-Fri", "time": "5:00pm"}, {"days": "Sat", "time": "10:00am"}, {"days": "Sun", "time": "Closed"}], "id": "2874200002", "name": "USPS COLLECTION BOX - BLUE BOX", "address": {"city": "MILLS RIVER", "state": "NC", "street": "3740 BREVARD RD", "postcode": "28742"}}},
{"geometry": {"type": "Point", "coordinates": [-82.566932106, 35.3863699227]}, "type": "Feature", "properties": {"collection_times": [{"days": "Mon-Sat", "time": "11:00am"}, {"days": "Sun", "time": "Closed"}], "id": "2874200004", "name": "USPS COLLECTION BOX - BLUE BOX", "address": {"city": "MILLS RIVER", "state": "NC", "street": "4669 BOYLSTON HWY", "postcode": "28742"}}},
{"geometry": {"type": "Point", "coordinates": [-82.6669444796, 35.4073711778]}, "type": "Feature", "properties": {"collection_times": [{"days": "Mon-Sat", "time": "10:00am"}, {"days": "Sun", "time": "Closed"}], "id": "2874200005", "name": "USPS COLLECTION BOX - BLUE BOX", "address": {"city": "MILLS RIVER", "state": "NC", "street": "@ BOYLESTON HIGHWAY/HIGHWAY 280", "postcode": "28742"}}},
{"geometry": {"type": "Point", "coordinates": [-82.5500216178, 35.343058026]}, "type": "Feature", "properties": {"collection_times": [{"days": "Mon-Fri", "time": "5:00pm"}, {"days": "Sat", "time": "10:00am"}, {"days": "Sun", "time": "Closed"}], "id": "2874200006", "name": "USPS COLLECTION BOX - PO LOBBY", "address": {"city": "MILLS RIVER", "state": "NC", "street": "3740 BREVARD RD", "postcode": "28742"}}},
{"geometry": {"type": "Point", "coordinates": [-82.8296440107, 35.8923303035]}, "type": "Feature", "properties": {"collection_times": [{"days": "Mon-Fri", "time": "3:45pm"}, {"days": "Sat", "time": "10:15am"}, {"days": "Sun", "time": "Closed"}], "id": "2874300002", "name": "USPS COLLECTION BOX - BLUE BOX", "address": {"city": "HOT SPRINGS", "state": "NC", "street": "111 BRIDGE ST", "postcode": "28743"}}},
{"geometry": {"type": "Point", "coordinates": [-82.8296440107, 35.8923303035]}, "type": "Feature", "properties": {"collection_times": [{"days": "Mon-Fri", "time": "3:45pm"}, {"days": "Sat", "time": "10:15am"}, {"days": "Sun", "time": "Closed"}], "id": "2874300004", "name": "USPS COLLECTION BOX - PO LOBBY", "address": {"city": "HOT SPRINGS", "state": "NC", "street": "111 BRIDGE ST", "postcode": "28743"}}},
{"geometry": {"type": "Point", "coordinates": [-82.8296440107, 35.8923303035]}, "type": "Feature", "properties": {"collection_times": [{"days": "Mon-Fri", "time": "3:45pm"}, {"days": "Sat", "time": "10:15am"}, {"days": "Sun", "time": "Closed"}], "id": "2874300005", "name": "USPS COLLECTION BOX - PO LOBBY", "address": {"city": "HOT SPRINGS", "state": "NC", "street": "111 BRIDGE ST", "postcode": "28743"}}},
{"geometry": {"type": "Point", "coordinates": [-82.9590452813, 35.5279154158]}, "type": "Feature", "properties": {"collection_times": [{"days": "Mon-Fri", "time": "4:45pm"}, {"days": "Sat", "time": "9:00am"}, {"days": "Sun", "time": "Closed"}], "id": "2874500001", "name": "USPS COLLECTION BOX - BLUE BOX", "address": {"city": "LAKE JUNALUSKA", "state": "NC", "street": "60 OLD CLYDE RD", "postcode": "28745"}}},
{"geometry": {"type": "Point", "coordinates": [-82.9590452813, 35.5279154158]}, "type": "Feature", "properties": {"collection_times": [{"days": "Mon-Fri", "time": "4:45pm"}, {"days": "Sat", "time": "9:00am"}, {"days": "Sun", "time": "Closed"}], "id": "2874500003", "name": "USPS COLLECTION BOX - PO LOBBY", "address": {"city": "LAKE JUNALUSKA", "state": "NC", "street": "60 OLD CLYDE RD", "postcode": "28745"}}},
{"geometry": {"type": "Point", "coordinates": [-82.9590452813, 35.5279154158]}, "type": "Feature", "properties": {"collection_times": [{"days": "Mon-Fri", "time": "4:45pm"}, {"days": "Sat", "time": "9:00am"}, {"days": "Sun", "time": "Closed"}], "id": "2874500004", "name": "USPS COLLECTION BOX - PO LOBBY", "address": {"city": "LAKE JUNALUSKA", "state": "NC", "street": "60 OLD CLYDE RD", "postcode": "28745"}}},
{"geometry": {"type": "Point", "coordinates": [-82.2203961067, 35.4306516256]}, "type": "Feature", "properties": {"collection_times": [{"days": "Mon-Fri", "time": "4:00pm"}, {"days": "Sat", "time": "10:15am"}, {"days": "Sun", "time": "Closed"}], "id": "2874600001", "name": "USPS COLLECTION BOX - BLUE BOX", "address": {"city": "LAKE LURE", "state": "NC", "street": "2432 MEMORIAL HWY", "postcode": "28746"}}},
{"geometry": {"type": "Point", "coordinates": [-82.1847957986, 35.484165384]}, "type": "Feature", "properties": {"collection_times": [{"days": "Mon-Sat", "time": "11:45am"}, {"days": "Sun", "time": "Closed"}], "id": "2874600002", "name": "USPS COLLECTION BOX - BLUE BOX", "address": {"city": "LAKE LURE", "state": "NC", "street": "3001 BUFFALO CREEK RD", "postcode": "28746"}}},
{"geometry": {"type": "Point", "coordinates": [-82.1626263057, 35.4255554384]}, "type": "Feature", "properties": {"collection_times": [{"days": "Mon-Sat", "time": "1:30pm"}, {"days": "Sun", "time": "Closed"}], "id": "2874600003", "name": "USPS COLLECTION BOX - BLUE BOX", "address": {"city": "LAKE LURE", "state": "NC", "street": "150 BILLS CREEK RD", "postcode": "28746"}}},
{"geometry": {"type": "Point", "coordinates": [-82.2203961067, 35.4306516256]}, "type": "Feature", "properties": {"collection_times": [{"days": "Mon-Fri", "time": "4:00pm"}, {"days": "Sat", "time": "10:15am"}, {"days": "Sun", "time": "Closed"}], "id": "2874600004", "name": "USPS COLLECTION BOX - PO LOBBY", "address": {"city": "LAKE LURE", "state": "NC", "street": "2432 MEMORIAL HWY", "postcode": "28746"}}},
{"geometry": {"type": "Point", "coordinates": [-82.2203961067, 35.4306516256]}, "type": "Feature", "properties": {"collection_times": [{"days": "Mon-Fri", "time": "4:00pm"}, {"days": "Sat", "time": "10:15am"}, {"days": "Sun", "time": "Closed"}], "id": "2874600005", "name": "USPS COLLECTION BOX - PO LOBBY", "address": {"city": "LAKE LURE", "state": "NC", "street": "2432 MEMORIAL HWY", "postcode": "28746"}}},
{"geometry": {"type": "Point", "coordinates": [-82.9280137257, 35.1416318114]}, "type": "Feature", "properties": {"collection_times": [{"days": "Mon-Fri", "time": "3:45pm"}, {"days": "Sat", "time": "10:30am"}, {"days": "Sun", "time": "Closed"}], "id": "2874700001", "name": "USPS COLLECTION BOX - BLUE BOX", "address": {"city": "LAKE TOXAWAY", "state": "NC", "street": "1320 BLUE RIDGE RD", "postcode": "28747"}}},
{"geometry": {"type": "Point", "coordinates": [-82.9280137257, 35.1416318114]}, "type": "Feature", "properties": {"collection_times": [{"days": "Mon-Fri", "time": "3:45pm"}, {"days": "Sat", "time": "10:30am"}, {"days": "Sun", "time": "Closed"}], "id": "2874700003", "name": "USPS COLLECTION BOX - PO LOBBY", "address": {"city": "LAKE TOXAWAY", "state": "NC", "street": "1320 BLUE RIDGE RD", "postcode": "28747"}}},
{"geometry": {"type": "Point", "coordinates": [-82.9280137257, 35.1416318114]}, "type": "Feature", "properties": {"collection_times": [{"days": "Mon-Fri", "time": "3:45pm"}, {"days": "Sat", "time": "10:30am"}, {"days": "Sun", "time": "Closed"}], "id": "2874700004", "name": "USPS COLLECTION BOX - PO LOBBY", "address": {"city": "LAKE TOXAWAY", "state": "NC", "street": "1320 BLUE RIDGE RD", "postcode": "28747"}}},
{"geometry": {"type": "Point", "coordinates": [-82.6783349006, 35.6480262502]}, "type": "Feature", "properties": {"collection_times": [{"days": "Mon-Fri", "time": "5:00pm"}, {"days": "Sat", "time": "11:00am"}, {"days": "Sun", "time": "Closed"}], "id": "2874800002", "name": "USPS COLLECTION BOX - BLUE BOX", "address": {"city": "LEICESTER", "state": "NC", "street": "2520 NEW LEICESTER HWY", "postcode": "28748"}}},
{"geometry": {"type": "Point", "coordinates": [-82.6783349006, 35.6480262502]}, "type": "Feature", "properties": {"collection_times": [{"days": "Mon-Fri", "time": "5:00pm"}, {"days": "Sat", "time": "11:00am"}, {"days": "Sun", "time": "Closed"}], "id": "2874800003", "name": "USPS COLLECTION BOX - BLUE BOX", "address": {"city": "LEICESTER", "state": "NC", "street": "2520 NEW LEICESTER HWY", "postcode": "28748"}}},
{"geometry": {"type": "Point", "coordinates": [-82.7227881595, 35.6491313937]}, "type": "Feature", "properties": {"collection_times": [{"days": "Mon-Fri", "time": "5:00pm"}, {"days": "Sat", "time": "11:00am"}, {"days": "Sun", "time": "Closed"}], "id": "2874800004", "name": "USPS COLLECTION BOX - PO LOBBY", "address": {"city": "LEICESTER", "state": "NC", "street": "2520 NEW LEICESTER HWY", "postcode": "28748"}}},
{"geometry": {"type": "Point", "coordinates": [-82.6783349006, 35.6480262502]}, "type": "Feature", "properties": {"collection_times": [{"days": "Mon-Fri", "time": "5:00pm"}, {"days": "Sat", "time": "11:00am"}, {"days": "Sun", "time": "Closed"}], "id": "2874800005", "name": "USPS COLLECTION BOX - PO LOBBY", "address": {"city": "LEICESTER", "state": "NC", "street": "2520 NEW LEICESTER HWY", "postcode": "28748"}}},
{"geometry": {"type": "Point", "coordinates": [-82.0926333411, 35.8494043901]}, "type": "Feature", "properties": {"collection_times": [{"days": "Mon-Fri", "time": "4:15pm"}, {"days": "Sat", "time": "11:00am"}, {"days": "Sun", "time": "Closed"}], "id": "2874900006", "name": "USPS COLLECTION BOX - BLUE BOX", "address": {"city": "LTL SWITZRLND", "state": "NC", "street": "9455 HIGHWAY 226A", "postcode": "28749"}}},
{"geometry": {"type": "Point", "coordinates": [-82.0926333411, 35.8494043901]}, "type": "Feature", "properties": {"collection_times": [{"days": "Mon-Fri", "time": "4:15pm"}, {"days": "Sat", "time": "11:00am"}, {"days": "Sun", "time": "Closed"}], "id": "2874900007", "name": "USPS COLLECTION BOX - PO LOBBY", "address": {"city": "LTL SWITZRLND", "state": "NC", "street": "9455 HIGHWAY 226A", "postcode": "28749"}}},
{"geometry": {"type": "Point", "coordinates": [-82.0926333411, 35.8494043901]}, "type": "Feature", "properties": {"collection_times": [{"days": "Mon-Fri", "time": "4:15pm"}, {"days": "Sat", "time": "11:00am"}, {"days": "Sun", "time": "Closed"}], "id": "2874900008", "name": "USPS COLLECTION BOX - PO LOBBY", "address": {"city": "LTL SWITZRLND", "state": "NC", "street": "9455 HIGHWAY 226A", "postcode": "28749"}}},
{"geometry": {"type": "Point", "coordinates": [-82.2402315921, 35.2247193189]}, "type": "Feature", "properties": {"collection_times": [{"days": "Mon-Fri", "time": "4:30pm"}, {"days": "Sat", "time": "11:30am"}, {"days": "Sun", "time": "Closed"}], "id": "2875000001", "name": "USPS COLLECTION BOX - BLUE BOX", "address": {"city": "LYNN", "state": "NC", "street": "2633 LYNN RD", "postcode": "28750"}}},
{"geometry": {"type": "Point", "coordinates": [-82.2346963117, 35.228300231]}, "type": "Feature", "properties": {"collection_times": [{"days": "Mon-Fri", "time": "4:30pm"}, {"days": "Sat", "time": "11:30am"}, {"days": "Sun", "time": "Closed"}], "id": "2875000002", "name": "USPS COLLECTION BOX - PO LOBBY", "address": {"city": "LYNN", "state": "NC", "street": "2633 LYNN RD", "postcode": "28750"}}},
{"geometry": {"type": "Point", "coordinates": [-83.1000597716, 35.5180368043]}, "type": "Feature", "properties": {"collection_times": [{"days": "Mon-Fri", "time": "4:00pm"}, {"days": "Sat", "time": "11:00am"}, {"days": "Sun", "time": "Closed"}], "id": "2875100004", "name": "USPS COLLECTION BOX - PO LOBBY", "address": {"city": "MAGGIE VALLEY", "state": "NC", "street": "4280 SOCO RD", "postcode": "28751"}}},
{"geometry": {"type": "Point", "coordinates": [-83.1000597716, 35.5180368043]}, "type": "Feature", "properties": {"collection_times": [{"days": "Mon-Fri", "time": "4:00pm"}, {"days": "Sat", "time": "11:00am"}, {"days": "Sun", "time": "Closed"}], "id": "2875100005", "name": "USPS COLLECTION BOX - PO LOBBY", "address": {"city": "MAGGIE VALLEY", "state": "NC", "street": "4280 SOCO RD", "postcode": "28751"}}},
{"geometry": {"type": "Point", "coordinates": [-83.0690816923, 35.5130346444]}, "type": "Feature", "properties": {"collection_times": [{"days": "Mon-Fri", "time": "2:00pm"}, {"days": "Sat-Sun", "time": "Closed"}], "id": "2875100006", "name": "USPS COLLECTION BOX - BLUE BOX", "address": {"city": "MAGGIE VALLEY", "state": "NC", "street": "2411 SOCO RD", "postcode": "28751"}}},
{"geometry": {"type": "Point", "coordinates": [-83.1000489953, 35.5181278145]}, "type": "Feature", "properties": {"collection_times": [{"days": "Mon-Fri", "time": "4:00pm"}, {"days": "Sat", "time": "11:00am"}, {"days": "Sun", "time": "Closed"}], "id": "2875100009", "name": "USPS COLLECTION BOX - BLUE BOX", "address": {"city": "MAGGIE VALLEY", "state": "NC", "street": "4280 SOCO RD", "postcode": "28751"}}},
{"geometry": {"type": "Point", "coordinates": [-82.0074245454, 35.6812754371]}, "type": "Feature", "properties": {"collection_times": [{"days": "Mon-Fri", "time": "5:00pm"}, {"days": "Sat", "time": "4:00pm"}, {"days": "Sun", "time": "Closed"}], "id": "2875200001", "name": "USPS COLLECTION BOX - BLUE BOX", "address": {"city": "MARION", "state": "NC", "street": "215 S MAIN ST", "postcode": "28752"}}},
{"geometry": {"type": "Point", "coordinates": [-82.0074245454, 35.6812754371]}, "type": "Feature", "properties": {"collection_times": [{"days": "Mon-Fri", "time": "5:00pm"}, {"days": "Sat", "time": "4:00pm"}, {"days": "Sun", "time": "Closed"}], "id": "2875200002", "name": "USPS COLLECTION BOX - BLUE BOX", "address": {"city": "MARION", "state": "NC", "street": "215 S MAIN ST", "postcode": "28752"}}},
{"geometry": {"type": "Point", "coordinates": [-82.0186496032, 35.6831701667]}, "type": "Feature", "properties": {"collection_times": [{"days": "Mon-Sat", "time": "9:30am"}, {"days": "Sun", "time": "Closed"}], "id": "2875200003", "name": "USPS COLLECTION BOX - BLUE BOX", "address": {"city": "MARION", "state": "NC", "street": "41 S GARDEN ST", "postcode": "28752"}}},
{"geometry": {"type": "Point", "coordinates": [-82.0083789846, 35.6830417726]}, "type": "Feature", "properties": {"collection_times": [{"days": "Mon-Fri", "time": "2:00pm"}, {"days": "Sat", "time": "9:00am"}, {"days": "Sun", "time": "Closed"}], "id": "2875200005", "name": "USPS COLLECTION BOX - BLUE BOX", "address": {"city": "MARION", "state": "NC", "street": "81 S MAIN ST", "postcode": "28752"}}},
{"geometry": {"type": "Point", "coordinates": [-82.0093616466, 35.6845503239]}, "type": "Feature", "properties": {"collection_times": [{"days": "Mon-Fri", "time": "2:00pm"}, {"days": "Sat", "time": "9:00am"}, {"days": "Sun", "time": "Closed"}], "id": "2875200006", "name": "USPS COLLECTION BOX - BLUE BOX", "address": {"city": "MARION", "state": "NC", "street": "120 N MAIN ST", "postcode": "28752"}}},
{"geometry": {"type": "Point", "coordinates": [-82.0106761713, 35.6868663124]}, "type": "Feature", "properties": {"collection_times": [{"days": "Mon-Fri", "time": "2:00pm"}, {"days": "Sat", "time": "9:00am"}, {"days": "Sun", "time": "Closed"}], "id": "2875200007", "name": "USPS COLLECTION BOX - BLUE BOX", "address": {"city": "MARION", "state": "NC", "street": "500 N MAIN ST", "postcode": "28752"}}},
{"geometry": {"type": "Point", "coordinates": [-82.0107518061, 35.6844045289]}, "type": "Feature", "properties": {"collection_times": [{"days": "Mon-Fri", "time": "2:00pm"}, {"days": "Sat", "time": "9:00am"}, {"days": "Sun", "time": "Closed"}], "id": "2875200008", "name": "USPS COLLECTION BOX - BLUE BOX", "address": {"city": "MARION", "state": "NC", "street": "90 N LOGAN ST", "postcode": "28752"}}},
{"geometry": {"type": "Point", "coordinates": [-82.0089736829, 35.6838397208]}, "type": "Feature", "properties": {"collection_times": [{"days": "Mon-Fri", "time": "2:00pm"}, {"days": "Sat", "time": "9:00am"}, {"days": "Sun", "time": "Closed"}], "id": "2875200009", "name": "USPS COLLECTION BOX - BLUE BOX", "address": {"city": "MARION", "state": "NC", "street": "14 S MAIN ST", "postcode": "28752"}}},
{"geometry": {"type": "Point", "coordinates": [-82.0130615721, 35.6766041445]}, "type": "Feature", "properties": {"collection_times": [{"days": "Mon-Sat", "time": "10:30am"}, {"days": "Sun", "time": "Closed"}], "id": "2875200010", "name": "USPS COLLECTION BOX - BLUE BOX", "address": {"city": "MARION", "state": "NC", "street": "625 W HENDERSON ST", "postcode": "28752"}}},
{"geometry": {"type": "Point", "coordinates": [-82.0069201006, 35.684766829]}, "type": "Feature", "properties": {"collection_times": [{"days": "Mon-Sat", "time": "9:00am"}, {"days": "Sun", "time": "Closed"}], "id": "2875200012", "name": "USPS COLLECTION BOX - BLUE BOX", "address": {"city": "MARION", "state": "NC", "street": "201 E COURT ST", "postcode": "28752"}}},
{"geometry": {"type": "Point", "coordinates": [-82.0186496032, 35.6831701667]}, "type": "Feature", "properties": {"collection_times": [{"days": "Mon-Fri", "time": "5:00pm"}, {"days": "Sat", "time": "4:00pm"}, {"days": "Sun", "time": "Closed"}], "id": "2875200013", "name": "USPS COLLECTION BOX - PO LOBBY", "address": {"city": "MARION", "state": "NC", "street": "215 S MAIN ST", "postcode": "28752"}}},
{"geometry": {"type": "Point", "coordinates": [-82.0074245454, 35.6812754371]}, "type": "Feature", "properties": {"collection_times": [{"days": "Mon-Fri", "time": "5:00pm"}, {"days": "Sat", "time": "4:00pm"}, {"days": "Sun", "time": "Closed"}], "id": "2875200014", "name": "USPS COLLECTION BOX - PO LOBBY", "address": {"city": "MARION", "state": "NC", "street": "215 S MAIN ST", "postcode": "28752"}}},
{"geometry": {"type": "Point", "coordinates": [-82.6950746021, 35.8720389161]}, "type": "Feature", "properties": {"collection_times": [{"days": "Mon-Fri", "time": "4:30pm"}, {"days": "Sat", "time": "11:30am"}, {"days": "Sun", "time": "Closed"}], "id": "2875300001", "name": "USPS COLLECTION BOX - BLUE BOX", "address": {"city": "MARSHALL", "state": "NC", "street": "100 S MAIN ST", "postcode": "28753"}}},
{"geometry": {"type": "Point", "coordinates": [-82.6808618352, 35.8143735575]}, "type": "Feature", "properties": {"collection_times": [{"days": "Mon-Sat", "time": "10:30am"}, {"days": "Sun", "time": "Closed"}], "id": "2875300002", "name": "USPS COLLECTION BOX - BLUE BOX", "address": {"city": "MARSHALL", "state": "NC", "street": "5707 US 25/70 HWY", "postcode": "28753"}}},
{"geometry": {"type": "Point", "coordinates": [-82.6786665378, 35.8141404451]}, "type": "Feature", "properties": {"collection_times": [{"days": "Mon-Sat", "time": "10:30am"}, {"days": "Sun", "time": "Closed"}], "id": "2875300003", "name": "USPS COLLECTION BOX - BLUE BOX", "address": {"city": "MARSHALL", "state": "NC", "street": "5580 US 25/70 HWY", "postcode": "28753"}}},
{"geometry": {"type": "Point", "coordinates": [-82.6950746021, 35.8720389161]}, "type": "Feature", "properties": {"collection_times": [{"days": "Mon-Sat", "time": "8:00am"}, {"days": "Sun", "time": "Closed"}], "id": "2875300004", "name": "USPS COLLECTION BOX - BLUE BOX", "address": {"city": "MARSHALL", "state": "NC", "street": "104 N MAIN ST", "postcode": "28753"}}},
{"geometry": {"type": "Point", "coordinates": [-82.6810456917, 35.8444741509]}, "type": "Feature", "properties": {"collection_times": [{"days": "Mon-Fri", "time": "4:30pm"}, {"days": "Sat", "time": "11:30am"}, {"days": "Sun", "time": "Closed"}], "id": "2875300005", "name": "USPS COLLECTION BOX - PO LOBBY", "address": {"city": "MARSHALL", "state": "NC", "street": "100 S MAIN ST", "postcode": "28753"}}},
{"geometry": {"type": "Point", "coordinates": [-82.6950746021, 35.8720389161]}, "type": "Feature", "properties": {"collection_times": [{"days": "Mon-Fri", "time": "4:30pm"}, {"days": "Sat", "time": "11:30am"}, {"days": "Sun", "time": "Closed"}], "id": "2875300006", "name": "USPS COLLECTION BOX - PO LOBBY", "address": {"city": "MARSHALL", "state": "NC", "street": "100 S MAIN ST", "postcode": "28753"}}},
{"geometry": {"type": "Point", "coordinates": [-82.5188857414, 35.8728731069]}, "type": "Feature", "properties": {"collection_times": [{"days": "Mon-Fri", "time": "4:15pm"}, {"days": "Sat", "time": "10:15am"}, {"days": "Sun", "time": "Closed"}], "id": "2875400004", "name": "USPS COLLECTION BOX - BLUE BOX", "address": {"city": "MARS HILL", "state": "NC", "street": "65 S MAIN ST", "postcode": "28754"}}},
{"geometry": {"type": "Point", "coordinates": [-82.5478324161, 35.8245381441]}, "type": "Feature", "properties": {"collection_times": [{"days": "Mon-Fri", "time": "4:15pm"}, {"days": "Sat", "time": "10:15am"}, {"days": "Sun", "time": "Closed"}], "id": "2875400006", "name": "USPS COLLECTION BOX - PO LOBBY", "address": {"city": "MARS HILL", "state": "NC", "street": "65 S MAIN ST", "postcode": "28754"}}},
{"geometry": {"type": "Point", "coordinates": [-82.5478324161, 35.8245381441]}, "type": "Feature", "properties": {"collection_times": [{"days": "Mon-Fri", "time": "4:15pm"}, {"days": "Sat", "time": "10:15am"}, {"days": "Sun", "time": "Closed"}], "id": "2875400007", "name": "USPS COLLECTION BOX - PO LOBBY", "address": {"city": "MARS HILL", "state": "NC", "street": "65 S MAIN ST", "postcode": "28754"}}},
{"geometry": {"type": "Point", "coordinates": [-82.5478324161, 35.8245381441]}, "type": "Feature", "properties": {"collection_times": [{"days": "Mon-Fri", "time": "4:15pm"}, {"days": "Sat", "time": "10:15am"}, {"days": "Sun", "time": "Closed"}], "id": "2875400008", "name": "USPS COLLECTION BOX - PO LOBBY", "address": {"city": "MARS HILL", "state": "NC", "street": "65 S MAIN ST", "postcode": "28754"}}},
{"geometry": {"type": "Point", "coordinates": [-82.5478324161, 35.8245381441]}, "type": "Feature", "properties": {"collection_times": [{"days": "Mon-Fri", "time": "4:15pm"}, {"days": "Sat", "time": "10:15am"}, {"days": "Sun", "time": "Closed"}], "id": "2875400009", "name": "USPS COLLECTION BOX - PO LOBBY", "address": {"city": "MARS HILL", "state": "NC", "street": "65 S MAIN ST", "postcode": "28754"}}},
{"geometry": {"type": "Point", "coordinates": [-82.2162203254, 35.9075869571]}, "type": "Feature", "properties": {"collection_times": [{"days": "Mon-Fri", "time": "4:30pm"}, {"days": "Sat", "time": "9:30am"}, {"days": "Sun", "time": "Closed"}], "id": "2875500001", "name": "USPS COLLECTION BOX - BLUE BOX", "address": {"city": "MICAVILLE", "state": "NC", "street": "551 MICAVILLE LOOP", "postcode": "28755"}}},
{"geometry": {"type": "Point", "coordinates": [-82.2162203254, 35.9075869571]}, "type": "Feature", "properties": {"collection_times": [{"days": "Mon-Fri", "time": "4:30pm"}, {"days": "Sat", "time": "9:30am"}, {"days": "Sun", "time": "Closed"}], "id": "2875500003", "name": "USPS COLLECTION BOX - PO LOBBY", "address": {"city": "MICAVILLE", "state": "NC", "street": "551 MICAVILLE LOOP", "postcode": "28755"}}},
{"geometry": {"type": "Point", "coordinates": [-82.1642366434, 35.3417309102]}, "type": "Feature", "properties": {"collection_times": [{"days": "Mon-Fri", "time": "4:00pm"}, {"days": "Sat", "time": "12:00pm"}, {"days": "Sun", "time": "Closed"}], "id": "2875600002", "name": "USPS COLLECTION BOX - BLUE BOX", "address": {"city": "MILL SPRING", "state": "NC", "street": "50 SCHOOL RD", "postcode": "28756"}}},
{"geometry": {"type": "Point", "coordinates": [-82.1800057274, 35.3455110993]}, "type": "Feature", "properties": {"collection_times": [{"days": "Mon-Fri", "time": "4:00pm"}, {"days": "Sat", "time": "12:00pm"}, {"days": "Sun", "time": "Closed"}], "id": "2875600003", "name": "USPS COLLECTION BOX - PO LOBBY", "address": {"city": "MILL SPRING", "state": "NC", "street": "50 SCHOOL RD", "postcode": "28756"}}},
{"geometry": {"type": "Point", "coordinates": [-82.3007660517, 35.6459943855]}, "type": "Feature", "properties": {"collection_times": [{"days": "Mon-Fri", "time": "4:30pm"}, {"days": "Sat", "time": "9:30am"}, {"days": "Sun", "time": "Closed"}], "id": "2875700003", "name": "USPS COLLECTION BOX - BLUE BOX", "address": {"city": "MONTREAT", "state": "NC", "street": "301 ASSEMBLY DR", "postcode": "28757"}}},
{"geometry": {"type": "Point", "coordinates": [-82.3007660517, 35.6459943855]}, "type": "Feature", "properties": {"collection_times": [{"days": "Mon-Fri", "time": "4:30pm"}, {"days": "Sat", "time": "9:30am"}, {"days": "Sun", "time": "Closed"}], "id": "2875700004", "name": "USPS COLLECTION BOX - PO LOBBY", "address": {"city": "MONTREAT", "state": "NC", "street": "301 ASSEMBLY DR", "postcode": "28757"}}},
{"geometry": {"type": "Point", "coordinates": [-82.3007660517, 35.6459943855]}, "type": "Feature", "properties": {"collection_times": [{"days": "Mon-Fri", "time": "4:30pm"}, {"days": "Sat", "time": "9:30am"}, {"days": "Sun", "time": "Closed"}], "id": "2875700005", "name": "USPS COLLECTION BOX - PO LOBBY", "address": {"city": "MONTREAT", "state": "NC", "street": "301 ASSEMBLY DR", "postcode": "28757"}}},
{"geometry": {"type": "Point", "coordinates": [-82.4950508049, 35.3714665197]}, "type": "Feature", "properties": {"collection_times": [{"days": "Mon-Fri", "time": "3:00pm"}, {"days": "Sat", "time": "9:30am"}, {"days": "Sun", "time": "Closed"}], "id": "2875800001", "name": "USPS COLLECTION BOX - BLUE BOX", "address": {"city": "MOUNTAIN HOME", "state": "NC", "street": "524 COURTLAND BLVD", "postcode": "28758"}}},
{"geometry": {"type": "Point", "coordinates": [-82.4961657076, 35.3746530512]}, "type": "Feature", "properties": {"collection_times": [{"days": "Mon-Fri", "time": "3:00pm"}, {"days": "Sat", "time": "9:30am"}, {"days": "Sun", "time": "Closed"}], "id": "2875800002", "name": "USPS COLLECTION BOX - PO LOBBY", "address": {"city": "MOUNTAIN HOME", "state": "NC", "street": "524 COURTLAND BLVD", "postcode": "28758"}}},
{"geometry": {"type": "Point", "coordinates": [-82.5021632547, 35.3924941379]}, "type": "Feature", "properties": {"collection_times": [{"days": "Mon-Fri", "time": "4:00pm"}, {"days": "Sat-Sun", "time": "Closed"}], "id": "2876000001", "name": "USPS COLLECTION BOX - BLUE BOX", "address": {"city": "NAPLES", "state": "NC", "street": "@ NAPLES RD", "postcode": "28760"}}},
{"geometry": {"type": "Point", "coordinates": [-82.5021632547, 35.3924941379]}, "type": "Feature", "properties": {"collection_times": [{"days": "Mon-Fri", "time": "4:00pm"}, {"days": "Sat-Sun", "time": "Closed"}], "id": "2876000002", "name": "USPS COLLECTION BOX - PO LOBBY", "address": {"city": "NAPLES", "state": "NC", "street": "@ NAPLES  RD", "postcode": "28760"}}},
{"geometry": {"type": "Point", "coordinates": [-81.9285070258, 35.7135520658]}, "type": "Feature", "properties": {"collection_times": [{"days": "Mon-Fri", "time": "4:15pm"}, {"days": "Sat", "time": "10:00am"}, {"days": "Sun", "time": "Closed"}], "id": "2876100001", "name": "USPS COLLECTION BOX - BLUE BOX", "address": {"city": "NEBO", "state": "NC", "street": "229 NEBO SCHOOL RD", "postcode": "28761"}}},
{"geometry": {"type": "Point", "coordinates": [-81.9003394484, 35.6672326866]}, "type": "Feature", "properties": {"collection_times": [{"days": "Mon-Fri", "time": "4:30pm"}, {"days": "Sat", "time": "10:00am"}, {"days": "Sun", "time": "Closed"}], "id": "2876100003", "name": "USPS COLLECTION BOX - PO LOBBY", "address": {"city": "NEBO", "state": "NC", "street": "229 NEBO SCHOOL RD", "postcode": "28761"}}},
{"geometry": {"type": "Point", "coordinates": [-81.9285070258, 35.7135520658]}, "type": "Feature", "properties": {"collection_times": [{"days": "Mon-Fri", "time": "4:30pm"}, {"days": "Sat", "time": "10:00am"}, {"days": "Sun", "time": "Closed"}], "id": "2876100004", "name": "USPS COLLECTION BOX - PO LOBBY", "address": {"city": "NEBO", "state": "NC", "street": "229 NEBO SCHOOL RD", "postcode": "28761"}}},
{"geometry": {"type": "Point", "coordinates": [-81.9285070258, 35.7135520658]}, "type": "Feature", "properties": {"collection_times": [{"days": "Mon-Fri", "time": "4:30pm"}, {"days": "Sat", "time": "10:00am"}, {"days": "Sun", "time": "Closed"}], "id": "2876100005", "name": "USPS COLLECTION BOX - PO LOBBY", "address": {"city": "NEBO", "state": "NC", "street": "229 NEBO SCHOOL RD", "postcode": "28761"}}},
{"geometry": {"type": "Point", "coordinates": [-81.9285070258, 35.7135520658]}, "type": "Feature", "properties": {"collection_times": [{"days": "Mon-Fri", "time": "4:30pm"}, {"days": "Sat", "time": "10:00am"}, {"days": "Sun", "time": "Closed"}], "id": "2876100006", "name": "USPS COLLECTION BOX - PO LOBBY", "address": {"city": "NEBO", "state": "NC", "street": "229 NEBO SCHOOL RD", "postcode": "28761"}}},
{"geometry": {"type": "Point", "coordinates": [-82.180276374, 35.6296710007]}, "type": "Feature", "properties": {"collection_times": [{"days": "Mon-Fri", "time": "4:30pm"}, {"days": "Sat", "time": "11:00am"}, {"days": "Sun", "time": "Closed"}], "id": "2876200001", "name": "USPS COLLECTION BOX - BLUE BOX", "address": {"city": "OLD FORT", "state": "NC", "street": "180 E MAIN ST", "postcode": "28762"}}},
{"geometry": {"type": "Point", "coordinates": [-82.1655585842, 35.6100915192]}, "type": "Feature", "properties": {"collection_times": [{"days": "Mon-Fri", "time": "4:30pm"}, {"days": "Sat", "time": "11:00am"}, {"days": "Sun", "time": "Closed"}], "id": "2876200003", "name": "USPS COLLECTION BOX - PO LOBBY", "address": {"city": "OLD FORT", "state": "NC", "street": "180 E MAIN ST", "postcode": "28762"}}},
{"geometry": {"type": "Point", "coordinates": [-82.180276374, 35.6296710007]}, "type": "Feature", "properties": {"collection_times": [{"days": "Mon-Fri", "time": "4:30pm"}, {"days": "Sat", "time": "11:00am"}, {"days": "Sun", "time": "Closed"}], "id": "2876200004", "name": "USPS COLLECTION BOX - PO LOBBY", "address": {"city": "OLD FORT", "state": "NC", "street": "180 E MAIN ST", "postcode": "28762"}}},
{"geometry": {"type": "Point", "coordinates": [-83.38610753, 35.0561812334]}, "type": "Feature", "properties": {"collection_times": [{"days": "Mon-Fri", "time": "4:15pm"}, {"days": "Sat", "time": "11:30am"}, {"days": "Sun", "time": "Closed"}], "id": "2876300002", "name": "USPS COLLECTION BOX - BLUE BOX", "address": {"city": "OTTO", "state": "NC", "street": "8491 GEORGIA RD", "postcode": "28763"}}},
{"geometry": {"type": "Point", "coordinates": [-83.38610753, 35.0561812334]}, "type": "Feature", "properties": {"collection_times": [{"days": "Mon-Fri", "time": "4:15pm"}, {"days": "Sat", "time": "11:30am"}, {"days": "Sun", "time": "Closed"}], "id": "2876300003", "name": "USPS COLLECTION BOX - PO LOBBY", "address": {"city": "OTTO", "state": "NC", "street": "8491 GEORGIA RD", "postcode": "28763"}}},
{"geometry": {"type": "Point", "coordinates": [-83.38610753, 35.0561812334]}, "type": "Feature", "properties": {"collection_times": [{"days": "Mon-Fri", "time": "4:15pm"}, {"days": "Sat", "time": "11:30am"}, {"days": "Sun", "time": "Closed"}], "id": "2876300004", "name": "USPS COLLECTION BOX - PO LOBBY", "address": {"city": "OTTO", "state": "NC", "street": "8491 GEORGIA RD", "postcode": "28763"}}},
{"geometry": {"type": "Point", "coordinates": [-82.1155562609, 35.9274116159]}, "type": "Feature", "properties": {"collection_times": [{"days": "Mon-Fri", "time": "4:30pm"}, {"days": "Sat", "time": "9:30am"}, {"days": "Sun", "time": "Closed"}], "id": "2876500001", "name": "USPS COLLECTION BOX - BLUE BOX", "address": {"city": "PENLAND", "state": "NC", "street": "1162 PENLAND RD", "postcode": "28765"}}},
{"geometry": {"type": "Point", "coordinates": [-82.1155562609, 35.9274116159]}, "type": "Feature", "properties": {"collection_times": [{"days": "Mon-Fri", "time": "4:30pm"}, {"days": "Sat", "time": "9:30am"}, {"days": "Sun", "time": "Closed"}], "id": "2876500002", "name": "USPS COLLECTION BOX - PO LOBBY", "address": {"city": "PENLAND", "state": "NC", "street": "1162 PENLAND RD", "postcode": "28765"}}},
{"geometry": {"type": "Point", "coordinates": [-82.6141751035, 35.2470156981]}, "type": "Feature", "properties": {"collection_times": [{"days": "Mon-Fri", "time": "4:45pm"}, {"days": "Sat", "time": "10:45am"}, {"days": "Sun", "time": "Closed"}], "id": "2876600002", "name": "USPS COLLECTION BOX - BLUE BOX", "address": {"city": "PENROSE", "state": "NC", "street": "5858 OLD HENDERSONVILLE HWY", "postcode": "28766"}}},
{"geometry": {"type": "Point", "coordinates": [-82.6141751035, 35.2470156981]}, "type": "Feature", "properties": {"collection_times": [{"days": "Mon-Fri", "time": "4:45pm"}, {"days": "Sat", "time": "10:45am"}, {"days": "Sun", "time": "Closed"}], "id": "2876600003", "name": "USPS COLLECTION BOX - PO LOBBY", "address": {"city": "PENROSE", "state": "NC", "street": "5858 OLD HENDERSONVILLE HWY", "postcode": "28766"}}},
{"geometry": {"type": "Point", "coordinates": [-82.6404188202, 35.2727282363]}, "type": "Feature", "properties": {"collection_times": [{"days": "Mon-Fri", "time": "4:30pm"}, {"days": "Sat", "time": "1:00pm"}, {"days": "Sun", "time": "Closed"}], "id": "2876800002", "name": "USPS COLLECTION BOX - BLUE BOX", "address": {"city": "PISGAH FOREST", "state": "NC", "street": "1 OLD HENDERSONVILLE HWY", "postcode": "28768"}}},
{"geometry": {"type": "Point", "coordinates": [-82.6696183272, 35.2569120922]}, "type": "Feature", "properties": {"collection_times": [{"days": "Mon-Fri", "time": "4:30pm"}, {"days": "Sat", "time": "1:00pm"}, {"days": "Sun", "time": "Closed"}], "id": "2876800004", "name": "USPS COLLECTION BOX - PO LOBBY", "address": {"city": "PISGAH FOREST", "state": "NC", "street": "1 OLD HENDERSONVILLE HWY", "postcode": "28768"}}},
{"geometry": {"type": "Point", "coordinates": [-82.2815622281, 35.6173134751]}, "type": "Feature", "properties": {"collection_times": [{"days": "Mon-Fri", "time": "4:30pm"}, {"days": "Sat-Sun", "time": "Closed"}], "id": "2877000001", "name": "USPS COLLECTION BOX - BLUE BOX", "address": {"city": "RIDGECREST", "state": "NC", "street": "2 TUCKER RD", "postcode": "28770"}}},
{"geometry": {"type": "Point", "coordinates": [-82.2826999324, 35.6205021524]}, "type": "Feature", "properties": {"collection_times": [{"days": "Mon-Fri", "time": "4:30pm"}, {"days": "Sat", "time": "7:30am"}, {"days": "Sun", "time": "Closed"}], "id": "2877000002", "name": "USPS COLLECTION BOX - PO LOBBY", "address": {"city": "RIDGECREST", "state": "NC", "street": "2 TUCKER RD", "postcode": "28770"}}},
{"geometry": {"type": "Point", "coordinates": [-82.2815622281, 35.6173134751]}, "type": "Feature", "properties": {"collection_times": [{"days": "Mon-Fri", "time": "4:30pm"}, {"days": "Sat", "time": "7:30am"}, {"days": "Sun", "time": "Closed"}], "id": "2877000003", "name": "USPS COLLECTION BOX - PO LOBBY", "address": {"city": "RIDGECREST", "state": "NC", "street": "2 TUCKER RD", "postcode": "28770"}}},
{"geometry": {"type": "Point", "coordinates": [-83.8012749419, 35.3246113927]}, "type": "Feature", "properties": {"collection_times": [{"days": "Mon-Fri", "time": "4:15pm"}, {"days": "Sat", "time": "12:00pm"}, {"days": "Sun", "time": "Closed"}], "id": "2877100001", "name": "USPS COLLECTION BOX - BLUE BOX", "address": {"city": "ROBBINSVILLE", "state": "NC", "street": "74 SWEETWATER RD", "postcode": "28771"}}},
{"geometry": {"type": "Point", "coordinates": [-83.7922591233, 35.3400711524]}, "type": "Feature", "properties": {"collection_times": [{"days": "Mon-Fri", "time": "4:15pm"}, {"days": "Sat", "time": "12:00pm"}, {"days": "Sun", "time": "Closed"}], "id": "2877100002", "name": "USPS COLLECTION BOX - PO LOBBY", "address": {"city": "ROBBINSVILLE", "state": "NC", "street": "74 SWEETWATER RD", "postcode": "28771"}}},
{"geometry": {"type": "Point", "coordinates": [-83.8012749419, 35.3246113927]}, "type": "Feature", "properties": {"collection_times": [{"days": "Mon-Fri", "time": "4:15pm"}, {"days": "Sat", "time": "12:00pm"}, {"days": "Sun", "time": "Closed"}], "id": "2877100003", "name": "USPS COLLECTION BOX - PO LOBBY", "address": {"city": "ROBBINSVILLE", "state": "NC", "street": "74 SWEETWATER RD", "postcode": "28771"}}},
{"geometry": {"type": "Point", "coordinates": [-83.7922591233, 35.3400711524]}, "type": "Feature", "properties": {"collection_times": [{"days": "Mon-Sat", "time": "11:00am"}, {"days": "Sun", "time": "Closed"}], "id": "2877100004", "name": "USPS COLLECTION BOX - BLUE BOX", "address": {"city": "ROBBINSVILLE", "state": "NC", "street": "WOODS RD", "postcode": "28771"}}},
{"geometry": {"type": "Point", "coordinates": [-82.8123646672, 35.0893014578]}, "type": "Feature", "properties": {"collection_times": [{"days": "Mon-Fri", "time": "4:00pm"}, {"days": "Sat", "time": "11:30am"}, {"days": "Sun", "time": "Closed"}], "id": "2877200002", "name": "USPS COLLECTION BOX - BLUE BOX", "address": {"city": "ROSMAN", "state": "NC", "street": "272 MAIN ST", "postcode": "28772"}}},
{"geometry": {"type": "Point", "coordinates": [-82.8123646672, 35.0893014578]}, "type": "Feature", "properties": {"collection_times": [{"days": "Mon-Fri", "time": "4:00pm"}, {"days": "Sat", "time": "11:30am"}, {"days": "Sun", "time": "Closed"}], "id": "2877200005", "name": "USPS COLLECTION BOX - PO LOBBY", "address": {"city": "ROSMAN", "state": "NC", "street": "272 MAIN ST", "postcode": "28772"}}},
{"geometry": {"type": "Point", "coordinates": [-82.346871743, 35.2353286521]}, "type": "Feature", "properties": {"collection_times": [{"days": "Mon-Fri", "time": "4:30pm"}, {"days": "Sat", "time": "11:00am"}, {"days": "Sun", "time": "Closed"}], "id": "2877300002", "name": "USPS COLLECTION BOX - BLUE BOX", "address": {"city": "SALUDA", "state": "NC", "street": "102 E MAIN ST", "postcode": "28773"}}},
{"geometry": {"type": "Point", "coordinates": [-82.346871743, 35.2353286521]}, "type": "Feature", "properties": {"collection_times": [{"days": "Mon-Fri", "time": "4:30pm"}, {"days": "Sat", "time": "11:00am"}, {"days": "Sun", "time": "Closed"}], "id": "2877300003", "name": "USPS COLLECTION BOX - PO LOBBY", "address": {"city": "SALUDA", "state": "NC", "street": "102 E MAIN ST", "postcode": "28773"}}},
{"geometry": {"type": "Point", "coordinates": [-82.346871743, 35.2353286521]}, "type": "Feature", "properties": {"collection_times": [{"days": "Mon-Fri", "time": "4:30pm"}, {"days": "Sat", "time": "11:00am"}, {"days": "Sun", "time": "Closed"}], "id": "2877300004", "name": "USPS COLLECTION BOX - PO LOBBY", "address": {"city": "SALUDA", "state": "NC", "street": "102 E MAIN ST", "postcode": "28773"}}},
{"geometry": {"type": "Point", "coordinates": [-83.0032428713, 35.0830187465]}, "type": "Feature", "properties": {"collection_times": [{"days": "Mon-Fri", "time": "4:00pm"}, {"days": "Sat", "time": "12:00pm"}, {"days": "Sun", "time": "Closed"}], "id": "2877400001", "name": "USPS COLLECTION BOX - BLUE BOX", "address": {"city": "SAPPHIRE", "state": "NC", "street": "17740 ROSMAN HWY", "postcode": "28774"}}},
{"geometry": {"type": "Point", "coordinates": [-82.9940989929, 35.0717018877]}, "type": "Feature", "properties": {"collection_times": [{"days": "Mon-Fri", "time": "4:00pm"}, {"days": "Sat", "time": "12:00pm"}, {"days": "Sun", "time": "Closed"}], "id": "2877400003", "name": "USPS COLLECTION BOX - PO LOBBY", "address": {"city": "SAPPHIRE", "state": "NC", "street": "17740 ROSMAN HWY", "postcode": "28774"}}},
{"geometry": {"type": "Point", "coordinates": [-83.0032428713, 35.0830187465]}, "type": "Feature", "properties": {"collection_times": [{"days": "Mon-Fri", "time": "4:00pm"}, {"days": "Sat", "time": "12:00pm"}, {"days": "Sun", "time": "Closed"}], "id": "2877400004", "name": "USPS COLLECTION BOX - PO LOBBY", "address": {"city": "SAPPHIRE", "state": "NC", "street": "17740 ROSMAN HWY", "postcode": "28774"}}},
{"geometry": {"type": "Point", "coordinates": [-83.2994448433, 35.0211989089]}, "type": "Feature", "properties": {"collection_times": [{"days": "Mon-Fri", "time": "4:15pm"}, {"days": "Sat", "time": "11:30am"}, {"days": "Sun", "time": "Closed"}], "id": "2877500001", "name": "USPS COLLECTION BOX - BLUE BOX", "address": {"city": "SCALY MOUNTAIN", "state": "NC", "street": "7312 DILLARD RD", "postcode": "28775"}}},
{"geometry": {"type": "Point", "coordinates": [-83.3184362735, 35.0199224572]}, "type": "Feature", "properties": {"collection_times": [{"days": "Mon-Fri", "time": "4:15pm"}, {"days": "Sat", "time": "11:30am"}, {"days": "Sun", "time": "Closed"}], "id": "2877500003", "name": "USPS COLLECTION BOX - PO LOBBY", "address": {"city": "SCALY MOUNTAIN", "state": "NC", "street": "7312 DILLARD RD", "postcode": "28775"}}},
{"geometry": {"type": "Point", "coordinates": [-82.5249910075, 35.4838207777]}, "type": "Feature", "properties": {"collection_times": [{"days": "Mon-Fri", "time": "4:00pm"}, {"days": "Sat", "time": "10:30am"}, {"days": "Sun", "time": "Closed"}], "id": "2877600001", "name": "USPS COLLECTION BOX - BLUE BOX", "address": {"city": "SKYLAND", "state": "NC", "street": "1950 HENDERSONVILLE RD", "postcode": "28776"}}},
{"geometry": {"type": "Point", "coordinates": [-82.5249910075, 35.4838207777]}, "type": "Feature", "properties": {"collection_times": [{"days": "Mon-Fri", "time": "4:00pm"}, {"days": "Sat", "time": "10:30am"}, {"days": "Sun", "time": "Closed"}], "id": "2877600002", "name": "USPS COLLECTION BOX - BLUE BOX", "address": {"city": "SKYLAND", "state": "NC", "street": "1950 HENDERSONVILLE RD", "postcode": "28776"}}},
{"geometry": {"type": "Point", "coordinates": [-82.5225876861, 35.4920724798]}, "type": "Feature", "properties": {"collection_times": [{"days": "Mon-Fri", "time": "4:00pm"}, {"days": "Sat", "time": "10:30am"}, {"days": "Sun", "time": "Closed"}], "id": "2877600004", "name": "USPS COLLECTION BOX - PO LOBBY", "address": {"city": "SKYLAND", "state": "NC", "street": "1950 HENDERSONVILLE RD", "postcode": "28776"}}},
{"geometry": {"type": "Point", "coordinates": [-82.5249910075, 35.4838207777]}, "type": "Feature", "properties": {"collection_times": [{"days": "Mon-Fri", "time": "4:00pm"}, {"days": "Sat", "time": "10:30am"}, {"days": "Sun", "time": "Closed"}], "id": "2877600005", "name": "USPS COLLECTION BOX - PO LOBBY", "address": {"city": "SKYLAND", "state": "NC", "street": "1950 HENDERSONVILLE RD", "postcode": "28776"}}},
{"geometry": {"type": "Point", "coordinates": [-82.0687654648, 35.9161928886]}, "type": "Feature", "properties": {"collection_times": [{"days": "Mon-Fri", "time": "4:45pm"}, {"days": "Sat", "time": "12:30pm"}, {"days": "Sun", "time": "Closed"}], "id": "2877700002", "name": "USPS COLLECTION BOX - BLUE BOX", "address": {"city": "SPRUCE PINE", "state": "NC", "street": "899 OAK AVE", "postcode": "28777"}}},
{"geometry": {"type": "Point", "coordinates": [-82.0708995928, 35.9031512663]}, "type": "Feature", "properties": {"collection_times": [{"days": "Mon-Fri", "time": "12:30pm"}, {"days": "Sat-Sun", "time": "Closed"}], "id": "2877700010", "name": "USPS COLLECTION BOX - BLUE BOX", "address": {"city": "SPRUCE PINE", "state": "NC", "street": "11937 S 226 HWY", "postcode": "28777"}}},
{"geometry": {"type": "Point", "coordinates": [-82.0687654648, 35.9161928886]}, "type": "Feature", "properties": {"collection_times": [{"days": "Mon-Fri", "time": "4:45pm"}, {"days": "Sat", "time": "12:30pm"}, {"days": "Sun", "time": "Closed"}], "id": "2877700014", "name": "USPS COLLECTION BOX - PO LOBBY", "address": {"city": "SPRUCE PINE", "state": "NC", "street": "899 OAK AVE", "postcode": "28777"}}},
{"geometry": {"type": "Point", "coordinates": [-82.0687654648, 35.9161928886]}, "type": "Feature", "properties": {"collection_times": [{"days": "Mon-Fri", "time": "4:45pm"}, {"days": "Sat", "time": "12:30pm"}, {"days": "Sun", "time": "Closed"}], "id": "2877700016", "name": "USPS COLLECTION BOX - PO LOBBY", "address": {"city": "SPRUCE PINE", "state": "NC", "street": "899 OAK AVE", "postcode": "28777"}}},
{"geometry": {"type": "Point", "coordinates": [-82.4065616731, 35.5994062969]}, "type": "Feature", "properties": {"collection_times": [{"days": "Mon-Fri", "time": "5:00pm"}, {"days": "Sat", "time": "10:00am"}, {"days": "Sun", "time": "Closed"}], "id": "2877800003", "name": "USPS COLLECTION BOX - BLUE BOX", "address": {"city": "SWANNANOA", "state": "NC", "street": "2311 US HIGHWAY 70", "postcode": "28778"}}},
{"geometry": {"type": "Point", "coordinates": [-82.4065616731, 35.5994062969]}, "type": "Feature", "properties": {"collection_times": [{"days": "Mon-Fri", "time": "5:00pm"}, {"days": "Sat", "time": "10:00am"}, {"days": "Sun", "time": "Closed"}], "id": "2877800004", "name": "USPS COLLECTION BOX - BLUE BOX", "address": {"city": "SWANNANOA", "state": "NC", "street": "2311 US HIGHWAY 70", "postcode": "28778"}}},
{"geometry": {"type": "Point", "coordinates": [-82.4075189054, 35.6024138945]}, "type": "Feature", "properties": {"collection_times": [{"days": "Mon-Fri", "time": "2:00pm"}, {"days": "Sat-Sun", "time": "Closed"}], "id": "2877800007", "name": "USPS COLLECTION BOX - BLUE BOX", "address": {"city": "SWANNANOA", "state": "NC", "street": "701 WARREN WILSON RD", "postcode": "28778"}}},
{"geometry": {"type": "Point", "coordinates": [-82.4065616731, 35.5994062969]}, "type": "Feature", "properties": {"collection_times": [{"days": "Mon-Fri", "time": "5:00pm"}, {"days": "Sat", "time": "10:00am"}, {"days": "Sun", "time": "Closed"}], "id": "2877800017", "name": "USPS COLLECTION BOX - PO LOBBY", "address": {"city": "SWANNANOA", "state": "NC", "street": "2311 US HIGHWAY 70", "postcode": "28778"}}},
{"geometry": {"type": "Point", "coordinates": [-82.4065616731, 35.5994062969]}, "type": "Feature", "properties": {"collection_times": [{"days": "Mon-Fri", "time": "5:00pm"}, {"days": "Sat", "time": "10:00am"}, {"days": "Sun", "time": "Closed"}], "id": "2877800018", "name": "USPS COLLECTION BOX - PO LOBBY", "address": {"city": "SWANNANOA", "state": "NC", "street": "2311 US HIGHWAY 70", "postcode": "28778"}}},
{"geometry": {"type": "Point", "coordinates": [-83.2125501686, 35.3819599918]}, "type": "Feature", "properties": {"collection_times": [{"days": "Mon-Fri", "time": "2:00pm"}, {"days": "Sat", "time": "10:30am"}, {"days": "Sun", "time": "Closed"}], "id": "2877900003", "name": "USPS COLLECTION BOX - BLUE BOX", "address": {"city": "SYLVA", "state": "NC", "street": "122 E SYLVA SHOPPING CTR", "postcode": "28779"}}},
{"geometry": {"type": "Point", "coordinates": [-83.2233325822, 35.3735541916]}, "type": "Feature", "properties": {"collection_times": [{"days": "Mon-Fri", "time": "2:00pm"}, {"days": "Sat", "time": "9:30am"}, {"days": "Sun", "time": "Closed"}], "id": "2877900005", "name": "USPS COLLECTION BOX - BLUE BOX", "address": {"city": "SYLVA", "state": "NC", "street": "539 W MAIN ST", "postcode": "28779"}}},
{"geometry": {"type": "Point", "coordinates": [-83.2130371688, 35.382328893]}, "type": "Feature", "properties": {"collection_times": [{"days": "Mon-Sat", "time": "10:00am"}, {"days": "Sun", "time": "Closed"}], "id": "2877900007", "name": "USPS COLLECTION BOX - BLUE BOX", "address": {"city": "SYLVA", "state": "NC", "street": "80 E SYLVA SHOPPING CTR", "postcode": "28779"}}},
{"geometry": {"type": "Point", "coordinates": [-83.2227884647, 35.3828786125]}, "type": "Feature", "properties": {"collection_times": [{"days": "Mon-Fri", "time": "2:00pm"}, {"days": "Sat-Sun", "time": "Closed"}], "id": "2877900008", "name": "USPS COLLECTION BOX - BLUE BOX", "address": {"city": "SYLVA", "state": "NC", "street": "401 GRINDSTAFF COVE RD", "postcode": "28779"}}},
{"geometry": {"type": "Point", "coordinates": [-83.2124350838, 35.374230553]}, "type": "Feature", "properties": {"collection_times": [{"days": "Mon-Sat", "time": "1:30pm"}, {"days": "Sun", "time": "Closed"}], "id": "2877900009", "name": "USPS COLLECTION BOX - BLUE BOX", "address": {"city": "SYLVA", "state": "NC", "street": "56 E MAIN ST", "postcode": "28779"}}},
{"geometry": {"type": "Point", "coordinates": [-83.2025700626, 35.3687643936]}, "type": "Feature", "properties": {"collection_times": [{"days": "Mon-Fri", "time": "12:00pm"}, {"days": "Sat", "time": "10:30am"}, {"days": "Sun", "time": "Closed"}], "id": "2877900010", "name": "USPS COLLECTION BOX - BLUE BOX", "address": {"city": "SYLVA", "state": "NC", "street": "1627 E MAIN ST", "postcode": "28779"}}},
{"geometry": {"type": "Point", "coordinates": [-83.2039206209, 35.3895620407]}, "type": "Feature", "properties": {"collection_times": [{"days": "Mon-Fri", "time": "2:00pm"}, {"days": "Sat", "time": "11:30am"}, {"days": "Sun", "time": "Closed"}], "id": "2877900011", "name": "USPS COLLECTION BOX - BLUE BOX", "address": {"city": "SYLVA", "state": "NC", "street": "538 SCOTTS CREEK RD", "postcode": "28779"}}},
{"geometry": {"type": "Point", "coordinates": [-83.2018627246, 35.3856674091]}, "type": "Feature", "properties": {"collection_times": [{"days": "Mon-Fri", "time": "2:00pm"}, {"days": "Sat", "time": "10:00am"}, {"days": "Sun", "time": "Closed"}], "id": "2877900012", "name": "USPS COLLECTION BOX - BLUE BOX", "address": {"city": "SYLVA", "state": "NC", "street": "68 HOSPITAL RD", "postcode": "28779"}}},
{"geometry": {"type": "Point", "coordinates": [-83.2243147226, 35.3736922507]}, "type": "Feature", "properties": {"collection_times": [{"days": "Mon-Fri", "time": "2:00pm"}, {"days": "Sat", "time": "9:30am"}, {"days": "Sun", "time": "Closed"}], "id": "2877900013", "name": "USPS COLLECTION BOX - BLUE BOX", "address": {"city": "SYLVA", "state": "NC", "street": "600 W MAIN ST", "postcode": "28779"}}},
{"geometry": {"type": "Point", "coordinates": [-83.2262097995, 35.3736551865]}, "type": "Feature", "properties": {"collection_times": [{"days": "Mon-Fri", "time": "2:00pm"}, {"days": "Sat", "time": "9:30am"}, {"days": "Sun", "time": "Closed"}], "id": "2877900015", "name": "USPS COLLECTION BOX - BLUE BOX", "address": {"city": "SYLVA", "state": "NC", "street": "705 W MAIN ST", "postcode": "28779"}}},
{"geometry": {"type": "Point", "coordinates": [-83.2251772496, 35.3726481897]}, "type": "Feature", "properties": {"collection_times": [{"days": "Mon-Fri", "time": "5:00pm"}, {"days": "Sat", "time": "12:00pm"}, {"days": "Sun", "time": "Closed"}], "id": "2877900017", "name": "USPS COLLECTION BOX - BLUE BOX", "address": {"city": "SYLVA", "state": "NC", "street": "271 JACKSON PLZ", "postcode": "28779"}}},
{"geometry": {"type": "Point", "coordinates": [-83.2251772496, 35.3726481897]}, "type": "Feature", "properties": {"collection_times": [{"days": "Mon-Fri", "time": "5:00pm"}, {"days": "Sat", "time": "12:00pm"}, {"days": "Sun", "time": "Closed"}], "id": "2877900018", "name": "USPS COLLECTION BOX - PO LOBBY", "address": {"city": "SYLVA", "state": "NC", "street": "271 JACKSON PLZ", "postcode": "28779"}}},
{"geometry": {"type": "Point", "coordinates": [-83.203170231, 35.3617000154]}, "type": "Feature", "properties": {"collection_times": [{"days": "Mon-Fri", "time": "11:30am"}, {"days": "Sat", "time": "10:30am"}, {"days": "Sun", "time": "Closed"}], "id": "2877900019", "name": "USPS COLLECTION BOX - BLUE BOX", "address": {"city": "SYLVA", "state": "NC", "street": "210 WALMART PLZ", "postcode": "28779"}}},
{"geometry": {"type": "Point", "coordinates": [-83.6307291988, 35.2270010743]}, "type": "Feature", "properties": {"collection_times": [{"days": "Mon-Fri", "time": "4:30pm"}, {"days": "Sat", "time": "12:00pm"}, {"days": "Sun", "time": "Closed"}], "id": "2878100002", "name": "USPS COLLECTION BOX - BLUE BOX", "address": {"city": "TOPTON", "state": "NC", "street": "1 HIGHWAY 19", "postcode": "28781"}}},
{"geometry": {"type": "Point", "coordinates": [-83.6307291988, 35.2270010743]}, "type": "Feature", "properties": {"collection_times": [{"days": "Mon-Fri", "time": "4:30pm"}, {"days": "Sat", "time": "12:00pm"}, {"days": "Sun", "time": "Closed"}], "id": "2878100003", "name": "USPS COLLECTION BOX - PO LOBBY", "address": {"city": "TOPTON", "state": "NC", "street": "1 HIGHWAY 19", "postcode": "28781"}}},
{"geometry": {"type": "Point", "coordinates": [-83.6149920835, 35.2214290933]}, "type": "Feature", "properties": {"collection_times": [{"days": "Mon-Fri", "time": "11:00am"}, {"days": "Sat-Sun", "time": "Closed"}], "id": "2878100004", "name": "USPS COLLECTION BOX - BLUE BOX", "address": {"city": "TOPTON", "state": "NC", "street": "36 WHITE OAK LN", "postcode": "28781"}}},
{"geometry": {"type": "Point", "coordinates": [-82.2376841856, 35.2046008733]}, "type": "Feature", "properties": {"collection_times": [{"days": "Mon-Sat", "time": "1:30pm"}, {"days": "Sun", "time": "Closed"}], "id": "2878200002", "name": "USPS COLLECTION BOX - BLUE BOX", "address": {"city": "TRYON", "state": "NC", "street": "370 S TRADE ST", "postcode": "28782"}}},
{"geometry": {"type": "Point", "coordinates": [-82.2411572843, 35.211406026]}, "type": "Feature", "properties": {"collection_times": [{"days": "Mon-Sat", "time": "11:00am"}, {"days": "Sun", "time": "Closed"}], "id": "2878200004", "name": "USPS COLLECTION BOX - BLUE BOX", "address": {"city": "TRYON", "state": "NC", "street": "301 N TRADE ST", "postcode": "28782"}}},
{"geometry": {"type": "Point", "coordinates": [-82.23854436, 35.2085333271]}, "type": "Feature", "properties": {"collection_times": [{"days": "Mon-Fri", "time": "5:00pm"}, {"days": "Sat", "time": "12:00pm"}, {"days": "Sun", "time": "Closed"}], "id": "2878200008", "name": "USPS COLLECTION BOX - PO LOBBY", "address": {"city": "TRYON", "state": "NC", "street": "95 PACOLET ST", "postcode": "28782"}}},
{"geometry": {"type": "Point", "coordinates": [-82.23854436, 35.2085333271]}, "type": "Feature", "properties": {"collection_times": [{"days": "Mon-Fri", "time": "5:00pm"}, {"days": "Sat", "time": "12:00pm"}, {"days": "Sun", "time": "Closed"}], "id": "2878200009", "name": "USPS COLLECTION BOX - PO LOBBY", "address": {"city": "TRYON", "state": "NC", "street": "95 PACOLET ST", "postcode": "28782"}}},
{"geometry": {"type": "Point", "coordinates": [-83.1221097142, 35.2700355417]}, "type": "Feature", "properties": {"collection_times": [{"days": "Mon-Fri", "time": "4:00pm"}, {"days": "Sat", "time": "11:00am"}, {"days": "Sun", "time": "Closed"}], "id": "2878300001", "name": "USPS COLLECTION BOX - BLUE BOX", "address": {"city": "TUCKASEGEE", "state": "NC", "street": "26 CANADA RD", "postcode": "28783"}}},
{"geometry": {"type": "Point", "coordinates": [-83.0529173324, 35.2563211714]}, "type": "Feature", "properties": {"collection_times": [{"days": "Mon-Fri", "time": "4:00pm"}, {"days": "Sat", "time": "11:00am"}, {"days": "Sun", "time": "Closed"}], "id": "2878300002", "name": "USPS COLLECTION BOX - PO LOBBY", "address": {"city": "TUCKASEGEE", "state": "NC", "street": "26 CANADA RD", "postcode": "28783"}}},
{"geometry": {"type": "Point", "coordinates": [-82.9901983725, 35.4892565957]}, "type": "Feature", "properties": {"collection_times": [{"days": "Mon-Fri", "time": "5:00pm"}, {"days": "Sat", "time": "2:00pm"}, {"days": "Sun", "time": "Closed"}], "id": "2878600001", "name": "USPS COLLECTION BOX - BLUE BOX", "address": {"city": "WAYNESVILLE", "state": "NC", "street": "523 S HAYWOOD ST", "postcode": "28786"}}},
{"geometry": {"type": "Point", "coordinates": [-82.9901983725, 35.4892565957]}, "type": "Feature", "properties": {"collection_times": [{"days": "Mon-Fri", "time": "5:00pm"}, {"days": "Sat", "time": "2:00pm"}, {"days": "Sun", "time": "Closed"}], "id": "2878600002", "name": "USPS COLLECTION BOX - BLUE BOX", "address": {"city": "WAYNESVILLE", "state": "NC", "street": "523 S HAYWOOD ST", "postcode": "28786"}}},
{"geometry": {"type": "Point", "coordinates": [-82.9901983725, 35.4892565957]}, "type": "Feature", "properties": {"collection_times": [{"days": "Mon-Fri", "time": "5:00pm"}, {"days": "Sat", "time": "2:00pm"}, {"days": "Sun", "time": "Closed"}], "id": "2878600003", "name": "USPS COLLECTION BOX - BLUE BOX", "address": {"city": "WAYNESVILLE", "state": "NC", "street": "523 S HAYWOOD ST", "postcode": "28786"}}},
{"geometry": {"type": "Point", "coordinates": [-82.9881613172, 35.4895476036]}, "type": "Feature", "properties": {"collection_times": [{"days": "Mon-Sat", "time": "2:00pm"}, {"days": "Sun", "time": "Closed"}], "id": "2878600006", "name": "USPS COLLECTION BOX - BLUE BOX", "address": {"city": "WAYNESVILLE", "state": "NC", "street": "16 S MAIN ST", "postcode": "28786"}}},
{"geometry": {"type": "Point", "coordinates": [-82.9871262281, 35.4916130499]}, "type": "Feature", "properties": {"collection_times": [{"days": "Mon-Sat", "time": "12:00pm"}, {"days": "Sun", "time": "Closed"}], "id": "2878600009", "name": "USPS COLLECTION BOX - BLUE BOX", "address": {"city": "WAYNESVILLE", "state": "NC", "street": "143 N MAIN ST", "postcode": "28786"}}},
{"geometry": {"type": "Point", "coordinates": [-82.9866565934, 35.4925523194]}, "type": "Feature", "properties": {"collection_times": [{"days": "Mon-Sat", "time": "12:00pm"}, {"days": "Sun", "time": "Closed"}], "id": "2878600010", "name": "USPS COLLECTION BOX - BLUE BOX", "address": {"city": "WAYNESVILLE", "state": "NC", "street": "215 N MAIN ST", "postcode": "28786"}}},
{"geometry": {"type": "Point", "coordinates": [-82.982632167, 35.4975041856]}, "type": "Feature", "properties": {"collection_times": [{"days": "Mon-Sat", "time": "2:00pm"}, {"days": "Sun", "time": "Closed"}], "id": "2878600013", "name": "USPS COLLECTION BOX - BLUE BOX", "address": {"city": "WAYNESVILLE", "state": "NC", "street": "379 WALNUT ST", "postcode": "28786"}}},
{"geometry": {"type": "Point", "coordinates": [-82.9859219759, 35.4986883275]}, "type": "Feature", "properties": {"collection_times": [{"days": "Mon-Sat", "time": "12:30pm"}, {"days": "Sun", "time": "Closed"}], "id": "2878600015", "name": "USPS COLLECTION BOX - BLUE BOX", "address": {"city": "WAYNESVILLE", "state": "NC", "street": "366 RUSS AVE", "postcode": "28786"}}},
{"geometry": {"type": "Point", "coordinates": [-82.9910369073, 35.4628542533]}, "type": "Feature", "properties": {"collection_times": [{"days": "Mon-Sat", "time": "9:00am"}, {"days": "Sun", "time": "Closed"}], "id": "2878600021", "name": "USPS COLLECTION BOX - BLUE BOX", "address": {"city": "WAYNESVILLE", "state": "NC", "street": "201 BARBER BLVD", "postcode": "28786"}}},
{"geometry": {"type": "Point", "coordinates": [-82.9898495776, 35.4810100958]}, "type": "Feature", "properties": {"collection_times": [{"days": "Mon-Fri", "time": "5:00pm"}, {"days": "Sat", "time": "2:00pm"}, {"days": "Sun", "time": "Closed"}], "id": "2878600023", "name": "USPS COLLECTION BOX - PO LOBBY", "address": {"city": "WAYNESVILLE", "state": "NC", "street": "523 S HAYWOOD ST", "postcode": "28786"}}},
{"geometry": {"type": "Point", "coordinates": [-82.9901983725, 35.4892565957]}, "type": "Feature", "properties": {"collection_times": [{"days": "Mon-Fri", "time": "5:00pm"}, {"days": "Sat", "time": "2:00pm"}, {"days": "Sun", "time": "Closed"}], "id": "2878600024", "name": "USPS COLLECTION BOX - PO LOBBY", "address": {"city": "WAYNESVILLE", "state": "NC", "street": "523 S HAYWOOD ST", "postcode": "28786"}}},
{"geometry": {"type": "Point", "coordinates": [-83.0017061973, 35.4782042101]}, "type": "Feature", "properties": {"collection_times": [{"days": "Mon-Fri", "time": "4:30pm"}, {"days": "Sat-Sun", "time": "Closed"}], "id": "2878600025", "name": "USPS COLLECTION BOX - BLUE BOX", "address": {"city": "WAYNESVILLE", "state": "NC", "street": "369 HAZELWOOD AVE", "postcode": "28786"}}},
{"geometry": {"type": "Point", "coordinates": [-83.0017061973, 35.4782042101]}, "type": "Feature", "properties": {"collection_times": [{"days": "Mon-Fri", "time": "4:30pm"}, {"days": "Sat-Sun", "time": "Closed"}], "id": "2878600026", "name": "USPS COLLECTION BOX - PO LOBBY", "address": {"city": "WAYNESVILLE", "state": "NC", "street": "369 HAZELWOOD AVE", "postcode": "28786"}}},
{"geometry": {"type": "Point", "coordinates": [-82.9862721317, 35.5006804304]}, "type": "Feature", "properties": {"collection_times": [{"days": "Mon-Sat", "time": "1:00pm"}, {"days": "Sun", "time": "Closed"}], "id": "2878600027", "name": "USPS COLLECTION BOX - BLUE BOX", "address": {"city": "WAYNESVILLE", "state": "NC", "street": "79 WAYNESVILLE PLZ", "postcode": "28786"}}},
{"geometry": {"type": "Point", "coordinates": [-82.560532298, 35.7096347531]}, "type": "Feature", "properties": {"collection_times": [{"days": "Mon-Fri", "time": "2:45pm"}, {"days": "Sat", "time": "12:00pm"}, {"days": "Sun", "time": "Closed"}], "id": "2878700001", "name": "USPS COLLECTION BOX - BLUE BOX", "address": {"city": "WEAVERVILLE", "state": "NC", "street": "270 N MAIN ST", "postcode": "28787"}}},
{"geometry": {"type": "Point", "coordinates": [-82.560532298, 35.7096347531]}, "type": "Feature", "properties": {"collection_times": [{"days": "Mon-Fri", "time": "2:45pm"}, {"days": "Sat", "time": "12:00pm"}, {"days": "Sun", "time": "Closed"}], "id": "2878700002", "name": "USPS COLLECTION BOX - BLUE BOX", "address": {"city": "WEAVERVILLE", "state": "NC", "street": "270 N MAIN ST", "postcode": "28787"}}},
{"geometry": {"type": "Point", "coordinates": [-82.5526681592, 35.7250342947]}, "type": "Feature", "properties": {"collection_times": [{"days": "Mon-Fri", "time": "2:45pm"}, {"days": "Sat", "time": "12:00pm"}, {"days": "Sun", "time": "Closed"}], "id": "2878700006", "name": "USPS COLLECTION BOX - PO LOBBY", "address": {"city": "WEAVERVILLE", "state": "NC", "street": "270 N MAIN ST", "postcode": "28787"}}},
{"geometry": {"type": "Point", "coordinates": [-82.560532298, 35.7096347531]}, "type": "Feature", "properties": {"collection_times": [{"days": "Mon-Fri", "time": "2:45pm"}, {"days": "Sat", "time": "12:00pm"}, {"days": "Sun", "time": "Closed"}], "id": "2878700007", "name": "USPS COLLECTION BOX - PO LOBBY", "address": {"city": "WEAVERVILLE", "state": "NC", "street": "270 N MAIN ST", "postcode": "28787"}}},
{"geometry": {"type": "Point", "coordinates": [-83.2197818735, 35.345770202]}, "type": "Feature", "properties": {"collection_times": [{"days": "Mon-Fri", "time": "4:30pm"}, {"days": "Sat", "time": "9:00am"}, {"days": "Sun", "time": "Closed"}], "id": "2878800002", "name": "USPS COLLECTION BOX - BLUE BOX", "address": {"city": "WEBSTER", "state": "NC", "street": "1345 WEBSTER RD", "postcode": "28788"}}},
{"geometry": {"type": "Point", "coordinates": [-83.2193962181, 35.3461020201]}, "type": "Feature", "properties": {"collection_times": [{"days": "Mon-Fri", "time": "4:30pm"}, {"days": "Sat", "time": "9:00am"}, {"days": "Sun", "time": "Closed"}], "id": "2878800003", "name": "USPS COLLECTION BOX - PO LOBBY", "address": {"city": "WEBSTER", "state": "NC", "street": "1345 WEBSTER RD", "postcode": "28788"}}},
{"geometry": {"type": "Point", "coordinates": [-83.3583295049, 35.4344326408]}, "type": "Feature", "properties": {"collection_times": [{"days": "Mon-Fri", "time": "4:45pm"}, {"days": "Sat", "time": "12:30pm"}, {"days": "Sun", "time": "Closed"}], "id": "2878900002", "name": "USPS COLLECTION BOX - BLUE BOX", "address": {"city": "WHITTIER", "state": "NC", "street": "22 MAIN ST", "postcode": "28789"}}},
{"geometry": {"type": "Point", "coordinates": [-83.3276024065, 35.4054772713]}, "type": "Feature", "properties": {"collection_times": [{"days": "Mon-Sat", "time": "8:30am"}, {"days": "Sun", "time": "Closed"}], "id": "2878900003", "name": "USPS COLLECTION BOX - BLUE BOX", "address": {"city": "WHITTIER", "state": "NC", "street": "16 CHEROKEE XING", "postcode": "28789"}}},
{"geometry": {"type": "Point", "coordinates": [-83.3207391264, 35.4113640027]}, "type": "Feature", "properties": {"collection_times": [{"days": "Mon-Fri", "time": "4:45pm"}, {"days": "Sat", "time": "12:30pm"}, {"days": "Sun", "time": "Closed"}], "id": "2878900005", "name": "USPS COLLECTION BOX - PO LOBBY", "address": {"city": "WHITTIER", "state": "NC", "street": "22 MAIN ST", "postcode": "28789"}}},
{"geometry": {"type": "Point", "coordinates": [-83.3583295049, 35.4344326408]}, "type": "Feature", "properties": {"collection_times": [{"days": "Mon-Fri", "time": "4:45pm"}, {"days": "Sat", "time": "12:30pm"}, {"days": "Sun", "time": "Closed"}], "id": "2878900006", "name": "USPS COLLECTION BOX - PO LOBBY", "address": {"city": "WHITTIER", "state": "NC", "street": "22 MAIN ST", "postcode": "28789"}}},
{"geometry": {"type": "Point", "coordinates": [-82.4183441792, 35.2434448205]}, "type": "Feature", "properties": {"collection_times": [{"days": "Mon-Fri", "time": "4:15pm"}, {"days": "Sat", "time": "11:00am"}, {"days": "Sun", "time": "Closed"}], "id": "2879000002", "name": "USPS COLLECTION BOX - BLUE BOX", "address": {"city": "ZIRCONIA", "state": "NC", "street": "5576 GREENVILLE HWY", "postcode": "28790"}}},
{"geometry": {"type": "Point", "coordinates": [-82.4583467798, 35.2137705326]}, "type": "Feature", "properties": {"collection_times": [{"days": "Mon-Fri", "time": "4:15pm"}, {"days": "Sat", "time": "11:00am"}, {"days": "Sun", "time": "Closed"}], "id": "2879000005", "name": "USPS COLLECTION BOX - PO LOBBY", "address": {"city": "ZIRCONIA", "state": "NC", "street": "5576 GREENVILLE HWY", "postcode": "28790"}}},
{"geometry": {"type": "Point", "coordinates": [-82.4183441792, 35.2434448205]}, "type": "Feature", "properties": {"collection_times": [{"days": "Mon-Fri", "time": "4:15pm"}, {"days": "Sat", "time": "11:00am"}, {"days": "Sun", "time": "Closed"}], "id": "2879000006", "name": "USPS COLLECTION BOX - PO LOBBY", "address": {"city": "ZIRCONIA", "state": "NC", "street": "5576 GREENVILLE HWY", "postcode": "28790"}}},
{"geometry": {"type": "Point", "coordinates": [-82.4484521369, 35.3059744326]}, "type": "Feature", "properties": {"collection_times": [{"days": "Mon-Fri", "time": "2:30pm"}, {"days": "Sat", "time": "1:30pm"}, {"days": "Sun", "time": "Closed"}], "id": "2879200002", "name": "USPS COLLECTION BOX - BLUE BOX", "address": {"city": "HENDERSONVILLE", "state": "NC", "street": "619 SPARTANBURG HWY", "postcode": "28792"}}},
{"geometry": {"type": "Point", "coordinates": [-82.4588770852, 35.3189377128]}, "type": "Feature", "properties": {"collection_times": [{"days": "Mon-Fri", "time": "2:30pm"}, {"days": "Sat", "time": "1:30pm"}, {"days": "Sun", "time": "Closed"}], "id": "2879200004", "name": "USPS COLLECTION BOX - BLUE BOX", "address": {"city": "HENDERSONVILLE", "state": "NC", "street": "226 6TH AVE E", "postcode": "28792"}}},
{"geometry": {"type": "Point", "coordinates": [-82.4351856854, 35.3460678565]}, "type": "Feature", "properties": {"collection_times": [{"days": "Mon-Fri", "time": "4:00pm"}, {"days": "Sat", "time": "2:00pm"}, {"days": "Sun", "time": "Closed"}], "id": "2879200007", "name": "USPS COLLECTION BOX - BLUE BOX", "address": {"city": "HENDERSONVILLE", "state": "NC", "street": "250 HIGHLANDS SQUARE DR", "postcode": "28792"}}},
{"geometry": {"type": "Point", "coordinates": [-82.4484521369, 35.3059744326]}, "type": "Feature", "properties": {"collection_times": [{"days": "Mon-Fri", "time": "2:30pm"}, {"days": "Sat", "time": "1:30pm"}, {"days": "Sun", "time": "Closed"}], "id": "2879200009", "name": "USPS COLLECTION BOX - BLUE BOX", "address": {"city": "HENDERSONVILLE", "state": "NC", "street": "619 SPARTANBURG HWY", "postcode": "28792"}}},
{"geometry": {"type": "Point", "coordinates": [-82.4603735283, 35.3176506534]}, "type": "Feature", "properties": {"collection_times": [{"days": "Mon-Fri", "time": "2:00pm"}, {"days": "Sat", "time": "1:30pm"}, {"days": "Sun", "time": "Closed"}], "id": "2879200013", "name": "USPS COLLECTION BOX - BLUE BOX", "address": {"city": "HENDERSONVILLE", "state": "NC", "street": "451 N MAIN ST", "postcode": "28792"}}},
{"geometry": {"type": "Point", "coordinates": [-82.4600825204, 35.316251213]}, "type": "Feature", "properties": {"collection_times": [{"days": "Mon-Fri", "time": "2:00pm"}, {"days": "Sat", "time": "1:30pm"}, {"days": "Sun", "time": "Closed"}], "id": "2879200014", "name": "USPS COLLECTION BOX - BLUE BOX", "address": {"city": "HENDERSONVILLE", "state": "NC", "street": "315 N MAIN ST", "postcode": "28792"}}},
{"geometry": {"type": "Point", "coordinates": [-82.4596342859, 35.3143596051]}, "type": "Feature", "properties": {"collection_times": [{"days": "Mon-Fri", "time": "2:00pm"}, {"days": "Sat", "time": "1:30pm"}, {"days": "Sun", "time": "Closed"}], "id": "2879200015", "name": "USPS COLLECTION BOX - BLUE BOX", "address": {"city": "HENDERSONVILLE", "state": "NC", "street": "100 N MAIN ST", "postcode": "28792"}}},
{"geometry": {"type": "Point", "coordinates": [-82.4596342859, 35.3143596051]}, "type": "Feature", "properties": {"collection_times": [{"days": "Mon-Fri", "time": "2:00pm"}, {"days": "Sat", "time": "1:30pm"}, {"days": "Sun", "time": "Closed"}], "id": "2879200016", "name": "USPS COLLECTION BOX - BLUE BOX", "address": {"city": "HENDERSONVILLE", "state": "NC", "street": "100 N MAIN ST", "postcode": "28792"}}},
{"geometry": {"type": "Point", "coordinates": [-82.4586925436, 35.3074192413]}, "type": "Feature", "properties": {"collection_times": [{"days": "Mon-Fri", "time": "2:00pm"}, {"days": "Sat", "time": "1:30pm"}, {"days": "Sun", "time": "Closed"}], "id": "2879200018", "name": "USPS COLLECTION BOX - BLUE BOX", "address": {"city": "HENDERSONVILLE", "state": "NC", "street": "205 GREENVILLE HWY", "postcode": "28792"}}},
{"geometry": {"type": "Point", "coordinates": [-82.4611719718, 35.3155268021]}, "type": "Feature", "properties": {"collection_times": [{"days": "Mon-Fri", "time": "2:30pm"}, {"days": "Sat", "time": "1:30pm"}, {"days": "Sun", "time": "Closed"}], "id": "2879200020", "name": "USPS COLLECTION BOX - BLUE BOX", "address": {"city": "HENDERSONVILLE", "state": "NC", "street": "300 N CHURCH ST", "postcode": "28792"}}},
{"geometry": {"type": "Point", "coordinates": [-82.449196932, 35.3347739845]}, "type": "Feature", "properties": {"collection_times": [{"days": "Mon-Fri", "time": "2:00pm"}, {"days": "Sat", "time": "1:30pm"}, {"days": "Sun", "time": "Closed"}], "id": "2879200022", "name": "USPS COLLECTION BOX - BLUE BOX", "address": {"city": "HENDERSONVILLE", "state": "NC", "street": "129 FOUR SEASONS MALL", "postcode": "28792"}}},
{"geometry": {"type": "Point", "coordinates": [-82.4398996834, 35.3523403442]}, "type": "Feature", "properties": {"collection_times": [{"days": "Mon-Fri", "time": "5:00pm"}, {"days": "Sat", "time": "4:00pm"}, {"days": "Sun", "time": "Closed"}], "id": "2879200024", "name": "USPS COLLECTION BOX - BLUE BOX", "address": {"city": "HENDERSONVILLE", "state": "NC", "street": "90 LAKEWOOD RD", "postcode": "28792"}}},
{"geometry": {"type": "Point", "coordinates": [-82.4575805622, 35.3158513728]}, "type": "Feature", "properties": {"collection_times": [{"days": "Mon-Fri", "time": "2:30pm"}, {"days": "Sat", "time": "1:30pm"}, {"days": "Sun", "time": "Closed"}], "id": "2879200026", "name": "USPS COLLECTION BOX - BLUE BOX", "address": {"city": "HENDERSONVILLE", "state": "NC", "street": "200 N GROVE ST", "postcode": "28792"}}},
{"geometry": {"type": "Point", "coordinates": [-82.4100172836, 35.3575424196]}, "type": "Feature", "properties": {"collection_times": [{"days": "Mon-Fri", "time": "2:00pm"}, {"days": "Sat", "time": "1:30pm"}, {"days": "Sun", "time": "Closed"}], "id": "2879200028", "name": "USPS COLLECTION BOX - BLUE BOX", "address": {"city": "HENDERSONVILLE", "state": "NC", "street": "WHITE OAK DR", "postcode": "28792"}}},
{"geometry": {"type": "Point", "coordinates": [-82.4588770852, 35.3189377128]}, "type": "Feature", "properties": {"collection_times": [{"days": "Mon-Fri", "time": "2:30pm"}, {"days": "Sat", "time": "1:30pm"}, {"days": "Sun", "time": "Closed"}], "id": "2879200029", "name": "USPS COLLECTION BOX - BLUE BOX", "address": {"city": "HENDERSONVILLE", "state": "NC", "street": "226 6TH AVE E", "postcode": "28792"}}},
{"geometry": {"type": "Point", "coordinates": [-82.4575805622, 35.3158513728]}, "type": "Feature", "properties": {"collection_times": [{"days": "Mon-Fri", "time": "2:30pm"}, {"days": "Sat", "time": "1:30pm"}, {"days": "Sun", "time": "Closed"}], "id": "2879200030", "name": "USPS COLLECTION BOX - BLUE BOX", "address": {"city": "HENDERSONVILLE", "state": "NC", "street": "200 N GROVE ST", "postcode": "28792"}}},
{"geometry": {"type": "Point", "coordinates": [-82.4404077807, 35.301536433]}, "type": "Feature", "properties": {"collection_times": [{"days": "Mon-Fri", "time": "2:30pm"}, {"days": "Sat", "time": "1:30pm"}, {"days": "Sun", "time": "Closed"}], "id": "2879200031", "name": "USPS COLLECTION BOX - BLUE BOX", "address": {"city": "HENDERSONVILLE", "state": "NC", "street": "1220 SPARTANBURG HWY", "postcode": "28792"}}},
{"geometry": {"type": "Point", "coordinates": [-82.4404077807, 35.301536433]}, "type": "Feature", "properties": {"collection_times": [{"days": "Mon-Fri", "time": "2:30pm"}, {"days": "Sat", "time": "1:30pm"}, {"days": "Sun", "time": "Closed"}], "id": "2879200032", "name": "USPS COLLECTION BOX - BLUE BOX", "address": {"city": "HENDERSONVILLE", "state": "NC", "street": "1220 SPARTANBURG HWY", "postcode": "28792"}}}
]}
