{"type": "FeatureCollection", "features": [
{"geometry": {"type": "Point", "coordinates": [-82.5533919576, 35.5941495671]}, "type": "Feature", "properties": {"collection_times": [{"days": "Mon-Fri", "time": "12:00pm"}, {"days": "Sat-Sun", "time": "Closed"}], "id": "2880100014", "name": "USPS COLLECTION BOX - BLUE BOX", "address": {"city": "ASHEVILLE", "state": "NC", "street": "11 CHURCH ST", "postcode": "28801"}}},
{"geometry": {"type": "Point", "coordinates": [-82.5563041533, 35.5962009717]}, "type": "Feature", "properties": {"collection_times": [{"days": "Mon-Fri", "time": "11:00am"}, {"days": "Sat-Sun", "time": "Closed"}], "id": "2880100027", "name": "USPS COLLECTION BOX - BLUE BOX", "address": {"city": "ASHEVILLE", "state": "NC", "street": "31 PAGE AVE", "postcode": "28801"}}},
{"geometry": {"type": "Point", "coordinates": [-82.5552007019, 35.5932481524]}, "type": "Feature", "properties": {"collection_times": [{"days": "Mon-Fri", "time": "5:00pm"}, {"days": "Sat", "time": "12:00pm"}, {"days": "Sun", "time": "Closed"}], "id": "2880100033", "name": "USPS COLLECTION BOX - BLUE BOX", "address": {"city": "ASHEVILLE", "state": "NC", "street": "33 COXE AVE", "postcode": "28801"}}},
{"geometry": {"type": "Point", "coordinates": [-82.5552007019, 35.5932481524]}, "type": "Feature", "properties": {"collection_times": [{"days": "Mon-Fri", "time": "5:00pm"}, {"days": "Sat", "time": "12:00pm"}, {"days": "Sun", "time": "Closed"}], "id": "2880100034", "name": "USPS COLLECTION BOX - BLUE BOX", "address": {"city": "ASHEVILLE", "state": "NC", "street": "33 COXE AVE", "postcode": "28801"}}},
{"geometry": {"type": "Point", "coordinates": [-82.5552007019, 35.5932481524]}, "type": "Feature", "properties": {"collection_times": [{"days": "Mon-Fri", "time": "5:00pm"}, {"days": "Sat", "time": "12:00pm"}, {"days": "Sun", "time": "Closed"}], "id": "2880100035", "name": "USPS COLLECTION BOX - BLUE BOX", "address": {"city": "ASHEVILLE", "state": "NC", "street": "33 COXE AVE", "postcode": "28801"}}},
{"geometry": {"type": "Point", "coordinates": [-82.5552007019, 35.5932481524]}, "type": "Feature", "properties": {"collection_times": [{"days": "Mon-Fri", "time": "5:00pm"}, {"days": "Sat", "time": "12:00pm"}, {"days": "Sun", "time": "Closed"}], "id": "2880100036", "name": "USPS COLLECTION BOX - BLUE BOX", "address": {"city": "ASHEVILLE", "state": "NC", "street": "33 COXE AVE", "postcode": "28801"}}},
{"geometry": {"type": "Point", "coordinates": [-82.5511384208, 35.5967012096]}, "type": "Feature", "properties": {"collection_times": [{"days": "Mon-Fri", "time": "1:00pm"}, {"days": "Sat-Sun", "time": "Closed"}], "id": "2880100081", "name": "USPS COLLECTION BOX - BLUE BOX", "address": {"city": "ASHEVILLE", "state": "NC", "street": "29 N MARKET ST", "postcode": "28801"}}},
{"geometry": {"type": "Point", "coordinates": [-82.5480236899, 35.5983159486]}, "type": "Feature", "properties": {"collection_times": [{"days": "Mon-Fri", "time": "1:15pm"}, {"days": "Sat-Sun", "time": "Closed"}], "id": "2880100088", "name": "USPS COLLECTION BOX - BLUE BOX", "address": {"city": "ASHEVILLE", "state": "NC", "street": "70 WOODFIN PL", "postcode": "28801"}}},
{"geometry": {"type": "Point", "coordinates": [-82.5501085475, 35.5951590681]}, "type": "Feature", "properties": {"collection_times": [{"days": "Mon-Fri", "time": "4:00pm"}, {"days": "Sat-Sun", "time": "Closed"}], "id": "2880100098", "name": "USPS COLLECTION BOX - BLUE BOX", "address": {"city": "ASHEVILLE", "state": "NC", "street": "60 COURT PLZ", "postcode": "28801"}}},
{"geometry": {"type": "Point", "coordinates": [-82.5501085475, 35.5951590681]}, "type": "Feature", "properties": {"collection_times": [{"days": "Mon-Fri", "time": "4:00pm"}, {"days": "Sat-Sun", "time": "Closed"}], "id": "2880100099", "name": "USPS COLLECTION BOX - BLUE BOX", "address": {"city": "ASHEVILLE", "state": "NC", "street": "60 COURT PLZ", "postcode": "28801"}}},
{"geometry": {"type": "Point", "coordinates": [-82.5554098576, 35.5967306273]}, "type": "Feature", "properties": {"collection_times": [{"days": "Mon-Fri", "time": "1:15pm"}, {"days": "Sat", "time": "1:00pm"}, {"days": "Sun", "time": "Closed"}], "id": "2880100102", "name": "USPS COLLECTION BOX - BLUE BOX", "address": {"city": "ASHEVILLE", "state": "NC", "street": "COLLEGE ST", "postcode": "28801"}}},
{"geometry": {"type": "Point", "coordinates": [-82.5549818545, 35.5961026324]}, "type": "Feature", "properties": {"collection_times": [{"days": "Mon-Fri", "time": "12:00pm"}, {"days": "Sat", "time": "12:15pm"}, {"days": "Sun", "time": "Closed"}], "id": "2880100118", "name": "USPS COLLECTION BOX - BLUE BOX", "address": {"city": "ASHEVILLE", "state": "NC", "street": "46 HAYWOOD ST", "postcode": "28801"}}},
{"geometry": {"type": "Point", "coordinates": [-82.5506401702, 35.580463341]}, "type": "Feature", "properties": {"collection_times": [{"days": "Mon-Fri", "time": "9:30am"}, {"days": "Sat-Sun", "time": "Closed"}], "id": "2880100125", "name": "USPS COLLECTION BOX - BLUE BOX", "address": {"city": "ASHEVILLE", "state": "NC", "street": "428 BILTMORE AVE", "postcode": "28801"}}},
{"geometry": {"type": "Point", "coordinates": [-82.547819038, 35.5772853041]}, "type": "Feature", "properties": {"collection_times": [{"days": "Mon-Sat", "time": "10:00am"}, {"days": "Sun", "time": "Closed"}], "id": "2880100126", "name": "USPS COLLECTION BOX - BLUE BOX", "address": {"city": "ASHEVILLE", "state": "NC", "street": "509 BILTMORE AVE", "postcode": "28801"}}},
{"geometry": {"type": "Point", "coordinates": [-82.5506380292, 35.6014153011]}, "type": "Feature", "properties": {"collection_times": [{"days": "Mon-Fri", "time": "1:15pm"}, {"days": "Sat-Sun", "time": "Closed"}], "id": "2880100127", "name": "USPS COLLECTION BOX - BLUE BOX", "address": {"city": "ASHEVILLE", "state": "NC", "street": "55 ORANGE ST", "postcode": "28801"}}},
{"geometry": {"type": "Point", "coordinates": [-82.5518754042, 35.6014779979]}, "type": "Feature", "properties": {"collection_times": [{"days": "Mon-Fri", "time": "1:15pm"}, {"days": "Sat-Sun", "time": "Closed"}], "id": "2880100128", "name": "USPS COLLECTION BOX - BLUE BOX", "address": {"city": "ASHEVILLE", "state": "NC", "street": "32 ORANGE ST", "postcode": "28801"}}},
{"geometry": {"type": "Point", "coordinates": [-82.5589045464, 35.59175999]}, "type": "Feature", "properties": {"collection_times": [{"days": "Mon-Fri", "time": "10:00am"}, {"days": "Sat-Sun", "time": "Closed"}], "id": "2880100129", "name": "USPS COLLECTION BOX - BLUE BOX", "address": {"city": "ASHEVILLE", "state": "NC", "street": "50 S FRENCH BROAD AVE", "postcode": "28801"}}},
{"geometry": {"type": "Point", "coordinates": [-82.5509099522, 35.5809268939]}, "type": "Feature", "properties": {"collection_times": [{"days": "Mon-Fri", "time": "10:00am"}, {"days": "Sat-Sun", "time": "Closed"}], "id": "2880100137", "name": "USPS COLLECTION BOX - BLUE BOX", "address": {"city": "ASHEVILLE", "state": "NC", "street": "417 BILTMORE AVE", "postcode": "28801"}}},
{"geometry": {"type": "Point", "coordinates": [-82.5574129396, 35.5925118212]}, "type": "Feature", "properties": {"collection_times": [{"days": "Mon-Fri", "time": "10:00am"}, {"days": "Sat-Sun", "time": "Closed"}], "id": "2880100139", "name": "USPS COLLECTION BOX - BLUE BOX", "address": {"city": "ASHEVILLE", "state": "NC", "street": "48 GROVE ST", "postcode": "28801"}}},
{"geometry": {"type": "Point", "coordinates": [-82.5573513213, 35.5948297685]}, "type": "Feature", "properties": {"collection_times": [{"days": "Mon-Fri", "time": "4:00pm"}, {"days": "Sat-Sun", "time": "Closed"}], "id": "2880100143", "name": "USPS COLLECTION BOX - BLUE BOX", "address": {"city": "ASHEVILLE", "state": "NC", "street": "100 OTIS ST", "postcode": "28801"}}},
{"geometry": {"type": "Point", "coordinates": [-82.547587178, 35.5976428449]}, "type": "Feature", "properties": {"collection_times": [{"days": "Mon-Fri", "time": "1:15pm"}, {"days": "Sat-Sun", "time": "Closed"}], "id": "2880100144", "name": "USPS COLLECTION BOX - BLUE BOX", "address": {"city": "ASHEVILLE", "state": "NC", "street": "1 OAK PLZ", "postcode": "28801"}}},
{"geometry": {"type": "Point", "coordinates": [-82.5533472907, 35.5952780701]}, "type": "Feature", "properties": {"collection_times": [{"days": "Mon-Fri", "time": "4:15pm"}, {"days": "Sat-Sun", "time": "Closed"}], "id": "2880100154", "name": "USPS COLLECTION BOX - BLUE BOX", "address": {"city": "ASHEVILLE", "state": "NC", "street": "1 RANKIN AVE", "postcode": "28801"}}},
{"geometry": {"type": "Point", "coordinates": [-82.5510272227, 35.5926448433]}, "type": "Feature", "properties": {"collection_times": [{"days": "Mon-Fri", "time": "11:00am"}, {"days": "Sat-Sun", "time": "Closed"}], "id": "2880100158", "name": "USPS COLLECTION BOX - BLUE BOX", "address": {"city": "ASHEVILLE", "state": "NC", "street": "64 BILTMORE AVE", "postcode": "28801"}}},
{"geometry": {"type": "Point", "coordinates": [-82.6310127029, 35.6127437288]}, "type": "Feature", "properties": {"collection_times": [{"days": "Mon-Fri", "time": "11:00am"}, {"days": "Sat-Sun", "time": "Closed"}], "id": "2880100159", "name": "USPS COLLECTION BOX - BLUE BOX", "address": {"city": "ASHEVILLE", "state": "NC", "street": "575 NEW LEICESTER HWY", "postcode": "28801"}}},
{"geometry": {"type": "Point", "coordinates": [-82.5552007016, 35.5932481527]}, "type": "Feature", "properties": {"collection_times": [{"days": "Mon-Fri", "time": "5:00pm"}, {"days": "Sat", "time": "1:00pm"}, {"days": "Sun", "time": "Closed"}], "id": "2880100162", "name": "USPS COLLECTION BOX - PO LOBBY", "address": {"city": "ASHEVILLE", "state": "NC", "street": "33 COXE AVE", "postcode": "28801"}}},
{"geometry": {"type": "Point", "coordinates": [-82.5552007019, 35.5932481524]}, "type": "Feature", "properties": {"collection_times": [{"days": "Mon-Fri", "time": "5:00pm"}, {"days": "Sat", "time": "1:00pm"}, {"days": "Sun", "time": "Closed"}], "id": "2880100163", "name": "USPS COLLECTION BOX - PO LOBBY", "address": {"city": "ASHEVILLE", "state": "NC", "street": "33 COXE AVE", "postcode": "28801"}}},
{"geometry": {"type": "Point", "coordinates": [-82.5515898412, 35.5949793645]}, "type": "Feature", "properties": {"collection_times": [{"days": "Mon-Fri", "time": "4:00pm"}, {"days": "Sat-Sun", "time": "Closed"}], "id": "2880100164", "name": "USPS COLLECTION BOX - BLUE BOX", "address": {"city": "ASHEVILLE", "state": "NC", "street": "10 S PACK SQ", "postcode": "28801"}}},
{"geometry": {"type": "Point", "coordinates": [-82.5333088633, 35.5441186836]}, "type": "Feature", "properties": {"collection_times": [{"days": "Mon-Fri", "time": "5:00pm"}, {"days": "Sat", "time": "1:30pm"}, {"days": "Sun", "time": "Closed"}], "id": "2880300004", "name": "USPS COLLECTION BOX - BLUE BOX", "address": {"city": "ASHEVILLE", "state": "NC", "street": "780 HENDERSONVILLE RD", "postcode": "28803"}}},
{"geometry": {"type": "Point", "coordinates": [-82.5333088633, 35.5441186836]}, "type": "Feature", "properties": {"collection_times": [{"days": "Mon-Fri", "time": "5:00pm"}, {"days": "Sat", "time": "1:30pm"}, {"days": "Sun", "time": "Closed"}], "id": "2880300005", "name": "USPS COLLECTION BOX - BLUE BOX", "address": {"city": "ASHEVILLE", "state": "NC", "street": "780 HENDERSONVILLE RD", "postcode": "28803"}}},
{"geometry": {"type": "Point", "coordinates": [-82.5333088633, 35.5441186836]}, "type": "Feature", "properties": {"collection_times": [{"days": "Mon-Fri", "time": "5:00pm"}, {"days": "Sat", "time": "1:30pm"}, {"days": "Sun", "time": "Closed"}], "id": "2880300006", "name": "USPS COLLECTION BOX - BLUE BOX", "address": {"city": "ASHEVILLE", "state": "NC", "street": "780 HENDERSONVILLE RD", "postcode": "28803"}}},
{"geometry": {"type": "Point", "coordinates": [-82.5417935338, 35.565565271]}, "type": "Feature", "properties": {"collection_times": [{"days": "Mon-Fri", "time": "12:30pm"}, {"days": "Sat-Sun", "time": "Closed"}], "id": "2880300007", "name": "USPS COLLECTION BOX - BLUE BOX", "address": {"city": "ASHEVILLE", "state": "NC", "street": "13 ALL SOULS CRES", "postcode": "28803"}}},
{"geometry": {"type": "Point", "coordinates": [-82.545741762, 35.5732336697]}, "type": "Feature", "properties": {"collection_times": [{"days": "Mon-Fri", "time": "10:00am"}, {"days": "Sat-Sun", "time": "Closed"}], "id": "2880300008", "name": "USPS COLLECTION BOX - BLUE BOX", "address": {"city": "ASHEVILLE", "state": "NC", "street": "675 BILTMORE AVE", "postcode": "28803"}}},
{"geometry": {"type": "Point", "coordinates": [-82.5294382216, 35.522975658]}, "type": "Feature", "properties": {"collection_times": [{"days": "Mon-Fri", "time": "10:00am"}, {"days": "Sat-Sun", "time": "Closed"}], "id": "2880300012", "name": "USPS COLLECTION BOX - BLUE BOX", "address": {"city": "ASHEVILLE", "state": "NC", "street": "1378 HENDERSONVILLE RD", "postcode": "28803"}}},
{"geometry": {"type": "Point", "coordinates": [-82.5223806884, 35.5136539414]}, "type": "Feature", "properties": {"collection_times": [{"days": "Mon-Fri", "time": "10:00am"}, {"days": "Sat-Sun", "time": "Closed"}], "id": "2880300013", "name": "USPS COLLECTION BOX - BLUE BOX", "address": {"city": "ASHEVILLE", "state": "NC", "street": "80 PEACHTREE RD", "postcode": "28803"}}},
{"geometry": {"type": "Point", "coordinates": [-82.5366010381, 35.540446779]}, "type": "Feature", "properties": {"collection_times": [{"days": "Mon-Fri", "time": "12:45pm"}, {"days": "Sat-Sun", "time": "Closed"}], "id": "2880300016", "name": "USPS COLLECTION BOX - BLUE BOX", "address": {"city": "ASHEVILLE", "state": "NC", "street": "355 VANDERBILT RD", "postcode": "28803"}}},
{"geometry": {"type": "Point", "coordinates": [-82.5583999402, 35.4887851399]}, "type": "Feature", "properties": {"collection_times": [{"days": "Mon-Fri", "time": "12:00pm"}, {"days": "Sat-Sun", "time": "Closed"}], "id": "2880300017", "name": "USPS COLLECTION BOX - BLUE BOX", "address": {"city": "ASHEVILLE", "state": "NC", "street": "115 TECHNOLOGY DR", "postcode": "28803"}}},
{"geometry": {"type": "Point", "coordinates": [-82.5276022692, 35.5153230965]}, "type": "Feature", "properties": {"collection_times": [{"days": "Mon-Fri", "time": "10:00am"}, {"days": "Sat-Sun", "time": "Closed"}], "id": "2880300019", "name": "USPS COLLECTION BOX - BLUE BOX", "address": {"city": "ASHEVILLE", "state": "NC", "street": "1550 HENDERSONVILLE RD", "postcode": "28803"}}},
{"geometry": {"type": "Point", "coordinates": [-82.5040684836, 35.5705779268]}, "type": "Feature", "properties": {"collection_times": [{"days": "Mon-Fri", "time": "12:15pm"}, {"days": "Sat-Sun", "time": "Closed"}], "id": "2880300021", "name": "USPS COLLECTION BOX - BLUE BOX", "address": {"city": "ASHEVILLE", "state": "NC", "street": "800 FAIRVIEW RD", "postcode": "28803"}}},
{"geometry": {"type": "Point", "coordinates": [-82.5218881402, 35.5339409528]}, "type": "Feature", "properties": {"collection_times": [{"days": "Mon-Fri", "time": "12:00pm"}, {"days": "Sat-Sun", "time": "Closed"}], "id": "2880300023", "name": "USPS COLLECTION BOX - BLUE BOX", "address": {"city": "ASHEVILLE", "state": "NC", "street": "1 TOWN SQUARE BLVD", "postcode": "28803"}}},
{"geometry": {"type": "Point", "coordinates": [-82.5545015732, 35.6238110802]}, "type": "Feature", "properties": {"collection_times": [{"days": "Mon-Fri", "time": "5:00pm"}, {"days": "Sat", "time": "1:00pm"}, {"days": "Sun", "time": "Closed"}], "id": "2880400000", "name": "USPS COLLECTION BOX - BLUE BOX", "address": {"city": "ASHEVILLE", "state": "NC", "street": "725 MERRIMON AVE", "postcode": "28804"}}},
{"geometry": {"type": "Point", "coordinates": [-82.5528838683, 35.6281532259]}, "type": "Feature", "properties": {"collection_times": [{"days": "Mon-Fri", "time": "1:30pm"}, {"days": "Sat-Sun", "time": "Closed"}], "id": "2880400004", "name": "USPS COLLECTION BOX - BLUE BOX", "address": {"city": "ASHEVILLE", "state": "NC", "street": "860 MERRIMON AVE", "postcode": "28804"}}},
{"geometry": {"type": "Point", "coordinates": [-82.5532334411, 35.6268477359]}, "type": "Feature", "properties": {"collection_times": [{"days": "Mon-Fri", "time": "1:30pm"}, {"days": "Sat", "time": "1:00pm"}, {"days": "Sun", "time": "Closed"}], "id": "2880400007", "name": "USPS COLLECTION BOX - BLUE BOX", "address": {"city": "ASHEVILLE", "state": "NC", "street": "825 MERRIMON AVE", "postcode": "28804"}}},
{"geometry": {"type": "Point", "coordinates": [-82.5620881311, 35.6366742629]}, "type": "Feature", "properties": {"collection_times": [{"days": "Mon-Fri", "time": "11:00am"}, {"days": "Sat-Sun", "time": "Closed"}], "id": "2880400008", "name": "USPS COLLECTION BOX - BLUE BOX", "address": {"city": "ASHEVILLE", "state": "NC", "street": "ELK PARK DR", "postcode": "28804"}}},
{"geometry": {"type": "Point", "coordinates": [-82.5628632332, 35.6144361157]}, "type": "Feature", "properties": {"collection_times": [{"days": "Mon-Fri", "time": "1:45pm"}, {"days": "Sat-Sun", "time": "Closed"}], "id": "2880400009", "name": "USPS COLLECTION BOX - BLUE BOX", "address": {"city": "ASHEVILLE", "state": "NC", "street": "1 UNIVERSITY HTS", "postcode": "28804"}}},
{"geometry": {"type": "Point", "coordinates": [-82.5899136875, 35.6346771244]}, "type": "Feature", "properties": {"collection_times": [{"days": "Mon-Fri", "time": "11:00am"}, {"days": "Sat-Sun", "time": "Closed"}], "id": "2880400010", "name": "USPS COLLECTION BOX - BLUE BOX", "address": {"city": "ASHEVILLE", "state": "NC", "street": "201 ELK PARK DR", "postcode": "28804"}}},
{"geometry": {"type": "Point", "coordinates": [-82.5545015731, 35.62381108]}, "type": "Feature", "properties": {"collection_times": [{"days": "Mon-Fri", "time": "5:00pm"}, {"days": "Sat", "time": "1:00pm"}, {"days": "Sun", "time": "Closed"}], "id": "2880400013", "name": "USPS COLLECTION BOX - PO LOBBY", "address": {"city": "ASHEVILLE", "state": "NC", "street": "725 MERRIMON AVE", "postcode": "28804"}}},
{"geometry": {"type": "Point", "coordinates": [-82.5545015732, 35.6238110802]}, "type": "Feature", "properties": {"collection_times": [{"days": "Mon-Fri", "time": "5:00pm"}, {"days": "Sat", "time": "1:00pm"}, {"days": "Sun", "time": "Closed"}], "id": "2880400014", "name": "USPS COLLECTION BOX - PO LOBBY", "address": {"city": "ASHEVILLE", "state": "NC", "street": "725 MERRIMON AVE", "postcode": "28804"}}},
{"geometry": {"type": "Point", "coordinates": [-82.4882641518, 35.5873712122]}, "type": "Feature", "properties": {"collection_times": [{"days": "Mon-Fri", "time": "5:00pm"}, {"days": "Sat", "time": "12:45pm"}, {"days": "Sun", "time": "Closed"}], "id": "2880500001", "name": "USPS COLLECTION BOX - BLUE BOX", "address": {"city": "ASHEVILLE", "state": "NC", "street": "1141 TUNNEL RD", "postcode": "28805"}}},
{"geometry": {"type": "Point", "coordinates": [-82.4882641518, 35.5873712122]}, "type": "Feature", "properties": {"collection_times": [{"days": "Mon-Fri", "time": "5:00pm"}, {"days": "Sat", "time": "12:45pm"}, {"days": "Sun", "time": "Closed"}], "id": "2880500002", "name": "USPS COLLECTION BOX - BLUE BOX", "address": {"city": "ASHEVILLE", "state": "NC", "street": "1141 TUNNEL RD", "postcode": "28805"}}},
{"geometry": {"type": "Point", "coordinates": [-82.4882641518, 35.5873712122]}, "type": "Feature", "properties": {"collection_times": [{"days": "Mon-Fri", "time": "5:00pm"}, {"days": "Sat", "time": "12:45pm"}, {"days": "Sun", "time": "Closed"}], "id": "2880500003", "name": "USPS COLLECTION BOX - BLUE BOX", "address": {"city": "ASHEVILLE", "state": "NC", "street": "1141 TUNNEL RD", "postcode": "28805"}}},
{"geometry": {"type": "Point", "coordinates": [-82.5202241948, 35.5779258624]}, "type": "Feature", "properties": {"collection_times": [{"days": "Mon-Fri", "time": "12:15pm"}, {"days": "Sat-Sun", "time": "Closed"}], "id": "2880500017", "name": "USPS COLLECTION BOX - BLUE BOX", "address": {"city": "ASHEVILLE", "state": "NC", "street": "152 S TUNNEL RD", "postcode": "28805"}}},
{"geometry": {"type": "Point", "coordinates": [-82.5001200038, 35.5891207681]}, "type": "Feature", "properties": {"collection_times": [{"days": "Mon-Fri", "time": "12:00pm"}, {"days": "Sat-Sun", "time": "Closed"}], "id": "2880500018", "name": "USPS COLLECTION BOX - BLUE BOX", "address": {"city": "ASHEVILLE", "state": "NC", "street": "950 TUNNEL RD", "postcode": "28805"}}},
{"geometry": {"type": "Point", "coordinates": [-82.5246803606, 35.5821579121]}, "type": "Feature", "properties": {"collection_times": [{"days": "Mon-Sat", "time": "12:15pm"}, {"days": "Sun", "time": "Closed"}], "id": "2880500019", "name": "USPS COLLECTION BOX - BLUE BOX", "address": {"city": "ASHEVILLE", "state": "NC", "street": "3 S TUNNEL RD", "postcode": "28805"}}},
{"geometry": {"type": "Point", "coordinates": [-82.4882641518, 35.5873712126]}, "type": "Feature", "properties": {"collection_times": [{"days": "Mon-Fri", "time": "5:00pm"}, {"days": "Sat", "time": "1:00pm"}, {"days": "Sun", "time": "Closed"}], "id": "2880500020", "name": "USPS COLLECTION BOX - PO LOBBY", "address": {"city": "ASHEVILLE", "state": "NC", "street": "1141 TUNNEL RD", "postcode": "28805"}}},
{"geometry": {"type": "Point", "coordinates": [-82.4882641518, 35.5873712122]}, "type": "Feature", "properties": {"collection_times": [{"days": "Mon-Fri", "time": "5:00pm"}, {"days": "Sat", "time": "1:00pm"}, {"days": "Sun", "time": "Closed"}], "id": "2880500021", "name": "USPS COLLECTION BOX - PO LOBBY", "address": {"city": "ASHEVILLE", "state": "NC", "street": "1141 TUNNEL RD", "postcode": "28805"}}},
{"geometry": {"type": "Point", "coordinates": [-82.5825812878, 35.5907391244]}, "type": "Feature", "properties": {"collection_times": [{"days": "Mon-Fri", "time": "11:00am"}, {"days": "Sat-Sun", "time": "Closed"}], "id": "2880600005", "name": "USPS COLLECTION BOX - BLUE BOX", "address": {"city": "ASHEVILLE", "state": "NC", "street": "12 REGENT PARK BLVD", "postcode": "28806"}}},
{"geometry": {"type": "Point", "coordinates": [-82.5821035547, 35.5778211845]}, "type": "Feature", "properties": {"collection_times": [{"days": "Mon-Sat", "time": "9:00am"}, {"days": "Sun", "time": "Closed"}], "id": "2880600033", "name": "USPS COLLECTION BOX - BLUE BOX", "address": {"city": "ASHEVILLE", "state": "NC", "street": "462 HAYWOOD RD", "postcode": "28806"}}},
{"geometry": {"type": "Point", "coordinates": [-82.6017719068, 35.5854040744]}, "type": "Feature", "properties": {"collection_times": [{"days": "Mon-Fri", "time": "5:00pm"}, {"days": "Sat", "time": "12:00pm"}, {"days": "Sun", "time": "Closed"}], "id": "2880600036", "name": "USPS COLLECTION BOX - BLUE BOX", "address": {"city": "ASHEVILLE", "state": "NC", "street": "1302 PATTON AVE", "postcode": "28806"}}},
{"geometry": {"type": "Point", "coordinates": [-82.6017719068, 35.5854040744]}, "type": "Feature", "properties": {"collection_times": [{"days": "Mon-Fri", "time": "5:00pm"}, {"days": "Sat", "time": "12:00pm"}, {"days": "Sun", "time": "Closed"}], "id": "2880600037", "name": "USPS COLLECTION BOX - BLUE BOX", "address": {"city": "ASHEVILLE", "state": "NC", "street": "1302 PATTON AVE", "postcode": "28806"}}},
{"geometry": {"type": "Point", "coordinates": [-82.6017719068, 35.5854040744]}, "type": "Feature", "properties": {"collection_times": [{"days": "Mon-Fri", "time": "5:00pm"}, {"days": "Sat", "time": "12:00pm"}, {"days": "Sun", "time": "Closed"}], "id": "2880600038", "name": "USPS COLLECTION BOX - BLUE BOX", "address": {"city": "ASHEVILLE", "state": "NC", "street": "1302 PATTON AVE", "postcode": "28806"}}},
{"geometry": {"type": "Point", "coordinates": [-82.5998124504, 35.5247027781]}, "type": "Feature", "properties": {"collection_times": [{"days": "Mon-Fri", "time": "2:45pm"}, {"days": "Sat-Sun", "time": "Closed"}], "id": "2880600041", "name": "USPS COLLECTION BOX - BLUE BOX", "address": {"city": "ASHEVILLE", "state": "NC", "street": "200 RIDGEFIELD BLVD", "postcode": "28806"}}},
{"geometry": {"type": "Point", "coordinates": [-82.6094660711, 35.581440553]}, "type": "Feature", "properties": {"collection_times": [{"days": "Mon-Fri", "time": "1:30pm"}, {"days": "Sat-Sun", "time": "Closed"}], "id": "2880600043", "name": "USPS COLLECTION BOX - BLUE BOX", "address": {"city": "ASHEVILLE", "state": "NC", "street": "WESTGATE PKWY", "postcode": "28806"}}},
{"geometry": {"type": "Point", "coordinates": [-82.5903499616, 35.5780920821]}, "type": "Feature", "properties": {"collection_times": [{"days": "Mon-Fri", "time": "2:30pm"}, {"days": "Sat-Sun", "time": "Closed"}], "id": "2880600048", "name": "USPS COLLECTION BOX - BLUE BOX", "address": {"city": "ASHEVILLE", "state": "NC", "street": "669 HAYWOOD RD", "postcode": "28806"}}},
{"geometry": {"type": "Point", "coordinates": [-82.6017719066, 35.5854040742]}, "type": "Feature", "properties": {"collection_times": [{"days": "Mon-Fri", "time": "5:00pm"}, {"days": "Sat", "time": "1:00pm"}, {"days": "Sun", "time": "Closed"}], "id": "2880600050", "name": "USPS COLLECTION BOX - PO LOBBY", "address": {"city": "ASHEVILLE", "state": "NC", "street": "1302 PATTON AVE", "postcode": "28806"}}},
{"geometry": {"type": "Point", "coordinates": [-82.6017719068, 35.5854040744]}, "type": "Feature", "properties": {"collection_times": [{"days": "Mon-Fri", "time": "5:00pm"}, {"days": "Sat", "time": "1:00pm"}, {"days": "Sun", "time": "Closed"}], "id": "2880600051", "name": "USPS COLLECTION BOX - PO LOBBY", "address": {"city": "ASHEVILLE", "state": "NC", "street": "1302 PATTON AVE", "postcode": "28806"}}},
{"geometry": {"type": "Point", "coordinates": [-82.5423253765, 35.5987997788]}, "type": "Feature", "properties": {"collection_times": [{"days": "Mon-Fri", "time": "10:00am"}, {"days": "Sat-Sun", "time": "Closed"}], "id": "2880600052", "name": "USPS COLLECTION BOX - BLUE BOX", "address": {"city": "ASHEVILLE", "state": "NC", "street": "537 COLLEGE ST", "postcode": "28806"}}},
{"geometry": {"type": "Point", "coordinates": [-82.6003400501, 35.5521143033]}, "type": "Feature", "properties": {"collection_times": [{"days": "Mon-Fri", "time": "5:45pm"}, {"days": "Sat", "time": "12:00pm"}, {"days": "Sun", "time": "Closed"}], "id": "2881000009", "name": "USPS COLLECTION BOX - BLUE BOX", "address": {"city": "ASHEVILLE", "state": "NC", "street": "591 BREVARD RD", "postcode": "28810"}}},
{"geometry": {"type": "Point", "coordinates": [-82.5333088633, 35.5441186836]}, "type": "Feature", "properties": {"collection_times": [{"days": "Mon-Fri", "time": "5:00pm"}, {"days": "Sat", "time": "1:00pm"}, {"days": "Sun", "time": "Closed"}], "id": "2881300001", "name": "USPS COLLECTION BOX - PO LOBBY", "address": {"city": "ASHEVILLE", "state": "NC", "street": "780 HENDERSONVILLE RD", "postcode": "28813"}}},
{"geometry": {"type": "Point", "coordinates": [-82.5333088633, 35.5441186836]}, "type": "Feature", "properties": {"collection_times": [{"days": "Mon-Fri", "time": "5:00pm"}, {"days": "Sat", "time": "1:00pm"}, {"days": "Sun", "time": "Closed"}], "id": "2881300002", "name": "USPS COLLECTION BOX - PO LOBBY", "address": {"city": "ASHEVILLE", "state": "NC", "street": "780 HENDERSONVILLE RD", "postcode": "28813"}}}
]}
