{"type": "FeatureCollection", "features": [
{"geometry": {"type": "Point", "coordinates": [-83.8162392086, 35.1998013399]}, "type": "Feature", "properties": {"collection_times": [{"days": "Mon-Fri", "time": "3:00pm"}, {"days": "Sat", "time": "12:00pm"}, {"days": "Sun", "time": "Closed"}], "id": "2890100002", "name": "USPS COLLECTION BOX - BLUE BOX", "address": {"city": "ANDREWS", "state": "NC", "street": "12 CHESTNUT ST", "postcode": "28901"}}},
{"geometry": {"type": "Point", "coordinates": [-83.8162392086, 35.1998013399]}, "type": "Feature", "properties": {"collection_times": [{"days": "Mon-Fri", "time": "3:00pm"}, {"days": "Sat", "time": "12:00pm"}, {"days": "Sun", "time": "Closed"}], "id": "2890100003", "name": "USPS COLLECTION BOX - PO LOBBY", "address": {"city": "ANDREWS", "state": "NC", "street": "12 CHESTNUT ST", "postcode": "28901"}}},
{"geometry": {"type": "Point", "coordinates": [-83.8162392086, 35.1998013399]}, "type": "Feature", "properties": {"collection_times": [{"days": "Mon-Fri", "time": "3:00pm"}, {"days": "Sat", "time": "12:00pm"}, {"days": "Sun", "time": "Closed"}], "id": "2890100004", "name": "USPS COLLECTION BOX - PO LOBBY", "address": {"city": "ANDREWS", "state": "NC", "street": "12 CHESTNUT ST", "postcode": "28901"}}},
{"geometry": {"type": "Point", "coordinates": [-83.9248804634, 35.0557057835]}, "type": "Feature", "properties": {"collection_times": [{"days": "Mon-Fri", "time": "4:15pm"}, {"days": "Sat", "time": "10:00am"}, {"days": "Sun", "time": "Closed"}], "id": "2890200002", "name": "USPS COLLECTION BOX - BLUE BOX", "address": {"city": "BRASSTOWN", "state": "NC", "street": "98 SETTAWIG RD", "postcode": "28902"}}},
{"geometry": {"type": "Point", "coordinates": [-83.9248804634, 35.0557057835]}, "type": "Feature", "properties": {"collection_times": [{"days": "Mon-Fri", "time": "4:15pm"}, {"days": "Sat", "time": "10:00am"}, {"days": "Sun", "time": "Closed"}], "id": "2890200003", "name": "USPS COLLECTION BOX - PO LOBBY", "address": {"city": "BRASSTOWN", "state": "NC", "street": "98 SETTAWIG RD", "postcode": "28902"}}},
{"geometry": {"type": "Point", "coordinates": [-83.9589174673, 35.0402434784]}, "type": "Feature", "properties": {"collection_times": [{"days": "Mon-Fri", "time": "10:30am"}, {"days": "Sat-Sun", "time": "Closed"}], "id": "2890200004", "name": "USPS COLLECTION BOX - BLUE BOX", "address": {"city": "BRASSTOWN", "state": "NC", "street": "11005 OLD HIGHWAY 64", "postcode": "28902"}}},
{"geometry": {"type": "Point", "coordinates": [-84.1676980135, 34.9916017113]}, "type": "Feature", "properties": {"collection_times": [{"days": "Mon-Fri", "time": "4:00pm"}, {"days": "Sat", "time": "10:00am"}, {"days": "Sun", "time": "Closed"}], "id": "2890300002", "name": "USPS COLLECTION BOX - BLUE BOX", "address": {"city": "CULBERSON", "state": "NC", "street": "HIGHWAY 60", "postcode": "28903"}}},
{"geometry": {"type": "Point", "coordinates": [-84.1676980135, 34.9916017113]}, "type": "Feature", "properties": {"collection_times": [{"days": "Mon-Fri", "time": "4:00pm"}, {"days": "Sat", "time": "10:00am"}, {"days": "Sun", "time": "Closed"}], "id": "2890300003", "name": "USPS COLLECTION BOX - PO LOBBY", "address": {"city": "CULBERSON", "state": "NC", "street": "HIGHWAY 60", "postcode": "28903"}}},
{"geometry": {"type": "Point", "coordinates": [-83.8169553557, 35.0460808147]}, "type": "Feature", "properties": {"collection_times": [{"days": "Mon-Fri", "time": "4:15pm"}, {"days": "Sat", "time": "11:00am"}, {"days": "Sun", "time": "Closed"}], "id": "2890400001", "name": "USPS COLLECTION BOX - BLUE BOX", "address": {"city": "HAYESVILLE", "state": "NC", "street": "136 SANDERSON ST", "postcode": "28904"}}},
{"geometry": {"type": "Point", "coordinates": [-83.7774383095, 35.0387928161]}, "type": "Feature", "properties": {"collection_times": [{"days": "Mon-Fri", "time": "4:15pm"}, {"days": "Sat", "time": "11:00am"}, {"days": "Sun", "time": "Closed"}], "id": "2890400004", "name": "USPS COLLECTION BOX - PO LOBBY", "address": {"city": "HAYESVILLE", "state": "NC", "street": "136 SANDERSON ST", "postcode": "28904"}}},
{"geometry": {"type": "Point", "coordinates": [-83.9268641581, 35.1750629748]}, "type": "Feature", "properties": {"collection_times": [{"days": "Mon-Fri", "time": "4:00pm"}, {"days": "Sat", "time": "9:30am"}, {"days": "Sun", "time": "Closed"}], "id": "2890500001", "name": "USPS COLLECTION BOX - BLUE BOX", "address": {"city": "MARBLE", "state": "NC", "street": "189 MARBLE RD", "postcode": "28905"}}},
{"geometry": {"type": "Point", "coordinates": [-83.9373258219, 35.1466836476]}, "type": "Feature", "properties": {"collection_times": [{"days": "Mon-Fri", "time": "4:00pm"}, {"days": "Sat", "time": "9:30am"}, {"days": "Sun", "time": "Closed"}], "id": "2890500003", "name": "USPS COLLECTION BOX - PO LOBBY", "address": {"city": "MARBLE", "state": "NC", "street": "189 MARBLE RD", "postcode": "28905"}}},
{"geometry": {"type": "Point", "coordinates": [-84.0299430473, 35.0887299437]}, "type": "Feature", "properties": {"collection_times": [{"days": "Mon-Fri", "time": "5:00pm"}, {"days": "Sat", "time": "1:00pm"}, {"days": "Sun", "time": "Closed"}], "id": "2890600002", "name": "USPS COLLECTION BOX - BLUE BOX", "address": {"city": "MURPHY", "state": "NC", "street": "388 VALLEY RIVER AVE", "postcode": "28906"}}},
{"geometry": {"type": "Point", "coordinates": [-84.0339540873, 35.0874389962]}, "type": "Feature", "properties": {"collection_times": [{"days": "Mon-Fri", "time": "2:00pm"}, {"days": "Sat", "time": "12:00pm"}, {"days": "Sun", "time": "Closed"}], "id": "2890600004", "name": "USPS COLLECTION BOX - BLUE BOX", "address": {"city": "MURPHY", "state": "NC", "street": "75 PEACHTREE ST", "postcode": "28906"}}},
{"geometry": {"type": "Point", "coordinates": [-84.0112483444, 35.1076985947]}, "type": "Feature", "properties": {"collection_times": [{"days": "Mon-Sat", "time": "10:00am"}, {"days": "Sun", "time": "Closed"}], "id": "2890600008", "name": "USPS COLLECTION BOX - BLUE BOX", "address": {"city": "MURPHY", "state": "NC", "street": "1210 ANDREWS RD", "postcode": "28906"}}},
{"geometry": {"type": "Point", "coordinates": [-84.0096562247, 35.1051866717]}, "type": "Feature", "properties": {"collection_times": [{"days": "Mon-Sat", "time": "10:00am"}, {"days": "Sun", "time": "Closed"}], "id": "2890600009", "name": "USPS COLLECTION BOX - BLUE BOX", "address": {"city": "MURPHY", "state": "NC", "street": "2044 HIGHWAY 19", "postcode": "28906"}}},
{"geometry": {"type": "Point", "coordinates": [-84.0096549481, 35.1092721212]}, "type": "Feature", "properties": {"collection_times": [{"days": "Mon-Sat", "time": "10:00am"}, {"days": "Sun", "time": "Closed"}], "id": "2890600011", "name": "USPS COLLECTION BOX - BLUE BOX", "address": {"city": "MURPHY", "state": "NC", "street": "1450 ANDREWS RD", "postcode": "28906"}}},
{"geometry": {"type": "Point", "coordinates": [-84.0856088098, 35.0419644693]}, "type": "Feature", "properties": {"collection_times": [{"days": "Mon-Sat", "time": "12:00pm"}, {"days": "Sun", "time": "Closed"}], "id": "2890600012", "name": "USPS COLLECTION BOX - BLUE BOX", "address": {"city": "MURPHY", "state": "NC", "street": "4130 HIGHWAY 64 E", "postcode": "28906"}}},
{"geometry": {"type": "Point", "coordinates": [-84.1221362858, 35.0605308786]}, "type": "Feature", "properties": {"collection_times": [{"days": "Mon-Fri", "time": "5:00pm"}, {"days": "Sat", "time": "1:00pm"}, {"days": "Sun", "time": "Closed"}], "id": "2890600015", "name": "USPS COLLECTION BOX - PO LOBBY", "address": {"city": "MURPHY", "state": "NC", "street": "388 VALLEY RIVER AVE", "postcode": "28906"}}},
{"geometry": {"type": "Point", "coordinates": [-84.1221362858, 35.0605308786]}, "type": "Feature", "properties": {"collection_times": [{"days": "Mon-Fri", "time": "5:00pm"}, {"days": "Sat", "time": "1:00pm"}, {"days": "Sun", "time": "Closed"}], "id": "2890600016", "name": "USPS COLLECTION BOX - PO LOBBY", "address": {"city": "MURPHY", "state": "NC", "street": "388 VALLEY RIVER AVE", "postcode": "28906"}}},
{"geometry": {"type": "Point", "coordinates": [-83.8936082809, 34.9948314317]}, "type": "Feature", "properties": {"collection_times": [{"days": "Mon-Fri", "time": "4:00pm"}, {"days": "Sat", "time": "10:00am"}, {"days": "Sun", "time": "Closed"}], "id": "2890900002", "name": "USPS COLLECTION BOX - BLUE BOX", "address": {"city": "WARNE", "state": "NC", "street": "4731 OLD HWY 64 W", "postcode": "28909"}}}
]}
