{"type": "FeatureCollection", "features": [
{"geometry": {"type": "Point", "coordinates": [-80.1914574753, 34.7446142187]}, "type": "Feature", "properties": {"collection_times": [{"days": "Mon-Fri", "time": "4:30pm"}, {"days": "Sat", "time": "9:30am"}, {"days": "Sun", "time": "Closed"}], "id": "2974100003", "name": "USPS COLLECTION BOX - BLUE BOX", "address": {"city": "RUBY", "state": "NC", "street": "367 MARKET ST", "postcode": "29741"}}},
{"geometry": {"type": "Point", "coordinates": [-80.1985734744, 34.7295970537]}, "type": "Feature", "properties": {"collection_times": [{"days": "Mon-Fri", "time": "4:30pm"}, {"days": "Sat", "time": "9:30am"}, {"days": "Sun", "time": "Closed"}], "id": "2974100004", "name": "USPS COLLECTION BOX - PO LOBBY", "address": {"city": "RUBY", "state": "NC", "street": "367 MARKET ST", "postcode": "29741"}}},
{"geometry": {"type": "Point", "coordinates": [-80.1985734744, 34.7295970537]}, "type": "Feature", "properties": {"collection_times": [{"days": "Mon-Fri", "time": "4:30pm"}, {"days": "Sat", "time": "9:30am"}, {"days": "Sun", "time": "Closed"}], "id": "2974100005", "name": "USPS COLLECTION BOX - PO LOBBY", "address": {"city": "RUBY", "state": "NC", "street": "367 MARKET ST", "postcode": "29741"}}}
]}
