{"type": "FeatureCollection", "features": [
{"geometry": {"type": "Point", "coordinates": [-71.4282116928, 41.8274868138]}, "type": "Feature", "properties": {"collection_times": [{"days": "Mon-Fri", "time": "4:00pm"}, {"days": "Sat", "time": "11:00am"}, {"days": "Sun", "time": "Closed"}], "id": "0290300004", "name": "USPS COLLECTION BOX - BLUE BOX", "address": {"city": "PROVIDENCE", "state": "RI", "street": "33 ACORN ST", "postcode": "02903"}}},
{"geometry": {"type": "Point", "coordinates": [-71.4119319035, 41.8238445197]}, "type": "Feature", "properties": {"collection_times": [{"days": "Mon-Fri", "time": "5:00pm"}, {"days": "Sat", "time": "10:00am"}, {"days": "Sun", "time": "Closed"}], "id": "0290300009", "name": "USPS COLLECTION BOX - BLUE BOX", "address": {"city": "PROVIDENCE", "state": "RI", "street": "10 DORRANCE ST", "postcode": "02903"}}},
{"geometry": {"type": "Point", "coordinates": [-71.4138468195, 41.8219243331]}, "type": "Feature", "properties": {"collection_times": [{"days": "Mon-Fri", "time": "12:00pm"}, {"days": "Sat", "time": "11:00am"}, {"days": "Sun", "time": "Closed"}], "id": "0290300012", "name": "USPS COLLECTION BOX - BLUE BOX", "address": {"city": "PROVIDENCE", "state": "RI", "street": "261 ATWELLS AVE", "postcode": "02903"}}},
{"geometry": {"type": "Point", "coordinates": [-71.4079944329, 41.8283322046]}, "type": "Feature", "properties": {"collection_times": [{"days": "Mon-Sat", "time": "12:00pm"}, {"days": "Sun", "time": "Closed"}], "id": "0290300017", "name": "USPS COLLECTION BOX - BLUE BOX", "address": {"city": "PROVIDENCE", "state": "RI", "street": "173 BENEFIT ST", "postcode": "02903"}}},
{"geometry": {"type": "Point", "coordinates": [-71.4138468195, 41.8219243331]}, "type": "Feature", "properties": {"collection_times": [{"days": "Mon-Sat", "time": "12:00pm"}, {"days": "Sun", "time": "Closed"}], "id": "0290300020", "name": "USPS COLLECTION BOX - BLUE BOX", "address": {"city": "PROVIDENCE", "state": "RI", "street": "296 BENEFIT ST", "postcode": "02903"}}},
{"geometry": {"type": "Point", "coordinates": [-71.4138468195, 41.8219243331]}, "type": "Feature", "properties": {"collection_times": [{"days": "Mon-Sat", "time": "12:00pm"}, {"days": "Sun", "time": "Closed"}], "id": "0290300021", "name": "USPS COLLECTION BOX - BLUE BOX", "address": {"city": "PROVIDENCE", "state": "RI", "street": "364 BENEFIT ST", "postcode": "02903"}}},
{"geometry": {"type": "Point", "coordinates": [-71.4216250692, 41.8216288376]}, "type": "Feature", "properties": {"collection_times": [{"days": "Mon-Fri", "time": "4:30pm"}, {"days": "Sat", "time": "12:00pm"}, {"days": "Sun", "time": "Closed"}], "id": "0290300027", "name": "USPS COLLECTION BOX - BLUE BOX", "address": {"city": "PROVIDENCE", "state": "RI", "street": "130 BROADWAY", "postcode": "02903"}}},
{"geometry": {"type": "Point", "coordinates": [-71.4269850563, 41.8203666204]}, "type": "Feature", "properties": {"collection_times": [{"days": "Mon-Sat", "time": "12:00pm"}, {"days": "Sun", "time": "Closed"}], "id": "0290300030", "name": "USPS COLLECTION BOX - BLUE BOX", "address": {"city": "PROVIDENCE", "state": "RI", "street": "280 BROADWAY", "postcode": "02903"}}},
{"geometry": {"type": "Point", "coordinates": [-71.4150915869, 41.8192167843]}, "type": "Feature", "properties": {"collection_times": [{"days": "Mon-Fri", "time": "5:00pm"}, {"days": "Sat", "time": "2:00pm"}, {"days": "Sun", "time": "Closed"}], "id": "0290300031", "name": "USPS COLLECTION BOX - BLUE BOX", "address": {"city": "PROVIDENCE", "state": "RI", "street": "53 BROAD ST", "postcode": "02903"}}},
{"geometry": {"type": "Point", "coordinates": [-71.4138468194, 41.8219329773]}, "type": "Feature", "properties": {"collection_times": [{"days": "Mon-Fri", "time": "5:00pm"}, {"days": "Sat", "time": "2:00pm"}, {"days": "Sun", "time": "Closed"}], "id": "0290300033", "name": "USPS COLLECTION BOX - EXPRESS", "address": {"city": "PROVIDENCE", "state": "RI", "street": "53 BROAD ST", "postcode": "02903"}}},
{"geometry": {"type": "Point", "coordinates": [-71.4138468194, 41.8219329773]}, "type": "Feature", "properties": {"collection_times": [{"days": "Mon-Fri", "time": "5:00pm"}, {"days": "Sat", "time": "11:00am"}, {"days": "Sun", "time": "Closed"}], "id": "0290300041", "name": "USPS COLLECTION BOX - BLUE BOX", "address": {"city": "PROVIDENCE", "state": "RI", "street": "55 CEDAR ST", "postcode": "02903"}}},
{"geometry": {"type": "Point", "coordinates": [-71.4226241488, 41.8246950171]}, "type": "Feature", "properties": {"collection_times": [{"days": "Mon-Fri", "time": "5:00pm"}, {"days": "Sat", "time": "11:00am"}, {"days": "Sun", "time": "Closed"}], "id": "0290300042", "name": "USPS COLLECTION BOX - BLUE BOX", "address": {"city": "PROVIDENCE", "state": "RI", "street": "55 CEDAR ST", "postcode": "02903"}}},
{"geometry": {"type": "Point", "coordinates": [-71.4094275794, 41.817868211]}, "type": "Feature", "properties": {"collection_times": [{"days": "Mon-Fri", "time": "12:00pm"}, {"days": "Sat", "time": "10:00am"}, {"days": "Sun", "time": "Closed"}], "id": "0290300048", "name": "USPS COLLECTION BOX - BLUE BOX", "address": {"city": "PROVIDENCE", "state": "RI", "street": "200 CHESTNUT ST", "postcode": "02903"}}},
{"geometry": {"type": "Point", "coordinates": [-71.410246187, 41.8182491238]}, "type": "Feature", "properties": {"collection_times": [{"days": "Mon-Fri", "time": "12:00pm"}, {"days": "Sat", "time": "10:00am"}, {"days": "Sun", "time": "Closed"}], "id": "0290300050", "name": "USPS COLLECTION BOX - BLUE BOX", "address": {"city": "PROVIDENCE", "state": "RI", "street": "150 CHESTNUT ST", "postcode": "02903"}}},
{"geometry": {"type": "Point", "coordinates": [-71.4096476097, 41.8207025807]}, "type": "Feature", "properties": {"collection_times": [{"days": "Mon-Fri", "time": "4:30pm"}, {"days": "Sat", "time": "10:00am"}, {"days": "Sun", "time": "Closed"}], "id": "0290300055", "name": "USPS COLLECTION BOX - BLUE BOX", "address": {"city": "PROVIDENCE", "state": "RI", "street": "50 CLIFFORD ST", "postcode": "02903"}}},
{"geometry": {"type": "Point", "coordinates": [-71.4138468194, 41.8219329773]}, "type": "Feature", "properties": {"collection_times": [{"days": "Mon-Fri", "time": "12:00pm"}, {"days": "Sat", "time": "10:00am"}, {"days": "Sun", "time": "Closed"}], "id": "0290300058", "name": "USPS COLLECTION BOX - BLUE BOX", "address": {"city": "PROVIDENCE", "state": "RI", "street": "1 DAVOL SQ", "postcode": "02903"}}},
{"geometry": {"type": "Point", "coordinates": [-71.4055023667, 41.8173043599]}, "type": "Feature", "properties": {"collection_times": [{"days": "Mon-Fri", "time": "5:00pm"}, {"days": "Sat", "time": "10:00am"}, {"days": "Sun", "time": "Closed"}], "id": "0290300060", "name": "USPS COLLECTION BOX - BLUE BOX", "address": {"city": "PROVIDENCE", "state": "RI", "street": "10 WEYBOSSET ST", "postcode": "02903"}}},
{"geometry": {"type": "Point", "coordinates": [-71.4138468194, 41.8219329773]}, "type": "Feature", "properties": {"collection_times": [{"days": "Mon-Fri", "time": "5:00pm"}, {"days": "Sat", "time": "10:00am"}, {"days": "Sun", "time": "Closed"}], "id": "0290300062", "name": "USPS COLLECTION BOX - BLUE BOX", "address": {"city": "PROVIDENCE", "state": "RI", "street": "10 DORRANCE ST", "postcode": "02903"}}},
{"geometry": {"type": "Point", "coordinates": [-71.4138468194, 41.8219329773]}, "type": "Feature", "properties": {"collection_times": [{"days": "Mon-Fri", "time": "4:15pm"}, {"days": "Sat", "time": "10:00am"}, {"days": "Sun", "time": "Closed"}], "id": "0290300066", "name": "USPS COLLECTION BOX - BLUE BOX", "address": {"city": "PROVIDENCE", "state": "RI", "street": "127 DORRANCE ST", "postcode": "02903"}}},
{"geometry": {"type": "Point", "coordinates": [-71.4101184226, 41.8223705036]}, "type": "Feature", "properties": {"collection_times": [{"days": "Mon-Fri", "time": "4:15pm"}, {"days": "Sat", "time": "10:00am"}, {"days": "Sun", "time": "Closed"}], "id": "0290300067", "name": "USPS COLLECTION BOX - BLUE BOX", "address": {"city": "PROVIDENCE", "state": "RI", "street": "127 DORRANCE ST", "postcode": "02903"}}},
{"geometry": {"type": "Point", "coordinates": [-71.4138468194, 41.8219329773]}, "type": "Feature", "properties": {"collection_times": [{"days": "Mon-Fri", "time": "4:30pm"}, {"days": "Sat", "time": "10:00am"}, {"days": "Sun", "time": "Closed"}], "id": "0290300072", "name": "USPS COLLECTION BOX - BLUE BOX", "address": {"city": "PROVIDENCE", "state": "RI", "street": "123 DYER ST", "postcode": "02903"}}},
{"geometry": {"type": "Point", "coordinates": [-71.3983077833, 41.8195306417]}, "type": "Feature", "properties": {"collection_times": [{"days": "Mon-Fri", "time": "12:00pm"}, {"days": "Sat", "time": "10:00am"}, {"days": "Sun", "time": "Closed"}], "id": "0290300075", "name": "USPS COLLECTION BOX - BLUE BOX", "address": {"city": "PROVIDENCE", "state": "RI", "street": "244 WICKENDEN ST", "postcode": "02903"}}},
{"geometry": {"type": "Point", "coordinates": [-71.4138468194, 41.8219329773]}, "type": "Feature", "properties": {"collection_times": [{"days": "Mon-Fri", "time": "5:00pm"}, {"days": "Sat", "time": "10:00am"}, {"days": "Sun", "time": "Closed"}], "id": "0290300085", "name": "USPS COLLECTION BOX - BLUE BOX", "address": {"city": "PROVIDENCE", "state": "RI", "street": "30 EXCHANGE TER", "postcode": "02903"}}},
{"geometry": {"type": "Point", "coordinates": [-71.4144811801, 41.8251410428]}, "type": "Feature", "properties": {"collection_times": [{"days": "Mon-Fri", "time": "5:00pm"}, {"days": "Sat", "time": "10:00am"}, {"days": "Sun", "time": "Closed"}], "id": "0290300086", "name": "USPS COLLECTION BOX - BLUE BOX", "address": {"city": "PROVIDENCE", "state": "RI", "street": "30 EXCHANGE TER", "postcode": "02903"}}},
{"geometry": {"type": "Point", "coordinates": [-71.4138468195, 41.8219243331]}, "type": "Feature", "properties": {"collection_times": [{"days": "Mon-Fri", "time": "4:30pm"}, {"days": "Sat", "time": "10:00am"}, {"days": "Sun", "time": "Closed"}], "id": "0290300101", "name": "USPS COLLECTION BOX - BLUE BOX", "address": {"city": "PROVIDENCE", "state": "RI", "street": "91 FRIENDSHIP ST", "postcode": "02903"}}},
{"geometry": {"type": "Point", "coordinates": [-71.4116834821, 41.8154585236]}, "type": "Feature", "properties": {"collection_times": [{"days": "Mon-Fri", "time": "12:00pm"}, {"days": "Sat", "time": "10:00am"}, {"days": "Sun", "time": "Closed"}], "id": "0290300104", "name": "USPS COLLECTION BOX - BLUE BOX", "address": {"city": "PROVIDENCE", "state": "RI", "street": "1 HOPPIN ST", "postcode": "02903"}}},
{"geometry": {"type": "Point", "coordinates": [-71.4109405839, 41.8251493235]}, "type": "Feature", "properties": {"collection_times": [{"days": "Mon-Fri", "time": "5:00pm"}, {"days": "Sat-Sun", "time": "Closed"}], "id": "0290300114", "name": "USPS COLLECTION BOX - BLUE BOX", "address": {"city": "PROVIDENCE", "state": "RI", "street": "50 KENNEDY PLZ", "postcode": "02903"}}},
{"geometry": {"type": "Point", "coordinates": [-71.4110680915, 41.8118886117]}, "type": "Feature", "properties": {"collection_times": [{"days": "Mon-Fri", "time": "5:00pm"}, {"days": "Sat", "time": "10:00am"}, {"days": "Sun", "time": "Closed"}], "id": "0290300124", "name": "USPS COLLECTION BOX - BLUE BOX", "address": {"city": "PROVIDENCE", "state": "RI", "street": "110 LOCKWOOD ST", "postcode": "02903"}}},
{"geometry": {"type": "Point", "coordinates": [-71.4138468194, 41.8219329773]}, "type": "Feature", "properties": {"collection_times": [{"days": "Mon-Fri", "time": "5:00pm"}, {"days": "Sat", "time": "10:00am"}, {"days": "Sun", "time": "Closed"}], "id": "0290300130", "name": "USPS COLLECTION BOX - BLUE BOX", "address": {"city": "PROVIDENCE", "state": "RI", "street": "1 PROVIDENCE WASHINGTON PLZ", "postcode": "02903"}}},
{"geometry": {"type": "Point", "coordinates": [-71.4176466692, 41.8277392731]}, "type": "Feature", "properties": {"collection_times": [{"days": "Mon-Fri", "time": "5:00pm"}, {"days": "Sat", "time": "10:00am"}, {"days": "Sun", "time": "Closed"}], "id": "0290300131", "name": "USPS COLLECTION BOX - BLUE BOX", "address": {"city": "PROVIDENCE", "state": "RI", "street": "1 PROVIDENCE WASHINGTON PLZ", "postcode": "02903"}}},
{"geometry": {"type": "Point", "coordinates": [-71.4257308296, 41.8290727877]}, "type": "Feature", "properties": {"collection_times": [{"days": "Mon-Fri", "time": "5:00pm"}, {"days": "Sat", "time": "10:00am"}, {"days": "Sun", "time": "Closed"}], "id": "0290300132", "name": "USPS COLLECTION BOX - BLUE BOX", "address": {"city": "PROVIDENCE", "state": "RI", "street": "1 PROVIDENCE WASHINGTON PLZ", "postcode": "02903"}}},
{"geometry": {"type": "Point", "coordinates": [-71.4138468194, 41.8219329773]}, "type": "Feature", "properties": {"collection_times": [{"days": "Mon-Fri", "time": "4:15pm"}, {"days": "Sat", "time": "10:00am"}, {"days": "Sun", "time": "Closed"}], "id": "0290300135", "name": "USPS COLLECTION BOX - BLUE BOX", "address": {"city": "PROVIDENCE", "state": "RI", "street": "53 PINE ST", "postcode": "02903"}}},
{"geometry": {"type": "Point", "coordinates": [-71.4095526608, 41.8230632394]}, "type": "Feature", "properties": {"collection_times": [{"days": "Mon-Fri", "time": "4:15pm"}, {"days": "Sat", "time": "10:00am"}, {"days": "Sun", "time": "Closed"}], "id": "0290300136", "name": "USPS COLLECTION BOX - BLUE BOX", "address": {"city": "PROVIDENCE", "state": "RI", "street": "53 PINE ST", "postcode": "02903"}}},
{"geometry": {"type": "Point", "coordinates": [-71.4138468195, 41.8219243331]}, "type": "Feature", "properties": {"collection_times": [{"days": "Mon-Fri", "time": "4:15pm"}, {"days": "Sat", "time": "10:00am"}, {"days": "Sun", "time": "Closed"}], "id": "0290300138", "name": "USPS COLLECTION BOX - BLUE BOX", "address": {"city": "PROVIDENCE", "state": "RI", "street": "160 PINE ST", "postcode": "02903"}}},
{"geometry": {"type": "Point", "coordinates": [-71.4087769519, 41.8187305881]}, "type": "Feature", "properties": {"collection_times": [{"days": "Mon-Fri", "time": "12:00pm"}, {"days": "Sat", "time": "10:00am"}, {"days": "Sun", "time": "Closed"}], "id": "0290300147", "name": "USPS COLLECTION BOX - BLUE BOX", "address": {"city": "PROVIDENCE", "state": "RI", "street": "233 RICHMOND ST", "postcode": "02903"}}},
{"geometry": {"type": "Point", "coordinates": [-71.4087769519, 41.8187305881]}, "type": "Feature", "properties": {"collection_times": [{"days": "Mon-Sat", "time": "10:30am"}, {"days": "Sun", "time": "Closed"}], "id": "0290300149", "name": "USPS COLLECTION BOX - BLUE BOX", "address": {"city": "PROVIDENCE", "state": "RI", "street": "123 DYER ST", "postcode": "02903"}}},
{"geometry": {"type": "Point", "coordinates": [-71.4055604865, 41.8229064333]}, "type": "Feature", "properties": {"collection_times": [{"days": "Mon-Fri", "time": "5:00pm"}, {"days": "Sat", "time": "10:00am"}, {"days": "Sun", "time": "Closed"}], "id": "0290300158", "name": "USPS COLLECTION BOX - BLUE BOX", "address": {"city": "PROVIDENCE", "state": "RI", "street": "231 S MAIN ST", "postcode": "02903"}}},
{"geometry": {"type": "Point", "coordinates": [-71.4044170523, 41.8215411525]}, "type": "Feature", "properties": {"collection_times": [{"days": "Mon-Fri", "time": "5:00pm"}, {"days": "Sat", "time": "10:00am"}, {"days": "Sun", "time": "Closed"}], "id": "0290300160", "name": "USPS COLLECTION BOX - BLUE BOX", "address": {"city": "PROVIDENCE", "state": "RI", "street": "341 S MAIN ST", "postcode": "02903"}}},
{"geometry": {"type": "Point", "coordinates": [-71.415417984, 41.8224746465]}, "type": "Feature", "properties": {"collection_times": [{"days": "Mon-Fri", "time": "5:00pm"}, {"days": "Sat", "time": "10:00am"}, {"days": "Sun", "time": "Closed"}], "id": "0290300169", "name": "USPS COLLECTION BOX - BLUE BOX", "address": {"city": "PROVIDENCE", "state": "RI", "street": "150 WASHINGTON ST", "postcode": "02903"}}},
{"geometry": {"type": "Point", "coordinates": [-71.4177615253, 41.8208741098]}, "type": "Feature", "properties": {"collection_times": [{"days": "Mon-Fri", "time": "5:00pm"}, {"days": "Sat", "time": "10:00am"}, {"days": "Sun", "time": "Closed"}], "id": "0290300177", "name": "USPS COLLECTION BOX - BLUE BOX", "address": {"city": "PROVIDENCE", "state": "RI", "street": "254 WASHINGTON ST", "postcode": "02903"}}},
{"geometry": {"type": "Point", "coordinates": [-71.4138468194, 41.8219329773]}, "type": "Feature", "properties": {"collection_times": [{"days": "Mon-Sat", "time": "12:00pm"}, {"days": "Sun", "time": "Closed"}], "id": "0290300180", "name": "USPS COLLECTION BOX - BLUE BOX", "address": {"city": "PROVIDENCE", "state": "RI", "street": "755 WESTMINSTER ST", "postcode": "02903"}}},
{"geometry": {"type": "Point", "coordinates": [-71.4138468194, 41.8219329773]}, "type": "Feature", "properties": {"collection_times": [{"days": "Mon-Fri", "time": "4:00pm"}, {"days": "Sat", "time": "10:00am"}, {"days": "Sun", "time": "Closed"}], "id": "0290300181", "name": "USPS COLLECTION BOX - BLUE BOX", "address": {"city": "PROVIDENCE", "state": "RI", "street": "385 WESTMINSTER ST", "postcode": "02903"}}},
{"geometry": {"type": "Point", "coordinates": [-71.4138468194, 41.8219329773]}, "type": "Feature", "properties": {"collection_times": [{"days": "Mon-Fri", "time": "5:00pm"}, {"days": "Sat", "time": "10:00am"}, {"days": "Sun", "time": "Closed"}], "id": "0290300189", "name": "USPS COLLECTION BOX - BLUE BOX", "address": {"city": "PROVIDENCE", "state": "RI", "street": "144 WESTMINSTER ST", "postcode": "02903"}}},
{"geometry": {"type": "Point", "coordinates": [-71.4138468195, 41.8219243331]}, "type": "Feature", "properties": {"collection_times": [{"days": "Mon-Fri", "time": "5:00pm"}, {"days": "Sat", "time": "10:00am"}, {"days": "Sun", "time": "Closed"}], "id": "0290300192", "name": "USPS COLLECTION BOX - BLUE BOX", "address": {"city": "PROVIDENCE", "state": "RI", "street": "63 DORRANCE ST", "postcode": "02903"}}},
{"geometry": {"type": "Point", "coordinates": [-71.4138468195, 41.8219243331]}, "type": "Feature", "properties": {"collection_times": [{"days": "Mon-Fri", "time": "5:00pm"}, {"days": "Sat", "time": "10:00am"}, {"days": "Sun", "time": "Closed"}], "id": "0290300194", "name": "USPS COLLECTION BOX - EXPRESS", "address": {"city": "PROVIDENCE", "state": "RI", "street": "63 DORRANCE ST", "postcode": "02903"}}},
{"geometry": {"type": "Point", "coordinates": [-71.4138468195, 41.8219243331]}, "type": "Feature", "properties": {"collection_times": [{"days": "Mon-Fri", "time": "12:00pm"}, {"days": "Sat", "time": "10:00am"}, {"days": "Sun", "time": "Closed"}], "id": "0290300195", "name": "USPS COLLECTION BOX - BLUE BOX", "address": {"city": "PROVIDENCE", "state": "RI", "street": "15 PARK ROW W", "postcode": "02903"}}},
{"geometry": {"type": "Point", "coordinates": [-71.4149785685, 41.8213209074]}, "type": "Feature", "properties": {"collection_times": [{"days": "Mon-Fri", "time": "4:00pm"}, {"days": "Sat", "time": "10:00am"}, {"days": "Sun", "time": "Closed"}], "id": "0290300203", "name": "USPS COLLECTION BOX - BLUE BOX", "address": {"city": "PROVIDENCE", "state": "RI", "street": "385 WESTMINSTER ST", "postcode": "02903"}}},
{"geometry": {"type": "Point", "coordinates": [-71.4138468194, 41.8219329773]}, "type": "Feature", "properties": {"collection_times": [{"days": "Mon-Fri", "time": "5:00pm"}, {"days": "Sat", "time": "10:00am"}, {"days": "Sun", "time": "Closed"}], "id": "0290300204", "name": "USPS COLLECTION BOX - BLUE BOX", "address": {"city": "PROVIDENCE", "state": "RI", "street": "10 WEYBOSSET ST", "postcode": "02903"}}},
{"geometry": {"type": "Point", "coordinates": [-71.4097008429, 41.824614626]}, "type": "Feature", "properties": {"collection_times": [{"days": "Mon-Fri", "time": "5:00pm"}, {"days": "Sat", "time": "10:00am"}, {"days": "Sun", "time": "Closed"}], "id": "0290300205", "name": "USPS COLLECTION BOX - BLUE BOX", "address": {"city": "PROVIDENCE", "state": "RI", "street": "10 WEYBOSSET ST", "postcode": "02903"}}},
{"geometry": {"type": "Point", "coordinates": [-71.4097008429, 41.824614626]}, "type": "Feature", "properties": {"collection_times": [{"days": "Mon-Fri", "time": "5:00pm"}, {"days": "Sat", "time": "10:00am"}, {"days": "Sun", "time": "Closed"}], "id": "0290300206", "name": "USPS COLLECTION BOX - BLUE BOX", "address": {"city": "PROVIDENCE", "state": "RI", "street": "10 WEYBOSSET ST", "postcode": "02903"}}},
{"geometry": {"type": "Point", "coordinates": [-71.4119169123, 41.8221703854]}, "type": "Feature", "properties": {"collection_times": [{"days": "Mon-Fri", "time": "12:00pm"}, {"days": "Sat", "time": "10:00am"}, {"days": "Sun", "time": "Closed"}], "id": "0290300214", "name": "USPS COLLECTION BOX - BLUE BOX", "address": {"city": "PROVIDENCE", "state": "RI", "street": "212 WEYBOSSET ST", "postcode": "02903"}}},
{"geometry": {"type": "Point", "coordinates": [-71.4138468195, 41.8219243331]}, "type": "Feature", "properties": {"collection_times": [{"days": "Mon-Fri", "time": "12:00pm"}, {"days": "Sat", "time": "10:00am"}, {"days": "Sun", "time": "Closed"}], "id": "0290300230", "name": "USPS COLLECTION BOX - BLUE BOX", "address": {"city": "PROVIDENCE", "state": "RI", "street": "365 EDDY ST", "postcode": "02903"}}},
{"geometry": {"type": "Point", "coordinates": [-71.4138468194, 41.8219329773]}, "type": "Feature", "properties": {"collection_times": [{"days": "Mon-Fri", "time": "5:00pm"}, {"days": "Sat", "time": "10:00am"}, {"days": "Sun", "time": "Closed"}], "id": "0290300234", "name": "USPS COLLECTION BOX - EXPRESS", "address": {"city": "PROVIDENCE", "state": "RI", "street": "10 DORRANCE ST", "postcode": "02903"}}},
{"geometry": {"type": "Point", "coordinates": [-71.4030041122, 41.8201406752]}, "type": "Feature", "properties": {"collection_times": [{"days": "Mon-Fri", "time": "5:00pm"}, {"days": "Sat", "time": "10:00am"}, {"days": "Sun", "time": "Closed"}], "id": "0290300236", "name": "USPS COLLECTION BOX - BLUE BOX", "address": {"city": "PROVIDENCE", "state": "RI", "street": "410 S MAIN ST", "postcode": "02903"}}},
{"geometry": {"type": "Point", "coordinates": [-71.4226241488, 41.8246950171]}, "type": "Feature", "properties": {"collection_times": [{"days": "Mon-Fri", "time": "5:00pm"}, {"days": "Sat", "time": "11:00am"}, {"days": "Sun", "time": "Closed"}], "id": "0290300240", "name": "USPS COLLECTION BOX - BLUE BOX", "address": {"city": "PROVIDENCE", "state": "RI", "street": "55 CEDAR ST", "postcode": "02903"}}},
{"geometry": {"type": "Point", "coordinates": [-71.4084468483, 41.8236856283]}, "type": "Feature", "properties": {"collection_times": [{"days": "Mon-Fri", "time": "4:30pm"}, {"days": "Sat", "time": "10:00am"}, {"days": "Sun", "time": "Closed"}], "id": "0290300242", "name": "USPS COLLECTION BOX - BLUE BOX", "address": {"city": "PROVIDENCE", "state": "RI", "street": "123 DYER ST", "postcode": "02903"}}},
{"geometry": {"type": "Point", "coordinates": [-71.4138468194, 41.8219329773]}, "type": "Feature", "properties": {"collection_times": [{"days": "Mon-Fri", "time": "5:00pm"}, {"days": "Sat-Sun", "time": "Closed"}], "id": "0290300255", "name": "USPS COLLECTION BOX - EXPRESS", "address": {"city": "PROVIDENCE", "state": "RI", "street": "50 KENNEDY PLZ", "postcode": "02903"}}},
{"geometry": {"type": "Point", "coordinates": [-71.4201664808, 41.8194107895]}, "type": "Feature", "properties": {"collection_times": [{"days": "Mon-Fri", "time": "12:00pm"}, {"days": "Sat", "time": "10:00am"}, {"days": "Sun", "time": "Closed"}], "id": "0290300258", "name": "USPS COLLECTION BOX - BLUE BOX", "address": {"city": "PROVIDENCE", "state": "RI", "street": "325 WASHINGTON ST", "postcode": "02903"}}},
{"geometry": {"type": "Point", "coordinates": [-71.4138468195, 41.8219243331]}, "type": "Feature", "properties": {"collection_times": [{"days": "Mon-Fri", "time": "5:00pm"}, {"days": "Sat", "time": "10:00am"}, {"days": "Sun", "time": "Closed"}], "id": "0290300264", "name": "USPS COLLECTION BOX - BLUE BOX", "address": {"city": "PROVIDENCE", "state": "RI", "street": "95 CEDAR ST", "postcode": "02903"}}},
{"geometry": {"type": "Point", "coordinates": [-71.4096338821, 41.8284927148]}, "type": "Feature", "properties": {"collection_times": [{"days": "Mon-Fri", "time": "5:00pm"}, {"days": "Sat", "time": "10:00am"}, {"days": "Sun", "time": "Closed"}], "id": "0290300265", "name": "USPS COLLECTION BOX - BLUE BOX", "address": {"city": "PROVIDENCE", "state": "RI", "street": "130 N MAIN ST", "postcode": "02903"}}},
{"geometry": {"type": "Point", "coordinates": [-71.4137571389, 41.8264760287]}, "type": "Feature", "properties": {"collection_times": [{"days": "Mon-Fri", "time": "4:00pm"}, {"days": "Sat", "time": "11:00am"}, {"days": "Sun", "time": "Closed"}], "id": "0290300267", "name": "USPS COLLECTION BOX - BLUE BOX", "address": {"city": "PROVIDENCE", "state": "RI", "street": "10 MEMORIAL BLVD", "postcode": "02903"}}},
{"geometry": {"type": "Point", "coordinates": [-71.4128284354, 41.8211891984]}, "type": "Feature", "properties": {"collection_times": [{"days": "Mon-Fri", "time": "4:15pm"}, {"days": "Sat", "time": "10:00am"}, {"days": "Sun", "time": "Closed"}], "id": "0290300268", "name": "USPS COLLECTION BOX - BLUE BOX", "address": {"city": "PROVIDENCE", "state": "RI", "street": "274 WEYBOSSET ST", "postcode": "02903"}}},
{"geometry": {"type": "Point", "coordinates": [-71.4044170523, 41.8215411525]}, "type": "Feature", "properties": {"collection_times": [{"days": "Mon-Fri", "time": "5:00pm"}, {"days": "Sat", "time": "10:00am"}, {"days": "Sun", "time": "Closed"}], "id": "0290300274", "name": "USPS COLLECTION BOX - BLUE BOX", "address": {"city": "PROVIDENCE", "state": "RI", "street": "341 S MAIN ST", "postcode": "02903"}}},
{"geometry": {"type": "Point", "coordinates": [-71.4130902653, 41.828463279]}, "type": "Feature", "properties": {"collection_times": [{"days": "Mon-Fri", "time": "4:00pm"}, {"days": "Sat", "time": "10:00am"}, {"days": "Sun", "time": "Closed"}], "id": "0290300275", "name": "USPS COLLECTION BOX - BLUE BOX", "address": {"city": "PROVIDENCE", "state": "RI", "street": "15 PARK ROW W", "postcode": "02903"}}},
{"geometry": {"type": "Point", "coordinates": [-71.4095526608, 41.8230632394]}, "type": "Feature", "properties": {"collection_times": [{"days": "Mon-Fri", "time": "4:15pm"}, {"days": "Sat", "time": "10:00am"}, {"days": "Sun", "time": "Closed"}], "id": "0290300276", "name": "USPS COLLECTION BOX - BLUE BOX", "address": {"city": "PROVIDENCE", "state": "RI", "street": "53 PINE ST", "postcode": "02903"}}},
{"geometry": {"type": "Point", "coordinates": [-71.4138468194, 41.8219329773]}, "type": "Feature", "properties": {"collection_times": [{"days": "Mon-Fri", "time": "5:00pm"}, {"days": "Sat", "time": "10:00am"}, {"days": "Sun", "time": "Closed"}], "id": "0290300277", "name": "USPS COLLECTION BOX - BLUE BOX", "address": {"city": "PROVIDENCE", "state": "RI", "street": "144 WESTMINSTER ST", "postcode": "02903"}}},
{"geometry": {"type": "Point", "coordinates": [-71.406543248, 41.8163765036]}, "type": "Feature", "properties": {"collection_times": [{"days": "Mon-Fri", "time": "12:00pm"}, {"days": "Sat", "time": "10:00am"}, {"days": "Sun", "time": "Closed"}], "id": "0290300278", "name": "USPS COLLECTION BOX - BLUE BOX", "address": {"city": "PROVIDENCE", "state": "RI", "street": "10 DAVOL SQ", "postcode": "02903"}}},
{"geometry": {"type": "Point", "coordinates": [-71.4112296421, 41.8331137106]}, "type": "Feature", "properties": {"collection_times": [{"days": "Mon-Sat", "time": "12:00pm"}, {"days": "Sun", "time": "Closed"}], "id": "0290400006", "name": "USPS COLLECTION BOX - BLUE BOX", "address": {"city": "N PROVIDENCE", "state": "RI", "street": "549 CHARLES ST", "postcode": "02904"}}},
{"geometry": {"type": "Point", "coordinates": [-71.4302914266, 41.8540632065]}, "type": "Feature", "properties": {"collection_times": [{"days": "Mon-Sat", "time": "12:00pm"}, {"days": "Sun", "time": "Closed"}], "id": "0290400008", "name": "USPS COLLECTION BOX - BLUE BOX", "address": {"city": "N PROVIDENCE", "state": "RI", "street": "754 BRANCH AVE", "postcode": "02904"}}},
{"geometry": {"type": "Point", "coordinates": [-71.4368058287, 41.8608729628]}, "type": "Feature", "properties": {"collection_times": [{"days": "Mon-Sat", "time": "12:00pm"}, {"days": "Sun", "time": "Closed"}], "id": "0290400009", "name": "USPS COLLECTION BOX - BLUE BOX", "address": {"city": "N PROVIDENCE", "state": "RI", "street": "6 BROOKFARM RD", "postcode": "02904"}}},
{"geometry": {"type": "Point", "coordinates": [-71.4368058287, 41.8608729628]}, "type": "Feature", "properties": {"collection_times": [{"days": "Mon-Sat", "time": "12:00pm"}, {"days": "Sun", "time": "Closed"}], "id": "0290400018", "name": "USPS COLLECTION BOX - BLUE BOX", "address": {"city": "N PROVIDENCE", "state": "RI", "street": "945 CHARLES ST", "postcode": "02904"}}},
{"geometry": {"type": "Point", "coordinates": [-71.4368058287, 41.8608729628]}, "type": "Feature", "properties": {"collection_times": [{"days": "Mon-Fri", "time": "3:00pm"}, {"days": "Sat", "time": "12:00pm"}, {"days": "Sun", "time": "Closed"}], "id": "0290400020", "name": "USPS COLLECTION BOX - BLUE BOX", "address": {"city": "N PROVIDENCE", "state": "RI", "street": "1090 CHARLES ST", "postcode": "02904"}}},
{"geometry": {"type": "Point", "coordinates": [-71.4368058287, 41.8608729628]}, "type": "Feature", "properties": {"collection_times": [{"days": "Mon-Sat", "time": "12:00pm"}, {"days": "Sun", "time": "Closed"}], "id": "0290400022", "name": "USPS COLLECTION BOX - BLUE BOX", "address": {"city": "N PROVIDENCE", "state": "RI", "street": "1179 CHARLES ST", "postcode": "02904"}}},
{"geometry": {"type": "Point", "coordinates": [-71.460988401, 41.8697813404]}, "type": "Feature", "properties": {"collection_times": [{"days": "Mon-Sat", "time": "12:00pm"}, {"days": "Sun", "time": "Closed"}], "id": "0290400028", "name": "USPS COLLECTION BOX - BLUE BOX", "address": {"city": "N PROVIDENCE", "state": "RI", "street": "12 DOUGLAS TER", "postcode": "02904"}}},
{"geometry": {"type": "Point", "coordinates": [-71.4600416616, 41.856556884]}, "type": "Feature", "properties": {"collection_times": [{"days": "Mon-Fri", "time": "5:00pm"}, {"days": "Sat", "time": "12:00pm"}, {"days": "Sun", "time": "Closed"}], "id": "0290400029", "name": "USPS COLLECTION BOX - BLUE BOX", "address": {"city": "N PROVIDENCE", "state": "RI", "street": "200 HIGH SERVICE AVE", "postcode": "02904"}}},
{"geometry": {"type": "Point", "coordinates": [-71.4279846566, 41.8682078468]}, "type": "Feature", "properties": {"collection_times": [{"days": "Mon-Sat", "time": "12:00pm"}, {"days": "Sun", "time": "Closed"}], "id": "0290400035", "name": "USPS COLLECTION BOX - BLUE BOX", "address": {"city": "N PROVIDENCE", "state": "RI", "street": "1128 MINERAL SPRING AVE", "postcode": "02904"}}},
{"geometry": {"type": "Point", "coordinates": [-71.4368188635, 41.8608729166]}, "type": "Feature", "properties": {"collection_times": [{"days": "Mon-Sat", "time": "12:00pm"}, {"days": "Sun", "time": "Closed"}], "id": "0290400036", "name": "USPS COLLECTION BOX - BLUE BOX", "address": {"city": "N PROVIDENCE", "state": "RI", "street": "1270 MINERAL SPRING AVE", "postcode": "02904"}}},
{"geometry": {"type": "Point", "coordinates": [-71.4400685825, 41.8668923965]}, "type": "Feature", "properties": {"collection_times": [{"days": "Mon-Sat", "time": "12:00pm"}, {"days": "Sun", "time": "Closed"}], "id": "0290400037", "name": "USPS COLLECTION BOX - BLUE BOX", "address": {"city": "N PROVIDENCE", "state": "RI", "street": "1388 MINERAL SPRING AVE", "postcode": "02904"}}},
{"geometry": {"type": "Point", "coordinates": [-71.4368058287, 41.8608729628]}, "type": "Feature", "properties": {"collection_times": [{"days": "Mon-Sat", "time": "12:00pm"}, {"days": "Sun", "time": "Closed"}], "id": "0290400038", "name": "USPS COLLECTION BOX - BLUE BOX", "address": {"city": "N PROVIDENCE", "state": "RI", "street": "1565 MINERAL SPRING AVE", "postcode": "02904"}}},
{"geometry": {"type": "Point", "coordinates": [-71.4368058287, 41.8608729628]}, "type": "Feature", "properties": {"collection_times": [{"days": "Mon-Fri", "time": "5:00pm"}, {"days": "Sat", "time": "12:00pm"}, {"days": "Sun", "time": "Closed"}], "id": "0290400045", "name": "USPS COLLECTION BOX - BLUE BOX", "address": {"city": "N PROVIDENCE", "state": "RI", "street": "1919 MINERAL SPRING AVE", "postcode": "02904"}}},
{"geometry": {"type": "Point", "coordinates": [-71.4106583766, 41.8319534647]}, "type": "Feature", "properties": {"collection_times": [{"days": "Mon-Sat", "time": "12:00pm"}, {"days": "Sun", "time": "Closed"}], "id": "0290400051", "name": "USPS COLLECTION BOX - BLUE BOX", "address": {"city": "N PROVIDENCE", "state": "RI", "street": "670 N MAIN ST", "postcode": "02904"}}},
{"geometry": {"type": "Point", "coordinates": [-71.4106583766, 41.8319534647]}, "type": "Feature", "properties": {"collection_times": [{"days": "Mon-Fri", "time": "5:00pm"}, {"days": "Sat", "time": "12:00pm"}, {"days": "Sun", "time": "Closed"}], "id": "0290400054", "name": "USPS COLLECTION BOX - BLUE BOX", "address": {"city": "N PROVIDENCE", "state": "RI", "street": "951 N MAIN ST", "postcode": "02904"}}},
{"geometry": {"type": "Point", "coordinates": [-71.4013396889, 41.8530494107]}, "type": "Feature", "properties": {"collection_times": [{"days": "Mon-Sat", "time": "12:00pm"}, {"days": "Sun", "time": "Closed"}], "id": "0290400056", "name": "USPS COLLECTION BOX - BLUE BOX", "address": {"city": "N PROVIDENCE", "state": "RI", "street": "1200 N MAIN ST", "postcode": "02904"}}},
{"geometry": {"type": "Point", "coordinates": [-71.4133748143, 41.8347491957]}, "type": "Feature", "properties": {"collection_times": [{"days": "Mon-Sat", "time": "9:30am"}, {"days": "Sun", "time": "Closed"}], "id": "0290400059", "name": "USPS COLLECTION BOX - BLUE BOX", "address": {"city": "N PROVIDENCE", "state": "RI", "street": "50 ORMS ST", "postcode": "02904"}}},
{"geometry": {"type": "Point", "coordinates": [-71.4551371138, 41.8577469407]}, "type": "Feature", "properties": {"collection_times": [{"days": "Mon-Sat", "time": "12:00pm"}, {"days": "Sun", "time": "Closed"}], "id": "0290400063", "name": "USPS COLLECTION BOX - BLUE BOX", "address": {"city": "N PROVIDENCE", "state": "RI", "street": "224 SMITHFIELD RD", "postcode": "02904"}}},
{"geometry": {"type": "Point", "coordinates": [-71.4345170664, 41.8553300583]}, "type": "Feature", "properties": {"collection_times": [{"days": "Mon-Sat", "time": "12:00pm"}, {"days": "Sun", "time": "Closed"}], "id": "0290400065", "name": "USPS COLLECTION BOX - BLUE BOX", "address": {"city": "N PROVIDENCE", "state": "RI", "street": "400 VEAZIE ST", "postcode": "02904"}}},
{"geometry": {"type": "Point", "coordinates": [-71.4368058287, 41.8608729628]}, "type": "Feature", "properties": {"collection_times": [{"days": "Mon-Sat", "time": "12:00pm"}, {"days": "Sun", "time": "Closed"}], "id": "0290400067", "name": "USPS COLLECTION BOX - BLUE BOX", "address": {"city": "N PROVIDENCE", "state": "RI", "street": "1637 MINERAL SPRING AVE", "postcode": "02904"}}},
{"geometry": {"type": "Point", "coordinates": [-71.4457642023, 41.8544200603]}, "type": "Feature", "properties": {"collection_times": [{"days": "Mon-Sat", "time": "12:00pm"}, {"days": "Sun", "time": "Closed"}], "id": "0290400069", "name": "USPS COLLECTION BOX - BLUE BOX", "address": {"city": "N PROVIDENCE", "state": "RI", "street": "141 LUBEC ST", "postcode": "02904"}}},
{"geometry": {"type": "Point", "coordinates": [-71.4120442846, 41.8348472211]}, "type": "Feature", "properties": {"collection_times": [{"days": "Mon-Fri", "time": "5:00pm"}, {"days": "Sat", "time": "12:00pm"}, {"days": "Sun", "time": "Closed"}], "id": "0290400073", "name": "USPS COLLECTION BOX - BLUE BOX", "address": {"city": "N PROVIDENCE", "state": "RI", "street": "10 ORMS ST", "postcode": "02904"}}},
{"geometry": {"type": "Point", "coordinates": [-71.4368058287, 41.8608729628]}, "type": "Feature", "properties": {"collection_times": [{"days": "Mon-Fri", "time": "5:00pm"}, {"days": "Sat", "time": "12:00pm"}, {"days": "Sun", "time": "Closed"}], "id": "0290400075", "name": "USPS COLLECTION BOX - BLUE BOX", "address": {"city": "N PROVIDENCE", "state": "RI", "street": "1669 MINERAL SPRING AVE", "postcode": "02904"}}},
{"geometry": {"type": "Point", "coordinates": [-71.4064746303, 41.7916993898]}, "type": "Feature", "properties": {"collection_times": [{"days": "Mon-Fri", "time": "5:00pm"}, {"days": "Sat", "time": "2:00pm"}, {"days": "Sun", "time": "Closed"}], "id": "0290500001", "name": "USPS COLLECTION BOX - BLUE BOX", "address": {"city": "CRANSTON", "state": "RI", "street": "1284 BROAD ST", "postcode": "02905"}}},
{"geometry": {"type": "Point", "coordinates": [-71.4038359271, 41.7885242759]}, "type": "Feature", "properties": {"collection_times": [{"days": "Mon-Sat", "time": "12:00pm"}, {"days": "Sun", "time": "Closed"}], "id": "0290500004", "name": "USPS COLLECTION BOX - BLUE BOX", "address": {"city": "CRANSTON", "state": "RI", "street": "695 ALLENS AVE", "postcode": "02905"}}},
{"geometry": {"type": "Point", "coordinates": [-71.4014325926, 41.8029395602]}, "type": "Feature", "properties": {"collection_times": [{"days": "Mon-Fri", "time": "4:15pm"}, {"days": "Sat", "time": "12:00pm"}, {"days": "Sun", "time": "Closed"}], "id": "0290500006", "name": "USPS COLLECTION BOX - BLUE BOX", "address": {"city": "CRANSTON", "state": "RI", "street": "375 ALLENS AVE", "postcode": "02905"}}},
{"geometry": {"type": "Point", "coordinates": [-71.4038359271, 41.7885242759]}, "type": "Feature", "properties": {"collection_times": [{"days": "Mon-Fri", "time": "12:00pm"}, {"days": "Sat", "time": "11:00am"}, {"days": "Sun", "time": "Closed"}], "id": "0290500009", "name": "USPS COLLECTION BOX - BLUE BOX", "address": {"city": "CRANSTON", "state": "RI", "street": "76 BAKER ST", "postcode": "02905"}}},
{"geometry": {"type": "Point", "coordinates": [-71.4038359271, 41.7885242759]}, "type": "Feature", "properties": {"collection_times": [{"days": "Mon-Sat", "time": "12:00pm"}, {"days": "Sun", "time": "Closed"}], "id": "0290500020", "name": "USPS COLLECTION BOX - BLUE BOX", "address": {"city": "CRANSTON", "state": "RI", "street": "1469 BROAD ST", "postcode": "02905"}}},
{"geometry": {"type": "Point", "coordinates": [-71.4004018942, 41.7782396373]}, "type": "Feature", "properties": {"collection_times": [{"days": "Mon-Sat", "time": "12:00pm"}, {"days": "Sun", "time": "Closed"}], "id": "0290500021", "name": "USPS COLLECTION BOX - BLUE BOX", "address": {"city": "CRANSTON", "state": "RI", "street": "1750 BROAD ST", "postcode": "02905"}}},
{"geometry": {"type": "Point", "coordinates": [-71.3905179299, 41.7643138024]}, "type": "Feature", "properties": {"collection_times": [{"days": "Mon-Fri", "time": "5:00pm"}, {"days": "Sat", "time": "4:00pm"}, {"days": "Sun", "time": "Closed"}], "id": "0290500025", "name": "USPS COLLECTION BOX - BLUE BOX", "address": {"city": "CRANSTON", "state": "RI", "street": "2206 BROAD ST", "postcode": "02905"}}},
{"geometry": {"type": "Point", "coordinates": [-71.4110728323, 41.8102051261]}, "type": "Feature", "properties": {"collection_times": [{"days": "Mon-Fri", "time": "4:30pm"}, {"days": "Sat", "time": "12:00pm"}, {"days": "Sun", "time": "Closed"}], "id": "0290500029", "name": "USPS COLLECTION BOX - BLUE BOX", "address": {"city": "CRANSTON", "state": "RI", "street": "100 DUDLEY ST", "postcode": "02905"}}},
{"geometry": {"type": "Point", "coordinates": [-71.4067837575, 41.8038902629]}, "type": "Feature", "properties": {"collection_times": [{"days": "Mon-Sat", "time": "11:00am"}, {"days": "Sun", "time": "Closed"}], "id": "0290500033", "name": "USPS COLLECTION BOX - BLUE BOX", "address": {"city": "CRANSTON", "state": "RI", "street": "880 EDDY ST", "postcode": "02905"}}},
{"geometry": {"type": "Point", "coordinates": [-71.4038359271, 41.7885242759]}, "type": "Feature", "properties": {"collection_times": [{"days": "Mon-Sat", "time": "12:00pm"}, {"days": "Sun", "time": "Closed"}], "id": "0290500037", "name": "USPS COLLECTION BOX - BLUE BOX", "address": {"city": "CRANSTON", "state": "RI", "street": "369 MONTGOMERY AVE", "postcode": "02905"}}},
{"geometry": {"type": "Point", "coordinates": [-71.4543180976, 41.4887099442]}, "type": "Feature", "properties": {"collection_times": [{"days": "Mon-Sat", "time": "12:00pm"}, {"days": "Sun", "time": "Closed"}], "id": "0290500038", "name": "USPS COLLECTION BOX - BLUE BOX", "address": {"city": "CRANSTON", "state": "RI", "street": "981 NARRAGANSETT BLVD", "postcode": "02905"}}},
{"geometry": {"type": "Point", "coordinates": [-71.3946232104, 41.785103106]}, "type": "Feature", "properties": {"collection_times": [{"days": "Mon-Sat", "time": "12:00pm"}, {"days": "Sun", "time": "Closed"}], "id": "0290500039", "name": "USPS COLLECTION BOX - BLUE BOX", "address": {"city": "CRANSTON", "state": "RI", "street": "1040 NARRAGANSETT BLVD", "postcode": "02905"}}},
{"geometry": {"type": "Point", "coordinates": [-71.3931797656, 41.7802184229]}, "type": "Feature", "properties": {"collection_times": [{"days": "Mon-Sat", "time": "12:00pm"}, {"days": "Sun", "time": "Closed"}], "id": "0290500040", "name": "USPS COLLECTION BOX - BLUE BOX", "address": {"city": "CRANSTON", "state": "RI", "street": "1185 NARRAGANSETT BLVD", "postcode": "02905"}}},
{"geometry": {"type": "Point", "coordinates": [-71.4044287084, 41.773237363]}, "type": "Feature", "properties": {"collection_times": [{"days": "Mon-Sat", "time": "12:00pm"}, {"days": "Sun", "time": "Closed"}], "id": "0290500047", "name": "USPS COLLECTION BOX - BLUE BOX", "address": {"city": "CRANSTON", "state": "RI", "street": "155 PARK AVE", "postcode": "02905"}}},
{"geometry": {"type": "Point", "coordinates": [-71.4151696622, 41.8130346407]}, "type": "Feature", "properties": {"collection_times": [{"days": "Mon-Sat", "time": "11:00am"}, {"days": "Sun", "time": "Closed"}], "id": "0290500052", "name": "USPS COLLECTION BOX - BLUE BOX", "address": {"city": "CRANSTON", "state": "RI", "street": "50 PRAIRIE AVE", "postcode": "02905"}}},
{"geometry": {"type": "Point", "coordinates": [-71.4155316476, 41.8106770035]}, "type": "Feature", "properties": {"collection_times": [{"days": "Mon-Sat", "time": "11:00am"}, {"days": "Sun", "time": "Closed"}], "id": "0290500053", "name": "USPS COLLECTION BOX - BLUE BOX", "address": {"city": "CRANSTON", "state": "RI", "street": "143 PRAIRIE AVE", "postcode": "02905"}}},
{"geometry": {"type": "Point", "coordinates": [-71.40518928, 41.7675642617]}, "type": "Feature", "properties": {"collection_times": [{"days": "Mon-Sat", "time": "12:00pm"}, {"days": "Sun", "time": "Closed"}], "id": "0290500057", "name": "USPS COLLECTION BOX - BLUE BOX", "address": {"city": "CRANSTON", "state": "RI", "street": "39 WARWICK AVE", "postcode": "02905"}}},
{"geometry": {"type": "Point", "coordinates": [-71.4012823, 41.80270905]}, "type": "Feature", "properties": {"collection_times": [{"days": "Mon-Fri", "time": "4:15pm"}, {"days": "Sat", "time": "12:00pm"}, {"days": "Sun", "time": "Closed"}], "id": "0290500058", "name": "USPS COLLECTION BOX - BLUE BOX", "address": {"city": "CRANSTON", "state": "RI", "street": "375 ALLENS AVE", "postcode": "02905"}}},
{"geometry": {"type": "Point", "coordinates": [-71.4115107187, 41.8084427999]}, "type": "Feature", "properties": {"collection_times": [{"days": "Mon-Fri", "time": "4:30pm"}, {"days": "Sat", "time": "12:00pm"}, {"days": "Sun", "time": "Closed"}], "id": "0290500062", "name": "USPS COLLECTION BOX - BLUE BOX", "address": {"city": "CRANSTON", "state": "RI", "street": "30 STANIFORD ST", "postcode": "02905"}}},
{"geometry": {"type": "Point", "coordinates": [-71.4106690768, 41.8103723236]}, "type": "Feature", "properties": {"collection_times": [{"days": "Mon-Fri", "time": "5:00pm"}, {"days": "Sat", "time": "12:00pm"}, {"days": "Sun", "time": "Closed"}], "id": "0290500064", "name": "USPS COLLECTION BOX - BLUE BOX", "address": {"city": "CRANSTON", "state": "RI", "street": "101 DUDLEY ST", "postcode": "02905"}}},
{"geometry": {"type": "Point", "coordinates": [-71.4118056394, 41.810118717]}, "type": "Feature", "properties": {"collection_times": [{"days": "Mon-Fri", "time": "5:00pm"}, {"days": "Sat", "time": "12:00pm"}, {"days": "Sun", "time": "Closed"}], "id": "0290500066", "name": "USPS COLLECTION BOX - BLUE BOX", "address": {"city": "CRANSTON", "state": "RI", "street": "120 DUDLEY ST", "postcode": "02905"}}},
{"geometry": {"type": "Point", "coordinates": [-71.4048514823, 41.7996281265]}, "type": "Feature", "properties": {"collection_times": [{"days": "Mon-Fri", "time": "4:30pm"}, {"days": "Sat", "time": "12:00pm"}, {"days": "Sun", "time": "Closed"}], "id": "0290500067", "name": "USPS COLLECTION BOX - BLUE BOX", "address": {"city": "CRANSTON", "state": "RI", "street": "21 BLUNDELL ST", "postcode": "02905"}}},
{"geometry": {"type": "Point", "coordinates": [-71.410065428, 41.7720506844]}, "type": "Feature", "properties": {"collection_times": [{"days": "Mon-Sat", "time": "12:00pm"}, {"days": "Sun", "time": "Closed"}], "id": "0290500069", "name": "USPS COLLECTION BOX - BLUE BOX", "address": {"city": "CRANSTON", "state": "RI", "street": "285 PARK AVE", "postcode": "02905"}}},
{"geometry": {"type": "Point", "coordinates": [-71.3881079046, 41.8297861665]}, "type": "Feature", "properties": {"collection_times": [{"days": "Mon-Fri", "time": "3:30pm"}, {"days": "Sat", "time": "12:00pm"}, {"days": "Sun", "time": "Closed"}], "id": "0290600008", "name": "USPS COLLECTION BOX - BLUE BOX", "address": {"city": "PROVIDENCE", "state": "RI", "street": "210 WAYLAND AVE", "postcode": "02906"}}},
{"geometry": {"type": "Point", "coordinates": [-71.3855483697, 41.8387722789]}, "type": "Feature", "properties": {"collection_times": [{"days": "Mon-Sat", "time": "12:00pm"}, {"days": "Sun", "time": "Closed"}], "id": "0290600012", "name": "USPS COLLECTION BOX - BLUE BOX", "address": {"city": "PROVIDENCE", "state": "RI", "street": "170 BLACKSTONE BLVD", "postcode": "02906"}}},
{"geometry": {"type": "Point", "coordinates": [-71.3837597357, 41.8343349998]}, "type": "Feature", "properties": {"collection_times": [{"days": "Mon-Sat", "time": "12:00pm"}, {"days": "Sun", "time": "Closed"}], "id": "0290600016", "name": "USPS COLLECTION BOX - BLUE BOX", "address": {"city": "PROVIDENCE", "state": "RI", "street": "41 BLACKSTONE BLVD", "postcode": "02906"}}},
{"geometry": {"type": "Point", "coordinates": [-71.3943290543, 41.8353243306]}, "type": "Feature", "properties": {"collection_times": [{"days": "Mon-Sat", "time": "12:00pm"}, {"days": "Sun", "time": "Closed"}], "id": "0290600019", "name": "USPS COLLECTION BOX - BLUE BOX", "address": {"city": "PROVIDENCE", "state": "RI", "street": "265 BLACKSTONE BLVD", "postcode": "02906"}}},
{"geometry": {"type": "Point", "coordinates": [-71.3867119948, 41.8463312467]}, "type": "Feature", "properties": {"collection_times": [{"days": "Mon-Fri", "time": "4:00pm"}, {"days": "Sat", "time": "12:00pm"}, {"days": "Sun", "time": "Closed"}], "id": "0290600022", "name": "USPS COLLECTION BOX - BLUE BOX", "address": {"city": "PROVIDENCE", "state": "RI", "street": "345 BLACKSTONE BLVD", "postcode": "02906"}}},
{"geometry": {"type": "Point", "coordinates": [-71.3943290543, 41.8353243306]}, "type": "Feature", "properties": {"collection_times": [{"days": "Mon-Sat", "time": "12:00pm"}, {"days": "Sun", "time": "Closed"}], "id": "0290600044", "name": "USPS COLLECTION BOX - BLUE BOX", "address": {"city": "PROVIDENCE", "state": "RI", "street": "195 COLE AVE", "postcode": "02906"}}},
{"geometry": {"type": "Point", "coordinates": [-71.3929596076, 41.8270266793]}, "type": "Feature", "properties": {"collection_times": [{"days": "Mon-Sat", "time": "12:00pm"}, {"days": "Sun", "time": "Closed"}], "id": "0290600047", "name": "USPS COLLECTION BOX - BLUE BOX", "address": {"city": "PROVIDENCE", "state": "RI", "street": "22 E MANNING ST", "postcode": "02906"}}},
{"geometry": {"type": "Point", "coordinates": [-71.3925276891, 41.8433200115]}, "type": "Feature", "properties": {"collection_times": [{"days": "Mon-Sat", "time": "12:00pm"}, {"days": "Sun", "time": "Closed"}], "id": "0290600053", "name": "USPS COLLECTION BOX - BLUE BOX", "address": {"city": "PROVIDENCE", "state": "RI", "street": "451 ELMGROVE AVE", "postcode": "02906"}}},
{"geometry": {"type": "Point", "coordinates": [-71.3943290543, 41.8353243306]}, "type": "Feature", "properties": {"collection_times": [{"days": "Mon-Sat", "time": "12:00pm"}, {"days": "Sun", "time": "Closed"}], "id": "0290600055", "name": "USPS COLLECTION BOX - BLUE BOX", "address": {"city": "PROVIDENCE", "state": "RI", "street": "160 SUMMIT AVE", "postcode": "02906"}}},
{"geometry": {"type": "Point", "coordinates": [-71.3899588449, 41.8225197081]}, "type": "Feature", "properties": {"collection_times": [{"days": "Mon-Sat", "time": "12:00pm"}, {"days": "Sun", "time": "Closed"}], "id": "0290600056", "name": "USPS COLLECTION BOX - BLUE BOX", "address": {"city": "PROVIDENCE", "state": "RI", "street": "118 GANO ST", "postcode": "02906"}}},
{"geometry": {"type": "Point", "coordinates": [-71.3935591971, 41.8203042746]}, "type": "Feature", "properties": {"collection_times": [{"days": "Mon-Sat", "time": "12:00pm"}, {"days": "Sun", "time": "Closed"}], "id": "0290600057", "name": "USPS COLLECTION BOX - BLUE BOX", "address": {"city": "PROVIDENCE", "state": "RI", "street": "3 GOVERNOR ST", "postcode": "02906"}}},
{"geometry": {"type": "Point", "coordinates": [-71.4009091612, 41.849993006]}, "type": "Feature", "properties": {"collection_times": [{"days": "Mon-Sat", "time": "12:00pm"}, {"days": "Sun", "time": "Closed"}], "id": "0290600060", "name": "USPS COLLECTION BOX - BLUE BOX", "address": {"city": "PROVIDENCE", "state": "RI", "street": "100 HIGHLAND AVE", "postcode": "02906"}}},
{"geometry": {"type": "Point", "coordinates": [-71.3943290543, 41.8353243306]}, "type": "Feature", "properties": {"collection_times": [{"days": "Mon-Sat", "time": "12:00pm"}, {"days": "Sun", "time": "Closed"}], "id": "0290600071", "name": "USPS COLLECTION BOX - BLUE BOX", "address": {"city": "PROVIDENCE", "state": "RI", "street": "98 HOPE ST", "postcode": "02906"}}},
{"geometry": {"type": "Point", "coordinates": [-71.4014642452, 41.8358585674]}, "type": "Feature", "properties": {"collection_times": [{"days": "Mon-Sat", "time": "12:00pm"}, {"days": "Sun", "time": "Closed"}], "id": "0290600077", "name": "USPS COLLECTION BOX - BLUE BOX", "address": {"city": "PROVIDENCE", "state": "RI", "street": "355 HOPE ST", "postcode": "02906"}}},
{"geometry": {"type": "Point", "coordinates": [-71.3943290543, 41.8353243306]}, "type": "Feature", "properties": {"collection_times": [{"days": "Mon-Sat", "time": "12:00pm"}, {"days": "Sun", "time": "Closed"}], "id": "0290600079", "name": "USPS COLLECTION BOX - BLUE BOX", "address": {"city": "PROVIDENCE", "state": "RI", "street": "736 HOPE ST", "postcode": "02906"}}},
{"geometry": {"type": "Point", "coordinates": [-71.3943290543, 41.8353243306]}, "type": "Feature", "properties": {"collection_times": [{"days": "Mon-Sat", "time": "12:00pm"}, {"days": "Sun", "time": "Closed"}], "id": "0290600082", "name": "USPS COLLECTION BOX - BLUE BOX", "address": {"city": "PROVIDENCE", "state": "RI", "street": "632 HOPE ST", "postcode": "02906"}}},
{"geometry": {"type": "Point", "coordinates": [-71.3916340874, 41.8524491802]}, "type": "Feature", "properties": {"collection_times": [{"days": "Mon-Sat", "time": "12:00pm"}, {"days": "Sun", "time": "Closed"}], "id": "0290600092", "name": "USPS COLLECTION BOX - BLUE BOX", "address": {"city": "PROVIDENCE", "state": "RI", "street": "247 8TH ST", "postcode": "02906"}}},
{"geometry": {"type": "Point", "coordinates": [-71.394164823, 41.823616199]}, "type": "Feature", "properties": {"collection_times": [{"days": "Mon-Sat", "time": "12:00pm"}, {"days": "Sun", "time": "Closed"}], "id": "0290600103", "name": "USPS COLLECTION BOX - BLUE BOX", "address": {"city": "PROVIDENCE", "state": "RI", "street": "100 GOVERNOR ST", "postcode": "02906"}}},
{"geometry": {"type": "Point", "coordinates": [-71.3941291844, 41.8353720793]}, "type": "Feature", "properties": {"collection_times": [{"days": "Mon-Fri", "time": "3:30pm"}, {"days": "Sat", "time": "12:00pm"}, {"days": "Sun", "time": "Closed"}], "id": "0290600110", "name": "USPS COLLECTION BOX - BLUE BOX", "address": {"city": "PROVIDENCE", "state": "RI", "street": "1 RICHMOND SQ", "postcode": "02906"}}},
{"geometry": {"type": "Point", "coordinates": [-71.382323236, 41.8268506396]}, "type": "Feature", "properties": {"collection_times": [{"days": "Mon-Fri", "time": "3:30pm"}, {"days": "Sat", "time": "12:00pm"}, {"days": "Sun", "time": "Closed"}], "id": "0290600111", "name": "USPS COLLECTION BOX - BLUE BOX", "address": {"city": "PROVIDENCE", "state": "RI", "street": "1 RICHMOND SQ", "postcode": "02906"}}},
{"geometry": {"type": "Point", "coordinates": [-71.3960633668, 41.8411001551]}, "type": "Feature", "properties": {"collection_times": [{"days": "Mon-Sat", "time": "12:00pm"}, {"days": "Sun", "time": "Closed"}], "id": "0290600113", "name": "USPS COLLECTION BOX - BLUE BOX", "address": {"city": "PROVIDENCE", "state": "RI", "street": "30 SESSIONS ST", "postcode": "02906"}}},
{"geometry": {"type": "Point", "coordinates": [-71.3943290543, 41.8353243306]}, "type": "Feature", "properties": {"collection_times": [{"days": "Mon-Fri", "time": "4:00pm"}, {"days": "Sat", "time": "12:00pm"}, {"days": "Sun", "time": "Closed"}], "id": "0290600119", "name": "USPS COLLECTION BOX - BLUE BOX", "address": {"city": "PROVIDENCE", "state": "RI", "street": "164 SUMMIT AVE", "postcode": "02906"}}},
{"geometry": {"type": "Point", "coordinates": [-71.3953928545, 41.8276754854]}, "type": "Feature", "properties": {"collection_times": [{"days": "Mon-Sat", "time": "12:00pm"}, {"days": "Sun", "time": "Closed"}], "id": "0290600128", "name": "USPS COLLECTION BOX - BLUE BOX", "address": {"city": "PROVIDENCE", "state": "RI", "street": "154 WATERMAN ST", "postcode": "02906"}}},
{"geometry": {"type": "Point", "coordinates": [-71.3909710536, 41.8281445756]}, "type": "Feature", "properties": {"collection_times": [{"days": "Mon-Sat", "time": "12:00pm"}, {"days": "Sun", "time": "Closed"}], "id": "0290600129", "name": "USPS COLLECTION BOX - BLUE BOX", "address": {"city": "PROVIDENCE", "state": "RI", "street": "201 WATERMAN ST", "postcode": "02906"}}},
{"geometry": {"type": "Point", "coordinates": [-71.3943290543, 41.8353243306]}, "type": "Feature", "properties": {"collection_times": [{"days": "Mon-Sat", "time": "12:00pm"}, {"days": "Sun", "time": "Closed"}], "id": "0290600133", "name": "USPS COLLECTION BOX - BLUE BOX", "address": {"city": "PROVIDENCE", "state": "RI", "street": "165 WATERMAN ST", "postcode": "02906"}}},
{"geometry": {"type": "Point", "coordinates": [-71.3870933141, 41.8283977288]}, "type": "Feature", "properties": {"collection_times": [{"days": "Mon-Fri", "time": "3:30pm"}, {"days": "Sat", "time": "12:00pm"}, {"days": "Sun", "time": "Closed"}], "id": "0290600140", "name": "USPS COLLECTION BOX - BLUE BOX", "address": {"city": "PROVIDENCE", "state": "RI", "street": "245 WATERMAN ST", "postcode": "02906"}}},
{"geometry": {"type": "Point", "coordinates": [-71.388424714, 41.8287092681]}, "type": "Feature", "properties": {"collection_times": [{"days": "Mon-Fri", "time": "3:30pm"}, {"days": "Sat", "time": "12:00pm"}, {"days": "Sun", "time": "Closed"}], "id": "0290600149", "name": "USPS COLLECTION BOX - BLUE BOX", "address": {"city": "PROVIDENCE", "state": "RI", "street": "172 WAYLAND AVE", "postcode": "02906"}}},
{"geometry": {"type": "Point", "coordinates": [-71.3943290543, 41.8353243306]}, "type": "Feature", "properties": {"collection_times": [{"days": "Mon-Sat", "time": "12:00pm"}, {"days": "Sun", "time": "Closed"}], "id": "0290600151", "name": "USPS COLLECTION BOX - BLUE BOX", "address": {"city": "PROVIDENCE", "state": "RI", "street": "266 WAYLAND AVE", "postcode": "02906"}}},
{"geometry": {"type": "Point", "coordinates": [-71.3943290543, 41.8353243306]}, "type": "Feature", "properties": {"collection_times": [{"days": "Mon-Fri", "time": "5:00pm"}, {"days": "Sat", "time": "4:00pm"}, {"days": "Sun", "time": "Closed"}], "id": "0290600152", "name": "USPS COLLECTION BOX - BLUE BOX", "address": {"city": "PROVIDENCE", "state": "RI", "street": "165 PITMAN ST", "postcode": "02906"}}},
{"geometry": {"type": "Point", "coordinates": [-71.3949687888, 41.849301236]}, "type": "Feature", "properties": {"collection_times": [{"days": "Mon-Sat", "time": "12:00pm"}, {"days": "Sun", "time": "Closed"}], "id": "0290600163", "name": "USPS COLLECTION BOX - BLUE BOX", "address": {"city": "PROVIDENCE", "state": "RI", "street": "814 HOPE ST", "postcode": "02906"}}},
{"geometry": {"type": "Point", "coordinates": [-71.3943290543, 41.8353243306]}, "type": "Feature", "properties": {"collection_times": [{"days": "Mon-Fri", "time": "5:00pm"}, {"days": "Sat", "time": "2:00pm"}, {"days": "Sun", "time": "Closed"}], "id": "0290600164", "name": "USPS COLLECTION BOX - PO LOBBY", "address": {"city": "PROVIDENCE", "state": "RI", "street": "306 THAYER ST", "postcode": "02906"}}},
{"geometry": {"type": "Point", "coordinates": [-71.3943290543, 41.8353243306]}, "type": "Feature", "properties": {"collection_times": [{"days": "Mon-Fri", "time": "5:00pm"}, {"days": "Sat", "time": "2:00pm"}, {"days": "Sun", "time": "Closed"}], "id": "0290600166", "name": "USPS COLLECTION BOX - EXPRESS", "address": {"city": "PROVIDENCE", "state": "RI", "street": "306 THAYER ST", "postcode": "02906"}}},
{"geometry": {"type": "Point", "coordinates": [-71.3943290543, 41.8353243306]}, "type": "Feature", "properties": {"collection_times": [{"days": "Mon-Fri", "time": "5:00pm"}, {"days": "Sat", "time": "2:00pm"}, {"days": "Sun", "time": "Closed"}], "id": "0290600167", "name": "USPS COLLECTION BOX - BLUE BOX", "address": {"city": "PROVIDENCE", "state": "RI", "street": "306 THAYER ST", "postcode": "02906"}}},
{"geometry": {"type": "Point", "coordinates": [-71.4005802293, 41.8274785697]}, "type": "Feature", "properties": {"collection_times": [{"days": "Mon-Sat", "time": "12:00pm"}, {"days": "Sun", "time": "Closed"}], "id": "0290600169", "name": "USPS COLLECTION BOX - BLUE BOX", "address": {"city": "PROVIDENCE", "state": "RI", "street": "215 THAYER ST", "postcode": "02906"}}},
{"geometry": {"type": "Point", "coordinates": [-71.3908906124, 41.8344272706]}, "type": "Feature", "properties": {"collection_times": [{"days": "Mon-Sat", "time": "12:00pm"}, {"days": "Sun", "time": "Closed"}], "id": "0290600170", "name": "USPS COLLECTION BOX - BLUE BOX", "address": {"city": "PROVIDENCE", "state": "RI", "street": "131 ELMGROVE AVE", "postcode": "02906"}}},
{"geometry": {"type": "Point", "coordinates": [-71.4242574524, 41.8010900316]}, "type": "Feature", "properties": {"collection_times": [{"days": "Mon-Sat", "time": "11:00am"}, {"days": "Sun", "time": "Closed"}], "id": "0290700002", "name": "USPS COLLECTION BOX - BLUE BOX", "address": {"city": "CRANSTON", "state": "RI", "street": "569 ELMWOOD AVE", "postcode": "02907"}}},
{"geometry": {"type": "Point", "coordinates": [-71.4242574524, 41.8010900316]}, "type": "Feature", "properties": {"collection_times": [{"days": "Mon-Sat", "time": "12:00pm"}, {"days": "Sun", "time": "Closed"}], "id": "0290700005", "name": "USPS COLLECTION BOX - BLUE BOX", "address": {"city": "CRANSTON", "state": "RI", "street": "369 BROAD ST", "postcode": "02907"}}},
{"geometry": {"type": "Point", "coordinates": [-71.4209420219, 41.8098457924]}, "type": "Feature", "properties": {"collection_times": [{"days": "Mon-Sat", "time": "11:00am"}, {"days": "Sun", "time": "Closed"}], "id": "0290700006", "name": "USPS COLLECTION BOX - BLUE BOX", "address": {"city": "CRANSTON", "state": "RI", "street": "522 BROAD ST", "postcode": "02907"}}},
{"geometry": {"type": "Point", "coordinates": [-71.4183852945, 41.8016795345]}, "type": "Feature", "properties": {"collection_times": [{"days": "Mon-Sat", "time": "11:00am"}, {"days": "Sun", "time": "Closed"}], "id": "0290700007", "name": "USPS COLLECTION BOX - BLUE BOX", "address": {"city": "CRANSTON", "state": "RI", "street": "808 BROAD ST", "postcode": "02907"}}},
{"geometry": {"type": "Point", "coordinates": [-71.4242574524, 41.8010900316]}, "type": "Feature", "properties": {"collection_times": [{"days": "Mon-Sat", "time": "11:00am"}, {"days": "Sun", "time": "Closed"}], "id": "0290700008", "name": "USPS COLLECTION BOX - BLUE BOX", "address": {"city": "CRANSTON", "state": "RI", "street": "863 BROAD ST", "postcode": "02907"}}},
{"geometry": {"type": "Point", "coordinates": [-71.4242574524, 41.8010900316]}, "type": "Feature", "properties": {"collection_times": [{"days": "Mon-Sat", "time": "12:00pm"}, {"days": "Sun", "time": "Closed"}], "id": "0290700011", "name": "USPS COLLECTION BOX - BLUE BOX", "address": {"city": "CRANSTON", "state": "RI", "street": "160 CRANSTON ST", "postcode": "02907"}}},
{"geometry": {"type": "Point", "coordinates": [-71.4251337477, 41.8139285034]}, "type": "Feature", "properties": {"collection_times": [{"days": "Mon-Sat", "time": "12:00pm"}, {"days": "Sun", "time": "Closed"}], "id": "0290700016", "name": "USPS COLLECTION BOX - BLUE BOX", "address": {"city": "CRANSTON", "state": "RI", "street": "135 DODGE ST", "postcode": "02907"}}},
{"geometry": {"type": "Point", "coordinates": [-71.4392219932, 41.8005963374]}, "type": "Feature", "properties": {"collection_times": [{"days": "Mon-Fri", "time": "5:00pm"}, {"days": "Sat", "time": "11:00am"}, {"days": "Sun", "time": "Closed"}], "id": "0290700018", "name": "USPS COLLECTION BOX - BLUE BOX", "address": {"city": "CRANSTON", "state": "RI", "street": "1 DUPONT DR", "postcode": "02907"}}},
{"geometry": {"type": "Point", "coordinates": [-71.4346115928, 41.7996660214]}, "type": "Feature", "properties": {"collection_times": [{"days": "Mon-Sat", "time": "11:00am"}, {"days": "Sun", "time": "Closed"}], "id": "0290700020", "name": "USPS COLLECTION BOX - BLUE BOX", "address": {"city": "CRANSTON", "state": "RI", "street": "125 DUPONT DR", "postcode": "02907"}}},
{"geometry": {"type": "Point", "coordinates": [-71.4242183475, 41.8010117758]}, "type": "Feature", "properties": {"collection_times": [{"days": "Mon-Sat", "time": "5:00pm"}, {"days": "Sun", "time": "Closed"}], "id": "0290700027", "name": "USPS COLLECTION BOX - EXPRESS", "address": {"city": "CRANSTON", "state": "RI", "street": "820 ELMWOOD AVE", "postcode": "02907"}}},
{"geometry": {"type": "Point", "coordinates": [-71.4206325667, 41.7790151068]}, "type": "Feature", "properties": {"collection_times": [{"days": "Mon-Sat", "time": "11:00am"}, {"days": "Sun", "time": "Closed"}], "id": "0290700028", "name": "USPS COLLECTION BOX - BLUE BOX", "address": {"city": "CRANSTON", "state": "RI", "street": "1201 ELMWOOD AVE", "postcode": "02907"}}},
{"geometry": {"type": "Point", "coordinates": [-71.439949065, 41.7989316503]}, "type": "Feature", "properties": {"collection_times": [{"days": "Mon-Fri", "time": "5:00pm"}, {"days": "Sat", "time": "11:00am"}, {"days": "Sun", "time": "Closed"}], "id": "0290700030", "name": "USPS COLLECTION BOX - BLUE BOX", "address": {"city": "CRANSTON", "state": "RI", "street": "1 HARRY ST", "postcode": "02907"}}},
{"geometry": {"type": "Point", "coordinates": [-71.4245060403, 41.8091515382]}, "type": "Feature", "properties": {"collection_times": [{"days": "Mon-Sat", "time": "11:00am"}, {"days": "Sun", "time": "Closed"}], "id": "0290700032", "name": "USPS COLLECTION BOX - BLUE BOX", "address": {"city": "CRANSTON", "state": "RI", "street": "9 PARKIS AVE", "postcode": "02907"}}},
{"geometry": {"type": "Point", "coordinates": [-71.4209166994, 41.8066800612]}, "type": "Feature", "properties": {"collection_times": [{"days": "Mon-Sat", "time": "11:00am"}, {"days": "Sun", "time": "Closed"}], "id": "0290700033", "name": "USPS COLLECTION BOX - BLUE BOX", "address": {"city": "CRANSTON", "state": "RI", "street": "21 PEACE ST", "postcode": "02907"}}},
{"geometry": {"type": "Point", "coordinates": [-71.4543180976, 41.4887099442]}, "type": "Feature", "properties": {"collection_times": [{"days": "Mon-Sat", "time": "11:00am"}, {"days": "Sun", "time": "Closed"}], "id": "0290700037", "name": "USPS COLLECTION BOX - BLUE BOX", "address": {"city": "CRANSTON", "state": "RI", "street": "791 POTTERS AVE", "postcode": "02907"}}},
{"geometry": {"type": "Point", "coordinates": [-71.4283324466, 41.791347454]}, "type": "Feature", "properties": {"collection_times": [{"days": "Mon-Sat", "time": "11:00am"}, {"days": "Sun", "time": "Closed"}], "id": "0290700038", "name": "USPS COLLECTION BOX - BLUE BOX", "address": {"city": "CRANSTON", "state": "RI", "street": "170 RESERVOIR AVE", "postcode": "02907"}}},
{"geometry": {"type": "Point", "coordinates": [-71.4242574524, 41.8010900316]}, "type": "Feature", "properties": {"collection_times": [{"days": "Mon-Sat", "time": "11:00am"}, {"days": "Sun", "time": "Closed"}], "id": "0290700039", "name": "USPS COLLECTION BOX - BLUE BOX", "address": {"city": "CRANSTON", "state": "RI", "street": "95 RESERVOIR AVE", "postcode": "02907"}}},
{"geometry": {"type": "Point", "coordinates": [-71.4242574524, 41.8010900316]}, "type": "Feature", "properties": {"collection_times": [{"days": "Mon-Sat", "time": "11:00am"}, {"days": "Sun", "time": "Closed"}], "id": "0290700040", "name": "USPS COLLECTION BOX - BLUE BOX", "address": {"city": "CRANSTON", "state": "RI", "street": "298 RESERVOIR AVE", "postcode": "02907"}}},
{"geometry": {"type": "Point", "coordinates": [-71.4242183475, 41.8010117758]}, "type": "Feature", "properties": {"collection_times": [{"days": "Mon-Fri", "time": "5:00pm"}, {"days": "Sat", "time": "11:00am"}, {"days": "Sun", "time": "Closed"}], "id": "0290700042", "name": "USPS COLLECTION BOX - EXPRESS", "address": {"city": "CRANSTON", "state": "RI", "street": "820 ELMWOOD AVE", "postcode": "02907"}}},
{"geometry": {"type": "Point", "coordinates": [-71.4218226234, 41.7901846053]}, "type": "Feature", "properties": {"collection_times": [{"days": "Mon-Fri", "time": "5:00pm"}, {"days": "Sat", "time": "11:00am"}, {"days": "Sun", "time": "Closed"}], "id": "0290700043", "name": "USPS COLLECTION BOX - BLUE BOX", "address": {"city": "CRANSTON", "state": "RI", "street": "820 ELMWOOD AVE", "postcode": "02907"}}},
{"geometry": {"type": "Point", "coordinates": [-71.4263734665, 41.7952027173]}, "type": "Feature", "properties": {"collection_times": [{"days": "Mon-Fri", "time": "3:00pm"}, {"days": "Sat", "time": "12:00pm"}, {"days": "Sun", "time": "Closed"}], "id": "0290700045", "name": "USPS COLLECTION BOX - BLUE BOX", "address": {"city": "CRANSTON", "state": "RI", "street": "400 RESERVOIR AVE", "postcode": "02907"}}},
{"geometry": {"type": "Point", "coordinates": [-71.4433091052, 41.8248015692]}, "type": "Feature", "properties": {"collection_times": [{"days": "Mon-Sat", "time": "11:00am"}, {"days": "Sun", "time": "Closed"}], "id": "0290800001", "name": "USPS COLLECTION BOX - BLUE BOX", "address": {"city": "PROVIDENCE", "state": "RI", "street": "460 ACADEMY AVE", "postcode": "02908"}}},
{"geometry": {"type": "Point", "coordinates": [-71.4433091052, 41.8248015692]}, "type": "Feature", "properties": {"collection_times": [{"days": "Mon-Sat", "time": "11:00am"}, {"days": "Sun", "time": "Closed"}], "id": "0290800002", "name": "USPS COLLECTION BOX - BLUE BOX", "address": {"city": "PROVIDENCE", "state": "RI", "street": "165 ACADEMY AVE", "postcode": "02908"}}},
{"geometry": {"type": "Point", "coordinates": [-71.445066639, 41.840316662]}, "type": "Feature", "properties": {"collection_times": [{"days": "Mon-Sat", "time": "11:00am"}, {"days": "Sun", "time": "Closed"}], "id": "0290800004", "name": "USPS COLLECTION BOX - BLUE BOX", "address": {"city": "PROVIDENCE", "state": "RI", "street": "552 ACADEMY AVE", "postcode": "02908"}}},
{"geometry": {"type": "Point", "coordinates": [-71.4174781407, 41.8407438754]}, "type": "Feature", "properties": {"collection_times": [{"days": "Mon-Sat", "time": "11:00am"}, {"days": "Sun", "time": "Closed"}], "id": "0290800005", "name": "USPS COLLECTION BOX - BLUE BOX", "address": {"city": "PROVIDENCE", "state": "RI", "street": "680 ADMIRAL ST", "postcode": "02908"}}},
{"geometry": {"type": "Point", "coordinates": [-71.4233059391, 41.8287827169]}, "type": "Feature", "properties": {"collection_times": [{"days": "Mon-Fri", "time": "4:00pm"}, {"days": "Sat", "time": "12:00pm"}, {"days": "Sun", "time": "Closed"}], "id": "0290800008", "name": "USPS COLLECTION BOX - BLUE BOX", "address": {"city": "PROVIDENCE", "state": "RI", "street": "65 BATH ST", "postcode": "02908"}}},
{"geometry": {"type": "Point", "coordinates": [-71.4388073064, 41.8333814586]}, "type": "Feature", "properties": {"collection_times": [{"days": "Mon-Fri", "time": "5:00pm"}, {"days": "Sat", "time": "12:00pm"}, {"days": "Sun", "time": "Closed"}], "id": "0290800010", "name": "USPS COLLECTION BOX - BLUE BOX", "address": {"city": "PROVIDENCE", "state": "RI", "street": "3 CAPITOL HL", "postcode": "02908"}}},
{"geometry": {"type": "Point", "coordinates": [-71.4388073064, 41.8333814586]}, "type": "Feature", "properties": {"collection_times": [{"days": "Mon-Sat", "time": "12:00pm"}, {"days": "Sun", "time": "Closed"}], "id": "0290800011", "name": "USPS COLLECTION BOX - BLUE BOX", "address": {"city": "PROVIDENCE", "state": "RI", "street": "1 CAPITOL HL", "postcode": "02908"}}},
{"geometry": {"type": "Point", "coordinates": [-71.4423079238, 41.8323074082]}, "type": "Feature", "properties": {"collection_times": [{"days": "Mon-Sat", "time": "11:00am"}, {"days": "Sun", "time": "Closed"}], "id": "0290800013", "name": "USPS COLLECTION BOX - BLUE BOX", "address": {"city": "PROVIDENCE", "state": "RI", "street": "1038 CHALKSTONE AVE", "postcode": "02908"}}},
{"geometry": {"type": "Point", "coordinates": [-71.4530294833, 41.8324140201]}, "type": "Feature", "properties": {"collection_times": [{"days": "Mon-Sat", "time": "12:00pm"}, {"days": "Sun", "time": "Closed"}], "id": "0290800014", "name": "USPS COLLECTION BOX - BLUE BOX", "address": {"city": "PROVIDENCE", "state": "RI", "street": "672 CHALKSTONE AVE", "postcode": "02908"}}},
{"geometry": {"type": "Point", "coordinates": [-71.4348245254, 41.8339931247]}, "type": "Feature", "properties": {"collection_times": [{"days": "Mon-Sat", "time": "12:00pm"}, {"days": "Sun", "time": "Closed"}], "id": "0290800016", "name": "USPS COLLECTION BOX - BLUE BOX", "address": {"city": "PROVIDENCE", "state": "RI", "street": "825 CHALKSTONE AVE", "postcode": "02908"}}},
{"geometry": {"type": "Point", "coordinates": [-71.4324101061, 41.8490096058]}, "type": "Feature", "properties": {"collection_times": [{"days": "Mon-Sat", "time": "11:00am"}, {"days": "Sun", "time": "Closed"}], "id": "0290800020", "name": "USPS COLLECTION BOX - BLUE BOX", "address": {"city": "PROVIDENCE", "state": "RI", "street": "715 DOUGLAS AVE", "postcode": "02908"}}},
{"geometry": {"type": "Point", "coordinates": [-71.4165658864, 41.8346326575]}, "type": "Feature", "properties": {"collection_times": [{"days": "Mon-Sat", "time": "11:00am"}, {"days": "Sun", "time": "Closed"}], "id": "0290800023", "name": "USPS COLLECTION BOX - BLUE BOX", "address": {"city": "PROVIDENCE", "state": "RI", "street": "901 DOUGLAS AVE", "postcode": "02908"}}},
{"geometry": {"type": "Point", "coordinates": [-71.4475559584, 41.8436533459]}, "type": "Feature", "properties": {"collection_times": [{"days": "Mon-Sat", "time": "11:00am"}, {"days": "Sun", "time": "Closed"}], "id": "0290800024", "name": "USPS COLLECTION BOX - BLUE BOX", "address": {"city": "PROVIDENCE", "state": "RI", "street": "192 EATON ST", "postcode": "02908"}}},
{"geometry": {"type": "Point", "coordinates": [-71.4352676966, 41.8383223843]}, "type": "Feature", "properties": {"collection_times": [{"days": "Mon-Fri", "time": "4:00pm"}, {"days": "Sat", "time": "12:00pm"}, {"days": "Sun", "time": "Closed"}], "id": "0290800028", "name": "USPS COLLECTION BOX - BLUE BOX", "address": {"city": "PROVIDENCE", "state": "RI", "street": "275 PROMENADE ST", "postcode": "02908"}}},
{"geometry": {"type": "Point", "coordinates": [-71.4418698689, 41.8351020703]}, "type": "Feature", "properties": {"collection_times": [{"days": "Mon-Sat", "time": "12:00pm"}, {"days": "Sun", "time": "Closed"}], "id": "0290800030", "name": "USPS COLLECTION BOX - BLUE BOX", "address": {"city": "PROVIDENCE", "state": "RI", "street": "67 JASTRAM ST", "postcode": "02908"}}},
{"geometry": {"type": "Point", "coordinates": [-71.4486187781, 41.8250805596]}, "type": "Feature", "properties": {"collection_times": [{"days": "Mon-Sat", "time": "11:00am"}, {"days": "Sun", "time": "Closed"}], "id": "0290800032", "name": "USPS COLLECTION BOX - BLUE BOX", "address": {"city": "PROVIDENCE", "state": "RI", "street": "136 MOUNT PLEASANT AVE", "postcode": "02908"}}},
{"geometry": {"type": "Point", "coordinates": [-71.4486187781, 41.8250805596]}, "type": "Feature", "properties": {"collection_times": [{"days": "Mon-Sat", "time": "11:00am"}, {"days": "Sun", "time": "Closed"}], "id": "0290800033", "name": "USPS COLLECTION BOX - BLUE BOX", "address": {"city": "PROVIDENCE", "state": "RI", "street": "449 MOUNT PLEASANT AVE", "postcode": "02908"}}},
{"geometry": {"type": "Point", "coordinates": [-71.4200450024, 41.8285973144]}, "type": "Feature", "properties": {"collection_times": [{"days": "Mon-Fri", "time": "4:00pm"}, {"days": "Sat", "time": "12:00pm"}, {"days": "Sun", "time": "Closed"}], "id": "0290800034", "name": "USPS COLLECTION BOX - BLUE BOX", "address": {"city": "PROVIDENCE", "state": "RI", "street": "275 PROMENADE ST", "postcode": "02908"}}},
{"geometry": {"type": "Point", "coordinates": [-71.4351298162, 41.8279811736]}, "type": "Feature", "properties": {"collection_times": [{"days": "Mon-Fri", "time": "4:00pm"}, {"days": "Sat-Sun", "time": "Closed"}], "id": "0290800038", "name": "USPS COLLECTION BOX - BLUE BOX", "address": {"city": "PROVIDENCE", "state": "RI", "street": "561 RIVER AVE", "postcode": "02908"}}},
{"geometry": {"type": "Point", "coordinates": [-71.4486187781, 41.8250805596]}, "type": "Feature", "properties": {"collection_times": [{"days": "Mon-Fri", "time": "4:00pm"}, {"days": "Sat-Sun", "time": "Closed"}], "id": "0290800041", "name": "USPS COLLECTION BOX - BLUE BOX", "address": {"city": "PROVIDENCE", "state": "RI", "street": "600 MOUNT PLEASANT AVE", "postcode": "02908"}}},
{"geometry": {"type": "Point", "coordinates": [-71.440966472, 41.8352437792]}, "type": "Feature", "properties": {"collection_times": [{"days": "Mon-Sat", "time": "11:00am"}, {"days": "Sun", "time": "Closed"}], "id": "0290800044", "name": "USPS COLLECTION BOX - BLUE BOX", "address": {"city": "PROVIDENCE", "state": "RI", "street": "426 SHARON ST", "postcode": "02908"}}},
{"geometry": {"type": "Point", "coordinates": [-71.440898629, 41.8408273991]}, "type": "Feature", "properties": {"collection_times": [{"days": "Mon-Sat", "time": "12:00pm"}, {"days": "Sun", "time": "Closed"}], "id": "0290800046", "name": "USPS COLLECTION BOX - BLUE BOX", "address": {"city": "PROVIDENCE", "state": "RI", "street": "903 SMITH ST", "postcode": "02908"}}},
{"geometry": {"type": "Point", "coordinates": [-71.4352676965, 41.8383310281]}, "type": "Feature", "properties": {"collection_times": [{"days": "Mon-Fri", "time": "5:00pm"}, {"days": "Sat", "time": "2:00pm"}, {"days": "Sun", "time": "Closed"}], "id": "0290800048", "name": "USPS COLLECTION BOX - EXPRESS", "address": {"city": "PROVIDENCE", "state": "RI", "street": "351 SMITH ST", "postcode": "02908"}}},
{"geometry": {"type": "Point", "coordinates": [-71.4235166206, 41.8343835012]}, "type": "Feature", "properties": {"collection_times": [{"days": "Mon-Fri", "time": "5:00pm"}, {"days": "Sat", "time": "2:00pm"}, {"days": "Sun", "time": "Closed"}], "id": "0290800049", "name": "USPS COLLECTION BOX - BLUE BOX", "address": {"city": "PROVIDENCE", "state": "RI", "street": "351 SMITH ST", "postcode": "02908"}}},
{"geometry": {"type": "Point", "coordinates": [-71.4172168643, 41.8319800352]}, "type": "Feature", "properties": {"collection_times": [{"days": "Mon-Sat", "time": "11:00am"}, {"days": "Sun", "time": "Closed"}], "id": "0290800055", "name": "USPS COLLECTION BOX - BLUE BOX", "address": {"city": "PROVIDENCE", "state": "RI", "street": "1089 SMITH ST", "postcode": "02908"}}},
{"geometry": {"type": "Point", "coordinates": [-71.4536443714, 41.8253080323]}, "type": "Feature", "properties": {"collection_times": [{"days": "Mon-Sat", "time": "12:00pm"}, {"days": "Sun", "time": "Closed"}], "id": "0290900002", "name": "USPS COLLECTION BOX - BLUE BOX", "address": {"city": "PROVIDENCE", "state": "RI", "street": "1080 ATWELLS AVE", "postcode": "02909"}}},
{"geometry": {"type": "Point", "coordinates": [-71.4304275229, 41.823911356]}, "type": "Feature", "properties": {"collection_times": [{"days": "Mon-Fri", "time": "12:00pm"}, {"days": "Sat", "time": "11:00am"}, {"days": "Sun", "time": "Closed"}], "id": "0290900004", "name": "USPS COLLECTION BOX - BLUE BOX", "address": {"city": "PROVIDENCE", "state": "RI", "street": "387 ATWELLS AVE", "postcode": "02909"}}},
{"geometry": {"type": "Point", "coordinates": [-71.4550590385, 41.8322104055]}, "type": "Feature", "properties": {"collection_times": [{"days": "Mon-Sat", "time": "11:00am"}, {"days": "Sun", "time": "Closed"}], "id": "0290900014", "name": "USPS COLLECTION BOX - BLUE BOX", "address": {"city": "PROVIDENCE", "state": "RI", "street": "1382 CHALKSTONE AVE", "postcode": "02909"}}},
{"geometry": {"type": "Point", "coordinates": [-71.445448257, 41.8168179722]}, "type": "Feature", "properties": {"collection_times": [{"days": "Mon-Fri", "time": "5:00pm"}, {"days": "Sat", "time": "2:00pm"}, {"days": "Sun", "time": "Closed"}], "id": "0290900021", "name": "USPS COLLECTION BOX - BLUE BOX", "address": {"city": "PROVIDENCE", "state": "RI", "street": "100 HARTFORD AVE", "postcode": "02909"}}},
{"geometry": {"type": "Point", "coordinates": [-71.4588564337, 41.8186261811]}, "type": "Feature", "properties": {"collection_times": [{"days": "Mon-Sat", "time": "12:00pm"}, {"days": "Sun", "time": "Closed"}], "id": "0290900023", "name": "USPS COLLECTION BOX - BLUE BOX", "address": {"city": "PROVIDENCE", "state": "RI", "street": "451 HARTFORD AVE", "postcode": "02909"}}},
{"geometry": {"type": "Point", "coordinates": [-71.4476596521, 41.8171231028]}, "type": "Feature", "properties": {"collection_times": [{"days": "Mon-Sat", "time": "12:00pm"}, {"days": "Sun", "time": "Closed"}], "id": "0290900032", "name": "USPS COLLECTION BOX - BLUE BOX", "address": {"city": "PROVIDENCE", "state": "RI", "street": "219 MANTON AVE", "postcode": "02909"}}},
{"geometry": {"type": "Point", "coordinates": [-71.4652679743, 41.8332194695]}, "type": "Feature", "properties": {"collection_times": [{"days": "Mon-Sat", "time": "12:00pm"}, {"days": "Sun", "time": "Closed"}], "id": "0290900034", "name": "USPS COLLECTION BOX - BLUE BOX", "address": {"city": "PROVIDENCE", "state": "RI", "street": "850 MANTON AVE", "postcode": "02909"}}},
{"geometry": {"type": "Point", "coordinates": [-71.4378138627, 41.8140957549]}, "type": "Feature", "properties": {"collection_times": [{"days": "Mon-Sat", "time": "12:00pm"}, {"days": "Sun", "time": "Closed"}], "id": "0290900035", "name": "USPS COLLECTION BOX - BLUE BOX", "address": {"city": "PROVIDENCE", "state": "RI", "street": "21 MARVIN ST", "postcode": "02909"}}},
{"geometry": {"type": "Point", "coordinates": [-71.4501828816, 41.8123958429]}, "type": "Feature", "properties": {"collection_times": [{"days": "Mon-Sat", "time": "12:00pm"}, {"days": "Sun", "time": "Closed"}], "id": "0290900043", "name": "USPS COLLECTION BOX - BLUE BOX", "address": {"city": "PROVIDENCE", "state": "RI", "street": "131 WEBSTER AVE", "postcode": "02909"}}},
{"geometry": {"type": "Point", "coordinates": [-71.4476596521, 41.8171231028]}, "type": "Feature", "properties": {"collection_times": [{"days": "Mon-Sat", "time": "12:00pm"}, {"days": "Sun", "time": "Closed"}], "id": "0290900045", "name": "USPS COLLECTION BOX - BLUE BOX", "address": {"city": "PROVIDENCE", "state": "RI", "street": "179 POCASSET AVE", "postcode": "02909"}}},
{"geometry": {"type": "Point", "coordinates": [-71.4554375853, 41.8087960987]}, "type": "Feature", "properties": {"collection_times": [{"days": "Mon-Sat", "time": "12:00pm"}, {"days": "Sun", "time": "Closed"}], "id": "0290900047", "name": "USPS COLLECTION BOX - BLUE BOX", "address": {"city": "PROVIDENCE", "state": "RI", "street": "232 POCASSET AVE", "postcode": "02909"}}},
{"geometry": {"type": "Point", "coordinates": [-71.4476596521, 41.8171231028]}, "type": "Feature", "properties": {"collection_times": [{"days": "Mon-Sat", "time": "12:00pm"}, {"days": "Sun", "time": "Closed"}], "id": "0290900050", "name": "USPS COLLECTION BOX - BLUE BOX", "address": {"city": "PROVIDENCE", "state": "RI", "street": "627 UNION AVE", "postcode": "02909"}}},
{"geometry": {"type": "Point", "coordinates": [-71.4527824262, 41.8063515697]}, "type": "Feature", "properties": {"collection_times": [{"days": "Mon-Sat", "time": "12:00pm"}, {"days": "Sun", "time": "Closed"}], "id": "0290900052", "name": "USPS COLLECTION BOX - BLUE BOX", "address": {"city": "PROVIDENCE", "state": "RI", "street": "445 UNION AVE", "postcode": "02909"}}},
{"geometry": {"type": "Point", "coordinates": [-71.4476596521, 41.8171231028]}, "type": "Feature", "properties": {"collection_times": [{"days": "Mon-Sat", "time": "12:00pm"}, {"days": "Sun", "time": "Closed"}], "id": "0290900053", "name": "USPS COLLECTION BOX - BLUE BOX", "address": {"city": "PROVIDENCE", "state": "RI", "street": "95 MESSER ST", "postcode": "02909"}}},
{"geometry": {"type": "Point", "coordinates": [-71.4476596521, 41.8171231028]}, "type": "Feature", "properties": {"collection_times": [{"days": "Mon-Sat", "time": "12:00pm"}, {"days": "Sun", "time": "Closed"}], "id": "0290900054", "name": "USPS COLLECTION BOX - BLUE BOX", "address": {"city": "PROVIDENCE", "state": "RI", "street": "261 UNION AVE", "postcode": "02909"}}},
{"geometry": {"type": "Point", "coordinates": [-71.4424653015, 41.8082419111]}, "type": "Feature", "properties": {"collection_times": [{"days": "Mon-Sat", "time": "12:00pm"}, {"days": "Sun", "time": "Closed"}], "id": "0290900056", "name": "USPS COLLECTION BOX - BLUE BOX", "address": {"city": "PROVIDENCE", "state": "RI", "street": "185 UNION AVE", "postcode": "02909"}}},
{"geometry": {"type": "Point", "coordinates": [-71.4350232625, 41.8161493717]}, "type": "Feature", "properties": {"collection_times": [{"days": "Mon-Sat", "time": "12:00pm"}, {"days": "Sun", "time": "Closed"}], "id": "0290900067", "name": "USPS COLLECTION BOX - BLUE BOX", "address": {"city": "PROVIDENCE", "state": "RI", "street": "1551 WESTMINSTER ST", "postcode": "02909"}}},
{"geometry": {"type": "Point", "coordinates": [-71.4476596521, 41.8171231028]}, "type": "Feature", "properties": {"collection_times": [{"days": "Mon-Fri", "time": "12:00pm"}, {"days": "Sat", "time": "11:00am"}, {"days": "Sun", "time": "Closed"}], "id": "0290900068", "name": "USPS COLLECTION BOX - BLUE BOX", "address": {"city": "PROVIDENCE", "state": "RI", "street": "497 BROADWAY", "postcode": "02909"}}},
{"geometry": {"type": "Point", "coordinates": [-71.445448257, 41.8168179722]}, "type": "Feature", "properties": {"collection_times": [{"days": "Mon-Fri", "time": "5:00pm"}, {"days": "Sat", "time": "2:00pm"}, {"days": "Sun", "time": "Closed"}], "id": "0290900070", "name": "USPS COLLECTION BOX - PO LOBBY", "address": {"city": "PROVIDENCE", "state": "RI", "street": "100 HARTFORD AVE", "postcode": "02909"}}},
{"geometry": {"type": "Point", "coordinates": [-71.4371099785, 41.7761540454]}, "type": "Feature", "properties": {"collection_times": [{"days": "Mon-Sat", "time": "11:00am"}, {"days": "Sun", "time": "Closed"}], "id": "0291000001", "name": "USPS COLLECTION BOX - BLUE BOX", "address": {"city": "CRANSTON", "state": "RI", "street": "989 RESERVOIR AVE", "postcode": "02910"}}},
{"geometry": {"type": "Point", "coordinates": [-71.4371099785, 41.7761540454]}, "type": "Feature", "properties": {"collection_times": [{"days": "Mon-Sat", "time": "12:00pm"}, {"days": "Sun", "time": "Closed"}], "id": "0291000002", "name": "USPS COLLECTION BOX - BLUE BOX", "address": {"city": "CRANSTON", "state": "RI", "street": "950 RESERVOIR AVE", "postcode": "02910"}}},
{"geometry": {"type": "Point", "coordinates": [-71.4451709608, 41.7784258132]}, "type": "Feature", "properties": {"collection_times": [{"days": "Mon-Sat", "time": "11:00am"}, {"days": "Sun", "time": "Closed"}], "id": "0291000004", "name": "USPS COLLECTION BOX - BLUE BOX", "address": {"city": "CRANSTON", "state": "RI", "street": "815 RESERVOIR AVE", "postcode": "02910"}}},
{"geometry": {"type": "Point", "coordinates": [-71.4543180976, 41.4887099442]}, "type": "Feature", "properties": {"collection_times": [{"days": "Mon-Sat", "time": "12:00pm"}, {"days": "Sun", "time": "Closed"}], "id": "0291000005", "name": "USPS COLLECTION BOX - BLUE BOX", "address": {"city": "CRANSTON", "state": "RI", "street": "790 RESERVOIR AVE", "postcode": "02910"}}},
{"geometry": {"type": "Point", "coordinates": [-71.4371099785, 41.7761540454]}, "type": "Feature", "properties": {"collection_times": [{"days": "Mon-Fri", "time": "3:00pm"}, {"days": "Sat", "time": "12:00pm"}, {"days": "Sun", "time": "Closed"}], "id": "0291000008", "name": "USPS COLLECTION BOX - BLUE BOX", "address": {"city": "CRANSTON", "state": "RI", "street": "681 RESERVOIR AVE", "postcode": "02910"}}},
{"geometry": {"type": "Point", "coordinates": [-71.4378826445, 41.7836522474]}, "type": "Feature", "properties": {"collection_times": [{"days": "Mon-Sat", "time": "12:00pm"}, {"days": "Sun", "time": "Closed"}], "id": "0291000010", "name": "USPS COLLECTION BOX - BLUE BOX", "address": {"city": "CRANSTON", "state": "RI", "street": "555 RESERVOIR AVE", "postcode": "02910"}}},
{"geometry": {"type": "Point", "coordinates": [-71.4421783537, 41.7629307303]}, "type": "Feature", "properties": {"collection_times": [{"days": "Mon-Sat", "time": "11:00am"}, {"days": "Sun", "time": "Closed"}], "id": "0291000012", "name": "USPS COLLECTION BOX - BLUE BOX", "address": {"city": "CRANSTON", "state": "RI", "street": "825 PONTIAC AVE", "postcode": "02910"}}},
{"geometry": {"type": "Point", "coordinates": [-71.4368827274, 41.7721238478]}, "type": "Feature", "properties": {"collection_times": [{"days": "Mon-Sat", "time": "11:00am"}, {"days": "Sun", "time": "Closed"}], "id": "0291000014", "name": "USPS COLLECTION BOX - BLUE BOX", "address": {"city": "CRANSTON", "state": "RI", "street": "570 PONTIAC AVE", "postcode": "02910"}}},
{"geometry": {"type": "Point", "coordinates": [-71.438646952, 41.7692705]}, "type": "Feature", "properties": {"collection_times": [{"days": "Mon-Sat", "time": "11:00am"}, {"days": "Sun", "time": "Closed"}], "id": "0291000015", "name": "USPS COLLECTION BOX - BLUE BOX", "address": {"city": "CRANSTON", "state": "RI", "street": "631 PONTIAC AVE", "postcode": "02910"}}},
{"geometry": {"type": "Point", "coordinates": [-71.4369028906, 41.7757345281]}, "type": "Feature", "properties": {"collection_times": [{"days": "Mon-Sat", "time": "11:00am"}, {"days": "Sun", "time": "Closed"}], "id": "0291000016", "name": "USPS COLLECTION BOX - BLUE BOX", "address": {"city": "CRANSTON", "state": "RI", "street": "105 ROLFE SQ", "postcode": "02910"}}},
{"geometry": {"type": "Point", "coordinates": [-71.4420221755, 41.7624097487]}, "type": "Feature", "properties": {"collection_times": [{"days": "Mon-Sat", "time": "11:00am"}, {"days": "Sun", "time": "Closed"}], "id": "0291000017", "name": "USPS COLLECTION BOX - BLUE BOX", "address": {"city": "CRANSTON", "state": "RI", "street": "7 HERSEY RD", "postcode": "02910"}}},
{"geometry": {"type": "Point", "coordinates": [-71.4268859308, 41.7737363344]}, "type": "Feature", "properties": {"collection_times": [{"days": "Mon-Sat", "time": "11:00am"}, {"days": "Sun", "time": "Closed"}], "id": "0291000018", "name": "USPS COLLECTION BOX - BLUE BOX", "address": {"city": "CRANSTON", "state": "RI", "street": "530 WELLINGTON AVE", "postcode": "02910"}}},
{"geometry": {"type": "Point", "coordinates": [-71.4364758519, 41.7768955637]}, "type": "Feature", "properties": {"collection_times": [{"days": "Mon-Fri", "time": "5:00pm"}, {"days": "Sat", "time": "2:00pm"}, {"days": "Sun", "time": "Closed"}], "id": "0291000020", "name": "USPS COLLECTION BOX - BLUE BOX", "address": {"city": "CRANSTON", "state": "RI", "street": "57 ROLFE SQ", "postcode": "02910"}}},
{"geometry": {"type": "Point", "coordinates": [-71.4543180976, 41.4887099442]}, "type": "Feature", "properties": {"collection_times": [{"days": "Mon-Sat", "time": "12:00pm"}, {"days": "Sun", "time": "Closed"}], "id": "0291000021", "name": "USPS COLLECTION BOX - BLUE BOX", "address": {"city": "CRANSTON", "state": "RI", "street": "1062 RESERVOIR AVE", "postcode": "02910"}}},
{"geometry": {"type": "Point", "coordinates": [-71.4310394413, 41.7844458578]}, "type": "Feature", "properties": {"collection_times": [{"days": "Mon-Sat", "time": "11:00am"}, {"days": "Sun", "time": "Closed"}], "id": "0291000022", "name": "USPS COLLECTION BOX - BLUE BOX", "address": {"city": "CRANSTON", "state": "RI", "street": "134 PONTIAC AVE", "postcode": "02910"}}},
{"geometry": {"type": "Point", "coordinates": [-71.4527353254, 41.7842758328]}, "type": "Feature", "properties": {"collection_times": [{"days": "Mon-Sat", "time": "12:00pm"}, {"days": "Sun", "time": "Closed"}], "id": "0291000023", "name": "USPS COLLECTION BOX - BLUE BOX", "address": {"city": "CRANSTON", "state": "RI", "street": "1240 PARK AVE", "postcode": "02910"}}},
{"geometry": {"type": "Point", "coordinates": [-71.4543180976, 41.4887099442]}, "type": "Feature", "properties": {"collection_times": [{"days": "Mon-Sat", "time": "12:00pm"}, {"days": "Sun", "time": "Closed"}], "id": "0291000024", "name": "USPS COLLECTION BOX - BLUE BOX", "address": {"city": "CRANSTON", "state": "RI", "street": "1169 PARK AVE", "postcode": "02910"}}},
{"geometry": {"type": "Point", "coordinates": [-71.443453904, 41.7820285823]}, "type": "Feature", "properties": {"collection_times": [{"days": "Mon-Sat", "time": "12:00pm"}, {"days": "Sun", "time": "Closed"}], "id": "0291000025", "name": "USPS COLLECTION BOX - BLUE BOX", "address": {"city": "CRANSTON", "state": "RI", "street": "1030 PARK AVE", "postcode": "02910"}}},
{"geometry": {"type": "Point", "coordinates": [-71.4543180976, 41.4887099442]}, "type": "Feature", "properties": {"collection_times": [{"days": "Mon-Sat", "time": "11:00am"}, {"days": "Sun", "time": "Closed"}], "id": "0291000032", "name": "USPS COLLECTION BOX - BLUE BOX", "address": {"city": "CRANSTON", "state": "RI", "street": "681 PARK AVE", "postcode": "02910"}}},
{"geometry": {"type": "Point", "coordinates": [-71.4371186689, 41.7761539994]}, "type": "Feature", "properties": {"collection_times": [{"days": "Mon-Sat", "time": "12:00pm"}, {"days": "Sun", "time": "Closed"}], "id": "0291000034", "name": "USPS COLLECTION BOX - BLUE BOX", "address": {"city": "CRANSTON", "state": "RI", "street": "1 PARK VIEW BLVD", "postcode": "02910"}}},
{"geometry": {"type": "Point", "coordinates": [-71.4342825098, 41.7638992495]}, "type": "Feature", "properties": {"collection_times": [{"days": "Mon-Sat", "time": "11:00am"}, {"days": "Sun", "time": "Closed"}], "id": "0291000040", "name": "USPS COLLECTION BOX - BLUE BOX", "address": {"city": "CRANSTON", "state": "RI", "street": "110 HARPER AVE", "postcode": "02910"}}},
{"geometry": {"type": "Point", "coordinates": [-71.4371099785, 41.7761540454]}, "type": "Feature", "properties": {"collection_times": [{"days": "Mon-Sat", "time": "12:00pm"}, {"days": "Sun", "time": "Closed"}], "id": "0291000041", "name": "USPS COLLECTION BOX - BLUE BOX", "address": {"city": "CRANSTON", "state": "RI", "street": "1655 ELMWOOD AVE", "postcode": "02910"}}},
{"geometry": {"type": "Point", "coordinates": [-71.4238684851, 41.7701981419]}, "type": "Feature", "properties": {"collection_times": [{"days": "Mon-Sat", "time": "12:00pm"}, {"days": "Sun", "time": "Closed"}], "id": "0291000043", "name": "USPS COLLECTION BOX - BLUE BOX", "address": {"city": "CRANSTON", "state": "RI", "street": "1441 ELMWOOD AVE", "postcode": "02910"}}},
{"geometry": {"type": "Point", "coordinates": [-71.4371099785, 41.7761540454]}, "type": "Feature", "properties": {"collection_times": [{"days": "Mon-Sat", "time": "11:00am"}, {"days": "Sun", "time": "Closed"}], "id": "0291000044", "name": "USPS COLLECTION BOX - BLUE BOX", "address": {"city": "CRANSTON", "state": "RI", "street": "196 CLARENCE ST", "postcode": "02910"}}},
{"geometry": {"type": "Point", "coordinates": [-71.4543180976, 41.4887099442]}, "type": "Feature", "properties": {"collection_times": [{"days": "Mon-Fri", "time": "3:00pm"}, {"days": "Sat", "time": "12:00pm"}, {"days": "Sun", "time": "Closed"}], "id": "0291000049", "name": "USPS COLLECTION BOX - BLUE BOX", "address": {"city": "CRANSTON", "state": "RI", "street": "869 PARK AVE", "postcode": "02910"}}},
{"geometry": {"type": "Point", "coordinates": [-71.4431539322, 41.7798963873]}, "type": "Feature", "properties": {"collection_times": [{"days": "Mon-Fri", "time": "3:00pm"}, {"days": "Sat", "time": "12:00pm"}, {"days": "Sun", "time": "Closed"}], "id": "0291000051", "name": "USPS COLLECTION BOX - BLUE BOX", "address": {"city": "CRANSTON", "state": "RI", "street": "725 RESERVOIR AVE", "postcode": "02910"}}},
{"geometry": {"type": "Point", "coordinates": [-71.4364758519, 41.7768955637]}, "type": "Feature", "properties": {"collection_times": [{"days": "Mon-Fri", "time": "5:00pm"}, {"days": "Sat", "time": "2:00pm"}, {"days": "Sun", "time": "Closed"}], "id": "0291000052", "name": "USPS COLLECTION BOX - PO LOBBY", "address": {"city": "CRANSTON", "state": "RI", "street": "57 ROLFE SQ", "postcode": "02910"}}},
{"geometry": {"type": "Point", "coordinates": [-71.4364758519, 41.7768955637]}, "type": "Feature", "properties": {"collection_times": [{"days": "Mon-Fri", "time": "5:00pm"}, {"days": "Sat", "time": "2:00pm"}, {"days": "Sun", "time": "Closed"}], "id": "0291000053", "name": "USPS COLLECTION BOX - PO LOBBY", "address": {"city": "CRANSTON", "state": "RI", "street": "57 ROLFE SQ", "postcode": "02910"}}},
{"geometry": {"type": "Point", "coordinates": [-71.4364758519, 41.7768955637]}, "type": "Feature", "properties": {"collection_times": [{"days": "Mon-Fri", "time": "5:00pm"}, {"days": "Sat", "time": "2:00pm"}, {"days": "Sun", "time": "Closed"}], "id": "0291000055", "name": "USPS COLLECTION BOX - APC", "address": {"city": "CRANSTON", "state": "RI", "street": "57 ROLFE SQ", "postcode": "02910"}}},
{"geometry": {"type": "Point", "coordinates": [-71.4687060839, 41.8365014505]}, "type": "Feature", "properties": {"collection_times": [{"days": "Mon-Sat", "time": "12:00pm"}, {"days": "Sun", "time": "Closed"}], "id": "0291100001", "name": "USPS COLLECTION BOX - BLUE BOX", "address": {"city": "N PROVIDENCE", "state": "RI", "street": "399 FRUIT HILL AVE", "postcode": "02911"}}},
{"geometry": {"type": "Point", "coordinates": [-71.4574320542, 41.8534693611]}, "type": "Feature", "properties": {"collection_times": [{"days": "Mon-Sat", "time": "12:00pm"}, {"days": "Sun", "time": "Closed"}], "id": "0291100002", "name": "USPS COLLECTION BOX - BLUE BOX", "address": {"city": "N PROVIDENCE", "state": "RI", "street": "135 HIGH SERVICE AVE", "postcode": "02911"}}},
{"geometry": {"type": "Point", "coordinates": [-71.4859680589, 41.8619825697]}, "type": "Feature", "properties": {"collection_times": [{"days": "Mon-Sat", "time": "12:00pm"}, {"days": "Sun", "time": "Closed"}], "id": "0291100003", "name": "USPS COLLECTION BOX - BLUE BOX", "address": {"city": "N PROVIDENCE", "state": "RI", "street": "19 JACKSONIA DR", "postcode": "02911"}}},
{"geometry": {"type": "Point", "coordinates": [-71.4605870057, 41.8497312108]}, "type": "Feature", "properties": {"collection_times": [{"days": "Mon-Sat", "time": "12:00pm"}, {"days": "Sun", "time": "Closed"}], "id": "0291100005", "name": "USPS COLLECTION BOX - BLUE BOX", "address": {"city": "N PROVIDENCE", "state": "RI", "street": "1510 SMITH ST", "postcode": "02911"}}},
{"geometry": {"type": "Point", "coordinates": [-71.4838441752, 41.8573484393]}, "type": "Feature", "properties": {"collection_times": [{"days": "Mon-Sat", "time": "12:00pm"}, {"days": "Sun", "time": "Closed"}], "id": "0291100014", "name": "USPS COLLECTION BOX - BLUE BOX", "address": {"city": "N PROVIDENCE", "state": "RI", "street": "2008 SMITH ST", "postcode": "02911"}}},
{"geometry": {"type": "Point", "coordinates": [-71.4902766565, 41.8661842388]}, "type": "Feature", "properties": {"collection_times": [{"days": "Mon-Sat", "time": "12:00pm"}, {"days": "Sun", "time": "Closed"}], "id": "0291100016", "name": "USPS COLLECTION BOX - BLUE BOX", "address": {"city": "N PROVIDENCE", "state": "RI", "street": "2 OAKLEIGH AVE", "postcode": "02911"}}},
{"geometry": {"type": "Point", "coordinates": [-71.4738556904, 41.8534733722]}, "type": "Feature", "properties": {"collection_times": [{"days": "Mon-Fri", "time": "5:00pm"}, {"days": "Sat", "time": "2:00pm"}, {"days": "Sun", "time": "Closed"}], "id": "0291100017", "name": "USPS COLLECTION BOX - EXPRESS", "address": {"city": "N PROVIDENCE", "state": "RI", "street": "2050 SMITH ST", "postcode": "02911"}}},
{"geometry": {"type": "Point", "coordinates": [-71.4738556904, 41.8534733722]}, "type": "Feature", "properties": {"collection_times": [{"days": "Mon-Fri", "time": "5:00pm"}, {"days": "Sat", "time": "2:00pm"}, {"days": "Sun", "time": "Closed"}], "id": "0291100018", "name": "USPS COLLECTION BOX - BLUE BOX", "address": {"city": "N PROVIDENCE", "state": "RI", "street": "2050 SMITH ST", "postcode": "02911"}}},
{"geometry": {"type": "Point", "coordinates": [-71.4769650038, 41.8446011676]}, "type": "Feature", "properties": {"collection_times": [{"days": "Mon-Sat", "time": "12:00pm"}, {"days": "Sun", "time": "Closed"}], "id": "0291100020", "name": "USPS COLLECTION BOX - BLUE BOX", "address": {"city": "N PROVIDENCE", "state": "RI", "street": "1 HUMBERT ST", "postcode": "02911"}}},
{"geometry": {"type": "Point", "coordinates": [-71.4748227339, 41.8396382049]}, "type": "Feature", "properties": {"collection_times": [{"days": "Mon-Sat", "time": "12:00pm"}, {"days": "Sun", "time": "Closed"}], "id": "0291100021", "name": "USPS COLLECTION BOX - BLUE BOX", "address": {"city": "N PROVIDENCE", "state": "RI", "street": "184 WOONASQUATUCKET AVE", "postcode": "02911"}}},
{"geometry": {"type": "Point", "coordinates": [-71.4852931037, 41.8581065602]}, "type": "Feature", "properties": {"collection_times": [{"days": "Mon-Fri", "time": "5:00pm"}, {"days": "Sat", "time": "2:00pm"}, {"days": "Sun", "time": "Closed"}], "id": "0291100025", "name": "USPS COLLECTION BOX - BLUE BOX", "address": {"city": "N PROVIDENCE", "state": "RI", "street": "2050 SMITH ST", "postcode": "02911"}}},
{"geometry": {"type": "Point", "coordinates": [-71.4745932403, 41.8547481399]}, "type": "Feature", "properties": {"collection_times": [{"days": "Mon-Sat", "time": "12:00pm"}, {"days": "Sun", "time": "Closed"}], "id": "0291100026", "name": "USPS COLLECTION BOX - BLUE BOX", "address": {"city": "N PROVIDENCE", "state": "RI", "street": "1848 SMITH ST", "postcode": "02911"}}},
{"geometry": {"type": "Point", "coordinates": [-71.3668686199, 41.8130040369]}, "type": "Feature", "properties": {"collection_times": [{"days": "Mon-Sat", "time": "12:00pm"}, {"days": "Sun", "time": "Closed"}], "id": "0291400002", "name": "USPS COLLECTION BOX - BLUE BOX", "address": {"city": "EAST PROVIDENCE", "state": "RI", "street": "26 ARTHUR AVE", "postcode": "02914"}}},
{"geometry": {"type": "Point", "coordinates": [-71.4543180976, 41.4887099442]}, "type": "Feature", "properties": {"collection_times": [{"days": "Mon-Sat", "time": "12:00pm"}, {"days": "Sun", "time": "Closed"}], "id": "0291400003", "name": "USPS COLLECTION BOX - BLUE BOX", "address": {"city": "EAST PROVIDENCE", "state": "RI", "street": "920 BROADWAY", "postcode": "02914"}}},
{"geometry": {"type": "Point", "coordinates": [-71.3668686199, 41.813012681]}, "type": "Feature", "properties": {"collection_times": [{"days": "Mon-Fri", "time": "5:00pm"}, {"days": "Sat", "time": "12:00pm"}, {"days": "Sun", "time": "Closed"}], "id": "0291400005", "name": "USPS COLLECTION BOX - BLUE BOX", "address": {"city": "EAST PROVIDENCE", "state": "RI", "street": "50 CATAMORE BLVD", "postcode": "02914"}}},
{"geometry": {"type": "Point", "coordinates": [-71.343296895, 41.802599257]}, "type": "Feature", "properties": {"collection_times": [{"days": "Mon-Sat", "time": "5:00pm"}, {"days": "Sun", "time": "Closed"}], "id": "0291400009", "name": "USPS COLLECTION BOX - BLUE BOX", "address": {"city": "EAST PROVIDENCE", "state": "RI", "street": "50 CATAMORE BLVD", "postcode": "02914"}}},
{"geometry": {"type": "Point", "coordinates": [-71.3763697019, 41.8192142127]}, "type": "Feature", "properties": {"collection_times": [{"days": "Mon-Fri", "time": "5:00pm"}, {"days": "Sat", "time": "1:00pm"}, {"days": "Sun", "time": "Closed"}], "id": "0291400011", "name": "USPS COLLECTION BOX - BLUE BOX", "address": {"city": "EAST PROVIDENCE", "state": "RI", "street": "17 GROVE AVE", "postcode": "02914"}}},
{"geometry": {"type": "Point", "coordinates": [-71.376370974, 41.8192120524]}, "type": "Feature", "properties": {"collection_times": [{"days": "Mon-Fri", "time": "5:00pm"}, {"days": "Sat", "time": "1:00pm"}, {"days": "Sun", "time": "Closed"}], "id": "0291400012", "name": "USPS COLLECTION BOX - BLUE BOX", "address": {"city": "EAST PROVIDENCE", "state": "RI", "street": "17 GROVE AVE", "postcode": "02914"}}},
{"geometry": {"type": "Point", "coordinates": [-71.3688585684, 41.829753138]}, "type": "Feature", "properties": {"collection_times": [{"days": "Mon-Sat", "time": "12:00pm"}, {"days": "Sun", "time": "Closed"}], "id": "0291400014", "name": "USPS COLLECTION BOX - BLUE BOX", "address": {"city": "EAST PROVIDENCE", "state": "RI", "street": "230 MASSASOIT AVE", "postcode": "02914"}}},
{"geometry": {"type": "Point", "coordinates": [-71.3651387787, 41.8307660126]}, "type": "Feature", "properties": {"collection_times": [{"days": "Mon-Sat", "time": "12:00pm"}, {"days": "Sun", "time": "Closed"}], "id": "0291400015", "name": "USPS COLLECTION BOX - BLUE BOX", "address": {"city": "EAST PROVIDENCE", "state": "RI", "street": "400 MASSASOIT AVE", "postcode": "02914"}}},
{"geometry": {"type": "Point", "coordinates": [-71.363571358, 41.827612244]}, "type": "Feature", "properties": {"collection_times": [{"days": "Mon-Sat", "time": "12:00pm"}, {"days": "Sun", "time": "Closed"}], "id": "0291400017", "name": "USPS COLLECTION BOX - BLUE BOX", "address": {"city": "EAST PROVIDENCE", "state": "RI", "street": "558 N BROADWAY", "postcode": "02914"}}},
{"geometry": {"type": "Point", "coordinates": [-71.3680968474, 41.8200543045]}, "type": "Feature", "properties": {"collection_times": [{"days": "Mon-Sat", "time": "12:00pm"}, {"days": "Sun", "time": "Closed"}], "id": "0291400018", "name": "USPS COLLECTION BOX - BLUE BOX", "address": {"city": "EAST PROVIDENCE", "state": "RI", "street": "668 N BROADWAY", "postcode": "02914"}}},
{"geometry": {"type": "Point", "coordinates": [-71.3609430633, 41.8052262333]}, "type": "Feature", "properties": {"collection_times": [{"days": "Mon-Sat", "time": "11:00am"}, {"days": "Sun", "time": "Closed"}], "id": "0291400020", "name": "USPS COLLECTION BOX - BLUE BOX", "address": {"city": "EAST PROVIDENCE", "state": "RI", "street": "2571 PAWTUCKET AVE", "postcode": "02914"}}},
{"geometry": {"type": "Point", "coordinates": [-71.3732502696, 41.8051048384]}, "type": "Feature", "properties": {"collection_times": [{"days": "Mon-Sat", "time": "12:00pm"}, {"days": "Sun", "time": "Closed"}], "id": "0291400025", "name": "USPS COLLECTION BOX - BLUE BOX", "address": {"city": "EAST PROVIDENCE", "state": "RI", "street": "1300 S BROADWAY", "postcode": "02914"}}},
{"geometry": {"type": "Point", "coordinates": [-71.3728003776, 41.8197321685]}, "type": "Feature", "properties": {"collection_times": [{"days": "Mon-Sat", "time": "10:00am"}, {"days": "Sun", "time": "Closed"}], "id": "0291400028", "name": "USPS COLLECTION BOX - BLUE BOX", "address": {"city": "EAST PROVIDENCE", "state": "RI", "street": "218 TAUNTON AVE", "postcode": "02914"}}},
{"geometry": {"type": "Point", "coordinates": [-71.3710271076, 41.8196063225]}, "type": "Feature", "properties": {"collection_times": [{"days": "Mon-Sat", "time": "12:00pm"}, {"days": "Sun", "time": "Closed"}], "id": "0291400031", "name": "USPS COLLECTION BOX - BLUE BOX", "address": {"city": "EAST PROVIDENCE", "state": "RI", "street": "225 TAUNTON AVE", "postcode": "02914"}}},
{"geometry": {"type": "Point", "coordinates": [-71.3657071839, 41.8204494442]}, "type": "Feature", "properties": {"collection_times": [{"days": "Mon-Sat", "time": "12:00pm"}, {"days": "Sun", "time": "Closed"}], "id": "0291400032", "name": "USPS COLLECTION BOX - BLUE BOX", "address": {"city": "EAST PROVIDENCE", "state": "RI", "street": "345 TAUNTON AVE", "postcode": "02914"}}},
{"geometry": {"type": "Point", "coordinates": [-71.3578837611, 41.8216256693]}, "type": "Feature", "properties": {"collection_times": [{"days": "Mon-Sat", "time": "12:00pm"}, {"days": "Sun", "time": "Closed"}], "id": "0291400035", "name": "USPS COLLECTION BOX - BLUE BOX", "address": {"city": "EAST PROVIDENCE", "state": "RI", "street": "575 TAUNTON AVE", "postcode": "02914"}}},
{"geometry": {"type": "Point", "coordinates": [-71.3668686199, 41.813012681]}, "type": "Feature", "properties": {"collection_times": [{"days": "Mon-Fri", "time": "4:30pm"}, {"days": "Sat", "time": "12:00pm"}, {"days": "Sun", "time": "Closed"}], "id": "0291400038", "name": "USPS COLLECTION BOX - BLUE BOX", "address": {"city": "EAST PROVIDENCE", "state": "RI", "street": "450 VETERANS MEMORIAL PKWY", "postcode": "02914"}}},
{"geometry": {"type": "Point", "coordinates": [-71.3854833069, 41.8073528888]}, "type": "Feature", "properties": {"collection_times": [{"days": "Mon-Fri", "time": "4:30pm"}, {"days": "Sat", "time": "12:00pm"}, {"days": "Sun", "time": "Closed"}], "id": "0291400039", "name": "USPS COLLECTION BOX - BLUE BOX", "address": {"city": "EAST PROVIDENCE", "state": "RI", "street": "450 VETERANS MEMORIAL PKWY", "postcode": "02914"}}},
{"geometry": {"type": "Point", "coordinates": [-71.3603367557, 41.8237451617]}, "type": "Feature", "properties": {"collection_times": [{"days": "Mon-Sat", "time": "12:00pm"}, {"days": "Sun", "time": "Closed"}], "id": "0291400043", "name": "USPS COLLECTION BOX - BLUE BOX", "address": {"city": "EAST PROVIDENCE", "state": "RI", "street": "99 GOLDSMITH AVE", "postcode": "02914"}}},
{"geometry": {"type": "Point", "coordinates": [-71.3778555875, 41.8160925896]}, "type": "Feature", "properties": {"collection_times": [{"days": "Mon-Sat", "time": "12:00pm"}, {"days": "Sun", "time": "Closed"}], "id": "0291400044", "name": "USPS COLLECTION BOX - BLUE BOX", "address": {"city": "EAST PROVIDENCE", "state": "RI", "street": "150 WARREN AVE", "postcode": "02914"}}},
{"geometry": {"type": "Point", "coordinates": [-71.375419875, 41.8152396762]}, "type": "Feature", "properties": {"collection_times": [{"days": "Mon-Sat", "time": "12:00pm"}, {"days": "Sun", "time": "Closed"}], "id": "0291400045", "name": "USPS COLLECTION BOX - BLUE BOX", "address": {"city": "EAST PROVIDENCE", "state": "RI", "street": "208 WARREN AVE", "postcode": "02914"}}},
{"geometry": {"type": "Point", "coordinates": [-71.3668686199, 41.8130040369]}, "type": "Feature", "properties": {"collection_times": [{"days": "Mon-Sat", "time": "11:00am"}, {"days": "Sun", "time": "Closed"}], "id": "0291400046", "name": "USPS COLLECTION BOX - BLUE BOX", "address": {"city": "EAST PROVIDENCE", "state": "RI", "street": "629 WARREN AVE", "postcode": "02914"}}},
{"geometry": {"type": "Point", "coordinates": [-71.3668686199, 41.8130040369]}, "type": "Feature", "properties": {"collection_times": [{"days": "Mon-Sat", "time": "12:00pm"}, {"days": "Sun", "time": "Closed"}], "id": "0291400047", "name": "USPS COLLECTION BOX - BLUE BOX", "address": {"city": "EAST PROVIDENCE", "state": "RI", "street": "640 WARREN AVE", "postcode": "02914"}}},
{"geometry": {"type": "Point", "coordinates": [-71.3585094766, 41.8169620645]}, "type": "Feature", "properties": {"collection_times": [{"days": "Mon-Sat", "time": "12:00pm"}, {"days": "Sun", "time": "Closed"}], "id": "0291400055", "name": "USPS COLLECTION BOX - BLUE BOX", "address": {"city": "EAST PROVIDENCE", "state": "RI", "street": "515 WATERMAN AVE", "postcode": "02914"}}},
{"geometry": {"type": "Point", "coordinates": [-71.3400782442, 41.8083012823]}, "type": "Feature", "properties": {"collection_times": [{"days": "Mon-Sat", "time": "12:00pm"}, {"days": "Sun", "time": "Closed"}], "id": "0291400058", "name": "USPS COLLECTION BOX - BLUE BOX", "address": {"city": "EAST PROVIDENCE", "state": "RI", "street": "865 WATERMAN AVE", "postcode": "02914"}}},
{"geometry": {"type": "Point", "coordinates": [-71.3400782442, 41.8083012823]}, "type": "Feature", "properties": {"collection_times": [{"days": "Mon-Sat", "time": "12:00pm"}, {"days": "Sun", "time": "Closed"}], "id": "0291400060", "name": "USPS COLLECTION BOX - BLUE BOX", "address": {"city": "EAST PROVIDENCE", "state": "RI", "street": "977 WATERMAN AVE", "postcode": "02914"}}},
{"geometry": {"type": "Point", "coordinates": [-71.3433593212, 41.8024731831]}, "type": "Feature", "properties": {"collection_times": [{"days": "Mon-Fri", "time": "5:00pm"}, {"days": "Sat", "time": "12:00pm"}, {"days": "Sun", "time": "Closed"}], "id": "0291400071", "name": "USPS COLLECTION BOX - BLUE BOX", "address": {"city": "EAST PROVIDENCE", "state": "RI", "street": "50 CATAMORE BLVD", "postcode": "02914"}}},
{"geometry": {"type": "Point", "coordinates": [-71.3748678988, 41.8000112831]}, "type": "Feature", "properties": {"collection_times": [{"days": "Mon-Sat", "time": "12:00pm"}, {"days": "Sun", "time": "Closed"}], "id": "0291400072", "name": "USPS COLLECTION BOX - BLUE BOX", "address": {"city": "EAST PROVIDENCE", "state": "RI", "street": "999 S BROADWAY", "postcode": "02914"}}},
{"geometry": {"type": "Point", "coordinates": [-71.376370974, 41.8192120524]}, "type": "Feature", "properties": {"collection_times": [{"days": "Mon-Fri", "time": "5:00pm"}, {"days": "Sat", "time": "1:00pm"}, {"days": "Sun", "time": "Closed"}], "id": "0291400075", "name": "USPS COLLECTION BOX - BLUE BOX", "address": {"city": "EAST PROVIDENCE", "state": "RI", "street": "17 GROVE AVE", "postcode": "02914"}}},
{"geometry": {"type": "Point", "coordinates": [-71.3607795749, 41.7536465518]}, "type": "Feature", "properties": {"collection_times": [{"days": "Mon-Sat", "time": "11:00am"}, {"days": "Sun", "time": "Closed"}], "id": "0291500003", "name": "USPS COLLECTION BOX - BLUE BOX", "address": {"city": "RIVERSIDE", "state": "RI", "street": "50 TERRACE AVE", "postcode": "02915"}}},
{"geometry": {"type": "Point", "coordinates": [-71.3622535417, 41.7715352573]}, "type": "Feature", "properties": {"collection_times": [{"days": "Mon-Sat", "time": "11:00am"}, {"days": "Sun", "time": "Closed"}], "id": "0291500006", "name": "USPS COLLECTION BOX - BLUE BOX", "address": {"city": "RIVERSIDE", "state": "RI", "street": "241 BULLOCKS POINT AVE", "postcode": "02915"}}},
{"geometry": {"type": "Point", "coordinates": [-71.3434820763, 41.7592494163]}, "type": "Feature", "properties": {"collection_times": [{"days": "Mon-Sat", "time": "11:00am"}, {"days": "Sun", "time": "Closed"}], "id": "0291500011", "name": "USPS COLLECTION BOX - BLUE BOX", "address": {"city": "RIVERSIDE", "state": "RI", "street": "1050 WILLETT AVE", "postcode": "02915"}}},
{"geometry": {"type": "Point", "coordinates": [-71.3635885664, 41.7976523844]}, "type": "Feature", "properties": {"collection_times": [{"days": "Mon-Sat", "time": "11:00am"}, {"days": "Sun", "time": "Closed"}], "id": "0291500012", "name": "USPS COLLECTION BOX - BLUE BOX", "address": {"city": "RIVERSIDE", "state": "RI", "street": "2831 PAWTUCKET AVE", "postcode": "02915"}}},
{"geometry": {"type": "Point", "coordinates": [-71.3643226862, 41.7885131003]}, "type": "Feature", "properties": {"collection_times": [{"days": "Mon-Sat", "time": "11:00am"}, {"days": "Sun", "time": "Closed"}], "id": "0291500019", "name": "USPS COLLECTION BOX - BLUE BOX", "address": {"city": "RIVERSIDE", "state": "RI", "street": "3 VILLAGE GRN N", "postcode": "02915"}}},
{"geometry": {"type": "Point", "coordinates": [-71.3482690213, 41.7956613655]}, "type": "Feature", "properties": {"collection_times": [{"days": "Mon-Fri", "time": "5:00pm"}, {"days": "Sat", "time": "11:00am"}, {"days": "Sun", "time": "Closed"}], "id": "0291500023", "name": "USPS COLLECTION BOX - BLUE BOX", "address": {"city": "RIVERSIDE", "state": "RI", "street": "38 AMARAL ST", "postcode": "02915"}}},
{"geometry": {"type": "Point", "coordinates": [-71.3482690213, 41.7956613655]}, "type": "Feature", "properties": {"collection_times": [{"days": "Mon-Fri", "time": "5:00pm"}, {"days": "Sat", "time": "11:00am"}, {"days": "Sun", "time": "Closed"}], "id": "0291500024", "name": "USPS COLLECTION BOX - BLUE BOX", "address": {"city": "RIVERSIDE", "state": "RI", "street": "38 AMARAL ST", "postcode": "02915"}}},
{"geometry": {"type": "Point", "coordinates": [-71.3529590332, 41.7958143071]}, "type": "Feature", "properties": {"collection_times": [{"days": "Mon-Sat", "time": "11:00am"}, {"days": "Sun", "time": "Closed"}], "id": "0291500027", "name": "USPS COLLECTION BOX - BLUE BOX", "address": {"city": "RIVERSIDE", "state": "RI", "street": "250 WAMPANOAG TRL", "postcode": "02915"}}},
{"geometry": {"type": "Point", "coordinates": [-71.3261839399, 41.7734895055]}, "type": "Feature", "properties": {"collection_times": [{"days": "Mon-Sat", "time": "11:00am"}, {"days": "Sun", "time": "Closed"}], "id": "0291500030", "name": "USPS COLLECTION BOX - BLUE BOX", "address": {"city": "RIVERSIDE", "state": "RI", "street": "1525 WAMPANOAG TRL", "postcode": "02915"}}},
{"geometry": {"type": "Point", "coordinates": [-71.3276129544, 41.775433107]}, "type": "Feature", "properties": {"collection_times": [{"days": "Mon-Sat", "time": "11:00am"}, {"days": "Sun", "time": "Closed"}], "id": "0291500031", "name": "USPS COLLECTION BOX - BLUE BOX", "address": {"city": "RIVERSIDE", "state": "RI", "street": "1445 WAMPANOAG TRL", "postcode": "02915"}}},
{"geometry": {"type": "Point", "coordinates": [-71.3537435901, 41.7729508355]}, "type": "Feature", "properties": {"collection_times": [{"days": "Mon-Fri", "time": "5:00pm"}, {"days": "Sat", "time": "2:30pm"}, {"days": "Sun", "time": "Closed"}], "id": "0291500033", "name": "USPS COLLECTION BOX - BLUE BOX", "address": {"city": "RIVERSIDE", "state": "RI", "street": "378 WILLETT AVE", "postcode": "02915"}}},
{"geometry": {"type": "Point", "coordinates": [-71.3551066901, 41.7721739743]}, "type": "Feature", "properties": {"collection_times": [{"days": "Mon-Fri", "time": "5:00pm"}, {"days": "Sat", "time": "2:30pm"}, {"days": "Sun", "time": "Closed"}], "id": "0291500035", "name": "USPS COLLECTION BOX - EXPRESS", "address": {"city": "RIVERSIDE", "state": "RI", "street": "378 WILLETT AVE", "postcode": "02915"}}},
{"geometry": {"type": "Point", "coordinates": [-71.3550979998, 41.7721740201]}, "type": "Feature", "properties": {"collection_times": [{"days": "Mon-Sat", "time": "11:00am"}, {"days": "Sun", "time": "Closed"}], "id": "0291500038", "name": "USPS COLLECTION BOX - BLUE BOX", "address": {"city": "RIVERSIDE", "state": "RI", "street": "960 WILLETT AVE", "postcode": "02915"}}},
{"geometry": {"type": "Point", "coordinates": [-71.3566003435, 41.7717154809]}, "type": "Feature", "properties": {"collection_times": [{"days": "Mon-Sat", "time": "11:00am"}, {"days": "Sun", "time": "Closed"}], "id": "0291500045", "name": "USPS COLLECTION BOX - BLUE BOX", "address": {"city": "RIVERSIDE", "state": "RI", "street": "105 BURNSIDE AVE", "postcode": "02915"}}},
{"geometry": {"type": "Point", "coordinates": [-71.3551066901, 41.7721739743]}, "type": "Feature", "properties": {"collection_times": [{"days": "Mon-Fri", "time": "5:00pm"}, {"days": "Sat", "time": "11:00am"}, {"days": "Sun", "time": "Closed"}], "id": "0291500047", "name": "USPS COLLECTION BOX - EXPRESS", "address": {"city": "RIVERSIDE", "state": "RI", "street": "38 AMARAL ST", "postcode": "02915"}}},
{"geometry": {"type": "Point", "coordinates": [-71.3545461839, 41.8432626552]}, "type": "Feature", "properties": {"collection_times": [{"days": "Mon-Sat", "time": "12:00pm"}, {"days": "Sun", "time": "Closed"}], "id": "0291600003", "name": "USPS COLLECTION BOX - BLUE BOX", "address": {"city": "RUMFORD", "state": "RI", "street": "9 CENTRE ST", "postcode": "02916"}}},
{"geometry": {"type": "Point", "coordinates": [-71.354791233, 41.8406506295]}, "type": "Feature", "properties": {"collection_times": [{"days": "Mon-Fri", "time": "5:00pm"}, {"days": "Sat", "time": "1:00pm"}, {"days": "Sun", "time": "Closed"}], "id": "0291600006", "name": "USPS COLLECTION BOX - BLUE BOX", "address": {"city": "RUMFORD", "state": "RI", "street": "10 NEWMAN AVE", "postcode": "02916"}}},
{"geometry": {"type": "Point", "coordinates": [-71.3545461843, 41.8432626093]}, "type": "Feature", "properties": {"collection_times": [{"days": "Mon-Fri", "time": "5:00pm"}, {"days": "Sat", "time": "1:00pm"}, {"days": "Sun", "time": "Closed"}], "id": "0291600008", "name": "USPS COLLECTION BOX - EXPRESS", "address": {"city": "RUMFORD", "state": "RI", "street": "10 NEWMAN AVE", "postcode": "02916"}}},
{"geometry": {"type": "Point", "coordinates": [-71.3544457893, 41.8521385567]}, "type": "Feature", "properties": {"collection_times": [{"days": "Mon-Sat", "time": "10:30am"}, {"days": "Sun", "time": "Closed"}], "id": "0291600009", "name": "USPS COLLECTION BOX - BLUE BOX", "address": {"city": "RUMFORD", "state": "RI", "street": "275 NEWPORT AVE", "postcode": "02916"}}},
{"geometry": {"type": "Point", "coordinates": [-71.3545461839, 41.8432626552]}, "type": "Feature", "properties": {"collection_times": [{"days": "Mon-Sat", "time": "10:00am"}, {"days": "Sun", "time": "Closed"}], "id": "0291600010", "name": "USPS COLLECTION BOX - BLUE BOX", "address": {"city": "RUMFORD", "state": "RI", "street": "68 NEWPORT AVE", "postcode": "02916"}}},
{"geometry": {"type": "Point", "coordinates": [-71.3542895156, 41.8535018481]}, "type": "Feature", "properties": {"collection_times": [{"days": "Mon-Sat", "time": "10:30am"}, {"days": "Sun", "time": "Closed"}], "id": "0291600011", "name": "USPS COLLECTION BOX - BLUE BOX", "address": {"city": "RUMFORD", "state": "RI", "street": "220 NEWPORT AVE", "postcode": "02916"}}},
{"geometry": {"type": "Point", "coordinates": [-71.3496219059, 41.8408034195]}, "type": "Feature", "properties": {"collection_times": [{"days": "Mon-Sat", "time": "10:00am"}, {"days": "Sun", "time": "Closed"}], "id": "0291600013", "name": "USPS COLLECTION BOX - BLUE BOX", "address": {"city": "RUMFORD", "state": "RI", "street": "1240 PAWTUCKET AVE", "postcode": "02916"}}},
{"geometry": {"type": "Point", "coordinates": [-71.3645898316, 41.8480406606]}, "type": "Feature", "properties": {"collection_times": [{"days": "Mon-Sat", "time": "10:00am"}, {"days": "Sun", "time": "Closed"}], "id": "0291600015", "name": "USPS COLLECTION BOX - BLUE BOX", "address": {"city": "RUMFORD", "state": "RI", "street": "302 ROGER WILLIAMS AVE", "postcode": "02916"}}},
{"geometry": {"type": "Point", "coordinates": [-71.3620786265, 41.8377325504]}, "type": "Feature", "properties": {"collection_times": [{"days": "Mon-Sat", "time": "12:00pm"}, {"days": "Sun", "time": "Closed"}], "id": "0291600016", "name": "USPS COLLECTION BOX - BLUE BOX", "address": {"city": "RUMFORD", "state": "RI", "street": "261 WILSON AVE", "postcode": "02916"}}},
{"geometry": {"type": "Point", "coordinates": [-71.3604661763, 41.8385653478]}, "type": "Feature", "properties": {"collection_times": [{"days": "Mon-Sat", "time": "12:00pm"}, {"days": "Sun", "time": "Closed"}], "id": "0291600017", "name": "USPS COLLECTION BOX - BLUE BOX", "address": {"city": "RUMFORD", "state": "RI", "street": "52 WILSON AVE", "postcode": "02916"}}},
{"geometry": {"type": "Point", "coordinates": [-71.3495603921, 41.8421685541]}, "type": "Feature", "properties": {"collection_times": [{"days": "Mon-Sat", "time": "10:15am"}, {"days": "Sun", "time": "Closed"}], "id": "0291600019", "name": "USPS COLLECTION BOX - BLUE BOX", "address": {"city": "RUMFORD", "state": "RI", "street": "27 FERRIS AVE", "postcode": "02916"}}},
{"geometry": {"type": "Point", "coordinates": [-71.5176680683, 41.8927929464]}, "type": "Feature", "properties": {"collection_times": [{"days": "Mon-Sat", "time": "11:00am"}, {"days": "Sun", "time": "Closed"}], "id": "0291700002", "name": "USPS COLLECTION BOX - BLUE BOX", "address": {"city": "SMITHFIELD", "state": "RI", "street": "126 OLD COUNTY RD", "postcode": "02917"}}},
{"geometry": {"type": "Point", "coordinates": [-71.5171971202, 41.8928825721]}, "type": "Feature", "properties": {"collection_times": [{"days": "Mon-Fri", "time": "4:30pm"}, {"days": "Sat", "time": "9:00am"}, {"days": "Sun", "time": "Closed"}], "id": "0291700003", "name": "USPS COLLECTION BOX - BLUE BOX", "address": {"city": "SMITHFIELD", "state": "RI", "street": "2 THURBER BLVD", "postcode": "02917"}}},
{"geometry": {"type": "Point", "coordinates": [-71.5171165735, 41.9120358158]}, "type": "Feature", "properties": {"collection_times": [{"days": "Mon-Fri", "time": "4:30pm"}, {"days": "Sat", "time": "9:00am"}, {"days": "Sun", "time": "Closed"}], "id": "0291700004", "name": "USPS COLLECTION BOX - BLUE BOX", "address": {"city": "SMITHFIELD", "state": "RI", "street": "2 THURBER BLVD", "postcode": "02917"}}},
{"geometry": {"type": "Point", "coordinates": [-71.5162217019, 41.9125036519]}, "type": "Feature", "properties": {"collection_times": [{"days": "Mon-Fri", "time": "4:30pm"}, {"days": "Sat", "time": "9:00am"}, {"days": "Sun", "time": "Closed"}], "id": "0291700005", "name": "USPS COLLECTION BOX - BLUE BOX", "address": {"city": "SMITHFIELD", "state": "RI", "street": "2 THURBER BLVD", "postcode": "02917"}}},
{"geometry": {"type": "Point", "coordinates": [-71.4729492968, 41.8786028427]}, "type": "Feature", "properties": {"collection_times": [{"days": "Mon-Sat", "time": "11:00am"}, {"days": "Sun", "time": "Closed"}], "id": "0291700008", "name": "USPS COLLECTION BOX - BLUE BOX", "address": {"city": "SMITHFIELD", "state": "RI", "street": "125 DOUGLAS PIKE", "postcode": "02917"}}},
{"geometry": {"type": "Point", "coordinates": [-71.5176680683, 41.8927929464]}, "type": "Feature", "properties": {"collection_times": [{"days": "Mon-Sat", "time": "11:00am"}, {"days": "Sun", "time": "Closed"}], "id": "0291700012", "name": "USPS COLLECTION BOX - BLUE BOX", "address": {"city": "SMITHFIELD", "state": "RI", "street": "64 FARNUM PIKE", "postcode": "02917"}}},
{"geometry": {"type": "Point", "coordinates": [-71.5176680683, 41.8927929464]}, "type": "Feature", "properties": {"collection_times": [{"days": "Mon-Fri", "time": "5:00pm"}, {"days": "Sat", "time": "2:00pm"}, {"days": "Sun", "time": "Closed"}], "id": "0291700013", "name": "USPS COLLECTION BOX - BLUE BOX", "address": {"city": "SMITHFIELD", "state": "RI", "street": "290 OLD COUNTY RD", "postcode": "02917"}}},
{"geometry": {"type": "Point", "coordinates": [-71.5176680683, 41.8927929464]}, "type": "Feature", "properties": {"collection_times": [{"days": "Mon-Sat", "time": "11:00am"}, {"days": "Sun", "time": "Closed"}], "id": "0291700015", "name": "USPS COLLECTION BOX - BLUE BOX", "address": {"city": "SMITHFIELD", "state": "RI", "street": "109 PLEASANT VIEW AVE", "postcode": "02917"}}},
{"geometry": {"type": "Point", "coordinates": [-71.5261676069, 41.8701020784]}, "type": "Feature", "properties": {"collection_times": [{"days": "Mon-Sat", "time": "11:00am"}, {"days": "Sun", "time": "Closed"}], "id": "0291700016", "name": "USPS COLLECTION BOX - BLUE BOX", "address": {"city": "SMITHFIELD", "state": "RI", "street": "400 PUTNAM PIKE", "postcode": "02917"}}},
{"geometry": {"type": "Point", "coordinates": [-71.5003826136, 41.8778404379]}, "type": "Feature", "properties": {"collection_times": [{"days": "Mon-Sat", "time": "11:00am"}, {"days": "Sun", "time": "Closed"}], "id": "0291700017", "name": "USPS COLLECTION BOX - BLUE BOX", "address": {"city": "SMITHFIELD", "state": "RI", "street": "353 WATERMAN AVE", "postcode": "02917"}}},
{"geometry": {"type": "Point", "coordinates": [-71.5238853337, 41.9060588744]}, "type": "Feature", "properties": {"collection_times": [{"days": "Mon-Sat", "time": "10:00am"}, {"days": "Sun", "time": "Closed"}], "id": "0291700018", "name": "USPS COLLECTION BOX - BLUE BOX", "address": {"city": "SMITHFIELD", "state": "RI", "street": "14 CEDAR SWAMP RD", "postcode": "02917"}}},
{"geometry": {"type": "Point", "coordinates": [-71.5491616814, 41.9131803023]}, "type": "Feature", "properties": {"collection_times": [{"days": "Mon-Fri", "time": "4:15pm"}, {"days": "Sat-Sun", "time": "Closed"}], "id": "0291700021", "name": "USPS COLLECTION BOX - BLUE BOX", "address": {"city": "SMITHFIELD", "state": "RI", "street": "1 INDUSTRIAL DR S", "postcode": "02917"}}},
{"geometry": {"type": "Point", "coordinates": [-71.4705515589, 41.8145766223]}, "type": "Feature", "properties": {"collection_times": [{"days": "Mon-Sat", "time": "12:00pm"}, {"days": "Sun", "time": "Closed"}], "id": "0291900002", "name": "USPS COLLECTION BOX - BLUE BOX", "address": {"city": "JOHNSTON", "state": "RI", "street": "134 CENTRAL AVE", "postcode": "02919"}}},
{"geometry": {"type": "Point", "coordinates": [-71.4949417893, 41.8115087391]}, "type": "Feature", "properties": {"collection_times": [{"days": "Mon-Fri", "time": "11:00am"}, {"days": "Sat", "time": "12:00pm"}, {"days": "Sun", "time": "Closed"}], "id": "0291900003", "name": "USPS COLLECTION BOX - BLUE BOX", "address": {"city": "JOHNSTON", "state": "RI", "street": "1184 ATWOOD AVE", "postcode": "02919"}}},
{"geometry": {"type": "Point", "coordinates": [-71.482779598, 41.7959902793]}, "type": "Feature", "properties": {"collection_times": [{"days": "Mon-Sat", "time": "12:00pm"}, {"days": "Sun", "time": "Closed"}], "id": "0291900006", "name": "USPS COLLECTION BOX - BLUE BOX", "address": {"city": "JOHNSTON", "state": "RI", "street": "1459 ATWOOD AVE", "postcode": "02919"}}},
{"geometry": {"type": "Point", "coordinates": [-71.5001346834, 41.8276381492]}, "type": "Feature", "properties": {"collection_times": [{"days": "Mon-Fri", "time": "11:00am"}, {"days": "Sat", "time": "12:00pm"}, {"days": "Sun", "time": "Closed"}], "id": "0291900007", "name": "USPS COLLECTION BOX - BLUE BOX", "address": {"city": "JOHNSTON", "state": "RI", "street": "1478 ATWOOD AVE", "postcode": "02919"}}},
{"geometry": {"type": "Point", "coordinates": [-71.5005922645, 41.8293922491]}, "type": "Feature", "properties": {"collection_times": [{"days": "Mon-Fri", "time": "5:00pm"}, {"days": "Sat", "time": "12:00pm"}, {"days": "Sun", "time": "Closed"}], "id": "0291900008", "name": "USPS COLLECTION BOX - BLUE BOX", "address": {"city": "JOHNSTON", "state": "RI", "street": "1524 ATWOOD AVE", "postcode": "02919"}}},
{"geometry": {"type": "Point", "coordinates": [-71.4820894412, 41.8367598392]}, "type": "Feature", "properties": {"collection_times": [{"days": "Mon-Sat", "time": "11:00am"}, {"days": "Sun", "time": "Closed"}], "id": "0291900013", "name": "USPS COLLECTION BOX - BLUE BOX", "address": {"city": "JOHNSTON", "state": "RI", "street": "2 CHERRY HILL RD", "postcode": "02919"}}},
{"geometry": {"type": "Point", "coordinates": [-71.4981366298, 41.8205890408]}, "type": "Feature", "properties": {"collection_times": [{"days": "Mon-Fri", "time": "11:00am"}, {"days": "Sat", "time": "12:00pm"}, {"days": "Sun", "time": "Closed"}], "id": "0291900014", "name": "USPS COLLECTION BOX - BLUE BOX", "address": {"city": "JOHNSTON", "state": "RI", "street": "11 COMMERCE WAY", "postcode": "02919"}}},
{"geometry": {"type": "Point", "coordinates": [-71.4793161024, 41.8350235439]}, "type": "Feature", "properties": {"collection_times": [{"days": "Mon-Sat", "time": "11:00am"}, {"days": "Sun", "time": "Closed"}], "id": "0291900015", "name": "USPS COLLECTION BOX - BLUE BOX", "address": {"city": "JOHNSTON", "state": "RI", "street": "8 FORAND CIR", "postcode": "02919"}}},
{"geometry": {"type": "Point", "coordinates": [-71.4756047762, 41.8337629306]}, "type": "Feature", "properties": {"collection_times": [{"days": "Mon-Sat", "time": "11:00am"}, {"days": "Sun", "time": "Closed"}], "id": "0291900017", "name": "USPS COLLECTION BOX - BLUE BOX", "address": {"city": "JOHNSTON", "state": "RI", "street": "80 GREENVILLE AVE", "postcode": "02919"}}},
{"geometry": {"type": "Point", "coordinates": [-71.4704597376, 41.8329100034]}, "type": "Feature", "properties": {"collection_times": [{"days": "Mon-Sat", "time": "11:00am"}, {"days": "Sun", "time": "Closed"}], "id": "0291900018", "name": "USPS COLLECTION BOX - BLUE BOX", "address": {"city": "JOHNSTON", "state": "RI", "street": "269 GREENVILLE AVE", "postcode": "02919"}}},
{"geometry": {"type": "Point", "coordinates": [-71.472639219, 41.819508631]}, "type": "Feature", "properties": {"collection_times": [{"days": "Mon-Sat", "time": "12:00pm"}, {"days": "Sun", "time": "Closed"}], "id": "0291900019", "name": "USPS COLLECTION BOX - BLUE BOX", "address": {"city": "JOHNSTON", "state": "RI", "street": "807 HARTFORD AVE", "postcode": "02919"}}},
{"geometry": {"type": "Point", "coordinates": [-71.4708981517, 41.8230434873]}, "type": "Feature", "properties": {"collection_times": [{"days": "Mon-Sat", "time": "11:00am"}, {"days": "Sun", "time": "Closed"}], "id": "0291900024", "name": "USPS COLLECTION BOX - BLUE BOX", "address": {"city": "JOHNSTON", "state": "RI", "street": "636 KILLINGLY ST", "postcode": "02919"}}},
{"geometry": {"type": "Point", "coordinates": [-71.4837981342, 41.7954810112]}, "type": "Feature", "properties": {"collection_times": [{"days": "Mon-Sat", "time": "12:00pm"}, {"days": "Sun", "time": "Closed"}], "id": "0291900026", "name": "USPS COLLECTION BOX - BLUE BOX", "address": {"city": "JOHNSTON", "state": "RI", "street": "1192 PLAINFIELD ST", "postcode": "02919"}}},
{"geometry": {"type": "Point", "coordinates": [-71.479086747, 41.7972542072]}, "type": "Feature", "properties": {"collection_times": [{"days": "Mon-Sat", "time": "12:00pm"}, {"days": "Sun", "time": "Closed"}], "id": "0291900028", "name": "USPS COLLECTION BOX - BLUE BOX", "address": {"city": "JOHNSTON", "state": "RI", "street": "1306 PLAINFIELD ST", "postcode": "02919"}}},
{"geometry": {"type": "Point", "coordinates": [-71.4996037344, 41.825700796]}, "type": "Feature", "properties": {"collection_times": [{"days": "Mon-Fri", "time": "5:00pm"}, {"days": "Sat", "time": "4:30pm"}, {"days": "Sun", "time": "Closed"}], "id": "0291900034", "name": "USPS COLLECTION BOX - BLUE BOX", "address": {"city": "JOHNSTON", "state": "RI", "street": "1530 ATWOOD AVE", "postcode": "02919"}}},
{"geometry": {"type": "Point", "coordinates": [-71.4996037344, 41.825700796]}, "type": "Feature", "properties": {"collection_times": [{"days": "Mon-Fri", "time": "5:00pm"}, {"days": "Sat", "time": "4:30pm"}, {"days": "Sun", "time": "Closed"}], "id": "0291900038", "name": "USPS COLLECTION BOX - BLUE BOX", "address": {"city": "JOHNSTON", "state": "RI", "street": "1530 ATWOOD AVE", "postcode": "02919"}}},
{"geometry": {"type": "Point", "coordinates": [-71.500674236, 41.829611607]}, "type": "Feature", "properties": {"collection_times": [{"days": "Mon-Fri", "time": "5:00pm"}, {"days": "Sat", "time": "2:00pm"}, {"days": "Sun", "time": "Closed"}], "id": "0291900040", "name": "USPS COLLECTION BOX - APC", "address": {"city": "JOHNSTON", "state": "RI", "street": "1530 ATWOOD AVE", "postcode": "02919"}}},
{"geometry": {"type": "Point", "coordinates": [-71.4996037344, 41.825700796]}, "type": "Feature", "properties": {"collection_times": [{"days": "Mon-Fri", "time": "5:00pm"}, {"days": "Sat", "time": "4:30pm"}, {"days": "Sun", "time": "Closed"}], "id": "0291900043", "name": "USPS COLLECTION BOX - BLUE BOX", "address": {"city": "JOHNSTON", "state": "RI", "street": "1530 ATWOOD AVE", "postcode": "02919"}}},
{"geometry": {"type": "Point", "coordinates": [-71.5600997831, 41.7900739121]}, "type": "Feature", "properties": {"collection_times": [{"days": "Mon-Fri", "time": "5:00pm"}, {"days": "Sat", "time": "9:00am"}, {"days": "Sun", "time": "Closed"}], "id": "0291900045", "name": "USPS COLLECTION BOX - BLUE BOX", "address": {"city": "JOHNSTON", "state": "RI", "street": "2001 PLAINFIELD PIKE", "postcode": "02919"}}},
{"geometry": {"type": "Point", "coordinates": [-71.448106095, 41.75080627]}, "type": "Feature", "properties": {"collection_times": [{"days": "Mon-Sat", "time": "12:00pm"}, {"days": "Sun", "time": "Closed"}], "id": "0292000003", "name": "USPS COLLECTION BOX - BLUE BOX", "address": {"city": "CRANSTON", "state": "RI", "street": "70 FREEWAY DR", "postcode": "02920"}}},
{"geometry": {"type": "Point", "coordinates": [-71.471091543, 41.779717761]}, "type": "Feature", "properties": {"collection_times": [{"days": "Mon-Sat", "time": "12:00pm"}, {"days": "Sun", "time": "Closed"}], "id": "0292000004", "name": "USPS COLLECTION BOX - BLUE BOX", "address": {"city": "CRANSTON", "state": "RI", "street": "120 ATWOOD AVE", "postcode": "02920"}}},
{"geometry": {"type": "Point", "coordinates": [-71.4729265395, 41.7831130375]}, "type": "Feature", "properties": {"collection_times": [{"days": "Mon-Sat", "time": "12:00pm"}, {"days": "Sun", "time": "Closed"}], "id": "0292000007", "name": "USPS COLLECTION BOX - BLUE BOX", "address": {"city": "CRANSTON", "state": "RI", "street": "250 ATWOOD AVE", "postcode": "02920"}}},
{"geometry": {"type": "Point", "coordinates": [-71.4725541467, 41.7863118192]}, "type": "Feature", "properties": {"collection_times": [{"days": "Mon-Sat", "time": "12:00pm"}, {"days": "Sun", "time": "Closed"}], "id": "0292000010", "name": "USPS COLLECTION BOX - BLUE BOX", "address": {"city": "CRANSTON", "state": "RI", "street": "383 ATWOOD AVE", "postcode": "02920"}}},
{"geometry": {"type": "Point", "coordinates": [-71.4722899832, 41.788301734]}, "type": "Feature", "properties": {"collection_times": [{"days": "Mon-Sat", "time": "12:00pm"}, {"days": "Sun", "time": "Closed"}], "id": "0292000012", "name": "USPS COLLECTION BOX - BLUE BOX", "address": {"city": "CRANSTON", "state": "RI", "street": "471 ATWOOD AVE", "postcode": "02920"}}},
{"geometry": {"type": "Point", "coordinates": [-71.491453524, 41.7913048157]}, "type": "Feature", "properties": {"collection_times": [{"days": "Mon-Sat", "time": "12:00pm"}, {"days": "Sun", "time": "Closed"}], "id": "0292000014", "name": "USPS COLLECTION BOX - BLUE BOX", "address": {"city": "CRANSTON", "state": "RI", "street": "12 BLUE JAY DR", "postcode": "02920"}}},
{"geometry": {"type": "Point", "coordinates": [-71.4650570541, 41.772830116]}, "type": "Feature", "properties": {"collection_times": [{"days": "Mon-Sat", "time": "12:00pm"}, {"days": "Sun", "time": "Closed"}], "id": "0292000016", "name": "USPS COLLECTION BOX - BLUE BOX", "address": {"city": "CRANSTON", "state": "RI", "street": "98 BUDLONG RD", "postcode": "02920"}}},
{"geometry": {"type": "Point", "coordinates": [-71.4650570541, 41.772830116]}, "type": "Feature", "properties": {"collection_times": [{"days": "Mon-Sat", "time": "12:00pm"}, {"days": "Sun", "time": "Closed"}], "id": "0292000018", "name": "USPS COLLECTION BOX - BLUE BOX", "address": {"city": "CRANSTON", "state": "RI", "street": "476 BUDLONG RD", "postcode": "02920"}}},
{"geometry": {"type": "Point", "coordinates": [-71.4650570541, 41.772830116]}, "type": "Feature", "properties": {"collection_times": [{"days": "Mon-Sat", "time": "12:00pm"}, {"days": "Sun", "time": "Closed"}], "id": "0292000023", "name": "USPS COLLECTION BOX - BLUE BOX", "address": {"city": "CRANSTON", "state": "RI", "street": "899 CRANSTON ST", "postcode": "02920"}}},
{"geometry": {"type": "Point", "coordinates": [-71.4475704987, 41.7993233865]}, "type": "Feature", "properties": {"collection_times": [{"days": "Mon-Sat", "time": "12:00pm"}, {"days": "Sun", "time": "Closed"}], "id": "0292000024", "name": "USPS COLLECTION BOX - BLUE BOX", "address": {"city": "CRANSTON", "state": "RI", "street": "1011 CRANSTON ST", "postcode": "02920"}}},
{"geometry": {"type": "Point", "coordinates": [-71.4484742803, 41.7973363106]}, "type": "Feature", "properties": {"collection_times": [{"days": "Mon-Sat", "time": "12:00pm"}, {"days": "Sun", "time": "Closed"}], "id": "0292000025", "name": "USPS COLLECTION BOX - BLUE BOX", "address": {"city": "CRANSTON", "state": "RI", "street": "1070 CRANSTON ST", "postcode": "02920"}}},
{"geometry": {"type": "Point", "coordinates": [-71.4650570541, 41.772830116]}, "type": "Feature", "properties": {"collection_times": [{"days": "Mon-Sat", "time": "12:00pm"}, {"days": "Sun", "time": "Closed"}], "id": "0292000027", "name": "USPS COLLECTION BOX - BLUE BOX", "address": {"city": "CRANSTON", "state": "RI", "street": "1160 CRANSTON ST", "postcode": "02920"}}},
{"geometry": {"type": "Point", "coordinates": [-71.4650570541, 41.772830116]}, "type": "Feature", "properties": {"collection_times": [{"days": "Mon-Sat", "time": "12:00pm"}, {"days": "Sun", "time": "Closed"}], "id": "0292000034", "name": "USPS COLLECTION BOX - BLUE BOX", "address": {"city": "CRANSTON", "state": "RI", "street": "1356 CRANSTON ST", "postcode": "02920"}}},
{"geometry": {"type": "Point", "coordinates": [-71.474006642, 41.767079416]}, "type": "Feature", "properties": {"collection_times": [{"days": "Mon-Sat", "time": "12:00pm"}, {"days": "Sun", "time": "Closed"}], "id": "0292000038", "name": "USPS COLLECTION BOX - BLUE BOX", "address": {"city": "CRANSTON", "state": "RI", "street": "2209 CRANSTON ST", "postcode": "02920"}}},
{"geometry": {"type": "Point", "coordinates": [-71.4802426662, 41.746509582]}, "type": "Feature", "properties": {"collection_times": [{"days": "Mon-Sat", "time": "12:00pm"}, {"days": "Sun", "time": "Closed"}], "id": "0292000041", "name": "USPS COLLECTION BOX - BLUE BOX", "address": {"city": "CRANSTON", "state": "RI", "street": "5 EXCHANGE ST", "postcode": "02920"}}},
{"geometry": {"type": "Point", "coordinates": [-71.4650570541, 41.772830116]}, "type": "Feature", "properties": {"collection_times": [{"days": "Mon-Sat", "time": "12:00pm"}, {"days": "Sun", "time": "Closed"}], "id": "0292000042", "name": "USPS COLLECTION BOX - BLUE BOX", "address": {"city": "CRANSTON", "state": "RI", "street": "645 NEW LONDON AVE", "postcode": "02920"}}},
{"geometry": {"type": "Point", "coordinates": [-71.4630280699, 41.7628626008]}, "type": "Feature", "properties": {"collection_times": [{"days": "Mon-Sat", "time": "12:00pm"}, {"days": "Sun", "time": "Closed"}], "id": "0292000043", "name": "USPS COLLECTION BOX - BLUE BOX", "address": {"city": "CRANSTON", "state": "RI", "street": "5 GLENVIEW DR", "postcode": "02920"}}},
{"geometry": {"type": "Point", "coordinates": [-71.4585070733, 41.7644140051]}, "type": "Feature", "properties": {"collection_times": [{"days": "Mon-Sat", "time": "12:00pm"}, {"days": "Sun", "time": "Closed"}], "id": "0292000044", "name": "USPS COLLECTION BOX - BLUE BOX", "address": {"city": "CRANSTON", "state": "RI", "street": "31 HILLSIDE RD", "postcode": "02920"}}},
{"geometry": {"type": "Point", "coordinates": [-71.4588059403, 41.7601315075]}, "type": "Feature", "properties": {"collection_times": [{"days": "Mon-Sat", "time": "12:00pm"}, {"days": "Sun", "time": "Closed"}], "id": "0292000045", "name": "USPS COLLECTION BOX - BLUE BOX", "address": {"city": "CRANSTON", "state": "RI", "street": "175 HILLSIDE RD", "postcode": "02920"}}},
{"geometry": {"type": "Point", "coordinates": [-71.4650570541, 41.772830116]}, "type": "Feature", "properties": {"collection_times": [{"days": "Mon-Sat", "time": "12:00pm"}, {"days": "Sun", "time": "Closed"}], "id": "0292000046", "name": "USPS COLLECTION BOX - BLUE BOX", "address": {"city": "CRANSTON", "state": "RI", "street": "670 NEW LONDON AVE", "postcode": "02920"}}},
{"geometry": {"type": "Point", "coordinates": [-71.4524117165, 41.74230277]}, "type": "Feature", "properties": {"collection_times": [{"days": "Mon-Sat", "time": "12:00pm"}, {"days": "Sun", "time": "Closed"}], "id": "0292000047", "name": "USPS COLLECTION BOX - BLUE BOX", "address": {"city": "CRANSTON", "state": "RI", "street": "24 KENNEY DR", "postcode": "02920"}}},
{"geometry": {"type": "Point", "coordinates": [-71.4650570541, 41.772830116]}, "type": "Feature", "properties": {"collection_times": [{"days": "Mon-Sat", "time": "12:00pm"}, {"days": "Sun", "time": "Closed"}], "id": "0292000048", "name": "USPS COLLECTION BOX - BLUE BOX", "address": {"city": "CRANSTON", "state": "RI", "street": "161 LAKE GARDEN DR", "postcode": "02920"}}},
{"geometry": {"type": "Point", "coordinates": [-71.4521526267, 41.7995120893]}, "type": "Feature", "properties": {"collection_times": [{"days": "Mon-Sat", "time": "12:00pm"}, {"days": "Sun", "time": "Closed"}], "id": "0292000049", "name": "USPS COLLECTION BOX - BLUE BOX", "address": {"city": "CRANSTON", "state": "RI", "street": "538 LAUREL HILL AVE", "postcode": "02920"}}},
{"geometry": {"type": "Point", "coordinates": [-71.4661638089, 41.7866216214]}, "type": "Feature", "properties": {"collection_times": [{"days": "Mon-Sat", "time": "12:00pm"}, {"days": "Sun", "time": "Closed"}], "id": "0292000050", "name": "USPS COLLECTION BOX - BLUE BOX", "address": {"city": "CRANSTON", "state": "RI", "street": "75 MATHEWSON ST", "postcode": "02920"}}},
{"geometry": {"type": "Point", "coordinates": [-71.4650092592, 41.7727822751]}, "type": "Feature", "properties": {"collection_times": [{"days": "Mon-Sat", "time": "5:00pm"}, {"days": "Sun", "time": "Closed"}], "id": "0292000054", "name": "USPS COLLECTION BOX - EXPRESS", "address": {"city": "CRANSTON", "state": "RI", "street": "200 MIDWAY RD", "postcode": "02920"}}},
{"geometry": {"type": "Point", "coordinates": [-71.478865638, 41.7381443335]}, "type": "Feature", "properties": {"collection_times": [{"days": "Mon-Fri", "time": "3:00pm"}, {"days": "Sat", "time": "12:00pm"}, {"days": "Sun", "time": "Closed"}], "id": "0292000055", "name": "USPS COLLECTION BOX - BLUE BOX", "address": {"city": "CRANSTON", "state": "RI", "street": "1150 NEW LONDON AVE", "postcode": "02920"}}},
{"geometry": {"type": "Point", "coordinates": [-71.4650570541, 41.772830116]}, "type": "Feature", "properties": {"collection_times": [{"days": "Mon-Sat", "time": "12:00pm"}, {"days": "Sun", "time": "Closed"}], "id": "0292000059", "name": "USPS COLLECTION BOX - BLUE BOX", "address": {"city": "CRANSTON", "state": "RI", "street": "650 OAKLAWN AVE", "postcode": "02920"}}},
{"geometry": {"type": "Point", "coordinates": [-71.4785748778, 41.7480669882]}, "type": "Feature", "properties": {"collection_times": [{"days": "Mon-Sat", "time": "12:00pm"}, {"days": "Sun", "time": "Closed"}], "id": "0292000061", "name": "USPS COLLECTION BOX - BLUE BOX", "address": {"city": "CRANSTON", "state": "RI", "street": "880 OAKLAWN AVE", "postcode": "02920"}}},
{"geometry": {"type": "Point", "coordinates": [-71.4650570541, 41.772830116]}, "type": "Feature", "properties": {"collection_times": [{"days": "Mon-Sat", "time": "12:00pm"}, {"days": "Sun", "time": "Closed"}], "id": "0292000064", "name": "USPS COLLECTION BOX - BLUE BOX", "address": {"city": "CRANSTON", "state": "RI", "street": "975 OAKLAWN AVE", "postcode": "02920"}}},
{"geometry": {"type": "Point", "coordinates": [-71.4481047286, 41.7527297247]}, "type": "Feature", "properties": {"collection_times": [{"days": "Mon-Sat", "time": "12:00pm"}, {"days": "Sun", "time": "Closed"}], "id": "0292000066", "name": "USPS COLLECTION BOX - BLUE BOX", "address": {"city": "CRANSTON", "state": "RI", "street": "47 PETTACONSETT AVE", "postcode": "02920"}}},
{"geometry": {"type": "Point", "coordinates": [-71.4540505809, 41.7705899345]}, "type": "Feature", "properties": {"collection_times": [{"days": "Mon-Sat", "time": "12:00pm"}, {"days": "Sun", "time": "Closed"}], "id": "0292000072", "name": "USPS COLLECTION BOX - BLUE BOX", "address": {"city": "CRANSTON", "state": "RI", "street": "1145 RESERVOIR AVE", "postcode": "02920"}}},
{"geometry": {"type": "Point", "coordinates": [-71.4650092592, 41.7727822751]}, "type": "Feature", "properties": {"collection_times": [{"days": "Mon-Sat", "time": "12:00pm"}, {"days": "Sun", "time": "Closed"}], "id": "0292000073", "name": "USPS COLLECTION BOX - BLUE BOX", "address": {"city": "CRANSTON", "state": "RI", "street": "2000 CHAPEL VIEW BLVD", "postcode": "02920"}}},
{"geometry": {"type": "Point", "coordinates": [-71.4650570541, 41.772830116]}, "type": "Feature", "properties": {"collection_times": [{"days": "Mon-Sat", "time": "12:00pm"}, {"days": "Sun", "time": "Closed"}], "id": "0292000078", "name": "USPS COLLECTION BOX - BLUE BOX", "address": {"city": "CRANSTON", "state": "RI", "street": "95 SOCKANOSSET CROSS RD", "postcode": "02920"}}},
{"geometry": {"type": "Point", "coordinates": [-71.4773820415, 41.7339842782]}, "type": "Feature", "properties": {"collection_times": [{"days": "Mon-Sat", "time": "12:00pm"}, {"days": "Sun", "time": "Closed"}], "id": "0292000084", "name": "USPS COLLECTION BOX - BLUE BOX", "address": {"city": "CRANSTON", "state": "RI", "street": "1312 OAKLAWN AVE", "postcode": "02920"}}},
{"geometry": {"type": "Point", "coordinates": [-71.4536581622, 41.7535652764]}, "type": "Feature", "properties": {"collection_times": [{"days": "Mon-Fri", "time": "3:00pm"}, {"days": "Sat", "time": "12:00pm"}, {"days": "Sun", "time": "Closed"}], "id": "0292000085", "name": "USPS COLLECTION BOX - BLUE BOX", "address": {"city": "CRANSTON", "state": "RI", "street": "75 SOCKANOSSET CROSS RD", "postcode": "02920"}}},
{"geometry": {"type": "Point", "coordinates": [-71.456747016, 41.76117934]}, "type": "Feature", "properties": {"collection_times": [{"days": "Mon-Sat", "time": "5:00pm"}, {"days": "Sun", "time": "Closed"}], "id": "0292000086", "name": "USPS COLLECTION BOX - BLUE BOX", "address": {"city": "CRANSTON", "state": "RI", "street": "200 MIDWAY RD", "postcode": "02920"}}},
{"geometry": {"type": "Point", "coordinates": [-71.4566405917, 41.7595547878]}, "type": "Feature", "properties": {"collection_times": [{"days": "Mon-Sat", "time": "5:00pm"}, {"days": "Sun", "time": "Closed"}], "id": "0292000087", "name": "USPS COLLECTION BOX - BLUE BOX", "address": {"city": "CRANSTON", "state": "RI", "street": "200 MIDWAY RD", "postcode": "02920"}}},
{"geometry": {"type": "Point", "coordinates": [-71.4566405917, 41.7595547878]}, "type": "Feature", "properties": {"collection_times": [{"days": "Mon-Fri", "time": "6:00pm"}, {"days": "Sat", "time": "5:30pm"}, {"days": "Sun", "time": "Closed"}], "id": "0292000088", "name": "USPS COLLECTION BOX - APC", "address": {"city": "CRANSTON", "state": "RI", "street": "200 MIDWAY RD", "postcode": "02920"}}},
{"geometry": {"type": "Point", "coordinates": [-71.4419064071, 41.8028776193]}, "type": "Feature", "properties": {"collection_times": [{"days": "Mon-Fri", "time": "12:00pm"}, {"days": "Sat-Sun", "time": "Closed"}], "id": "0292000089", "name": "USPS COLLECTION BOX - BLUE BOX", "address": {"city": "CRANSTON", "state": "RI", "street": "5 GARFIELD AVE", "postcode": "02920"}}},
{"geometry": {"type": "Point", "coordinates": [-71.5159285133, 41.7860394266]}, "type": "Feature", "properties": {"collection_times": [{"days": "Mon-Fri", "time": "5:00pm"}, {"days": "Sat", "time": "12:00pm"}, {"days": "Sun", "time": "Closed"}], "id": "0292100002", "name": "USPS COLLECTION BOX - BLUE BOX", "address": {"city": "PROVIDENCE", "state": "RI", "street": "111 COMSTOCK PKWY", "postcode": "02921"}}},
{"geometry": {"type": "Point", "coordinates": [-71.5081464738, 41.764770085]}, "type": "Feature", "properties": {"collection_times": [{"days": "Mon-Fri", "time": "5:00pm"}, {"days": "Sat", "time": "12:00pm"}, {"days": "Sun", "time": "Closed"}], "id": "0292100003", "name": "USPS COLLECTION BOX - BLUE BOX", "address": {"city": "PROVIDENCE", "state": "RI", "street": "111 COMSTOCK PKWY", "postcode": "02921"}}},
{"geometry": {"type": "Point", "coordinates": [-71.5159285133, 41.7860394266]}, "type": "Feature", "properties": {"collection_times": [{"days": "Mon-Fri", "time": "5:00pm"}, {"days": "Sat", "time": "12:00pm"}, {"days": "Sun", "time": "Closed"}], "id": "0292100004", "name": "USPS COLLECTION BOX - BLUE BOX", "address": {"city": "PROVIDENCE", "state": "RI", "street": "111 COMSTOCK PKWY", "postcode": "02921"}}},
{"geometry": {"type": "Point", "coordinates": [-71.5159285133, 41.7860394266]}, "type": "Feature", "properties": {"collection_times": [{"days": "Mon-Fri", "time": "5:00pm"}, {"days": "Sat", "time": "12:00pm"}, {"days": "Sun", "time": "Closed"}], "id": "0292100005", "name": "USPS COLLECTION BOX - BLUE BOX", "address": {"city": "PROVIDENCE", "state": "RI", "street": "111 COMSTOCK PKWY", "postcode": "02921"}}},
{"geometry": {"type": "Point", "coordinates": [-71.5081377835, 41.764770131]}, "type": "Feature", "properties": {"collection_times": [{"days": "Mon-Sat", "time": "11:00am"}, {"days": "Sun", "time": "Closed"}], "id": "0292100006", "name": "USPS COLLECTION BOX - BLUE BOX", "address": {"city": "PROVIDENCE", "state": "RI", "street": "1776 PLAINFIELD PIKE", "postcode": "02921"}}},
{"geometry": {"type": "Point", "coordinates": [-71.4119899856, 41.8238712934]}, "type": "Feature", "properties": {"collection_times": [{"days": "Mon-Sat", "time": "7:00pm"}, {"days": "Sun", "time": "Closed"}], "id": "0294000001", "name": "USPS COLLECTION BOX - PO LOBBY", "address": {"city": "PROVIDENCE", "state": "RI", "street": "24 CORLISS ST", "postcode": "02940"}}},
{"geometry": {"type": "Point", "coordinates": [-71.4119899856, 41.8238712934]}, "type": "Feature", "properties": {"collection_times": [{"days": "Mon-Sat", "time": "7:00pm"}, {"days": "Sun", "time": "Closed"}], "id": "0294000004", "name": "USPS COLLECTION BOX - BLUE BOX", "address": {"city": "PROVIDENCE", "state": "RI", "street": "24 CORLISS ST", "postcode": "02940"}}},
{"geometry": {"type": "Point", "coordinates": [-71.4139119852, 41.8388857646]}, "type": "Feature", "properties": {"collection_times": [{"days": "Mon-Sat", "time": "7:00pm"}, {"days": "Sun", "time": "Closed"}], "id": "0294000005", "name": "USPS COLLECTION BOX - EXPRESS", "address": {"city": "PROVIDENCE", "state": "RI", "street": "24 CORLISS ST", "postcode": "02940"}}},
{"geometry": {"type": "Point", "coordinates": [-71.4136036255, 41.8394711226]}, "type": "Feature", "properties": {"collection_times": [{"days": "Mon-Sat", "time": "7:00pm"}, {"days": "Sun", "time": "Closed"}], "id": "0294000012", "name": "USPS COLLECTION BOX - APC", "address": {"city": "PROVIDENCE", "state": "RI", "street": "24 CORLISS ST", "postcode": "02940"}}}
]}
