{"type": "FeatureCollection", "features": [
{"geometry": {"type": "Point", "coordinates": [-122.2647498893, 47.3089306105]}, "type": "Feature", "properties": {"collection_times": [{"days": "Mon-Sat", "time": "1:30pm"}, {"days": "Sun", "time": "Closed"}], "id": "9800100006", "name": "USPS COLLECTION BOX - BLUE BOX", "address": {"city": "FEDERAL WAY", "state": "WA", "street": "762 SUPERMALL WAY", "postcode": "98001"}}},
{"geometry": {"type": "Point", "coordinates": [-122.2259872539, 47.3093587349]}, "type": "Feature", "properties": {"collection_times": [{"days": "Mon-Sat", "time": "1:30pm"}, {"days": "Sun", "time": "Closed"}], "id": "9800200012", "name": "USPS COLLECTION BOX - BLUE BOX", "address": {"city": "AUBURN", "state": "WA", "street": "225 AUBURN WAY N", "postcode": "98002"}}},
{"geometry": {"type": "Point", "coordinates": [-122.2241322778, 47.3150866184]}, "type": "Feature", "properties": {"collection_times": [{"days": "Mon-Sat", "time": "1:30pm"}, {"days": "Sun", "time": "Closed"}], "id": "9800200015", "name": "USPS COLLECTION BOX - BLUE BOX", "address": {"city": "AUBURN", "state": "WA", "street": "801 AUBURN WAY N", "postcode": "98002"}}},
{"geometry": {"type": "Point", "coordinates": [-122.2174586477, 47.3056297237]}, "type": "Feature", "properties": {"collection_times": [{"days": "Mon-Sat", "time": "1:30pm"}, {"days": "Sun", "time": "Closed"}], "id": "9800200018", "name": "USPS COLLECTION BOX - BLUE BOX", "address": {"city": "AUBURN", "state": "WA", "street": "202 E MAIN ST", "postcode": "98002"}}},
{"geometry": {"type": "Point", "coordinates": [-122.2145454773, 47.3080412518]}, "type": "Feature", "properties": {"collection_times": [{"days": "Mon-Sat", "time": "1:30pm"}, {"days": "Sun", "time": "Closed"}], "id": "9800200019", "name": "USPS COLLECTION BOX - BLUE BOX", "address": {"city": "AUBURN", "state": "WA", "street": "1123 E MAIN ST", "postcode": "98002"}}},
{"geometry": {"type": "Point", "coordinates": [-122.2287941863, 47.2732393503]}, "type": "Feature", "properties": {"collection_times": [{"days": "Mon-Sat", "time": "1:30pm"}, {"days": "Sun", "time": "Closed"}], "id": "9800200022", "name": "USPS COLLECTION BOX - BLUE BOX", "address": {"city": "AUBURN", "state": "WA", "street": "4010 A ST SE", "postcode": "98002"}}},
{"geometry": {"type": "Point", "coordinates": [-122.2174586477, 47.3056297237]}, "type": "Feature", "properties": {"collection_times": [{"days": "Mon-Fri", "time": "5:00pm"}, {"days": "Sat", "time": "3:30pm"}, {"days": "Sun", "time": "Closed"}], "id": "9800200025", "name": "USPS COLLECTION BOX - BLUE BOX", "address": {"city": "AUBURN", "state": "WA", "street": "11 3RD ST NW", "postcode": "98002"}}},
{"geometry": {"type": "Point", "coordinates": [-122.217458648, 47.3056297695]}, "type": "Feature", "properties": {"collection_times": [{"days": "Mon-Sat", "time": "1:30pm"}, {"days": "Sun", "time": "Closed"}], "id": "9800200031", "name": "USPS COLLECTION BOX - BLUE BOX", "address": {"city": "AUBURN", "state": "WA", "street": "1341 AUBURN WAY N", "postcode": "98002"}}},
{"geometry": {"type": "Point", "coordinates": [-122.2299919148, 47.3102714253]}, "type": "Feature", "properties": {"collection_times": [{"days": "Mon-Fri", "time": "5:00pm"}, {"days": "Sat", "time": "3:30pm"}, {"days": "Sun", "time": "Closed"}], "id": "9800200034", "name": "USPS COLLECTION BOX - PO LOBBY", "address": {"city": "AUBURN", "state": "WA", "street": "11 3RD ST NW", "postcode": "98002"}}},
{"geometry": {"type": "Point", "coordinates": [-122.2299919148, 47.3102714253]}, "type": "Feature", "properties": {"collection_times": [{"days": "Mon-Fri", "time": "5:00pm"}, {"days": "Sat", "time": "3:30pm"}, {"days": "Sun", "time": "Closed"}], "id": "9800200037", "name": "USPS COLLECTION BOX - PO LOBBY", "address": {"city": "AUBURN", "state": "WA", "street": "11 3RD ST NW", "postcode": "98002"}}},
{"geometry": {"type": "Point", "coordinates": [-122.2151619011, 47.2953986942]}, "type": "Feature", "properties": {"collection_times": [{"days": "Mon-Sat", "time": "1:30pm"}, {"days": "Sun", "time": "Closed"}], "id": "9800200039", "name": "USPS COLLECTION BOX - BLUE BOX", "address": {"city": "AUBURN", "state": "WA", "street": "1509 AUBURN WAY S", "postcode": "98002"}}},
{"geometry": {"type": "Point", "coordinates": [-122.2299919148, 47.3102714253]}, "type": "Feature", "properties": {"collection_times": [{"days": "Mon-Fri", "time": "5:00pm"}, {"days": "Sat", "time": "3:30pm"}, {"days": "Sun", "time": "Closed"}], "id": "9800200040", "name": "USPS COLLECTION BOX - APC", "address": {"city": "AUBURN", "state": "WA", "street": "11 3RD ST NW", "postcode": "98002"}}},
{"geometry": {"type": "Point", "coordinates": [-120.5562630964, 47.4112505258]}, "type": "Feature", "properties": {"collection_times": [{"days": "Mon-Sat", "time": "1:30pm"}, {"days": "Sun", "time": "Closed"}], "id": "9800300001", "name": "USPS COLLECTION BOX - BLUE BOX", "address": {"city": "FEDERAL WAY", "state": "WA", "street": "34509 9TH AVE S", "postcode": "98003"}}},
{"geometry": {"type": "Point", "coordinates": [-120.5562630964, 47.4112505258]}, "type": "Feature", "properties": {"collection_times": [{"days": "Mon-Sat", "time": "2:00pm"}, {"days": "Sun", "time": "Closed"}], "id": "9800300006", "name": "USPS COLLECTION BOX - BLUE BOX", "address": {"city": "FEDERAL WAY", "state": "WA", "street": "31009 PACIFIC HWY S", "postcode": "98003"}}},
{"geometry": {"type": "Point", "coordinates": [-122.3037284244, 47.3129198194]}, "type": "Feature", "properties": {"collection_times": [{"days": "Mon-Sat", "time": "2:00pm"}, {"days": "Sun", "time": "Closed"}], "id": "9800300007", "name": "USPS COLLECTION BOX - BLUE BOX", "address": {"city": "FEDERAL WAY", "state": "WA", "street": "2201 S COMMONS", "postcode": "98003"}}},
{"geometry": {"type": "Point", "coordinates": [-122.3116959, 47.3111274025]}, "type": "Feature", "properties": {"collection_times": [{"days": "Mon-Sat", "time": "2:00pm"}, {"days": "Sun", "time": "Closed"}], "id": "9800300008", "name": "USPS COLLECTION BOX - BLUE BOX", "address": {"city": "FEDERAL WAY", "state": "WA", "street": "1704 S 324TH PL", "postcode": "98003"}}},
{"geometry": {"type": "Point", "coordinates": [-120.5562630964, 47.4112505258]}, "type": "Feature", "properties": {"collection_times": [{"days": "Mon-Sat", "time": "1:45pm"}, {"days": "Sun", "time": "Closed"}], "id": "9800300010", "name": "USPS COLLECTION BOX - BLUE BOX", "address": {"city": "FEDERAL WAY", "state": "WA", "street": "28853 MILITARY RD S", "postcode": "98003"}}},
{"geometry": {"type": "Point", "coordinates": [-122.321266458, 47.3007849988]}, "type": "Feature", "properties": {"collection_times": [{"days": "Mon-Sat", "time": "1:30pm"}, {"days": "Sun", "time": "Closed"}], "id": "9800300017", "name": "USPS COLLECTION BOX - BLUE BOX", "address": {"city": "FEDERAL WAY", "state": "WA", "street": "1010 S 336TH ST", "postcode": "98003"}}},
{"geometry": {"type": "Point", "coordinates": [-122.3135576289, 47.3076329372]}, "type": "Feature", "properties": {"collection_times": [{"days": "Mon-Fri", "time": "5:00pm"}, {"days": "Sat", "time": "1:30pm"}, {"days": "Sun", "time": "Closed"}], "id": "9800300021", "name": "USPS COLLECTION BOX - BLUE BOX", "address": {"city": "FEDERAL WAY", "state": "WA", "street": "32829 PACIFIC HWY S", "postcode": "98003"}}},
{"geometry": {"type": "Point", "coordinates": [-122.3204667808, 47.3018553311]}, "type": "Feature", "properties": {"collection_times": [{"days": "Mon-Sat", "time": "1:30pm"}, {"days": "Sun", "time": "Closed"}], "id": "9800300029", "name": "USPS COLLECTION BOX - BLUE BOX", "address": {"city": "FEDERAL WAY", "state": "WA", "street": "33506 10TH PL S", "postcode": "98003"}}},
{"geometry": {"type": "Point", "coordinates": [-122.3135576289, 47.3076329372]}, "type": "Feature", "properties": {"collection_times": [{"days": "Mon-Fri", "time": "5:00pm"}, {"days": "Sat", "time": "1:30pm"}, {"days": "Sun", "time": "Closed"}], "id": "9800300031", "name": "USPS COLLECTION BOX - PO LOBBY", "address": {"city": "FEDERAL WAY", "state": "WA", "street": "32829 PACIFIC HWY S", "postcode": "98003"}}},
{"geometry": {"type": "Point", "coordinates": [-122.3347773875, 47.3071564566]}, "type": "Feature", "properties": {"collection_times": [{"days": "Mon-Sat", "time": "1:45pm"}, {"days": "Sun", "time": "Closed"}], "id": "9800300033", "name": "USPS COLLECTION BOX - BLUE BOX", "address": {"city": "FEDERAL WAY", "state": "WA", "street": "32901 1ST AVE S", "postcode": "98003"}}},
{"geometry": {"type": "Point", "coordinates": [-122.3135576289, 47.3076329372]}, "type": "Feature", "properties": {"collection_times": [{"days": "Mon-Fri", "time": "5:00pm"}, {"days": "Sat", "time": "1:30pm"}, {"days": "Sun", "time": "Closed"}], "id": "9800300035", "name": "USPS COLLECTION BOX - APC", "address": {"city": "FEDERAL WAY", "state": "WA", "street": "32829 PACIFIC HWY S", "postcode": "98003"}}},
{"geometry": {"type": "Point", "coordinates": [-122.3314706036, 47.3022253131]}, "type": "Feature", "properties": {"collection_times": [{"days": "Mon-Sat", "time": "1:45pm"}, {"days": "Sun", "time": "Closed"}], "id": "9800300037", "name": "USPS COLLECTION BOX - BLUE BOX", "address": {"city": "FEDERAL WAY", "state": "WA", "street": "33305 1ST WAY S", "postcode": "98003"}}},
{"geometry": {"type": "Point", "coordinates": [-122.3270395158, 47.3152266271]}, "type": "Feature", "properties": {"collection_times": [{"days": "Mon-Sat", "time": "1:45pm"}, {"days": "Sun", "time": "Closed"}], "id": "9800300038", "name": "USPS COLLECTION BOX - BLUE BOX", "address": {"city": "FEDERAL WAY", "state": "WA", "street": "700 S 320TH ST", "postcode": "98003"}}},
{"geometry": {"type": "Point", "coordinates": [-122.3135576289, 47.3076329372]}, "type": "Feature", "properties": {"collection_times": [{"days": "Mon-Fri", "time": "5:00pm"}, {"days": "Sat", "time": "1:30pm"}, {"days": "Sun", "time": "Closed"}], "id": "9800300039", "name": "USPS COLLECTION BOX - APC", "address": {"city": "FEDERAL WAY", "state": "WA", "street": "32829 PACIFIC HWY S", "postcode": "98003"}}},
{"geometry": {"type": "Point", "coordinates": [-122.2017215557, 47.6118604315]}, "type": "Feature", "properties": {"collection_times": [{"days": "Mon-Fri", "time": "2:30pm"}, {"days": "Sat", "time": "12:00pm"}, {"days": "Sun", "time": "Closed"}], "id": "9800400001", "name": "USPS COLLECTION BOX - BLUE BOX", "address": {"city": "CLYDE HILL", "state": "WA", "street": "227 BELLEVUE WAY NE", "postcode": "98004"}}},
{"geometry": {"type": "Point", "coordinates": [-122.2044915017, 47.6028977475]}, "type": "Feature", "properties": {"collection_times": [{"days": "Mon-Fri", "time": "2:30pm"}, {"days": "Sat", "time": "12:00pm"}, {"days": "Sun", "time": "Closed"}], "id": "9800400013", "name": "USPS COLLECTION BOX - BLUE BOX", "address": {"city": "CLYDE HILL", "state": "WA", "street": "10116 NE 8TH ST", "postcode": "98004"}}},
{"geometry": {"type": "Point", "coordinates": [-122.2123436903, 47.6319289411]}, "type": "Feature", "properties": {"collection_times": [{"days": "Mon-Sat", "time": "12:00pm"}, {"days": "Sun", "time": "Closed"}], "id": "9800400035", "name": "USPS COLLECTION BOX - BLUE BOX", "address": {"city": "CLYDE HILL", "state": "WA", "street": "9605 NE 24TH ST", "postcode": "98004"}}},
{"geometry": {"type": "Point", "coordinates": [-122.1906364224, 47.6046632132]}, "type": "Feature", "properties": {"collection_times": [{"days": "Mon-Fri", "time": "3:00pm"}, {"days": "Sat", "time": "12:00pm"}, {"days": "Sun", "time": "Closed"}], "id": "9800400059", "name": "USPS COLLECTION BOX - BLUE BOX", "address": {"city": "CLYDE HILL", "state": "WA", "street": "11200 SE 6TH ST", "postcode": "98004"}}},
{"geometry": {"type": "Point", "coordinates": [-122.1976925061, 47.6068968978]}, "type": "Feature", "properties": {"collection_times": [{"days": "Mon-Fri", "time": "3:00pm"}, {"days": "Sat-Sun", "time": "Closed"}], "id": "9800400071", "name": "USPS COLLECTION BOX - BLUE BOX", "address": {"city": "CLYDE HILL", "state": "WA", "street": "10655 NE 4TH ST", "postcode": "98004"}}},
{"geometry": {"type": "Point", "coordinates": [-122.1855930738, 47.6274551803]}, "type": "Feature", "properties": {"collection_times": [{"days": "Mon-Fri", "time": "3:30pm"}, {"days": "Sat-Sun", "time": "Closed"}], "id": "9800400103", "name": "USPS COLLECTION BOX - BLUE BOX", "address": {"city": "CLYDE HILL", "state": "WA", "street": "1940 116TH AVE NE", "postcode": "98004"}}},
{"geometry": {"type": "Point", "coordinates": [-122.1856864458, 47.6144404721]}, "type": "Feature", "properties": {"collection_times": [{"days": "Mon-Fri", "time": "11:45am"}, {"days": "Sat-Sun", "time": "Closed"}], "id": "9800400107", "name": "USPS COLLECTION BOX - BLUE BOX", "address": {"city": "CLYDE HILL", "state": "WA", "street": "555B 116TH AVE NE", "postcode": "98004"}}},
{"geometry": {"type": "Point", "coordinates": [-122.2018014003, 47.6148806031]}, "type": "Feature", "properties": {"collection_times": [{"days": "Mon-Fri", "time": "2:30pm"}, {"days": "Sat", "time": "12:00pm"}, {"days": "Sun", "time": "Closed"}], "id": "9800400112", "name": "USPS COLLECTION BOX - BLUE BOX", "address": {"city": "CLYDE HILL", "state": "WA", "street": "523 BELLEVUE WAY NE", "postcode": "98004"}}},
{"geometry": {"type": "Point", "coordinates": [-122.1908861101, 47.6169904423]}, "type": "Feature", "properties": {"collection_times": [{"days": "Mon-Fri", "time": "3:00pm"}, {"days": "Sat-Sun", "time": "Closed"}], "id": "9800400116", "name": "USPS COLLECTION BOX - BLUE BOX", "address": {"city": "CLYDE HILL", "state": "WA", "street": "700 112TH AVE NE", "postcode": "98004"}}},
{"geometry": {"type": "Point", "coordinates": [-122.1883711866, 47.598276242]}, "type": "Feature", "properties": {"collection_times": [{"days": "Mon-Fri", "time": "3:00pm"}, {"days": "Sat", "time": "12:00pm"}, {"days": "Sun", "time": "Closed"}], "id": "9800400133", "name": "USPS COLLECTION BOX - BLUE BOX", "address": {"city": "CLYDE HILL", "state": "WA", "street": "1309 114TH AVE SE", "postcode": "98004"}}},
{"geometry": {"type": "Point", "coordinates": [-122.1883711866, 47.598276242]}, "type": "Feature", "properties": {"collection_times": [{"days": "Mon-Fri", "time": "3:00pm"}, {"days": "Sat", "time": "12:00pm"}, {"days": "Sun", "time": "Closed"}], "id": "9800400134", "name": "USPS COLLECTION BOX - BLUE BOX", "address": {"city": "CLYDE HILL", "state": "WA", "street": "1309 114TH AVE SE", "postcode": "98004"}}},
{"geometry": {"type": "Point", "coordinates": [-122.201787484, 47.6207373663]}, "type": "Feature", "properties": {"collection_times": [{"days": "Mon-Fri", "time": "6:00pm"}, {"days": "Sat", "time": "3:00pm"}, {"days": "Sun", "time": "Closed"}], "id": "9800400137", "name": "USPS COLLECTION BOX - BLUE BOX", "address": {"city": "CLYDE HILL", "state": "WA", "street": "1171 BELLEVUE WAY NE", "postcode": "98004"}}},
{"geometry": {"type": "Point", "coordinates": [-122.1909122112, 47.6210879549]}, "type": "Feature", "properties": {"collection_times": [{"days": "Mon-Fri", "time": "3:30pm"}, {"days": "Sat-Sun", "time": "Closed"}], "id": "9800400152", "name": "USPS COLLECTION BOX - BLUE BOX", "address": {"city": "CLYDE HILL", "state": "WA", "street": "1200 112TH AVE NE", "postcode": "98004"}}},
{"geometry": {"type": "Point", "coordinates": [-122.1908802052, 47.6257735336]}, "type": "Feature", "properties": {"collection_times": [{"days": "Mon-Fri", "time": "3:30pm"}, {"days": "Sat-Sun", "time": "Closed"}], "id": "9800400155", "name": "USPS COLLECTION BOX - BLUE BOX", "address": {"city": "CLYDE HILL", "state": "WA", "street": "1750 112TH AVE NE", "postcode": "98004"}}},
{"geometry": {"type": "Point", "coordinates": [-122.1957694888, 47.6384781453]}, "type": "Feature", "properties": {"collection_times": [{"days": "Mon-Fri", "time": "3:30pm"}, {"days": "Sat-Sun", "time": "Closed"}], "id": "9800400160", "name": "USPS COLLECTION BOX - BLUE BOX", "address": {"city": "CLYDE HILL", "state": "WA", "street": "3015 112TH AVE NE", "postcode": "98004"}}},
{"geometry": {"type": "Point", "coordinates": [-122.1961637258, 47.6138293694]}, "type": "Feature", "properties": {"collection_times": [{"days": "Mon-Fri", "time": "3:30pm"}, {"days": "Sat-Sun", "time": "Closed"}], "id": "9800400161", "name": "USPS COLLECTION BOX - BLUE BOX", "address": {"city": "CLYDE HILL", "state": "WA", "street": "400 108TH AVE NE", "postcode": "98004"}}},
{"geometry": {"type": "Point", "coordinates": [-122.1987713215, 47.6117844946]}, "type": "Feature", "properties": {"collection_times": [{"days": "Mon-Fri", "time": "11:45am"}, {"days": "Sat-Sun", "time": "Closed"}], "id": "9800400166", "name": "USPS COLLECTION BOX - BLUE BOX", "address": {"city": "CLYDE HILL", "state": "WA", "street": "188 106TH AVE NE", "postcode": "98004"}}},
{"geometry": {"type": "Point", "coordinates": [-122.1907953387, 47.629937568]}, "type": "Feature", "properties": {"collection_times": [{"days": "Mon-Fri", "time": "3:30pm"}, {"days": "Sat-Sun", "time": "Closed"}], "id": "9800400169", "name": "USPS COLLECTION BOX - BLUE BOX", "address": {"city": "CLYDE HILL", "state": "WA", "street": "2200 112TH AVE NE", "postcode": "98004"}}},
{"geometry": {"type": "Point", "coordinates": [-122.19900936, 47.614737722]}, "type": "Feature", "properties": {"collection_times": [{"days": "Mon-Fri", "time": "3:00pm"}, {"days": "Sat-Sun", "time": "Closed"}], "id": "9800400175", "name": "USPS COLLECTION BOX - BLUE BOX", "address": {"city": "CLYDE HILL", "state": "WA", "street": "505 106TH AVE NE", "postcode": "98004"}}},
{"geometry": {"type": "Point", "coordinates": [-122.2015717328, 47.6343108763]}, "type": "Feature", "properties": {"collection_times": [{"days": "Mon-Sat", "time": "12:00pm"}, {"days": "Sun", "time": "Closed"}], "id": "9800400176", "name": "USPS COLLECTION BOX - BLUE BOX", "address": {"city": "CLYDE HILL", "state": "WA", "street": "2636 BELLEVUE WAY NE", "postcode": "98004"}}},
{"geometry": {"type": "Point", "coordinates": [-122.1962028035, 47.6156522921]}, "type": "Feature", "properties": {"collection_times": [{"days": "Mon-Fri", "time": "3:30pm"}, {"days": "Sat-Sun", "time": "Closed"}], "id": "9800400181", "name": "USPS COLLECTION BOX - BLUE BOX", "address": {"city": "CLYDE HILL", "state": "WA", "street": "600 108TH AVE NE", "postcode": "98004"}}},
{"geometry": {"type": "Point", "coordinates": [-122.1857920701, 47.6240483442]}, "type": "Feature", "properties": {"collection_times": [{"days": "Mon-Fri", "time": "3:30pm"}, {"days": "Sat", "time": "12:00pm"}, {"days": "Sun", "time": "Closed"}], "id": "9800400193", "name": "USPS COLLECTION BOX - BLUE BOX", "address": {"city": "CLYDE HILL", "state": "WA", "street": "1407 116TH AVE NE", "postcode": "98004"}}},
{"geometry": {"type": "Point", "coordinates": [-122.1961556191, 47.608241778]}, "type": "Feature", "properties": {"collection_times": [{"days": "Mon-Fri", "time": "3:00pm"}, {"days": "Sat", "time": "12:00pm"}, {"days": "Sun", "time": "Closed"}], "id": "9800400195", "name": "USPS COLLECTION BOX - BLUE BOX", "address": {"city": "CLYDE HILL", "state": "WA", "street": "205 108TH AVE NE", "postcode": "98004"}}},
{"geometry": {"type": "Point", "coordinates": [-122.1907582601, 47.6120363542]}, "type": "Feature", "properties": {"collection_times": [{"days": "Mon-Fri", "time": "3:00pm"}, {"days": "Sat", "time": "12:00pm"}, {"days": "Sun", "time": "Closed"}], "id": "9800400196", "name": "USPS COLLECTION BOX - BLUE BOX", "address": {"city": "CLYDE HILL", "state": "WA", "street": "200 112TH AVE NE", "postcode": "98004"}}},
{"geometry": {"type": "Point", "coordinates": [-122.201787484, 47.6207373663]}, "type": "Feature", "properties": {"collection_times": [{"days": "Mon-Fri", "time": "6:00pm"}, {"days": "Sat", "time": "3:00pm"}, {"days": "Sun", "time": "Closed"}], "id": "9800400197", "name": "USPS COLLECTION BOX - APC", "address": {"city": "CLYDE HILL", "state": "WA", "street": "1171 BELLEVUE WAY NE", "postcode": "98004"}}},
{"geometry": {"type": "Point", "coordinates": [-122.201787484, 47.6207373663]}, "type": "Feature", "properties": {"collection_times": [{"days": "Mon-Fri", "time": "6:00pm"}, {"days": "Sat", "time": "3:00pm"}, {"days": "Sun", "time": "Closed"}], "id": "9800400199", "name": "USPS COLLECTION BOX - APC", "address": {"city": "CLYDE HILL", "state": "WA", "street": "1171 BELLEVUE WAY NE", "postcode": "98004"}}},
{"geometry": {"type": "Point", "coordinates": [-122.201787484, 47.6207373663]}, "type": "Feature", "properties": {"collection_times": [{"days": "Mon-Fri", "time": "6:00pm"}, {"days": "Sat", "time": "3:00pm"}, {"days": "Sun", "time": "Closed"}], "id": "9800400200", "name": "USPS COLLECTION BOX - PO LOBBY", "address": {"city": "CLYDE HILL", "state": "WA", "street": "1171 BELLEVUE WAY NE", "postcode": "98004"}}},
{"geometry": {"type": "Point", "coordinates": [-122.201787484, 47.6207373663]}, "type": "Feature", "properties": {"collection_times": [{"days": "Mon-Fri", "time": "6:00pm"}, {"days": "Sat", "time": "3:00pm"}, {"days": "Sun", "time": "Closed"}], "id": "9800400201", "name": "USPS COLLECTION BOX - PO LOBBY", "address": {"city": "CLYDE HILL", "state": "WA", "street": "1171 BELLEVUE WAY NE", "postcode": "98004"}}},
{"geometry": {"type": "Point", "coordinates": [-122.1962028035, 47.6156522921]}, "type": "Feature", "properties": {"collection_times": [{"days": "Mon-Fri", "time": "3:30pm"}, {"days": "Sat-Sun", "time": "Closed"}], "id": "9800400202", "name": "USPS COLLECTION BOX - BLUE BOX", "address": {"city": "CLYDE HILL", "state": "WA", "street": "600 108TH AVE NE", "postcode": "98004"}}},
{"geometry": {"type": "Point", "coordinates": [-122.1813313866, 47.6099684829]}, "type": "Feature", "properties": {"collection_times": [{"days": "Mon-Fri", "time": "2:30pm"}, {"days": "Sat", "time": "1:00pm"}, {"days": "Sun", "time": "Closed"}], "id": "9800500000", "name": "USPS COLLECTION BOX - BLUE BOX", "address": {"city": "BELLEVUE", "state": "WA", "street": "11911 NE 1ST ST", "postcode": "98005"}}},
{"geometry": {"type": "Point", "coordinates": [-122.1828650327, 47.6073464726]}, "type": "Feature", "properties": {"collection_times": [{"days": "Mon-Fri", "time": "2:30pm"}, {"days": "Sat-Sun", "time": "Closed"}], "id": "9800500001", "name": "USPS COLLECTION BOX - BLUE BOX", "address": {"city": "BELLEVUE", "state": "WA", "street": "325 118TH AVE SE", "postcode": "98005"}}},
{"geometry": {"type": "Point", "coordinates": [-122.1749940475, 47.628097688]}, "type": "Feature", "properties": {"collection_times": [{"days": "Mon-Fri", "time": "1:15pm"}, {"days": "Sat", "time": "12:00pm"}, {"days": "Sun", "time": "Closed"}], "id": "9800500004", "name": "USPS COLLECTION BOX - BLUE BOX", "address": {"city": "BELLEVUE", "state": "WA", "street": "2000 124TH AVE NE", "postcode": "98005"}}},
{"geometry": {"type": "Point", "coordinates": [-122.1538132956, 47.629801357]}, "type": "Feature", "properties": {"collection_times": [{"days": "Mon-Fri", "time": "1:15pm"}, {"days": "Sat", "time": "12:00pm"}, {"days": "Sun", "time": "Closed"}], "id": "9800500015", "name": "USPS COLLECTION BOX - BLUE BOX", "address": {"city": "BELLEVUE", "state": "WA", "street": "2205 140TH AVE NE", "postcode": "98005"}}},
{"geometry": {"type": "Point", "coordinates": [-122.16820801, 47.6132387789]}, "type": "Feature", "properties": {"collection_times": [{"days": "Mon-Fri", "time": "1:15pm"}, {"days": "Sat", "time": "12:00pm"}, {"days": "Sun", "time": "Closed"}], "id": "9800500016", "name": "USPS COLLECTION BOX - BLUE BOX", "address": {"city": "BELLEVUE", "state": "WA", "street": "1645 140TH AVE NE", "postcode": "98005"}}},
{"geometry": {"type": "Point", "coordinates": [-122.1790404723, 47.5806540081]}, "type": "Feature", "properties": {"collection_times": [{"days": "Mon-Fri", "time": "3:30pm"}, {"days": "Sat-Sun", "time": "Closed"}], "id": "9800500018", "name": "USPS COLLECTION BOX - BLUE BOX", "address": {"city": "BELLEVUE", "state": "WA", "street": "3260 118TH AVE SE", "postcode": "98005"}}},
{"geometry": {"type": "Point", "coordinates": [-122.1797672578, 47.6217866712]}, "type": "Feature", "properties": {"collection_times": [{"days": "Mon-Fri", "time": "2:30pm"}, {"days": "Sat", "time": "12:00pm"}, {"days": "Sun", "time": "Closed"}], "id": "9800500054", "name": "USPS COLLECTION BOX - BLUE BOX", "address": {"city": "BELLEVUE", "state": "WA", "street": "1301 120TH AVE NE", "postcode": "98005"}}},
{"geometry": {"type": "Point", "coordinates": [-122.16713265, 47.623149495]}, "type": "Feature", "properties": {"collection_times": [{"days": "Mon-Fri", "time": "1:15pm"}, {"days": "Sat", "time": "12:00pm"}, {"days": "Sun", "time": "Closed"}], "id": "9800500056", "name": "USPS COLLECTION BOX - BLUE BOX", "address": {"city": "BELLEVUE", "state": "WA", "street": "1429 130TH AVE NE", "postcode": "98005"}}},
{"geometry": {"type": "Point", "coordinates": [-122.1670262778, 47.6264813355]}, "type": "Feature", "properties": {"collection_times": [{"days": "Mon-Fri", "time": "1:15pm"}, {"days": "Sat", "time": "12:00pm"}, {"days": "Sun", "time": "Closed"}], "id": "9800500057", "name": "USPS COLLECTION BOX - BLUE BOX", "address": {"city": "BELLEVUE", "state": "WA", "street": "1800 130TH AVE NE", "postcode": "98005"}}},
{"geometry": {"type": "Point", "coordinates": [-122.1670262778, 47.6264813355]}, "type": "Feature", "properties": {"collection_times": [{"days": "Mon-Fri", "time": "1:15pm"}, {"days": "Sat", "time": "12:00pm"}, {"days": "Sun", "time": "Closed"}], "id": "9800500058", "name": "USPS COLLECTION BOX - BLUE BOX", "address": {"city": "BELLEVUE", "state": "WA", "street": "1800 130TH AVE NE", "postcode": "98005"}}},
{"geometry": {"type": "Point", "coordinates": [-122.1670262778, 47.6264813355]}, "type": "Feature", "properties": {"collection_times": [{"days": "Mon-Fri", "time": "1:15pm"}, {"days": "Sat", "time": "12:00pm"}, {"days": "Sun", "time": "Closed"}], "id": "9800500059", "name": "USPS COLLECTION BOX - BLUE BOX", "address": {"city": "BELLEVUE", "state": "WA", "street": "1800 130TH AVE NE", "postcode": "98005"}}},
{"geometry": {"type": "Point", "coordinates": [-122.1616048235, 47.6212228003]}, "type": "Feature", "properties": {"collection_times": [{"days": "Mon-Fri", "time": "1:15pm"}, {"days": "Sat", "time": "12:00pm"}, {"days": "Sun", "time": "Closed"}], "id": "9800500063", "name": "USPS COLLECTION BOX - BLUE BOX", "address": {"city": "BELLEVUE", "state": "WA", "street": "1198 134TH AVE NE", "postcode": "98005"}}},
{"geometry": {"type": "Point", "coordinates": [-122.1613485658, 47.5838202853]}, "type": "Feature", "properties": {"collection_times": [{"days": "Mon-Fri", "time": "2:30pm"}, {"days": "Sat-Sun", "time": "Closed"}], "id": "9800500065", "name": "USPS COLLECTION BOX - BLUE BOX", "address": {"city": "BELLEVUE", "state": "WA", "street": "13400 SE 30TH ST", "postcode": "98005"}}},
{"geometry": {"type": "Point", "coordinates": [-122.1813366072, 47.618932766]}, "type": "Feature", "properties": {"collection_times": [{"days": "Mon-Fri", "time": "2:30pm"}, {"days": "Sat", "time": "12:00pm"}, {"days": "Sun", "time": "Closed"}], "id": "9800500079", "name": "USPS COLLECTION BOX - BLUE BOX", "address": {"city": "BELLEVUE", "state": "WA", "street": "1 LAKE BELLEVUE DR", "postcode": "98005"}}},
{"geometry": {"type": "Point", "coordinates": [-122.1593952209, 47.5793785602]}, "type": "Feature", "properties": {"collection_times": [{"days": "Mon-Fri", "time": "3:00pm"}, {"days": "Sat", "time": "11:30am"}, {"days": "Sun", "time": "Closed"}], "id": "9800600003", "name": "USPS COLLECTION BOX - BLUE BOX", "address": {"city": "BELLEVUE", "state": "WA", "street": "13555 SE 36TH ST", "postcode": "98006"}}},
{"geometry": {"type": "Point", "coordinates": [-122.1688017131, 47.5798069562]}, "type": "Feature", "properties": {"collection_times": [{"days": "Mon-Fri", "time": "3:00pm"}, {"days": "Sat", "time": "11:30am"}, {"days": "Sun", "time": "Closed"}], "id": "9800600006", "name": "USPS COLLECTION BOX - BLUE BOX", "address": {"city": "BELLEVUE", "state": "WA", "street": "3550 FACTORIA BLVD SE", "postcode": "98006"}}},
{"geometry": {"type": "Point", "coordinates": [-122.1788831331, 47.5528092842]}, "type": "Feature", "properties": {"collection_times": [{"days": "Mon-Fri", "time": "3:30pm"}, {"days": "Sat", "time": "11:00am"}, {"days": "Sun", "time": "Closed"}], "id": "9800600010", "name": "USPS COLLECTION BOX - BLUE BOX", "address": {"city": "BELLEVUE", "state": "WA", "street": "5608 119TH AVE SE", "postcode": "98006"}}},
{"geometry": {"type": "Point", "coordinates": [-122.1390759303, 47.5760588734]}, "type": "Feature", "properties": {"collection_times": [{"days": "Mon-Fri", "time": "2:30pm"}, {"days": "Sat", "time": "11:30am"}, {"days": "Sun", "time": "Closed"}], "id": "9800600012", "name": "USPS COLLECTION BOX - BLUE BOX", "address": {"city": "BELLEVUE", "state": "WA", "street": "15100 SE 38TH ST", "postcode": "98006"}}},
{"geometry": {"type": "Point", "coordinates": [-122.1695918366, 47.5754398893]}, "type": "Feature", "properties": {"collection_times": [{"days": "Mon-Fri", "time": "4:30pm"}, {"days": "Sat", "time": "12:30pm"}, {"days": "Sun", "time": "Closed"}], "id": "9800600018", "name": "USPS COLLECTION BOX - BLUE BOX", "address": {"city": "BELLEVUE", "state": "WA", "street": "3903 FACTORIA BLVD SE", "postcode": "98006"}}},
{"geometry": {"type": "Point", "coordinates": [-122.1645660017, 47.5792682614]}, "type": "Feature", "properties": {"collection_times": [{"days": "Mon-Fri", "time": "3:00pm"}, {"days": "Sat-Sun", "time": "Closed"}], "id": "9800600024", "name": "USPS COLLECTION BOX - BLUE BOX", "address": {"city": "BELLEVUE", "state": "WA", "street": "3625 132ND AVE SE", "postcode": "98006"}}},
{"geometry": {"type": "Point", "coordinates": [-122.1822657808, 47.5711166171]}, "type": "Feature", "properties": {"collection_times": [{"days": "Mon-Fri", "time": "3:30pm"}, {"days": "Sat", "time": "11:00am"}, {"days": "Sun", "time": "Closed"}], "id": "9800600026", "name": "USPS COLLECTION BOX - BLUE BOX", "address": {"city": "BELLEVUE", "state": "WA", "street": "1 NEWPORT KY", "postcode": "98006"}}},
{"geometry": {"type": "Point", "coordinates": [-122.1068802008, 47.5569523465]}, "type": "Feature", "properties": {"collection_times": [{"days": "Mon-Fri", "time": "3:00pm"}, {"days": "Sat", "time": "11:30am"}, {"days": "Sun", "time": "Closed"}], "id": "9800600029", "name": "USPS COLLECTION BOX - BLUE BOX", "address": {"city": "BELLEVUE", "state": "WA", "street": "4957 LAKEMONT BLVD SE", "postcode": "98006"}}},
{"geometry": {"type": "Point", "coordinates": [-122.1529874556, 47.5613767939]}, "type": "Feature", "properties": {"collection_times": [{"days": "Mon-Fri", "time": "6:00pm"}, {"days": "Sat", "time": "4:00pm"}, {"days": "Sun", "time": "Closed"}], "id": "9800600030", "name": "USPS COLLECTION BOX - BLUE BOX", "address": {"city": "BELLEVUE", "state": "WA", "street": "12400 SE 38TH ST", "postcode": "98006"}}},
{"geometry": {"type": "Point", "coordinates": [-122.1529874556, 47.5613767939]}, "type": "Feature", "properties": {"collection_times": [{"days": "Mon-Fri", "time": "6:00pm"}, {"days": "Sat", "time": "4:00pm"}, {"days": "Sun", "time": "Closed"}], "id": "9800600031", "name": "USPS COLLECTION BOX - PO LOBBY", "address": {"city": "BELLEVUE", "state": "WA", "street": "12400 SE 38TH ST", "postcode": "98006"}}},
{"geometry": {"type": "Point", "coordinates": [-122.1529874556, 47.5613767939]}, "type": "Feature", "properties": {"collection_times": [{"days": "Mon-Fri", "time": "6:00pm"}, {"days": "Sat", "time": "4:00pm"}, {"days": "Sun", "time": "Closed"}], "id": "9800600032", "name": "USPS COLLECTION BOX - APC", "address": {"city": "BELLEVUE", "state": "WA", "street": "12400 SE 38TH ST", "postcode": "98006"}}},
{"geometry": {"type": "Point", "coordinates": [-122.1432466269, 47.6283487378]}, "type": "Feature", "properties": {"collection_times": [{"days": "Mon-Fri", "time": "2:00pm"}, {"days": "Sat", "time": "1:00pm"}, {"days": "Sun", "time": "Closed"}], "id": "9800700001", "name": "USPS COLLECTION BOX - BLUE BOX", "address": {"city": "BELLEVUE", "state": "WA", "street": "2041 148TH AVE NE", "postcode": "98007"}}},
{"geometry": {"type": "Point", "coordinates": [-122.1504597234, 47.5970249102]}, "type": "Feature", "properties": {"collection_times": [{"days": "Mon-Fri", "time": "1:30pm"}, {"days": "Sat", "time": "1:00pm"}, {"days": "Sun", "time": "Closed"}], "id": "9800700009", "name": "USPS COLLECTION BOX - BLUE BOX", "address": {"city": "BELLEVUE", "state": "WA", "street": "1506 145TH PL SE", "postcode": "98007"}}},
{"geometry": {"type": "Point", "coordinates": [-122.1353818615, 47.5826604523]}, "type": "Feature", "properties": {"collection_times": [{"days": "Mon-Fri", "time": "2:30pm"}, {"days": "Sat", "time": "11:30am"}, {"days": "Sun", "time": "Closed"}], "id": "9800700021", "name": "USPS COLLECTION BOX - BLUE BOX", "address": {"city": "BELLEVUE", "state": "WA", "street": "15385 SE 30TH PL", "postcode": "98007"}}},
{"geometry": {"type": "Point", "coordinates": [-122.1455276039, 47.5798417877]}, "type": "Feature", "properties": {"collection_times": [{"days": "Mon-Fri", "time": "2:30pm"}, {"days": "Sat", "time": "11:30am"}, {"days": "Sun", "time": "Closed"}], "id": "9800700028", "name": "USPS COLLECTION BOX - BLUE BOX", "address": {"city": "BELLEVUE", "state": "WA", "street": "3380 146TH PL SE", "postcode": "98007"}}},
{"geometry": {"type": "Point", "coordinates": [-122.1434418306, 47.6356201987]}, "type": "Feature", "properties": {"collection_times": [{"days": "Mon-Fri", "time": "2:00pm"}, {"days": "Sat", "time": "1:00pm"}, {"days": "Sun", "time": "Closed"}], "id": "9800700030", "name": "USPS COLLECTION BOX - BLUE BOX", "address": {"city": "BELLEVUE", "state": "WA", "street": "14711 NE 29TH PL", "postcode": "98007"}}},
{"geometry": {"type": "Point", "coordinates": [-122.1517338475, 47.628046877]}, "type": "Feature", "properties": {"collection_times": [{"days": "Mon-Fri", "time": "2:00pm"}, {"days": "Sat", "time": "12:00pm"}, {"days": "Sun", "time": "Closed"}], "id": "9800700031", "name": "USPS COLLECTION BOX - BLUE BOX", "address": {"city": "BELLEVUE", "state": "WA", "street": "14150 NE 20TH ST", "postcode": "98007"}}},
{"geometry": {"type": "Point", "coordinates": [-122.1296295558, 47.617007504]}, "type": "Feature", "properties": {"collection_times": [{"days": "Mon-Fri", "time": "1:30pm"}, {"days": "Sat", "time": "1:00pm"}, {"days": "Sun", "time": "Closed"}], "id": "9800800000", "name": "USPS COLLECTION BOX - BLUE BOX", "address": {"city": "BELLEVUE", "state": "WA", "street": "15600 NE 8TH ST", "postcode": "98008"}}},
{"geometry": {"type": "Point", "coordinates": [-122.1310242203, 47.5807445706]}, "type": "Feature", "properties": {"collection_times": [{"days": "Mon-Fri", "time": "2:30pm"}, {"days": "Sat", "time": "11:30am"}, {"days": "Sun", "time": "Closed"}], "id": "9800800001", "name": "USPS COLLECTION BOX - BLUE BOX", "address": {"city": "BELLEVUE", "state": "WA", "street": "3305 160TH AVE SE", "postcode": "98008"}}},
{"geometry": {"type": "Point", "coordinates": [-122.1275671229, 47.6030948909]}, "type": "Feature", "properties": {"collection_times": [{"days": "Mon-Fri", "time": "5:30pm"}, {"days": "Sat", "time": "4:00pm"}, {"days": "Sun", "time": "Closed"}], "id": "9800800005", "name": "USPS COLLECTION BOX - BLUE BOX", "address": {"city": "BELLEVUE", "state": "WA", "street": "15731 NE 8TH ST", "postcode": "98008"}}},
{"geometry": {"type": "Point", "coordinates": [-122.1275671229, 47.6030948909]}, "type": "Feature", "properties": {"collection_times": [{"days": "Mon-Fri", "time": "5:30pm"}, {"days": "Sat", "time": "3:00pm"}, {"days": "Sun", "time": "Closed"}], "id": "9800800011", "name": "USPS COLLECTION BOX - PO LOBBY", "address": {"city": "BELLEVUE", "state": "WA", "street": "15731 NE 8TH ST", "postcode": "98008"}}},
{"geometry": {"type": "Point", "coordinates": [-122.1322158049, 47.6278503937]}, "type": "Feature", "properties": {"collection_times": [{"days": "Mon-Fri", "time": "2:00pm"}, {"days": "Sat-Sun", "time": "Closed"}], "id": "9800800013", "name": "USPS COLLECTION BOX - BLUE BOX", "address": {"city": "BELLEVUE", "state": "WA", "street": "2002 156TH AVE NE", "postcode": "98008"}}},
{"geometry": {"type": "Point", "coordinates": [-122.1275671229, 47.6030948909]}, "type": "Feature", "properties": {"collection_times": [{"days": "Mon-Fri", "time": "5:30pm"}, {"days": "Sat", "time": "3:00pm"}, {"days": "Sun", "time": "Closed"}], "id": "9800800014", "name": "USPS COLLECTION BOX - APC", "address": {"city": "BELLEVUE", "state": "WA", "street": "15731 NE 8TH ST", "postcode": "98008"}}},
{"geometry": {"type": "Point", "coordinates": [-122.0057861942, 47.3090028736]}, "type": "Feature", "properties": {"collection_times": [{"days": "Mon-Fri", "time": "4:30pm"}, {"days": "Sat", "time": "10:30am"}, {"days": "Sun", "time": "Closed"}], "id": "9801000000", "name": "USPS COLLECTION BOX - BLUE BOX", "address": {"city": "BLACK DIAMOND", "state": "WA", "street": "25228 BAKER ST", "postcode": "98010"}}},
{"geometry": {"type": "Point", "coordinates": [-122.0057861942, 47.3090028736]}, "type": "Feature", "properties": {"collection_times": [{"days": "Mon-Fri", "time": "5:00pm"}, {"days": "Sat", "time": "10:30am"}, {"days": "Sun", "time": "Closed"}], "id": "9801000002", "name": "USPS COLLECTION BOX - PO LOBBY", "address": {"city": "BLACK DIAMOND", "state": "WA", "street": "25228 BAKER ST", "postcode": "98010"}}},
{"geometry": {"type": "Point", "coordinates": [-122.0537798375, 47.3413749287]}, "type": "Feature", "properties": {"collection_times": [{"days": "Mon-Fri", "time": "10:30am"}, {"days": "Sat-Sun", "time": "Closed"}], "id": "9801000003", "name": "USPS COLLECTION BOX - BLUE BOX", "address": {"city": "BLACK DIAMOND", "state": "WA", "street": "29006 216TH AVE SE", "postcode": "98010"}}},
{"geometry": {"type": "Point", "coordinates": [-122.2099681707, 47.7657989661]}, "type": "Feature", "properties": {"collection_times": [{"days": "Mon-Fri", "time": "4:00pm"}, {"days": "Sat", "time": "3:00pm"}, {"days": "Sun", "time": "Closed"}], "id": "9801100004", "name": "USPS COLLECTION BOX - BLUE BOX", "address": {"city": "BOTHELL", "state": "WA", "street": "18925 BOTHELL WAY NE", "postcode": "98011"}}},
{"geometry": {"type": "Point", "coordinates": [-122.204887303, 47.7601655537]}, "type": "Feature", "properties": {"collection_times": [{"days": "Mon-Sat", "time": "4:00pm"}, {"days": "Sun", "time": "Closed"}], "id": "9801100005", "name": "USPS COLLECTION BOX - BLUE BOX", "address": {"city": "BOTHELL", "state": "WA", "street": "10134 MAIN ST", "postcode": "98011"}}},
{"geometry": {"type": "Point", "coordinates": [-122.1833776178, 47.7745859217]}, "type": "Feature", "properties": {"collection_times": [{"days": "Mon-Sat", "time": "3:00pm"}, {"days": "Sun", "time": "Closed"}], "id": "9801100007", "name": "USPS COLLECTION BOX - BLUE BOX", "address": {"city": "BOTHELL", "state": "WA", "street": "11810 N CREEK PKWY N", "postcode": "98011"}}},
{"geometry": {"type": "Point", "coordinates": [-122.2004736584, 47.7606663732]}, "type": "Feature", "properties": {"collection_times": [{"days": "Mon-Fri", "time": "5:30pm"}, {"days": "Sat", "time": "5:00pm"}, {"days": "Sun", "time": "Closed"}], "id": "9801100020", "name": "USPS COLLECTION BOX - BLUE BOX", "address": {"city": "BOTHELL", "state": "WA", "street": "10500 BEARDSLEE BLVD", "postcode": "98011"}}},
{"geometry": {"type": "Point", "coordinates": [-122.2004736584, 47.7606663732]}, "type": "Feature", "properties": {"collection_times": [{"days": "Mon-Fri", "time": "5:30pm"}, {"days": "Sat", "time": "5:00pm"}, {"days": "Sun", "time": "Closed"}], "id": "9801100021", "name": "USPS COLLECTION BOX - BLUE BOX", "address": {"city": "BOTHELL", "state": "WA", "street": "10500 BEARDSLEE BLVD", "postcode": "98011"}}},
{"geometry": {"type": "Point", "coordinates": [-122.2004736584, 47.7606663732]}, "type": "Feature", "properties": {"collection_times": [{"days": "Mon-Fri", "time": "5:30pm"}, {"days": "Sat", "time": "5:00pm"}, {"days": "Sun", "time": "Closed"}], "id": "9801100022", "name": "USPS COLLECTION BOX - BLUE BOX", "address": {"city": "BOTHELL", "state": "WA", "street": "10500 BEARDSLEE BLVD", "postcode": "98011"}}},
{"geometry": {"type": "Point", "coordinates": [-122.2004736584, 47.7606663732]}, "type": "Feature", "properties": {"collection_times": [{"days": "Mon-Fri", "time": "5:30pm"}, {"days": "Sat", "time": "5:00pm"}, {"days": "Sun", "time": "Closed"}], "id": "9801100023", "name": "USPS COLLECTION BOX - BLUE BOX", "address": {"city": "BOTHELL", "state": "WA", "street": "10500 BEARDSLEE BLVD", "postcode": "98011"}}},
{"geometry": {"type": "Point", "coordinates": [-122.2004736584, 47.7606663732]}, "type": "Feature", "properties": {"collection_times": [{"days": "Mon-Fri", "time": "5:30pm"}, {"days": "Sat", "time": "5:00pm"}, {"days": "Sun", "time": "Closed"}], "id": "9801100024", "name": "USPS COLLECTION BOX - BLUE BOX", "address": {"city": "BOTHELL", "state": "WA", "street": "10500 BEARDSLEE BLVD", "postcode": "98011"}}},
{"geometry": {"type": "Point", "coordinates": [-122.1832551607, 47.743691487]}, "type": "Feature", "properties": {"collection_times": [{"days": "Mon-Fri", "time": "2:30pm"}, {"days": "Sat", "time": "4:00pm"}, {"days": "Sun", "time": "Closed"}], "id": "9801100029", "name": "USPS COLLECTION BOX - BLUE BOX", "address": {"city": "BOTHELL", "state": "WA", "street": "11801 NE 160TH ST", "postcode": "98011"}}},
{"geometry": {"type": "Point", "coordinates": [-122.1865131401, 47.7711321036]}, "type": "Feature", "properties": {"collection_times": [{"days": "Mon-Fri", "time": "3:00pm"}, {"days": "Sat", "time": "4:15pm"}, {"days": "Sun", "time": "Closed"}], "id": "9801100032", "name": "USPS COLLECTION BOX - BLUE BOX", "address": {"city": "BOTHELL", "state": "WA", "street": "19910 NORTH CREEK PKWY", "postcode": "98011"}}},
{"geometry": {"type": "Point", "coordinates": [-122.1865131401, 47.7711321036]}, "type": "Feature", "properties": {"collection_times": [{"days": "Mon-Fri", "time": "3:00pm"}, {"days": "Sat", "time": "4:15pm"}, {"days": "Sun", "time": "Closed"}], "id": "9801100033", "name": "USPS COLLECTION BOX - BLUE BOX", "address": {"city": "BOTHELL", "state": "WA", "street": "19910 NORTH CREEK PKWY", "postcode": "98011"}}},
{"geometry": {"type": "Point", "coordinates": [-122.1953203375, 47.7330881835]}, "type": "Feature", "properties": {"collection_times": [{"days": "Mon-Sat", "time": "3:00pm"}, {"days": "Sun", "time": "Closed"}], "id": "9801100038", "name": "USPS COLLECTION BOX - BLUE BOX", "address": {"city": "BOTHELL", "state": "WA", "street": "14501 JUANITA WOODINVILLE WAY NE", "postcode": "98011"}}},
{"geometry": {"type": "Point", "coordinates": [-122.2004736584, 47.7606663732]}, "type": "Feature", "properties": {"collection_times": [{"days": "Mon-Fri", "time": "5:30pm"}, {"days": "Sat", "time": "5:00pm"}, {"days": "Sun", "time": "Closed"}], "id": "9801100039", "name": "USPS COLLECTION BOX - APC", "address": {"city": "BOTHELL", "state": "WA", "street": "10500 BEARDSLEE BLVD", "postcode": "98011"}}},
{"geometry": {"type": "Point", "coordinates": [-122.2047364716, 47.8447884212]}, "type": "Feature", "properties": {"collection_times": [{"days": "Mon-Fri", "time": "5:00pm"}, {"days": "Sat", "time": "4:00pm"}, {"days": "Sun", "time": "Closed"}], "id": "9801200000", "name": "USPS COLLECTION BOX - BLUE BOX", "address": {"city": "MILL CREEK", "state": "WA", "street": "16212 BOTHELL EVERETT HWY", "postcode": "98012"}}},
{"geometry": {"type": "Point", "coordinates": [-122.220263682, 47.8493650286]}, "type": "Feature", "properties": {"collection_times": [{"days": "Mon-Fri", "time": "4:00pm"}, {"days": "Sat", "time": "3:00pm"}, {"days": "Sun", "time": "Closed"}], "id": "9801200001", "name": "USPS COLLECTION BOX - BLUE BOX", "address": {"city": "MILL CREEK", "state": "WA", "street": "912 164TH ST SE", "postcode": "98012"}}},
{"geometry": {"type": "Point", "coordinates": [-122.2204796213, 47.8539269766]}, "type": "Feature", "properties": {"collection_times": [{"days": "Mon-Fri", "time": "5:30pm"}, {"days": "Sat", "time": "5:00pm"}, {"days": "Sun", "time": "Closed"}], "id": "9801200008", "name": "USPS COLLECTION BOX - BLUE BOX", "address": {"city": "MILL CREEK", "state": "WA", "street": "15833 MILL CREEK BLVD", "postcode": "98012"}}},
{"geometry": {"type": "Point", "coordinates": [-122.2204796213, 47.8539269766]}, "type": "Feature", "properties": {"collection_times": [{"days": "Mon-Fri", "time": "5:30pm"}, {"days": "Sat", "time": "5:00pm"}, {"days": "Sun", "time": "Closed"}], "id": "9801200009", "name": "USPS COLLECTION BOX - PO LOBBY", "address": {"city": "MILL CREEK", "state": "WA", "street": "15833 MILL CREEK BLVD", "postcode": "98012"}}},
{"geometry": {"type": "Point", "coordinates": [-122.2204796213, 47.8539269766]}, "type": "Feature", "properties": {"collection_times": [{"days": "Mon-Fri", "time": "5:30pm"}, {"days": "Sat", "time": "5:00pm"}, {"days": "Sun", "time": "Closed"}], "id": "9801200010", "name": "USPS COLLECTION BOX - PO LOBBY", "address": {"city": "MILL CREEK", "state": "WA", "street": "15833 MILL CREEK BLVD", "postcode": "98012"}}},
{"geometry": {"type": "Point", "coordinates": [-122.2074915887, 47.810659349]}, "type": "Feature", "properties": {"collection_times": [{"days": "Mon-Sat", "time": "4:00pm"}, {"days": "Sun", "time": "Closed"}], "id": "9801200015", "name": "USPS COLLECTION BOX - BLUE BOX", "address": {"city": "MILL CREEK", "state": "WA", "street": "20631 BOTHELL EVERETT HWY", "postcode": "98012"}}},
{"geometry": {"type": "Point", "coordinates": [-122.2122728779, 47.8765529988]}, "type": "Feature", "properties": {"collection_times": [{"days": "Mon-Fri", "time": "4:00pm"}, {"days": "Sat", "time": "2:45pm"}, {"days": "Sun", "time": "Closed"}], "id": "9801200019", "name": "USPS COLLECTION BOX - BLUE BOX", "address": {"city": "MILL CREEK", "state": "WA", "street": "13300 BOTHELL EVERETT HWY", "postcode": "98012"}}},
{"geometry": {"type": "Point", "coordinates": [-122.2074915887, 47.810659349]}, "type": "Feature", "properties": {"collection_times": [{"days": "Mon-Sat", "time": "4:00pm"}, {"days": "Sun", "time": "Closed"}], "id": "9801200021", "name": "USPS COLLECTION BOX - BLUE BOX", "address": {"city": "MILL CREEK", "state": "WA", "street": "20631 BOTHELL EVERETT HWY", "postcode": "98012"}}},
{"geometry": {"type": "Point", "coordinates": [-122.2204796213, 47.8539269766]}, "type": "Feature", "properties": {"collection_times": [{"days": "Mon-Fri", "time": "5:30pm"}, {"days": "Sat", "time": "5:00pm"}, {"days": "Sun", "time": "Closed"}], "id": "9801200022", "name": "USPS COLLECTION BOX - APC", "address": {"city": "MILL CREEK", "state": "WA", "street": "15833 MILL CREEK BLVD", "postcode": "98012"}}},
{"geometry": {"type": "Point", "coordinates": [-122.2153178802, 47.8396396498]}, "type": "Feature", "properties": {"collection_times": [{"days": "Mon-Fri", "time": "5:00pm"}, {"days": "Sat", "time": "2:00pm"}, {"days": "Sun", "time": "Closed"}], "id": "9801200025", "name": "USPS COLLECTION BOX - BLUE BOX", "address": {"city": "MILL CREEK", "state": "WA", "street": "17414 BOTHELL EVERETT HWY", "postcode": "98012"}}},
{"geometry": {"type": "Point", "coordinates": [-122.4657809324, 47.3888428494]}, "type": "Feature", "properties": {"collection_times": [{"days": "Mon-Fri", "time": "12:00pm"}, {"days": "Sat", "time": "10:30am"}, {"days": "Sun", "time": "Closed"}], "id": "9801300000", "name": "USPS COLLECTION BOX - BLUE BOX", "address": {"city": "VASHON", "state": "WA", "street": "23830 VASHON HWY SW", "postcode": "98013"}}},
{"geometry": {"type": "Point", "coordinates": [-122.4657809324, 47.3888428494]}, "type": "Feature", "properties": {"collection_times": [{"days": "Mon-Fri", "time": "12:00pm"}, {"days": "Sat", "time": "10:30am"}, {"days": "Sun", "time": "Closed"}], "id": "9801300001", "name": "USPS COLLECTION BOX - PO LOBBY", "address": {"city": "VASHON", "state": "WA", "street": "23830 VASHON HWY SW", "postcode": "98013"}}},
{"geometry": {"type": "Point", "coordinates": [-121.8971075595, 47.6604214563]}, "type": "Feature", "properties": {"collection_times": [{"days": "Mon-Fri", "time": "4:45pm"}, {"days": "Sat", "time": "10:00am"}, {"days": "Sun", "time": "Closed"}], "id": "9801400000", "name": "USPS COLLECTION BOX - BLUE BOX", "address": {"city": "CARNATION", "state": "WA", "street": "4440 MCKINLEY AVE", "postcode": "98014"}}},
{"geometry": {"type": "Point", "coordinates": [-121.8971075595, 47.6604214563]}, "type": "Feature", "properties": {"collection_times": [{"days": "Mon-Fri", "time": "4:45pm"}, {"days": "Sat", "time": "10:00am"}, {"days": "Sun", "time": "Closed"}], "id": "9801400002", "name": "USPS COLLECTION BOX - PO LOBBY", "address": {"city": "CARNATION", "state": "WA", "street": "4440 MCKINLEY AVE", "postcode": "98014"}}},
{"geometry": {"type": "Point", "coordinates": [-121.8971075595, 47.6604214563]}, "type": "Feature", "properties": {"collection_times": [{"days": "Mon-Fri", "time": "4:45pm"}, {"days": "Sat", "time": "10:00am"}, {"days": "Sun", "time": "Closed"}], "id": "9801400003", "name": "USPS COLLECTION BOX - PO LOBBY", "address": {"city": "CARNATION", "state": "WA", "street": "4440 MCKINLEY AVE", "postcode": "98014"}}},
{"geometry": {"type": "Point", "coordinates": [-121.985046697, 47.7379967947]}, "type": "Feature", "properties": {"collection_times": [{"days": "Mon-Fri", "time": "4:30pm"}, {"days": "Sat", "time": "11:30am"}, {"days": "Sun", "time": "Closed"}], "id": "9801900001", "name": "USPS COLLECTION BOX - BLUE BOX", "address": {"city": "DUVALL", "state": "WA", "street": "15221 1ST AVE NE", "postcode": "98019"}}},
{"geometry": {"type": "Point", "coordinates": [-121.9862186754, 47.7379011718]}, "type": "Feature", "properties": {"collection_times": [{"days": "Mon-Fri", "time": "5:00pm"}, {"days": "Sat", "time": "11:30am"}, {"days": "Sun", "time": "Closed"}], "id": "9801900002", "name": "USPS COLLECTION BOX - PO LOBBY", "address": {"city": "DUVALL", "state": "WA", "street": "26400 NE VALLEY ST", "postcode": "98019"}}},
{"geometry": {"type": "Point", "coordinates": [-121.9862186754, 47.7379011718]}, "type": "Feature", "properties": {"collection_times": [{"days": "Mon-Fri", "time": "5:00pm"}, {"days": "Sat", "time": "11:30am"}, {"days": "Sun", "time": "Closed"}], "id": "9801900003", "name": "USPS COLLECTION BOX - PO LOBBY", "address": {"city": "DUVALL", "state": "WA", "street": "26400 NE VALLEY ST", "postcode": "98019"}}},
{"geometry": {"type": "Point", "coordinates": [-121.9861324583, 47.7412034487]}, "type": "Feature", "properties": {"collection_times": [{"days": "Mon-Fri", "time": "1:30pm"}, {"days": "Sat", "time": "11:00am"}, {"days": "Sun", "time": "Closed"}], "id": "9801900004", "name": "USPS COLLECTION BOX - BLUE BOX", "address": {"city": "DUVALL", "state": "WA", "street": "15535 MAIN ST NE", "postcode": "98019"}}},
{"geometry": {"type": "Point", "coordinates": [-121.985046697, 47.7379967947]}, "type": "Feature", "properties": {"collection_times": [{"days": "Mon-Fri", "time": "4:30pm"}, {"days": "Sat", "time": "11:30am"}, {"days": "Sun", "time": "Closed"}], "id": "9801900005", "name": "USPS COLLECTION BOX - BLUE BOX", "address": {"city": "DUVALL", "state": "WA", "street": "15221 1ST AVE NE", "postcode": "98019"}}},
{"geometry": {"type": "Point", "coordinates": [-121.9868629964, 47.7267636011]}, "type": "Feature", "properties": {"collection_times": [{"days": "Mon-Fri", "time": "1:30pm"}, {"days": "Sat", "time": "11:00am"}, {"days": "Sun", "time": "Closed"}], "id": "9801900006", "name": "USPS COLLECTION BOX - BLUE BOX", "address": {"city": "DUVALL", "state": "WA", "street": "14110 MAIN ST NE", "postcode": "98019"}}},
{"geometry": {"type": "Point", "coordinates": [-122.370945967, 47.8008777956]}, "type": "Feature", "properties": {"collection_times": [{"days": "Mon-Sat", "time": "3:00pm"}, {"days": "Sun", "time": "Closed"}], "id": "9802000000", "name": "USPS COLLECTION BOX - BLUE BOX", "address": {"city": "EDMONDS", "state": "WA", "street": "10117 EDMONDS WAY", "postcode": "98020"}}},
{"geometry": {"type": "Point", "coordinates": [-122.3775694741, 47.8064098809]}, "type": "Feature", "properties": {"collection_times": [{"days": "Mon-Sat", "time": "3:00pm"}, {"days": "Sun", "time": "Closed"}], "id": "9802000027", "name": "USPS COLLECTION BOX - BLUE BOX", "address": {"city": "EDMONDS", "state": "WA", "street": "550 5TH AVE S", "postcode": "98020"}}},
{"geometry": {"type": "Point", "coordinates": [-122.3803565255, 47.8117414769]}, "type": "Feature", "properties": {"collection_times": [{"days": "Mon-Fri", "time": "5:15pm"}, {"days": "Sat", "time": "1:00pm"}, {"days": "Sun", "time": "Closed"}], "id": "9802000034", "name": "USPS COLLECTION BOX - PO LOBBY", "address": {"city": "EDMONDS", "state": "WA", "street": "201 MAIN ST", "postcode": "98020"}}},
{"geometry": {"type": "Point", "coordinates": [-122.3803565255, 47.8117414769]}, "type": "Feature", "properties": {"collection_times": [{"days": "Mon-Fri", "time": "5:15pm"}, {"days": "Sat", "time": "3:30pm"}, {"days": "Sun", "time": "Closed"}], "id": "9802000036", "name": "USPS COLLECTION BOX - BLUE BOX", "address": {"city": "EDMONDS", "state": "WA", "street": "201 MAIN ST", "postcode": "98020"}}},
{"geometry": {"type": "Point", "coordinates": [-122.3768691624, 47.8111996817]}, "type": "Feature", "properties": {"collection_times": [{"days": "Mon-Sat", "time": "3:00pm"}, {"days": "Sun", "time": "Closed"}], "id": "9802000040", "name": "USPS COLLECTION BOX - BLUE BOX", "address": {"city": "EDMONDS", "state": "WA", "street": "121 5TH AVE N", "postcode": "98020"}}},
{"geometry": {"type": "Point", "coordinates": [-122.3768691624, 47.8111996817]}, "type": "Feature", "properties": {"collection_times": [{"days": "Mon-Sat", "time": "3:00pm"}, {"days": "Sun", "time": "Closed"}], "id": "9802000041", "name": "USPS COLLECTION BOX - BLUE BOX", "address": {"city": "EDMONDS", "state": "WA", "street": "121 5TH AVE N", "postcode": "98020"}}},
{"geometry": {"type": "Point", "coordinates": [-122.3803565255, 47.8117414769]}, "type": "Feature", "properties": {"collection_times": [{"days": "Mon-Fri", "time": "5:15pm"}, {"days": "Sat", "time": "1:00pm"}, {"days": "Sun", "time": "Closed"}], "id": "9802000045", "name": "USPS COLLECTION BOX - APC", "address": {"city": "EDMONDS", "state": "WA", "street": "201 MAIN ST", "postcode": "98020"}}},
{"geometry": {"type": "Point", "coordinates": [-122.3803565255, 47.8117414769]}, "type": "Feature", "properties": {"collection_times": [{"days": "Mon-Fri", "time": "5:15pm"}, {"days": "Sat", "time": "1:00pm"}, {"days": "Sun", "time": "Closed"}], "id": "9802000046", "name": "USPS COLLECTION BOX - APC", "address": {"city": "EDMONDS", "state": "WA", "street": "201 MAIN ST", "postcode": "98020"}}},
{"geometry": {"type": "Point", "coordinates": [-122.2108016022, 47.7965514251]}, "type": "Feature", "properties": {"collection_times": [{"days": "Mon-Fri", "time": "4:00pm"}, {"days": "Sat", "time": "3:45pm"}, {"days": "Sun", "time": "Closed"}], "id": "9802100003", "name": "USPS COLLECTION BOX - BLUE BOX", "address": {"city": "BOTHELL", "state": "WA", "street": "22100 17TH AVE SE", "postcode": "98021"}}},
{"geometry": {"type": "Point", "coordinates": [-122.2108016022, 47.7965514251]}, "type": "Feature", "properties": {"collection_times": [{"days": "Mon-Fri", "time": "4:00pm"}, {"days": "Sat", "time": "3:45pm"}, {"days": "Sun", "time": "Closed"}], "id": "9802100004", "name": "USPS COLLECTION BOX - BLUE BOX", "address": {"city": "BOTHELL", "state": "WA", "street": "22100 17TH AVE SE", "postcode": "98021"}}},
{"geometry": {"type": "Point", "coordinates": [-122.2172241183, 47.7905972684]}, "type": "Feature", "properties": {"collection_times": [{"days": "Mon-Fri", "time": "4:00pm"}, {"days": "Sat", "time": "3:30pm"}, {"days": "Sun", "time": "Closed"}], "id": "9802100010", "name": "USPS COLLECTION BOX - BLUE BOX", "address": {"city": "BOTHELL", "state": "WA", "street": "22833 BOTHELL EVERETT HWY", "postcode": "98021"}}},
{"geometry": {"type": "Point", "coordinates": [-122.2172241183, 47.7905972684]}, "type": "Feature", "properties": {"collection_times": [{"days": "Mon-Fri", "time": "4:00pm"}, {"days": "Sat", "time": "3:30pm"}, {"days": "Sun", "time": "Closed"}], "id": "9802100011", "name": "USPS COLLECTION BOX - BLUE BOX", "address": {"city": "BOTHELL", "state": "WA", "street": "22833 BOTHELL EVERETT HWY", "postcode": "98021"}}},
{"geometry": {"type": "Point", "coordinates": [-122.2019858585, 47.7960551857]}, "type": "Feature", "properties": {"collection_times": [{"days": "Mon-Sat", "time": "4:00pm"}, {"days": "Sun", "time": "Closed"}], "id": "9802100014", "name": "USPS COLLECTION BOX - BLUE BOX", "address": {"city": "BOTHELL", "state": "WA", "street": "2301 223RD ST SE", "postcode": "98021"}}},
{"geometry": {"type": "Point", "coordinates": [-122.2019858585, 47.7960551857]}, "type": "Feature", "properties": {"collection_times": [{"days": "Mon-Sat", "time": "4:00pm"}, {"days": "Sun", "time": "Closed"}], "id": "9802100015", "name": "USPS COLLECTION BOX - BLUE BOX", "address": {"city": "BOTHELL", "state": "WA", "street": "2301 223RD ST SE", "postcode": "98021"}}},
{"geometry": {"type": "Point", "coordinates": [-122.2019858585, 47.7960551857]}, "type": "Feature", "properties": {"collection_times": [{"days": "Mon-Sat", "time": "4:00pm"}, {"days": "Sun", "time": "Closed"}], "id": "9802100016", "name": "USPS COLLECTION BOX - BLUE BOX", "address": {"city": "BOTHELL", "state": "WA", "street": "2301 223RD ST SE", "postcode": "98021"}}},
{"geometry": {"type": "Point", "coordinates": [-121.980977378, 47.211738546]}, "type": "Feature", "properties": {"collection_times": [{"days": "Mon-Fri", "time": "2:30pm"}, {"days": "Sat", "time": "11:30am"}, {"days": "Sun", "time": "Closed"}], "id": "9802200002", "name": "USPS COLLECTION BOX - BLUE BOX", "address": {"city": "ENUMCLAW", "state": "WA", "street": "860 COLE ST", "postcode": "98022"}}},
{"geometry": {"type": "Point", "coordinates": [-121.9775806345, 47.1993153295]}, "type": "Feature", "properties": {"collection_times": [{"days": "Mon-Fri", "time": "2:30pm"}, {"days": "Sat", "time": "11:30am"}, {"days": "Sun", "time": "Closed"}], "id": "9802200005", "name": "USPS COLLECTION BOX - BLUE BOX", "address": {"city": "ENUMCLAW", "state": "WA", "street": "230 ROOSEVELT AVE E", "postcode": "98022"}}},
{"geometry": {"type": "Point", "coordinates": [-121.9841907948, 47.2039099334]}, "type": "Feature", "properties": {"collection_times": [{"days": "Mon-Fri", "time": "5:00pm"}, {"days": "Sat", "time": "3:00pm"}, {"days": "Sun", "time": "Closed"}], "id": "9802200007", "name": "USPS COLLECTION BOX - BLUE BOX", "address": {"city": "ENUMCLAW", "state": "WA", "street": "1005 WASHINGTON AVE", "postcode": "98022"}}},
{"geometry": {"type": "Point", "coordinates": [-121.988869011, 47.2045562734]}, "type": "Feature", "properties": {"collection_times": [{"days": "Mon-Fri", "time": "4:45pm"}, {"days": "Sat", "time": "2:00pm"}, {"days": "Sun", "time": "Closed"}], "id": "9802200009", "name": "USPS COLLECTION BOX - PO LOBBY", "address": {"city": "ENUMCLAW", "state": "WA", "street": "1742 COLE ST", "postcode": "98022"}}},
{"geometry": {"type": "Point", "coordinates": [-122.3750378114, 47.3134998879]}, "type": "Feature", "properties": {"collection_times": [{"days": "Mon-Sat", "time": "3:00pm"}, {"days": "Sun", "time": "Closed"}], "id": "9802300000", "name": "USPS COLLECTION BOX - BLUE BOX", "address": {"city": "FEDERAL WAY", "state": "WA", "street": "3400 SW 320TH ST", "postcode": "98023"}}},
{"geometry": {"type": "Point", "coordinates": [-122.3583258689, 47.3006200611]}, "type": "Feature", "properties": {"collection_times": [{"days": "Mon-Fri", "time": "5:15pm"}, {"days": "Sat", "time": "4:15pm"}, {"days": "Sun", "time": "Closed"}], "id": "9802300003", "name": "USPS COLLECTION BOX - APC", "address": {"city": "FEDERAL WAY", "state": "WA", "street": "1815 SW CAMPUS DR", "postcode": "98023"}}},
{"geometry": {"type": "Point", "coordinates": [-122.3583258689, 47.3006200611]}, "type": "Feature", "properties": {"collection_times": [{"days": "Mon-Fri", "time": "5:15pm"}, {"days": "Sat", "time": "4:15pm"}, {"days": "Sun", "time": "Closed"}], "id": "9802300005", "name": "USPS COLLECTION BOX - BLUE BOX", "address": {"city": "FEDERAL WAY", "state": "WA", "street": "1815 SW CAMPUS DR", "postcode": "98023"}}},
{"geometry": {"type": "Point", "coordinates": [-122.3583258689, 47.3006200611]}, "type": "Feature", "properties": {"collection_times": [{"days": "Mon-Fri", "time": "5:15pm"}, {"days": "Sat", "time": "4:15pm"}, {"days": "Sun", "time": "Closed"}], "id": "9802300009", "name": "USPS COLLECTION BOX - PO LOBBY", "address": {"city": "FEDERAL WAY", "state": "WA", "street": "1815 SW CAMPUS DR", "postcode": "98023"}}},
{"geometry": {"type": "Point", "coordinates": [-121.8929649056, 47.568468954]}, "type": "Feature", "properties": {"collection_times": [{"days": "Mon-Fri", "time": "5:00pm"}, {"days": "Sat", "time": "11:00am"}, {"days": "Sun", "time": "Closed"}], "id": "9802400001", "name": "USPS COLLECTION BOX - BLUE BOX", "address": {"city": "FALL CITY", "state": "WA", "street": "4225 335TH PL SE", "postcode": "98024"}}},
{"geometry": {"type": "Point", "coordinates": [-121.8929649056, 47.568468954]}, "type": "Feature", "properties": {"collection_times": [{"days": "Mon-Fri", "time": "5:00pm"}, {"days": "Sat", "time": "11:00am"}, {"days": "Sun", "time": "Closed"}], "id": "9802400002", "name": "USPS COLLECTION BOX - PO LOBBY", "address": {"city": "FALL CITY", "state": "WA", "street": "4225 335TH PL SE", "postcode": "98024"}}},
{"geometry": {"type": "Point", "coordinates": [-121.8929649056, 47.568468954]}, "type": "Feature", "properties": {"collection_times": [{"days": "Mon-Fri", "time": "5:00pm"}, {"days": "Sat", "time": "11:00am"}, {"days": "Sun", "time": "Closed"}], "id": "9802400003", "name": "USPS COLLECTION BOX - PO LOBBY", "address": {"city": "FALL CITY", "state": "WA", "street": "4225 335TH PL SE", "postcode": "98024"}}},
{"geometry": {"type": "Point", "coordinates": [-121.9730948104, 47.4199116209]}, "type": "Feature", "properties": {"collection_times": [{"days": "Mon-Fri", "time": "5:00pm"}, {"days": "Sat", "time": "12:00pm"}, {"days": "Sun", "time": "Closed"}], "id": "9802500000", "name": "USPS COLLECTION BOX - BLUE BOX", "address": {"city": "HOBART", "state": "WA", "street": "20250 276TH AVE SE", "postcode": "98025"}}},
{"geometry": {"type": "Point", "coordinates": [-121.9730948104, 47.4199116209]}, "type": "Feature", "properties": {"collection_times": [{"days": "Mon-Fri", "time": "5:00pm"}, {"days": "Sat", "time": "12:00pm"}, {"days": "Sun", "time": "Closed"}], "id": "9802500001", "name": "USPS COLLECTION BOX - PO LOBBY", "address": {"city": "HOBART", "state": "WA", "street": "20250 276TH AVE SE", "postcode": "98025"}}},
{"geometry": {"type": "Point", "coordinates": [-122.3356442255, 47.8027852946]}, "type": "Feature", "properties": {"collection_times": [{"days": "Mon-Sat", "time": "3:00pm"}, {"days": "Sun", "time": "Closed"}], "id": "9802600000", "name": "USPS COLLECTION BOX - BLUE BOX", "address": {"city": "EDMONDS", "state": "WA", "street": "21601 76TH AVE W", "postcode": "98026"}}},
{"geometry": {"type": "Point", "coordinates": [-122.3430897692, 47.783863866]}, "type": "Feature", "properties": {"collection_times": [{"days": "Mon-Sat", "time": "3:00pm"}, {"days": "Sun", "time": "Closed"}], "id": "9802600010", "name": "USPS COLLECTION BOX - BLUE BOX", "address": {"city": "EDMONDS", "state": "WA", "street": "23632 HIGHWAY 99", "postcode": "98026"}}},
{"geometry": {"type": "Point", "coordinates": [-122.3385046202, 47.8317287516]}, "type": "Feature", "properties": {"collection_times": [{"days": "Mon-Fri", "time": "5:00pm"}, {"days": "Sat", "time": "4:15pm"}, {"days": "Sun", "time": "Closed"}], "id": "9802600014", "name": "USPS COLLECTION BOX - BLUE BOX", "address": {"city": "EDMONDS", "state": "WA", "street": "7601 OLYMPIC VIEW DR", "postcode": "98026"}}},
{"geometry": {"type": "Point", "coordinates": [-122.3385046202, 47.8317287516]}, "type": "Feature", "properties": {"collection_times": [{"days": "Mon-Sat", "time": "4:15pm"}, {"days": "Sun", "time": "Closed"}], "id": "9802600017", "name": "USPS COLLECTION BOX - PO LOBBY", "address": {"city": "EDMONDS", "state": "WA", "street": "7601 OLYMPIC VIEW DR", "postcode": "98026"}}},
{"geometry": {"type": "Point", "coordinates": [-122.3312179154, 47.800439861]}, "type": "Feature", "properties": {"collection_times": [{"days": "Mon-Sat", "time": "3:00pm"}, {"days": "Sun", "time": "Closed"}], "id": "9802600020", "name": "USPS COLLECTION BOX - BLUE BOX", "address": {"city": "EDMONDS", "state": "WA", "street": "21900 HIGHWAY 99", "postcode": "98026"}}},
{"geometry": {"type": "Point", "coordinates": [-122.3385046202, 47.8317287516]}, "type": "Feature", "properties": {"collection_times": [{"days": "Mon-Sat", "time": "4:15pm"}, {"days": "Sun", "time": "Closed"}], "id": "9802600021", "name": "USPS COLLECTION BOX - PO LOBBY", "address": {"city": "EDMONDS", "state": "WA", "street": "7601 OLYMPIC VIEW DR", "postcode": "98026"}}},
{"geometry": {"type": "Point", "coordinates": [-122.0424092094, 47.5415167994]}, "type": "Feature", "properties": {"collection_times": [{"days": "Mon-Fri", "time": "5:00pm"}, {"days": "Sat", "time": "3:00pm"}, {"days": "Sun", "time": "Closed"}], "id": "9802700005", "name": "USPS COLLECTION BOX - PO LOBBY", "address": {"city": "ISSAQUAH", "state": "WA", "street": "400 NW GILMAN BLVD", "postcode": "98027"}}},
{"geometry": {"type": "Point", "coordinates": [-122.0610527101, 47.5457567507]}, "type": "Feature", "properties": {"collection_times": [{"days": "Mon-Fri", "time": "1:30pm"}, {"days": "Sat", "time": "12:30pm"}, {"days": "Sun", "time": "Closed"}], "id": "9802700006", "name": "USPS COLLECTION BOX - BLUE BOX", "address": {"city": "ISSAQUAH", "state": "WA", "street": "1540 NW GILMAN BLVD", "postcode": "98027"}}},
{"geometry": {"type": "Point", "coordinates": [-122.0609840557, 47.5519256291]}, "type": "Feature", "properties": {"collection_times": [{"days": "Mon-Sat", "time": "10:30am"}, {"days": "Sun", "time": "Closed"}], "id": "9802700007", "name": "USPS COLLECTION BOX - BLUE BOX", "address": {"city": "ISSAQUAH", "state": "WA", "street": "1555 NW SAMMAMISH RD", "postcode": "98027"}}},
{"geometry": {"type": "Point", "coordinates": [-122.0392188338, 47.539614212]}, "type": "Feature", "properties": {"collection_times": [{"days": "Mon-Fri", "time": "1:45pm"}, {"days": "Sat", "time": "12:30pm"}, {"days": "Sun", "time": "Closed"}], "id": "9802700008", "name": "USPS COLLECTION BOX - BLUE BOX", "address": {"city": "ISSAQUAH", "state": "WA", "street": "205 NW GILMAN BLVD", "postcode": "98027"}}},
{"geometry": {"type": "Point", "coordinates": [-122.0424092094, 47.5415167994]}, "type": "Feature", "properties": {"collection_times": [{"days": "Mon-Fri", "time": "5:00pm"}, {"days": "Sat", "time": "3:00pm"}, {"days": "Sun", "time": "Closed"}], "id": "9802700015", "name": "USPS COLLECTION BOX - BLUE BOX", "address": {"city": "ISSAQUAH", "state": "WA", "street": "400 NW GILMAN BLVD", "postcode": "98027"}}},
{"geometry": {"type": "Point", "coordinates": [-122.0424092094, 47.5415167994]}, "type": "Feature", "properties": {"collection_times": [{"days": "Mon-Fri", "time": "5:00pm"}, {"days": "Sat", "time": "3:00pm"}, {"days": "Sun", "time": "Closed"}], "id": "9802700018", "name": "USPS COLLECTION BOX - APC", "address": {"city": "ISSAQUAH", "state": "WA", "street": "400 NW GILMAN BLVD", "postcode": "98027"}}},
{"geometry": {"type": "Point", "coordinates": [-122.0365043428, 47.5349262108]}, "type": "Feature", "properties": {"collection_times": [{"days": "Mon-Fri", "time": "1:45pm"}, {"days": "Sat", "time": "12:30pm"}, {"days": "Sun", "time": "Closed"}], "id": "9802700021", "name": "USPS COLLECTION BOX - BLUE BOX", "address": {"city": "ISSAQUAH", "state": "WA", "street": "485 FRONT ST N", "postcode": "98027"}}},
{"geometry": {"type": "Point", "coordinates": [-122.0362694178, 47.5301021854]}, "type": "Feature", "properties": {"collection_times": [{"days": "Mon-Fri", "time": "1:45pm"}, {"days": "Sat", "time": "12:30pm"}, {"days": "Sun", "time": "Closed"}], "id": "9802700022", "name": "USPS COLLECTION BOX - BLUE BOX", "address": {"city": "ISSAQUAH", "state": "WA", "street": "15 E SUNSET WAY", "postcode": "98027"}}},
{"geometry": {"type": "Point", "coordinates": [-122.2515046766, 47.7595917918]}, "type": "Feature", "properties": {"collection_times": [{"days": "Mon-Fri", "time": "5:00pm"}, {"days": "Sat", "time": "3:15pm"}, {"days": "Sun", "time": "Closed"}], "id": "9802800000", "name": "USPS COLLECTION BOX - BLUE BOX", "address": {"city": "BOTHELL", "state": "WA", "street": "6700 NE 181ST ST", "postcode": "98028"}}},
{"geometry": {"type": "Point", "coordinates": [-122.2490846876, 47.758394774]}, "type": "Feature", "properties": {"collection_times": [{"days": "Mon-Fri", "time": "4:00pm"}, {"days": "Sat", "time": "3:30pm"}, {"days": "Sun", "time": "Closed"}], "id": "9802800006", "name": "USPS COLLECTION BOX - BLUE BOX", "address": {"city": "BOTHELL", "state": "WA", "street": "6850 NE BOTHELL WAY", "postcode": "98028"}}},
{"geometry": {"type": "Point", "coordinates": [-122.2515046766, 47.7595917918]}, "type": "Feature", "properties": {"collection_times": [{"days": "Mon-Fri", "time": "5:00pm"}, {"days": "Sat-Sun", "time": "Closed"}], "id": "9802800007", "name": "USPS COLLECTION BOX - PO LOBBY", "address": {"city": "BOTHELL", "state": "WA", "street": "6700 NE 181ST ST", "postcode": "98028"}}},
{"geometry": {"type": "Point", "coordinates": [-122.0041747383, 47.5641055593]}, "type": "Feature", "properties": {"collection_times": [{"days": "Mon-Sat", "time": "10:30am"}, {"days": "Sun", "time": "Closed"}], "id": "9802900003", "name": "USPS COLLECTION BOX - BLUE BOX", "address": {"city": "ISSAQUAH", "state": "WA", "street": "4570 KLAHANIE DR SE", "postcode": "98029"}}},
{"geometry": {"type": "Point", "coordinates": [-122.0122163852, 47.5449529957]}, "type": "Feature", "properties": {"collection_times": [{"days": "Mon-Sat", "time": "10:00am"}, {"days": "Sun", "time": "Closed"}], "id": "9802900004", "name": "USPS COLLECTION BOX - BLUE BOX", "address": {"city": "ISSAQUAH", "state": "WA", "street": "1339 NE PARK DR", "postcode": "98029"}}},
{"geometry": {"type": "Point", "coordinates": [-122.1957864056, 47.3661683555]}, "type": "Feature", "properties": {"collection_times": [{"days": "Mon-Fri", "time": "3:30pm"}, {"days": "Sat", "time": "11:30am"}, {"days": "Sun", "time": "Closed"}], "id": "9803000000", "name": "USPS COLLECTION BOX - BLUE BOX", "address": {"city": "KENT", "state": "WA", "street": "25600 103RD AVE SE", "postcode": "98030"}}},
{"geometry": {"type": "Point", "coordinates": [-122.2023696374, 47.3791508639]}, "type": "Feature", "properties": {"collection_times": [{"days": "Mon-Fri", "time": "3:30pm"}, {"days": "Sat", "time": "11:30am"}, {"days": "Sun", "time": "Closed"}], "id": "9803000002", "name": "USPS COLLECTION BOX - BLUE BOX", "address": {"city": "KENT", "state": "WA", "street": "24837 104TH AVE SE", "postcode": "98030"}}},
{"geometry": {"type": "Point", "coordinates": [-122.2024238517, 47.3687726037]}, "type": "Feature", "properties": {"collection_times": [{"days": "Mon-Fri", "time": "3:30pm"}, {"days": "Sat", "time": "11:30am"}, {"days": "Sun", "time": "Closed"}], "id": "9803000003", "name": "USPS COLLECTION BOX - BLUE BOX", "address": {"city": "KENT", "state": "WA", "street": "26015 104TH AVE SE", "postcode": "98030"}}},
{"geometry": {"type": "Point", "coordinates": [-122.1691425138, 47.359042961]}, "type": "Feature", "properties": {"collection_times": [{"days": "Mon-Fri", "time": "3:30pm"}, {"days": "Sat", "time": "11:30am"}, {"days": "Sun", "time": "Closed"}], "id": "9803000005", "name": "USPS COLLECTION BOX - BLUE BOX", "address": {"city": "KENT", "state": "WA", "street": "12922 SE KENT KANGLEY RD", "postcode": "98030"}}},
{"geometry": {"type": "Point", "coordinates": [-122.2259100012, 47.41199322]}, "type": "Feature", "properties": {"collection_times": [{"days": "Mon-Fri", "time": "3:00pm"}, {"days": "Sat", "time": "11:30am"}, {"days": "Sun", "time": "Closed"}], "id": "9803100022", "name": "USPS COLLECTION BOX - BLUE BOX", "address": {"city": "KENT", "state": "WA", "street": "8621 S 212TH ST", "postcode": "98031"}}},
{"geometry": {"type": "Point", "coordinates": [-122.1987515214, 47.3870107757]}, "type": "Feature", "properties": {"collection_times": [{"days": "Mon-Fri", "time": "6:00pm"}, {"days": "Sat", "time": "3:00pm"}, {"days": "Sun", "time": "Closed"}], "id": "9803100023", "name": "USPS COLLECTION BOX - BLUE BOX", "address": {"city": "KENT", "state": "WA", "street": "10612 SE 240TH ST", "postcode": "98031"}}},
{"geometry": {"type": "Point", "coordinates": [-122.1968719607, 47.4154896379]}, "type": "Feature", "properties": {"collection_times": [{"days": "Mon-Fri", "time": "3:30pm"}, {"days": "Sat", "time": "11:30am"}, {"days": "Sun", "time": "Closed"}], "id": "9803100041", "name": "USPS COLLECTION BOX - BLUE BOX", "address": {"city": "KENT", "state": "WA", "street": "20830 108TH AVE SE", "postcode": "98031"}}},
{"geometry": {"type": "Point", "coordinates": [-122.2047735129, 47.3868935605]}, "type": "Feature", "properties": {"collection_times": [{"days": "Mon-Fri", "time": "3:30pm"}, {"days": "Sat", "time": "11:30am"}, {"days": "Sun", "time": "Closed"}], "id": "9803100042", "name": "USPS COLLECTION BOX - BLUE BOX", "address": {"city": "KENT", "state": "WA", "street": "10201 SE 240TH ST", "postcode": "98031"}}},
{"geometry": {"type": "Point", "coordinates": [-122.1987515214, 47.3870107757]}, "type": "Feature", "properties": {"collection_times": [{"days": "Mon-Fri", "time": "6:00pm"}, {"days": "Sat", "time": "3:00pm"}, {"days": "Sun", "time": "Closed"}], "id": "9803100043", "name": "USPS COLLECTION BOX - APC", "address": {"city": "KENT", "state": "WA", "street": "10612 SE 240TH ST", "postcode": "98031"}}},
{"geometry": {"type": "Point", "coordinates": [-122.1987515214, 47.3870107757]}, "type": "Feature", "properties": {"collection_times": [{"days": "Mon-Fri", "time": "6:00pm"}, {"days": "Sat", "time": "3:00pm"}, {"days": "Sun", "time": "Closed"}], "id": "9803100044", "name": "USPS COLLECTION BOX - APC", "address": {"city": "KENT", "state": "WA", "street": "10612 SE 240TH ST", "postcode": "98031"}}},
{"geometry": {"type": "Point", "coordinates": [-122.1987515214, 47.3870107757]}, "type": "Feature", "properties": {"collection_times": [{"days": "Mon-Fri", "time": "6:00pm"}, {"days": "Sat", "time": "3:00pm"}, {"days": "Sun", "time": "Closed"}], "id": "9803100045", "name": "USPS COLLECTION BOX - BLUE BOX", "address": {"city": "KENT", "state": "WA", "street": "10612 SE 240TH ST", "postcode": "98031"}}},
{"geometry": {"type": "Point", "coordinates": [-122.2311707659, 47.3892583269]}, "type": "Feature", "properties": {"collection_times": [{"days": "Mon-Fri", "time": "3:30pm"}, {"days": "Sat", "time": "11:30am"}, {"days": "Sun", "time": "Closed"}], "id": "9803200011", "name": "USPS COLLECTION BOX - BLUE BOX", "address": {"city": "KENT", "state": "WA", "street": "841 CENTRAL AVE N", "postcode": "98032"}}},
{"geometry": {"type": "Point", "coordinates": [-122.2387355387, 47.3815940799]}, "type": "Feature", "properties": {"collection_times": [{"days": "Mon-Fri", "time": "3:30pm"}, {"days": "Sat", "time": "11:30am"}, {"days": "Sun", "time": "Closed"}], "id": "9803200012", "name": "USPS COLLECTION BOX - BLUE BOX", "address": {"city": "KENT", "state": "WA", "street": "505 W MEEKER ST", "postcode": "98032"}}},
{"geometry": {"type": "Point", "coordinates": [-122.22989, 47.3621]}, "type": "Feature", "properties": {"collection_times": [{"days": "Mon-Fri", "time": "3:30pm"}, {"days": "Sat", "time": "11:30am"}, {"days": "Sun", "time": "Closed"}], "id": "9803200016", "name": "USPS COLLECTION BOX - BLUE BOX", "address": {"city": "KENT", "state": "WA", "street": "1819 CENTRAL AVE S", "postcode": "98032"}}},
{"geometry": {"type": "Point", "coordinates": [-122.2497832395, 47.3813573992]}, "type": "Feature", "properties": {"collection_times": [{"days": "Mon-Fri", "time": "3:15pm"}, {"days": "Sat", "time": "11:30am"}, {"days": "Sun", "time": "Closed"}], "id": "9803200021", "name": "USPS COLLECTION BOX - BLUE BOX", "address": {"city": "KENT", "state": "WA", "street": "1313 W MEEKER ST", "postcode": "98032"}}},
{"geometry": {"type": "Point", "coordinates": [-122.2862591327, 47.380521053]}, "type": "Feature", "properties": {"collection_times": [{"days": "Mon-Fri", "time": "3:00pm"}, {"days": "Sat", "time": "11:30am"}, {"days": "Sun", "time": "Closed"}], "id": "9803200022", "name": "USPS COLLECTION BOX - BLUE BOX", "address": {"city": "KENT", "state": "WA", "street": "24700 36TH AVE S", "postcode": "98032"}}},
{"geometry": {"type": "Point", "coordinates": [-122.2511792767, 47.4293918354]}, "type": "Feature", "properties": {"collection_times": [{"days": "Mon-Fri", "time": "3:00pm"}, {"days": "Sat", "time": "11:30am"}, {"days": "Sun", "time": "Closed"}], "id": "9803200032", "name": "USPS COLLECTION BOX - BLUE BOX", "address": {"city": "KENT", "state": "WA", "street": "19219 66TH AVE S", "postcode": "98032"}}},
{"geometry": {"type": "Point", "coordinates": [-122.2595682864, 47.3910704544]}, "type": "Feature", "properties": {"collection_times": [{"days": "Mon-Fri", "time": "3:15pm"}, {"days": "Sat", "time": "11:30am"}, {"days": "Sun", "time": "Closed"}], "id": "9803200053", "name": "USPS COLLECTION BOX - BLUE BOX", "address": {"city": "KENT", "state": "WA", "street": "6600 TODD BLVD", "postcode": "98032"}}},
{"geometry": {"type": "Point", "coordinates": [-122.295128071, 47.391257528]}, "type": "Feature", "properties": {"collection_times": [{"days": "Mon-Fri", "time": "3:30pm"}, {"days": "Sat", "time": "12:00pm"}, {"days": "Sun", "time": "Closed"}], "id": "9803200057", "name": "USPS COLLECTION BOX - BLUE BOX", "address": {"city": "KENT", "state": "WA", "street": "23418 PACIFIC HWY S", "postcode": "98032"}}},
{"geometry": {"type": "Point", "coordinates": [-122.2492891622, 47.4049346207]}, "type": "Feature", "properties": {"collection_times": [{"days": "Mon-Fri", "time": "3:30pm"}, {"days": "Sat", "time": "11:30am"}, {"days": "Sun", "time": "Closed"}], "id": "9803200059", "name": "USPS COLLECTION BOX - BLUE BOX", "address": {"city": "KENT", "state": "WA", "street": "22000 68TH AVE S", "postcode": "98032"}}},
{"geometry": {"type": "Point", "coordinates": [-122.2435853059, 47.4411707361]}, "type": "Feature", "properties": {"collection_times": [{"days": "Mon-Fri", "time": "3:15pm"}, {"days": "Sat", "time": "11:30am"}, {"days": "Sun", "time": "Closed"}], "id": "9803200071", "name": "USPS COLLECTION BOX - BLUE BOX", "address": {"city": "KENT", "state": "WA", "street": "18000 72ND AVE S", "postcode": "98032"}}},
{"geometry": {"type": "Point", "coordinates": [-122.2351426558, 47.3808696116]}, "type": "Feature", "properties": {"collection_times": [{"days": "Mon-Fri", "time": "5:00pm"}, {"days": "Sat", "time": "12:00pm"}, {"days": "Sun", "time": "Closed"}], "id": "9803200072", "name": "USPS COLLECTION BOX - BLUE BOX", "address": {"city": "KENT", "state": "WA", "street": "216 W GOWE ST", "postcode": "98032"}}},
{"geometry": {"type": "Point", "coordinates": [-122.2374521326, 47.3839596347]}, "type": "Feature", "properties": {"collection_times": [{"days": "Mon-Fri", "time": "3:00pm"}, {"days": "Sat", "time": "11:30am"}, {"days": "Sun", "time": "Closed"}], "id": "9803200078", "name": "USPS COLLECTION BOX - BLUE BOX", "address": {"city": "KENT", "state": "WA", "street": "401 4TH AVE N", "postcode": "98032"}}},
{"geometry": {"type": "Point", "coordinates": [-122.2401388332, 47.3962728612]}, "type": "Feature", "properties": {"collection_times": [{"days": "Mon-Fri", "time": "3:15pm"}, {"days": "Sat", "time": "11:30am"}, {"days": "Sun", "time": "Closed"}], "id": "9803200080", "name": "USPS COLLECTION BOX - BLUE BOX", "address": {"city": "KENT", "state": "WA", "street": "1225 6TH AVE N", "postcode": "98032"}}},
{"geometry": {"type": "Point", "coordinates": [-122.2585267053, 47.3961678935]}, "type": "Feature", "properties": {"collection_times": [{"days": "Mon-Fri", "time": "3:15pm"}, {"days": "Sat-Sun", "time": "Closed"}], "id": "9803200082", "name": "USPS COLLECTION BOX - BLUE BOX", "address": {"city": "KENT", "state": "WA", "street": "6307 S 228TH ST", "postcode": "98032"}}},
{"geometry": {"type": "Point", "coordinates": [-122.2490960877, 47.4193104012]}, "type": "Feature", "properties": {"collection_times": [{"days": "Mon-Fri", "time": "3:00pm"}, {"days": "Sat", "time": "11:30am"}, {"days": "Sun", "time": "Closed"}], "id": "9803200083", "name": "USPS COLLECTION BOX - BLUE BOX", "address": {"city": "KENT", "state": "WA", "street": "6811 S 204TH ST", "postcode": "98032"}}},
{"geometry": {"type": "Point", "coordinates": [-122.1810749531, 47.700765638]}, "type": "Feature", "properties": {"collection_times": [{"days": "Mon-Fri", "time": "3:30pm"}, {"days": "Sat", "time": "12:30pm"}, {"days": "Sun", "time": "Closed"}], "id": "9803300002", "name": "USPS COLLECTION BOX - BLUE BOX", "address": {"city": "KIRKLAND", "state": "WA", "street": "11212 120TH AVE NE", "postcode": "98033"}}},
{"geometry": {"type": "Point", "coordinates": [-122.1641385988, 47.665694736]}, "type": "Feature", "properties": {"collection_times": [{"days": "Mon-Fri", "time": "4:30pm"}, {"days": "Sat", "time": "12:30pm"}, {"days": "Sun", "time": "Closed"}], "id": "9803300015", "name": "USPS COLLECTION BOX - BLUE BOX", "address": {"city": "KIRKLAND", "state": "WA", "street": "6619 132ND AVE NE", "postcode": "98033"}}},
{"geometry": {"type": "Point", "coordinates": [-122.1982139208, 47.6666824878]}, "type": "Feature", "properties": {"collection_times": [{"days": "Mon-Fri", "time": "3:30pm"}, {"days": "Sat", "time": "12:30pm"}, {"days": "Sun", "time": "Closed"}], "id": "9803300021", "name": "USPS COLLECTION BOX - BLUE BOX", "address": {"city": "KIRKLAND", "state": "WA", "street": "10623 NE 68TH ST", "postcode": "98033"}}},
{"geometry": {"type": "Point", "coordinates": [-122.2066587955, 47.6754578528]}, "type": "Feature", "properties": {"collection_times": [{"days": "Mon-Fri", "time": "1:30pm"}, {"days": "Sat", "time": "12:30pm"}, {"days": "Sun", "time": "Closed"}], "id": "9803300022", "name": "USPS COLLECTION BOX - BLUE BOX", "address": {"city": "KIRKLAND", "state": "WA", "street": "101 LAKE ST", "postcode": "98033"}}},
{"geometry": {"type": "Point", "coordinates": [-122.1740424084, 47.6792725721]}, "type": "Feature", "properties": {"collection_times": [{"days": "Mon-Fri", "time": "1:30pm"}, {"days": "Sat", "time": "12:30pm"}, {"days": "Sun", "time": "Closed"}], "id": "9803300026", "name": "USPS COLLECTION BOX - BLUE BOX", "address": {"city": "KIRKLAND", "state": "WA", "street": "12519 NE 85TH ST", "postcode": "98033"}}},
{"geometry": {"type": "Point", "coordinates": [-122.1954528879, 47.678091512]}, "type": "Feature", "properties": {"collection_times": [{"days": "Mon-Fri", "time": "5:30pm"}, {"days": "Sat", "time": "2:30pm"}, {"days": "Sun", "time": "Closed"}], "id": "9803300027", "name": "USPS COLLECTION BOX - BLUE BOX", "address": {"city": "KIRKLAND", "state": "WA", "street": "721 4TH AVE", "postcode": "98033"}}},
{"geometry": {"type": "Point", "coordinates": [-122.1954528879, 47.678091512]}, "type": "Feature", "properties": {"collection_times": [{"days": "Mon-Fri", "time": "5:30pm"}, {"days": "Sat", "time": "2:30pm"}, {"days": "Sun", "time": "Closed"}], "id": "9803300033", "name": "USPS COLLECTION BOX - PO LOBBY", "address": {"city": "KIRKLAND", "state": "WA", "street": "721 4TH AVE", "postcode": "98033"}}},
{"geometry": {"type": "Point", "coordinates": [-122.203460997, 47.6431925021]}, "type": "Feature", "properties": {"collection_times": [{"days": "Mon-Fri", "time": "3:30pm"}, {"days": "Sat", "time": "12:30pm"}, {"days": "Sun", "time": "Closed"}], "id": "9803300037", "name": "USPS COLLECTION BOX - BLUE BOX", "address": {"city": "KIRKLAND", "state": "WA", "street": "10220 NE POINTS DR", "postcode": "98033"}}},
{"geometry": {"type": "Point", "coordinates": [-122.1921359557, 47.6757981223]}, "type": "Feature", "properties": {"collection_times": [{"days": "Mon-Fri", "time": "3:30pm"}, {"days": "Sat", "time": "12:30pm"}, {"days": "Sun", "time": "Closed"}], "id": "9803300039", "name": "USPS COLLECTION BOX - BLUE BOX", "address": {"city": "KIRKLAND", "state": "WA", "street": "10627 NE 38TH PL", "postcode": "98033"}}},
{"geometry": {"type": "Point", "coordinates": [-122.1972222466, 47.6431434631]}, "type": "Feature", "properties": {"collection_times": [{"days": "Mon-Fri", "time": "3:30pm"}, {"days": "Sat", "time": "12:30pm"}, {"days": "Sun", "time": "Closed"}], "id": "9803300042", "name": "USPS COLLECTION BOX - BLUE BOX", "address": {"city": "KIRKLAND", "state": "WA", "street": "10604 NE 38TH PL", "postcode": "98033"}}},
{"geometry": {"type": "Point", "coordinates": [-122.2078598538, 47.6787624188]}, "type": "Feature", "properties": {"collection_times": [{"days": "Mon-Fri", "time": "1:30pm"}, {"days": "Sat", "time": "12:30pm"}, {"days": "Sun", "time": "Closed"}], "id": "9803300045", "name": "USPS COLLECTION BOX - BLUE BOX", "address": {"city": "KIRKLAND", "state": "WA", "street": "123 5TH AVE", "postcode": "98033"}}},
{"geometry": {"type": "Point", "coordinates": [-122.1937902027, 47.6751862541]}, "type": "Feature", "properties": {"collection_times": [{"days": "Mon-Fri", "time": "4:30pm"}, {"days": "Sat", "time": "12:00pm"}, {"days": "Sun", "time": "Closed"}], "id": "9803300047", "name": "USPS COLLECTION BOX - BLUE BOX", "address": {"city": "KIRKLAND", "state": "WA", "street": "2265 CARILLON PT", "postcode": "98033"}}},
{"geometry": {"type": "Point", "coordinates": [-122.201891928, 47.6463713696]}, "type": "Feature", "properties": {"collection_times": [{"days": "Mon-Fri", "time": "3:30pm"}, {"days": "Sat", "time": "12:30pm"}, {"days": "Sun", "time": "Closed"}], "id": "9803300049", "name": "USPS COLLECTION BOX - BLUE BOX", "address": {"city": "KIRKLAND", "state": "WA", "street": "4020 LAKE WASHINGTON BLVD NE", "postcode": "98033"}}},
{"geometry": {"type": "Point", "coordinates": [-122.1986617204, 47.676118323]}, "type": "Feature", "properties": {"collection_times": [{"days": "Mon-Fri", "time": "1:30pm"}, {"days": "Sat", "time": "12:30pm"}, {"days": "Sun", "time": "Closed"}], "id": "9803300051", "name": "USPS COLLECTION BOX - BLUE BOX", "address": {"city": "KIRKLAND", "state": "WA", "street": "550 KIRKLAND WAY", "postcode": "98033"}}},
{"geometry": {"type": "Point", "coordinates": [-122.1954528879, 47.678091512]}, "type": "Feature", "properties": {"collection_times": [{"days": "Mon-Fri", "time": "5:30pm"}, {"days": "Sat", "time": "2:30pm"}, {"days": "Sun", "time": "Closed"}], "id": "9803300052", "name": "USPS COLLECTION BOX - APC", "address": {"city": "KIRKLAND", "state": "WA", "street": "721 4TH AVE", "postcode": "98033"}}},
{"geometry": {"type": "Point", "coordinates": [-122.1904749031, 47.7094260513]}, "type": "Feature", "properties": {"collection_times": [{"days": "Mon-Fri", "time": "3:30pm"}, {"days": "Sat", "time": "12:30pm"}, {"days": "Sun", "time": "Closed"}], "id": "9803400000", "name": "USPS COLLECTION BOX - BLUE BOX", "address": {"city": "KIRKLAND", "state": "WA", "street": "11300 NE 122ND WAY", "postcode": "98034"}}},
{"geometry": {"type": "Point", "coordinates": [-122.1889650393, 47.7111209656]}, "type": "Feature", "properties": {"collection_times": [{"days": "Mon-Fri", "time": "3:30pm"}, {"days": "Sat", "time": "12:30pm"}, {"days": "Sun", "time": "Closed"}], "id": "9803400001", "name": "USPS COLLECTION BOX - BLUE BOX", "address": {"city": "KIRKLAND", "state": "WA", "street": "11411 NE 124TH ST", "postcode": "98034"}}},
{"geometry": {"type": "Point", "coordinates": [-122.1791762943, 47.7110681518]}, "type": "Feature", "properties": {"collection_times": [{"days": "Mon-Fri", "time": "4:30pm"}, {"days": "Sat", "time": "12:30pm"}, {"days": "Sun", "time": "Closed"}], "id": "9803400007", "name": "USPS COLLECTION BOX - BLUE BOX", "address": {"city": "KIRKLAND", "state": "WA", "street": "12556 120TH AVE NE", "postcode": "98034"}}},
{"geometry": {"type": "Point", "coordinates": [-122.1844740776, 47.709659891]}, "type": "Feature", "properties": {"collection_times": [{"days": "Mon-Fri", "time": "3:30pm"}, {"days": "Sat", "time": "12:30pm"}, {"days": "Sun", "time": "Closed"}], "id": "9803400009", "name": "USPS COLLECTION BOX - BLUE BOX", "address": {"city": "KIRKLAND", "state": "WA", "street": "12221 120TH AVE NE", "postcode": "98034"}}},
{"geometry": {"type": "Point", "coordinates": [-122.1885635212, 47.70729261]}, "type": "Feature", "properties": {"collection_times": [{"days": "Mon-Fri", "time": "3:30pm"}, {"days": "Sat", "time": "12:30pm"}, {"days": "Sun", "time": "Closed"}], "id": "9803400020", "name": "USPS COLLECTION BOX - BLUE BOX", "address": {"city": "KIRKLAND", "state": "WA", "street": "11430 NE 120TH ST", "postcode": "98034"}}},
{"geometry": {"type": "Point", "coordinates": [-122.1889641523, 47.7112306096]}, "type": "Feature", "properties": {"collection_times": [{"days": "Mon-Fri", "time": "3:30pm"}, {"days": "Sat", "time": "12:30pm"}, {"days": "Sun", "time": "Closed"}], "id": "9803400022", "name": "USPS COLLECTION BOX - BLUE BOX", "address": {"city": "KIRKLAND", "state": "WA", "street": "11410 NE 124TH ST", "postcode": "98034"}}},
{"geometry": {"type": "Point", "coordinates": [-122.1755041063, 47.7321304937]}, "type": "Feature", "properties": {"collection_times": [{"days": "Mon-Fri", "time": "3:30pm"}, {"days": "Sat", "time": "12:30pm"}, {"days": "Sun", "time": "Closed"}], "id": "9803400024", "name": "USPS COLLECTION BOX - BLUE BOX", "address": {"city": "KIRKLAND", "state": "WA", "street": "14444 124TH AVE NE", "postcode": "98034"}}},
{"geometry": {"type": "Point", "coordinates": [-122.1735284335, 47.7163571693]}, "type": "Feature", "properties": {"collection_times": [{"days": "Mon-Fri", "time": "3:30pm"}, {"days": "Sat", "time": "12:30pm"}, {"days": "Sun", "time": "Closed"}], "id": "9803400027", "name": "USPS COLLECTION BOX - BLUE BOX", "address": {"city": "KIRKLAND", "state": "WA", "street": "12800 NE 125TH WAY", "postcode": "98034"}}},
{"geometry": {"type": "Point", "coordinates": [-122.2115462862, 47.7062657869]}, "type": "Feature", "properties": {"collection_times": [{"days": "Mon-Fri", "time": "4:30pm"}, {"days": "Sat", "time": "12:30pm"}, {"days": "Sun", "time": "Closed"}], "id": "9803400029", "name": "USPS COLLECTION BOX - BLUE BOX", "address": {"city": "KIRKLAND", "state": "WA", "street": "11810 97TH LN NE", "postcode": "98034"}}},
{"geometry": {"type": "Point", "coordinates": [-122.2100004987, 47.7185192972]}, "type": "Feature", "properties": {"collection_times": [{"days": "Mon-Fri", "time": "3:30pm"}, {"days": "Sat", "time": "12:30pm"}, {"days": "Sun", "time": "Closed"}], "id": "9803400030", "name": "USPS COLLECTION BOX - BLUE BOX", "address": {"city": "KIRKLAND", "state": "WA", "street": "9826 NE 132ND ST", "postcode": "98034"}}},
{"geometry": {"type": "Point", "coordinates": [-122.2071389464, 47.7230819422]}, "type": "Feature", "properties": {"collection_times": [{"days": "Mon-Fri", "time": "4:30pm"}, {"days": "Sat", "time": "12:30pm"}, {"days": "Sun", "time": "Closed"}], "id": "9803400032", "name": "USPS COLLECTION BOX - BLUE BOX", "address": {"city": "KIRKLAND", "state": "WA", "street": "10015 NE 137TH ST", "postcode": "98034"}}},
{"geometry": {"type": "Point", "coordinates": [-122.2412074817, 47.7075048508]}, "type": "Feature", "properties": {"collection_times": [{"days": "Mon-Fri", "time": "3:30pm"}, {"days": "Sat", "time": "12:30pm"}, {"days": "Sun", "time": "Closed"}], "id": "9803400035", "name": "USPS COLLECTION BOX - BLUE BOX", "address": {"city": "KIRKLAND", "state": "WA", "street": "14130 JUANITA DR NE", "postcode": "98034"}}},
{"geometry": {"type": "Point", "coordinates": [-122.2955774053, 47.8210087775]}, "type": "Feature", "properties": {"collection_times": [{"days": "Mon-Fri", "time": "3:00pm"}, {"days": "Sat", "time": "4:00pm"}, {"days": "Sun", "time": "Closed"}], "id": "9803600004", "name": "USPS COLLECTION BOX - BLUE BOX", "address": {"city": "BRIER", "state": "WA", "street": "4615 196TH ST SW", "postcode": "98036"}}},
{"geometry": {"type": "Point", "coordinates": [-122.2924685892, 47.8199038938]}, "type": "Feature", "properties": {"collection_times": [{"days": "Mon-Sat", "time": "11:30am"}, {"days": "Sun", "time": "Closed"}], "id": "9803600005", "name": "USPS COLLECTION BOX - BLUE BOX", "address": {"city": "BRIER", "state": "WA", "street": "19720 44TH AVE W", "postcode": "98036"}}},
{"geometry": {"type": "Point", "coordinates": [-122.2816894671, 47.8254649839]}, "type": "Feature", "properties": {"collection_times": [{"days": "Mon-Fri", "time": "3:30pm"}, {"days": "Sat", "time": "11:30am"}, {"days": "Sun", "time": "Closed"}], "id": "9803600008", "name": "USPS COLLECTION BOX - BLUE BOX", "address": {"city": "BRIER", "state": "WA", "street": "19105 36TH AVE W", "postcode": "98036"}}},
{"geometry": {"type": "Point", "coordinates": [-122.3143616107, 47.8220284881]}, "type": "Feature", "properties": {"collection_times": [{"days": "Mon-Fri", "time": "2:30pm"}, {"days": "Sat", "time": "4:30pm"}, {"days": "Sun", "time": "Closed"}], "id": "9803600011", "name": "USPS COLLECTION BOX - BLUE BOX", "address": {"city": "BRIER", "state": "WA", "street": "19500 HIGHWAY 99", "postcode": "98036"}}},
{"geometry": {"type": "Point", "coordinates": [-122.3343252262, 47.821425179]}, "type": "Feature", "properties": {"collection_times": [{"days": "Mon-Fri", "time": "2:30pm"}, {"days": "Sat", "time": "12:00pm"}, {"days": "Sun", "time": "Closed"}], "id": "9803600014", "name": "USPS COLLECTION BOX - BLUE BOX", "address": {"city": "BRIER", "state": "WA", "street": "7500 196TH ST SW", "postcode": "98036"}}},
{"geometry": {"type": "Point", "coordinates": [-122.3157149158, 47.8204835437]}, "type": "Feature", "properties": {"collection_times": [{"days": "Mon-Sat", "time": "2:15pm"}, {"days": "Sun", "time": "Closed"}], "id": "9803600016", "name": "USPS COLLECTION BOX - BLUE BOX", "address": {"city": "BRIER", "state": "WA", "street": "19715 HIGHWAY 99", "postcode": "98036"}}},
{"geometry": {"type": "Point", "coordinates": [-122.3247895156, 47.8113647147]}, "type": "Feature", "properties": {"collection_times": [{"days": "Mon-Fri", "time": "5:45pm"}, {"days": "Sat", "time": "5:15pm"}, {"days": "Sun", "time": "Closed"}], "id": "9803600020", "name": "USPS COLLECTION BOX - BLUE BOX", "address": {"city": "BRIER", "state": "WA", "street": "20530 68TH AVE W", "postcode": "98036"}}},
{"geometry": {"type": "Point", "coordinates": [-122.3252779561, 47.8104745279]}, "type": "Feature", "properties": {"collection_times": [{"days": "Mon-Fri", "time": "5:45pm"}, {"days": "Sat", "time": "5:15pm"}, {"days": "Sun", "time": "Closed"}], "id": "9803600023", "name": "USPS COLLECTION BOX - PO LOBBY", "address": {"city": "BRIER", "state": "WA", "street": "6817 208TH ST SW", "postcode": "98036"}}},
{"geometry": {"type": "Point", "coordinates": [-122.2870873088, 47.8187871805]}, "type": "Feature", "properties": {"collection_times": [{"days": "Mon-Fri", "time": "3:15pm"}, {"days": "Sat", "time": "3:45pm"}, {"days": "Sun", "time": "Closed"}], "id": "9803600028", "name": "USPS COLLECTION BOX - BLUE BOX", "address": {"city": "BRIER", "state": "WA", "street": "19820 40TH AVE W", "postcode": "98036"}}},
{"geometry": {"type": "Point", "coordinates": [-122.2720306001, 47.7919485824]}, "type": "Feature", "properties": {"collection_times": [{"days": "Mon-Fri", "time": "12:30pm"}, {"days": "Sat", "time": "10:30am"}, {"days": "Sun", "time": "Closed"}], "id": "9803600031", "name": "USPS COLLECTION BOX - BLUE BOX", "address": {"city": "BRIER", "state": "WA", "street": "2900 228TH ST SW", "postcode": "98036"}}},
{"geometry": {"type": "Point", "coordinates": [-122.2834118553, 47.8209176896]}, "type": "Feature", "properties": {"collection_times": [{"days": "Mon-Fri", "time": "5:30pm"}, {"days": "Sat", "time": "3:30pm"}, {"days": "Sun", "time": "Closed"}], "id": "9803600036", "name": "USPS COLLECTION BOX - PO LOBBY", "address": {"city": "BRIER", "state": "WA", "street": "3715 196TH ST SW", "postcode": "98036"}}},
{"geometry": {"type": "Point", "coordinates": [-122.2710286409, 47.8267828002]}, "type": "Feature", "properties": {"collection_times": [{"days": "Mon-Fri", "time": "2:00pm"}, {"days": "Sat", "time": "3:15pm"}, {"days": "Sun", "time": "Closed"}], "id": "9803600038", "name": "USPS COLLECTION BOX - BLUE BOX", "address": {"city": "BRIER", "state": "WA", "street": "18910 28TH AVE W", "postcode": "98036"}}},
{"geometry": {"type": "Point", "coordinates": [-122.2834118553, 47.8209176896]}, "type": "Feature", "properties": {"collection_times": [{"days": "Mon-Fri", "time": "5:30pm"}, {"days": "Sat", "time": "3:30pm"}, {"days": "Sun", "time": "Closed"}], "id": "9803600043", "name": "USPS COLLECTION BOX - BLUE BOX", "address": {"city": "BRIER", "state": "WA", "street": "3715 196TH ST SW", "postcode": "98036"}}},
{"geometry": {"type": "Point", "coordinates": [-122.2817592617, 47.8241306062]}, "type": "Feature", "properties": {"collection_times": [{"days": "Mon-Fri", "time": "3:30pm"}, {"days": "Sat", "time": "11:30am"}, {"days": "Sun", "time": "Closed"}], "id": "9803600044", "name": "USPS COLLECTION BOX - BLUE BOX", "address": {"city": "BRIER", "state": "WA", "street": "19221 36TH AVE W", "postcode": "98036"}}},
{"geometry": {"type": "Point", "coordinates": [-122.2691181622, 47.8208088574]}, "type": "Feature", "properties": {"collection_times": [{"days": "Mon-Fri", "time": "11:30am"}, {"days": "Sat", "time": "10:00am"}, {"days": "Sun", "time": "Closed"}], "id": "9803600045", "name": "USPS COLLECTION BOX - BLUE BOX", "address": {"city": "BRIER", "state": "WA", "street": "2617 196TH ST SW", "postcode": "98036"}}},
{"geometry": {"type": "Point", "coordinates": [-122.2777395671, 47.8256270493]}, "type": "Feature", "properties": {"collection_times": [{"days": "Mon-Fri", "time": "2:00pm"}, {"days": "Sat", "time": "3:00pm"}, {"days": "Sun", "time": "Closed"}], "id": "9803600047", "name": "USPS COLLECTION BOX - BLUE BOX", "address": {"city": "BRIER", "state": "WA", "street": "19031 33RD AVE W", "postcode": "98036"}}},
{"geometry": {"type": "Point", "coordinates": [-122.3252779561, 47.8104745279]}, "type": "Feature", "properties": {"collection_times": [{"days": "Mon-Fri", "time": "5:45pm"}, {"days": "Sat", "time": "5:15pm"}, {"days": "Sun", "time": "Closed"}], "id": "9803600048", "name": "USPS COLLECTION BOX - APC", "address": {"city": "BRIER", "state": "WA", "street": "6817 208TH ST SW", "postcode": "98036"}}},
{"geometry": {"type": "Point", "coordinates": [-122.2813790983, 47.8281617635]}, "type": "Feature", "properties": {"collection_times": [{"days": "Mon-Fri", "time": "2:15pm"}, {"days": "Sat-Sun", "time": "Closed"}], "id": "9803700002", "name": "USPS COLLECTION BOX - BLUE BOX", "address": {"city": "LYNNWOOD", "state": "WA", "street": "3400 188TH ST SW", "postcode": "98037"}}},
{"geometry": {"type": "Point", "coordinates": [-122.2809053642, 47.8281605422]}, "type": "Feature", "properties": {"collection_times": [{"days": "Mon-Fri", "time": "2:15pm"}, {"days": "Sat-Sun", "time": "Closed"}], "id": "9803700003", "name": "USPS COLLECTION BOX - BLUE BOX", "address": {"city": "LYNNWOOD", "state": "WA", "street": "3500 188TH ST SW", "postcode": "98037"}}},
{"geometry": {"type": "Point", "coordinates": [-122.2684506386, 47.8300061203]}, "type": "Feature", "properties": {"collection_times": [{"days": "Mon-Sat", "time": "9:00am"}, {"days": "Sun", "time": "Closed"}], "id": "9803700006", "name": "USPS COLLECTION BOX - BLUE BOX", "address": {"city": "LYNNWOOD", "state": "WA", "street": "18631 ALDERWOOD MALL PKWY", "postcode": "98037"}}},
{"geometry": {"type": "Point", "coordinates": [-122.3029990125, 47.8351251007]}, "type": "Feature", "properties": {"collection_times": [{"days": "Mon-Fri", "time": "2:15pm"}, {"days": "Sat-Sun", "time": "Closed"}], "id": "9803700007", "name": "USPS COLLECTION BOX - BLUE BOX", "address": {"city": "LYNNWOOD", "state": "WA", "street": "18023 HIGHWAY 99", "postcode": "98037"}}},
{"geometry": {"type": "Point", "coordinates": [-122.2735932959, 47.8318020951]}, "type": "Feature", "properties": {"collection_times": [{"days": "Mon-Fri", "time": "1:45pm"}, {"days": "Sat", "time": "3:15pm"}, {"days": "Sun", "time": "Closed"}], "id": "9803700038", "name": "USPS COLLECTION BOX - BLUE BOX", "address": {"city": "LYNNWOOD", "state": "WA", "street": "3000 184TH ST SW", "postcode": "98037"}}},
{"geometry": {"type": "Point", "coordinates": [-122.0211179378, 47.4039555537]}, "type": "Feature", "properties": {"collection_times": [{"days": "Mon-Sat", "time": "9:30am"}, {"days": "Sun", "time": "Closed"}], "id": "9803800002", "name": "USPS COLLECTION BOX - BLUE BOX", "address": {"city": "MAPLE VALLEY", "state": "WA", "street": "21655 RENTON MAPLE VALLEY RD SE", "postcode": "98038"}}},
{"geometry": {"type": "Point", "coordinates": [-122.0464953211, 47.3890639308]}, "type": "Feature", "properties": {"collection_times": [{"days": "Mon-Sat", "time": "9:30am"}, {"days": "Sun", "time": "Closed"}], "id": "9803800005", "name": "USPS COLLECTION BOX - BLUE BOX", "address": {"city": "MAPLE VALLEY", "state": "WA", "street": "22117 SE 237TH ST", "postcode": "98038"}}},
{"geometry": {"type": "Point", "coordinates": [-122.0498356194, 47.3905751066]}, "type": "Feature", "properties": {"collection_times": [{"days": "Mon-Fri", "time": "5:00pm"}, {"days": "Sat", "time": "3:00pm"}, {"days": "Sun", "time": "Closed"}], "id": "9803800008", "name": "USPS COLLECTION BOX - PO LOBBY", "address": {"city": "MAPLE VALLEY", "state": "WA", "street": "22023 SE WAX RD", "postcode": "98038"}}},
{"geometry": {"type": "Point", "coordinates": [-122.0498356194, 47.3905751066]}, "type": "Feature", "properties": {"collection_times": [{"days": "Mon-Fri", "time": "5:00pm"}, {"days": "Sat", "time": "3:00pm"}, {"days": "Sun", "time": "Closed"}], "id": "9803800009", "name": "USPS COLLECTION BOX - PO LOBBY", "address": {"city": "MAPLE VALLEY", "state": "WA", "street": "22023 SE WAX RD", "postcode": "98038"}}},
{"geometry": {"type": "Point", "coordinates": [-122.0206670888, 47.3605676531]}, "type": "Feature", "properties": {"collection_times": [{"days": "Mon-Sat", "time": "9:30am"}, {"days": "Sun", "time": "Closed"}], "id": "9803800014", "name": "USPS COLLECTION BOX - BLUE BOX", "address": {"city": "MAPLE VALLEY", "state": "WA", "street": "26916 MAPLE VALLEY BLACK DIAMOND RD SE", "postcode": "98038"}}},
{"geometry": {"type": "Point", "coordinates": [-122.2386746844, 47.6185798607]}, "type": "Feature", "properties": {"collection_times": [{"days": "Mon-Fri", "time": "5:30pm"}, {"days": "Sat", "time": "3:15pm"}, {"days": "Sun", "time": "Closed"}], "id": "9803900000", "name": "USPS COLLECTION BOX - BLUE BOX", "address": {"city": "MEDINA", "state": "WA", "street": "816 EVERGREEN POINT RD", "postcode": "98039"}}},
{"geometry": {"type": "Point", "coordinates": [-122.2351212749, 47.5863130812]}, "type": "Feature", "properties": {"collection_times": [{"days": "Mon-Sat", "time": "10:00am"}, {"days": "Sun", "time": "Closed"}], "id": "9804000001", "name": "USPS COLLECTION BOX - BLUE BOX", "address": {"city": "MERCER ISLAND", "state": "WA", "street": "2731 77TH AVE SE", "postcode": "98040"}}},
{"geometry": {"type": "Point", "coordinates": [-122.2214894212, 47.5664042814]}, "type": "Feature", "properties": {"collection_times": [{"days": "Mon-Sat", "time": "12:00pm"}, {"days": "Sun", "time": "Closed"}], "id": "9804000003", "name": "USPS COLLECTION BOX - BLUE BOX", "address": {"city": "MERCER ISLAND", "state": "WA", "street": "4400 88TH AVE SE", "postcode": "98040"}}},
{"geometry": {"type": "Point", "coordinates": [-122.2185900124, 47.5790323866]}, "type": "Feature", "properties": {"collection_times": [{"days": "Mon-Sat", "time": "11:00am"}, {"days": "Sun", "time": "Closed"}], "id": "9804000007", "name": "USPS COLLECTION BOX - BLUE BOX", "address": {"city": "MERCER ISLAND", "state": "WA", "street": "9062 E SHOREWOOD DR", "postcode": "98040"}}},
{"geometry": {"type": "Point", "coordinates": [-122.2264653363, 47.5419975695]}, "type": "Feature", "properties": {"collection_times": [{"days": "Mon-Fri", "time": "3:00pm"}, {"days": "Sat", "time": "3:15pm"}, {"days": "Sun", "time": "Closed"}], "id": "9804000008", "name": "USPS COLLECTION BOX - BLUE BOX", "address": {"city": "MERCER ISLAND", "state": "WA", "street": "8441 SE 68TH ST", "postcode": "98040"}}},
{"geometry": {"type": "Point", "coordinates": [-122.2209912017, 47.5559283437]}, "type": "Feature", "properties": {"collection_times": [{"days": "Mon-Sat", "time": "10:00am"}, {"days": "Sun", "time": "Closed"}], "id": "9804000012", "name": "USPS COLLECTION BOX - BLUE BOX", "address": {"city": "MERCER ISLAND", "state": "WA", "street": "5437 ISLAND CREST WAY", "postcode": "98040"}}},
{"geometry": {"type": "Point", "coordinates": [-122.2100019662, 47.57794046]}, "type": "Feature", "properties": {"collection_times": [{"days": "Mon-Fri", "time": "4:15pm"}, {"days": "Sat", "time": "3:15pm"}, {"days": "Sun", "time": "Closed"}], "id": "9804000013", "name": "USPS COLLECTION BOX - BLUE BOX", "address": {"city": "MERCER ISLAND", "state": "WA", "street": "9611 SE 36TH ST", "postcode": "98040"}}},
{"geometry": {"type": "Point", "coordinates": [-122.2350806656, 47.585249241]}, "type": "Feature", "properties": {"collection_times": [{"days": "Mon-Sat", "time": "10:30am"}, {"days": "Sun", "time": "Closed"}], "id": "9804000014", "name": "USPS COLLECTION BOX - BLUE BOX", "address": {"city": "MERCER ISLAND", "state": "WA", "street": "2755 77TH AVE SE", "postcode": "98040"}}},
{"geometry": {"type": "Point", "coordinates": [-122.2324019732, 47.5855546717]}, "type": "Feature", "properties": {"collection_times": [{"days": "Mon-Sat", "time": "3:30pm"}, {"days": "Sun", "time": "Closed"}], "id": "9804000015", "name": "USPS COLLECTION BOX - BLUE BOX", "address": {"city": "MERCER ISLAND", "state": "WA", "street": "7900 SE 28TH ST", "postcode": "98040"}}},
{"geometry": {"type": "Point", "coordinates": [-122.2369899965, 47.5866723084]}, "type": "Feature", "properties": {"collection_times": [{"days": "Mon-Sat", "time": "9:45am"}, {"days": "Sun", "time": "Closed"}], "id": "9804000017", "name": "USPS COLLECTION BOX - BLUE BOX", "address": {"city": "MERCER ISLAND", "state": "WA", "street": "7605 SE 27TH ST", "postcode": "98040"}}},
{"geometry": {"type": "Point", "coordinates": [-122.208882024, 47.5777110976]}, "type": "Feature", "properties": {"collection_times": [{"days": "Mon-Sat", "time": "3:15pm"}, {"days": "Sun", "time": "Closed"}], "id": "9804000024", "name": "USPS COLLECTION BOX - BLUE BOX", "address": {"city": "MERCER ISLAND", "state": "WA", "street": "9725 SE 36TH ST", "postcode": "98040"}}},
{"geometry": {"type": "Point", "coordinates": [-122.2335279314, 47.5832887169]}, "type": "Feature", "properties": {"collection_times": [{"days": "Mon-Fri", "time": "5:00pm"}, {"days": "Sat", "time": "4:15pm"}, {"days": "Sun", "time": "Closed"}], "id": "9804000027", "name": "USPS COLLECTION BOX - BLUE BOX", "address": {"city": "MERCER ISLAND", "state": "WA", "street": "3040 78TH AVE SE", "postcode": "98040"}}},
{"geometry": {"type": "Point", "coordinates": [-122.2335279314, 47.5832887169]}, "type": "Feature", "properties": {"collection_times": [{"days": "Mon-Fri", "time": "5:00pm"}, {"days": "Sat", "time": "4:15pm"}, {"days": "Sun", "time": "Closed"}], "id": "9804000033", "name": "USPS COLLECTION BOX - BLUE BOX", "address": {"city": "MERCER ISLAND", "state": "WA", "street": "3040 78TH AVE SE", "postcode": "98040"}}},
{"geometry": {"type": "Point", "coordinates": [-122.2335279314, 47.5832887169]}, "type": "Feature", "properties": {"collection_times": [{"days": "Mon-Fri", "time": "5:00pm"}, {"days": "Sat", "time": "4:15pm"}, {"days": "Sun", "time": "Closed"}], "id": "9804000040", "name": "USPS COLLECTION BOX - APC", "address": {"city": "MERCER ISLAND", "state": "WA", "street": "3040 78TH AVE SE", "postcode": "98040"}}},
{"geometry": {"type": "Point", "coordinates": [-122.2335279314, 47.5832887169]}, "type": "Feature", "properties": {"collection_times": [{"days": "Mon-Fri", "time": "5:00pm"}, {"days": "Sat", "time": "4:15pm"}, {"days": "Sun", "time": "Closed"}], "id": "9804000041", "name": "USPS COLLECTION BOX - BLUE BOX", "address": {"city": "MERCER ISLAND", "state": "WA", "street": "3040 78TH AVE SE", "postcode": "98040"}}},
{"geometry": {"type": "Point", "coordinates": [-122.2335279314, 47.5832887169]}, "type": "Feature", "properties": {"collection_times": [{"days": "Mon-Fri", "time": "5:00pm"}, {"days": "Sat", "time": "4:15pm"}, {"days": "Sun", "time": "Closed"}], "id": "9804000042", "name": "USPS COLLECTION BOX - APC", "address": {"city": "MERCER ISLAND", "state": "WA", "street": "3040 78TH AVE SE", "postcode": "98040"}}},
{"geometry": {"type": "Point", "coordinates": [-122.1637035289, 47.3869757713]}, "type": "Feature", "properties": {"collection_times": [{"days": "Mon-Fri", "time": "3:30pm"}, {"days": "Sat", "time": "11:30am"}, {"days": "Sun", "time": "Closed"}], "id": "9804200004", "name": "USPS COLLECTION BOX - BLUE BOX", "address": {"city": "COVINGTON", "state": "WA", "street": "13310 SE 240TH ST", "postcode": "98042"}}},
{"geometry": {"type": "Point", "coordinates": [-122.0932901515, 47.3416773612]}, "type": "Feature", "properties": {"collection_times": [{"days": "Mon-Sat", "time": "11:30am"}, {"days": "Sun", "time": "Closed"}], "id": "9804200007", "name": "USPS COLLECTION BOX - BLUE BOX", "address": {"city": "COVINGTON", "state": "WA", "street": "18610 SE COVINGTON SAWYER RD", "postcode": "98042"}}},
{"geometry": {"type": "Point", "coordinates": [-122.1104929721, 47.3594077764]}, "type": "Feature", "properties": {"collection_times": [{"days": "Mon-Fri", "time": "5:30pm"}, {"days": "Sat", "time": "3:00pm"}, {"days": "Sun", "time": "Closed"}], "id": "9804200009", "name": "USPS COLLECTION BOX - BLUE BOX", "address": {"city": "COVINGTON", "state": "WA", "street": "17300 SE 270TH PL", "postcode": "98042"}}},
{"geometry": {"type": "Point", "coordinates": [-122.1104929721, 47.3594077764]}, "type": "Feature", "properties": {"collection_times": [{"days": "Mon-Fri", "time": "5:30pm"}, {"days": "Sat", "time": "3:00pm"}, {"days": "Sun", "time": "Closed"}], "id": "9804200012", "name": "USPS COLLECTION BOX - PO LOBBY", "address": {"city": "COVINGTON", "state": "WA", "street": "17300 SE 270TH PL", "postcode": "98042"}}},
{"geometry": {"type": "Point", "coordinates": [-122.1104929721, 47.3594077764]}, "type": "Feature", "properties": {"collection_times": [{"days": "Mon-Fri", "time": "5:30pm"}, {"days": "Sat", "time": "3:00pm"}, {"days": "Sun", "time": "Closed"}], "id": "9804200013", "name": "USPS COLLECTION BOX - PO LOBBY", "address": {"city": "COVINGTON", "state": "WA", "street": "17300 SE 270TH PL", "postcode": "98042"}}},
{"geometry": {"type": "Point", "coordinates": [-122.1104929721, 47.3594077764]}, "type": "Feature", "properties": {"collection_times": [{"days": "Mon-Fri", "time": "5:30pm"}, {"days": "Sat", "time": "3:00pm"}, {"days": "Sun", "time": "Closed"}], "id": "9804200014", "name": "USPS COLLECTION BOX - APC", "address": {"city": "COVINGTON", "state": "WA", "street": "17300 SE 270TH PL", "postcode": "98042"}}},
{"geometry": {"type": "Point", "coordinates": [-122.3219822324, 47.7988306628]}, "type": "Feature", "properties": {"collection_times": [{"days": "Mon-Fri", "time": "12:45pm"}, {"days": "Sat", "time": "10:30am"}, {"days": "Sun", "time": "Closed"}], "id": "9804300001", "name": "USPS COLLECTION BOX - BLUE BOX", "address": {"city": "MOUNTLAKE TER", "state": "WA", "street": "22003 66TH AVE W", "postcode": "98043"}}},
{"geometry": {"type": "Point", "coordinates": [-122.2906633938, 47.8064134298]}, "type": "Feature", "properties": {"collection_times": [{"days": "Mon-Fri", "time": "12:30pm"}, {"days": "Sat", "time": "4:00pm"}, {"days": "Sun", "time": "Closed"}], "id": "9804300003", "name": "USPS COLLECTION BOX - BLUE BOX", "address": {"city": "MOUNTLAKE TER", "state": "WA", "street": "4301 212TH ST SW", "postcode": "98043"}}},
{"geometry": {"type": "Point", "coordinates": [-122.2922308144, 47.7908362261]}, "type": "Feature", "properties": {"collection_times": [{"days": "Mon-Fri", "time": "12:30pm"}, {"days": "Sat", "time": "4:00pm"}, {"days": "Sun", "time": "Closed"}], "id": "9804300004", "name": "USPS COLLECTION BOX - BLUE BOX", "address": {"city": "MOUNTLAKE TER", "state": "WA", "street": "22803 44TH AVE W", "postcode": "98043"}}},
{"geometry": {"type": "Point", "coordinates": [-122.3191578779, 47.8004479211]}, "type": "Feature", "properties": {"collection_times": [{"days": "Mon-Fri", "time": "12:45pm"}, {"days": "Sat-Sun", "time": "Closed"}], "id": "9804300012", "name": "USPS COLLECTION BOX - BLUE BOX", "address": {"city": "MOUNTLAKE TER", "state": "WA", "street": "21907 64TH AVE W", "postcode": "98043"}}},
{"geometry": {"type": "Point", "coordinates": [-122.3276648575, 47.7977754483]}, "type": "Feature", "properties": {"collection_times": [{"days": "Mon-Fri", "time": "1:00pm"}, {"days": "Sat-Sun", "time": "Closed"}], "id": "9804300018", "name": "USPS COLLECTION BOX - BLUE BOX", "address": {"city": "MOUNTLAKE TER", "state": "WA", "street": "22316 70TH AVE W", "postcode": "98043"}}},
{"geometry": {"type": "Point", "coordinates": [-122.309876514, 47.788320268]}, "type": "Feature", "properties": {"collection_times": [{"days": "Mon-Fri", "time": "5:00pm"}, {"days": "Sat", "time": "1:30pm"}, {"days": "Sun", "time": "Closed"}], "id": "9804300020", "name": "USPS COLLECTION BOX - BLUE BOX", "address": {"city": "MOUNTLAKE TER", "state": "WA", "street": "23210 57TH AVE W", "postcode": "98043"}}},
{"geometry": {"type": "Point", "coordinates": [-122.3099247594, 47.7883909166]}, "type": "Feature", "properties": {"collection_times": [{"days": "Mon-Fri", "time": "5:00pm"}, {"days": "Sat", "time": "1:30pm"}, {"days": "Sun", "time": "Closed"}], "id": "9804300027", "name": "USPS COLLECTION BOX - BLUE BOX", "address": {"city": "MOUNTLAKE TER", "state": "WA", "street": "23210 57TH AVE W", "postcode": "98043"}}},
{"geometry": {"type": "Point", "coordinates": [-122.3273646342, 47.7996242928]}, "type": "Feature", "properties": {"collection_times": [{"days": "Mon-Fri", "time": "1:00pm"}, {"days": "Sat", "time": "1:30pm"}, {"days": "Sun", "time": "Closed"}], "id": "9804300028", "name": "USPS COLLECTION BOX - BLUE BOX", "address": {"city": "MOUNTLAKE TER", "state": "WA", "street": "7005 220TH ST SW", "postcode": "98043"}}},
{"geometry": {"type": "Point", "coordinates": [-121.7176607082, 47.4670755998]}, "type": "Feature", "properties": {"collection_times": [{"days": "Mon-Sat", "time": "11:00am"}, {"days": "Sun", "time": "Closed"}], "id": "9804500003", "name": "USPS COLLECTION BOX - BLUE BOX", "address": {"city": "NORTH BEND", "state": "WA", "street": "46600 SE NORTH BEND WAY", "postcode": "98045"}}},
{"geometry": {"type": "Point", "coordinates": [-121.7810105162, 47.4923321362]}, "type": "Feature", "properties": {"collection_times": [{"days": "Mon-Sat", "time": "12:30pm"}, {"days": "Sun", "time": "Closed"}], "id": "9804500004", "name": "USPS COLLECTION BOX - BLUE BOX", "address": {"city": "NORTH BEND", "state": "WA", "street": "460 E NORTH BEND WAY", "postcode": "98045"}}},
{"geometry": {"type": "Point", "coordinates": [-121.7813043798, 47.4923534292]}, "type": "Feature", "properties": {"collection_times": [{"days": "Mon-Fri", "time": "4:45pm"}, {"days": "Sat", "time": "3:45pm"}, {"days": "Sun", "time": "Closed"}], "id": "9804500008", "name": "USPS COLLECTION BOX - PO LOBBY", "address": {"city": "NORTH BEND", "state": "WA", "street": "451 E NORTH BEND WAY", "postcode": "98045"}}},
{"geometry": {"type": "Point", "coordinates": [-121.7813043798, 47.4923534292]}, "type": "Feature", "properties": {"collection_times": [{"days": "Mon-Fri", "time": "4:45pm"}, {"days": "Sat", "time": "3:45pm"}, {"days": "Sun", "time": "Closed"}], "id": "9804500009", "name": "USPS COLLECTION BOX - PO LOBBY", "address": {"city": "NORTH BEND", "state": "WA", "street": "451 E NORTH BEND WAY", "postcode": "98045"}}},
{"geometry": {"type": "Point", "coordinates": [-121.7641134764, 47.4447864315]}, "type": "Feature", "properties": {"collection_times": [{"days": "Mon-Sat", "time": "12:00pm"}, {"days": "Sun", "time": "Closed"}], "id": "9804500011", "name": "USPS COLLECTION BOX - BLUE BOX", "address": {"city": "NORTH BEND", "state": "WA", "street": "43204 SE 172ND ST", "postcode": "98045"}}},
{"geometry": {"type": "Point", "coordinates": [-121.7976444019, 47.4865583829]}, "type": "Feature", "properties": {"collection_times": [{"days": "Mon-Sat", "time": "12:30pm"}, {"days": "Sun", "time": "Closed"}], "id": "9804500012", "name": "USPS COLLECTION BOX - BLUE BOX", "address": {"city": "NORTH BEND", "state": "WA", "street": "1071 FORSTER BLVD SW", "postcode": "98045"}}},
{"geometry": {"type": "Point", "coordinates": [-122.2512531159, 47.2646596274]}, "type": "Feature", "properties": {"collection_times": [{"days": "Mon-Sat", "time": "1:30pm"}, {"days": "Sun", "time": "Closed"}], "id": "9804700000", "name": "USPS COLLECTION BOX - BLUE BOX", "address": {"city": "AUBURN", "state": "WA", "street": "111 3RD AVE SW", "postcode": "98047"}}},
{"geometry": {"type": "Point", "coordinates": [-122.2578875502, 47.2698239449]}, "type": "Feature", "properties": {"collection_times": [{"days": "Mon-Sat", "time": "1:30pm"}, {"days": "Sun", "time": "Closed"}], "id": "9804700001", "name": "USPS COLLECTION BOX - BLUE BOX", "address": {"city": "AUBURN", "state": "WA", "street": "206 FRONTAGE RD N", "postcode": "98047"}}},
{"geometry": {"type": "Point", "coordinates": [-121.9358396023, 47.5256218106]}, "type": "Feature", "properties": {"collection_times": [{"days": "Mon-Fri", "time": "4:45pm"}, {"days": "Sat", "time": "11:00am"}, {"days": "Sun", "time": "Closed"}], "id": "9805000002", "name": "USPS COLLECTION BOX - BLUE BOX", "address": {"city": "PRESTON", "state": "WA", "street": "30405 SE 84TH ST", "postcode": "98050"}}},
{"geometry": {"type": "Point", "coordinates": [-121.9378727231, 47.5264840531]}, "type": "Feature", "properties": {"collection_times": [{"days": "Mon-Fri", "time": "4:45pm"}, {"days": "Sat", "time": "11:00am"}, {"days": "Sun", "time": "Closed"}], "id": "9805000003", "name": "USPS COLLECTION BOX - PO LOBBY", "address": {"city": "PRESTON", "state": "WA", "street": "30405 SE 84TH ST", "postcode": "98050"}}},
{"geometry": {"type": "Point", "coordinates": [-121.9793090518, 47.357928605]}, "type": "Feature", "properties": {"collection_times": [{"days": "Mon-Fri", "time": "4:15pm"}, {"days": "Sat", "time": "10:45am"}, {"days": "Sun", "time": "Closed"}], "id": "9805100001", "name": "USPS COLLECTION BOX - BLUE BOX", "address": {"city": "RAVENSDALE", "state": "WA", "street": "27200 272ND AVE SE", "postcode": "98051"}}},
{"geometry": {"type": "Point", "coordinates": [-121.9793090518, 47.357928605]}, "type": "Feature", "properties": {"collection_times": [{"days": "Mon-Fri", "time": "4:15pm"}, {"days": "Sat", "time": "10:45am"}, {"days": "Sun", "time": "Closed"}], "id": "9805100002", "name": "USPS COLLECTION BOX - BLUE BOX", "address": {"city": "RAVENSDALE", "state": "WA", "street": "27200 272ND AVE SE", "postcode": "98051"}}},
{"geometry": {"type": "Point", "coordinates": [-121.9793090518, 47.357928605]}, "type": "Feature", "properties": {"collection_times": [{"days": "Mon-Fri", "time": "4:30pm"}, {"days": "Sat", "time": "10:45am"}, {"days": "Sun", "time": "Closed"}], "id": "9805100003", "name": "USPS COLLECTION BOX - PO LOBBY", "address": {"city": "RAVENSDALE", "state": "WA", "street": "27200 272ND AVE SE", "postcode": "98051"}}},
{"geometry": {"type": "Point", "coordinates": [-121.9793090518, 47.357928605]}, "type": "Feature", "properties": {"collection_times": [{"days": "Mon-Fri", "time": "4:30pm"}, {"days": "Sat", "time": "10:45am"}, {"days": "Sun", "time": "Closed"}], "id": "9805100004", "name": "USPS COLLECTION BOX - PO LOBBY", "address": {"city": "RAVENSDALE", "state": "WA", "street": "27200 272ND AVE SE", "postcode": "98051"}}},
{"geometry": {"type": "Point", "coordinates": [-122.153492276, 47.6607237577]}, "type": "Feature", "properties": {"collection_times": [{"days": "Mon-Fri", "time": "2:45pm"}, {"days": "Sat", "time": "12:30pm"}, {"days": "Sun", "time": "Closed"}], "id": "9805200003", "name": "USPS COLLECTION BOX - BLUE BOX", "address": {"city": "REDMOND", "state": "WA", "street": "6001 140TH AVE NE", "postcode": "98052"}}},
{"geometry": {"type": "Point", "coordinates": [-122.1367432537, 47.6822888799]}, "type": "Feature", "properties": {"collection_times": [{"days": "Mon-Fri", "time": "3:00pm"}, {"days": "Sat", "time": "12:30pm"}, {"days": "Sun", "time": "Closed"}], "id": "9805200004", "name": "USPS COLLECTION BOX - BLUE BOX", "address": {"city": "REDMOND", "state": "WA", "street": "15200 NE 90TH ST", "postcode": "98052"}}},
{"geometry": {"type": "Point", "coordinates": [-122.1285128425, 47.6785615907]}, "type": "Feature", "properties": {"collection_times": [{"days": "Mon-Fri", "time": "2:45pm"}, {"days": "Sat", "time": "12:30pm"}, {"days": "Sun", "time": "Closed"}], "id": "9805200005", "name": "USPS COLLECTION BOX - BLUE BOX", "address": {"city": "REDMOND", "state": "WA", "street": "15955 NE 85TH ST", "postcode": "98052"}}},
{"geometry": {"type": "Point", "coordinates": [-122.1276473566, 47.6794960541]}, "type": "Feature", "properties": {"collection_times": [{"days": "Mon-Fri", "time": "2:45pm"}, {"days": "Sat", "time": "12:30pm"}, {"days": "Sun", "time": "Closed"}], "id": "9805200006", "name": "USPS COLLECTION BOX - BLUE BOX", "address": {"city": "REDMOND", "state": "WA", "street": "8703 160TH AVE NE", "postcode": "98052"}}},
{"geometry": {"type": "Point", "coordinates": [-122.129086697, 47.6745558449]}, "type": "Feature", "properties": {"collection_times": [{"days": "Mon-Fri", "time": "2:45pm"}, {"days": "Sat", "time": "12:30pm"}, {"days": "Sun", "time": "Closed"}], "id": "9805200007", "name": "USPS COLLECTION BOX - BLUE BOX", "address": {"city": "REDMOND", "state": "WA", "street": "15800 REDMOND WAY", "postcode": "98052"}}},
{"geometry": {"type": "Point", "coordinates": [-122.1175557847, 47.6739568632]}, "type": "Feature", "properties": {"collection_times": [{"days": "Mon-Fri", "time": "5:00pm"}, {"days": "Sat", "time": "1:00pm"}, {"days": "Sun", "time": "Closed"}], "id": "9805200009", "name": "USPS COLLECTION BOX - BLUE BOX", "address": {"city": "REDMOND", "state": "WA", "street": "16700 NE 79TH ST", "postcode": "98052"}}},
{"geometry": {"type": "Point", "coordinates": [-122.125557811, 47.6810860252]}, "type": "Feature", "properties": {"collection_times": [{"days": "Mon-Fri", "time": "5:00pm"}, {"days": "Sat", "time": "1:00pm"}, {"days": "Sun", "time": "Closed"}], "id": "9805200012", "name": "USPS COLLECTION BOX - BLUE BOX", "address": {"city": "REDMOND", "state": "WA", "street": "8867 161ST AVE NE", "postcode": "98052"}}},
{"geometry": {"type": "Point", "coordinates": [-122.1377733299, 47.6332032375]}, "type": "Feature", "properties": {"collection_times": [{"days": "Mon-Fri", "time": "5:00pm"}, {"days": "Sat", "time": "1:00pm"}, {"days": "Sun", "time": "Closed"}], "id": "9805200022", "name": "USPS COLLECTION BOX - BLUE BOX", "address": {"city": "REDMOND", "state": "WA", "street": "2499 152ND AVE NE", "postcode": "98052"}}},
{"geometry": {"type": "Point", "coordinates": [-122.1429165442, 47.6300515832]}, "type": "Feature", "properties": {"collection_times": [{"days": "Mon-Fri", "time": "2:45pm"}, {"days": "Sat", "time": "12:30pm"}, {"days": "Sun", "time": "Closed"}], "id": "9805200024", "name": "USPS COLLECTION BOX - BLUE BOX", "address": {"city": "REDMOND", "state": "WA", "street": "2200 148TH AVE NE", "postcode": "98052"}}},
{"geometry": {"type": "Point", "coordinates": [-122.1436222536, 47.6859782981]}, "type": "Feature", "properties": {"collection_times": [{"days": "Mon-Fri", "time": "3:00pm"}, {"days": "Sat", "time": "12:30pm"}, {"days": "Sun", "time": "Closed"}], "id": "9805200026", "name": "USPS COLLECTION BOX - BLUE BOX", "address": {"city": "REDMOND", "state": "WA", "street": "14750 NE 95TH ST", "postcode": "98052"}}},
{"geometry": {"type": "Point", "coordinates": [-122.0937137387, 47.667972925]}, "type": "Feature", "properties": {"collection_times": [{"days": "Mon-Fri", "time": "5:00pm"}, {"days": "Sat", "time": "12:30pm"}, {"days": "Sun", "time": "Closed"}], "id": "9805200030", "name": "USPS COLLECTION BOX - BLUE BOX", "address": {"city": "REDMOND", "state": "WA", "street": "7241 185TH AVE NE", "postcode": "98052"}}},
{"geometry": {"type": "Point", "coordinates": [-122.1239347913, 47.6785036258]}, "type": "Feature", "properties": {"collection_times": [{"days": "Mon-Fri", "time": "5:30pm"}, {"days": "Sat", "time": "3:00pm"}, {"days": "Sun", "time": "Closed"}], "id": "9805200035", "name": "USPS COLLECTION BOX - BLUE BOX", "address": {"city": "REDMOND", "state": "WA", "street": "7241 185TH AVE NE", "postcode": "98052"}}},
{"geometry": {"type": "Point", "coordinates": [-122.1239347913, 47.6785036258]}, "type": "Feature", "properties": {"collection_times": [{"days": "Mon-Fri", "time": "5:30pm"}, {"days": "Sat", "time": "3:00pm"}, {"days": "Sun", "time": "Closed"}], "id": "9805200041", "name": "USPS COLLECTION BOX - PO LOBBY", "address": {"city": "REDMOND", "state": "WA", "street": "7241 185TH AVE NE", "postcode": "98052"}}},
{"geometry": {"type": "Point", "coordinates": [-122.1428778624, 47.6478993342]}, "type": "Feature", "properties": {"collection_times": [{"days": "Mon-Fri", "time": "5:00pm"}, {"days": "Sat", "time": "1:00pm"}, {"days": "Sun", "time": "Closed"}], "id": "9805200043", "name": "USPS COLLECTION BOX - BLUE BOX", "address": {"city": "REDMOND", "state": "WA", "street": "4080 148TH AVE NE", "postcode": "98052"}}},
{"geometry": {"type": "Point", "coordinates": [-122.1377733313, 47.6333987337]}, "type": "Feature", "properties": {"collection_times": [{"days": "Mon-Fri", "time": "5:00pm"}, {"days": "Sat", "time": "1:00pm"}, {"days": "Sun", "time": "Closed"}], "id": "9805200045", "name": "USPS COLLECTION BOX - BLUE BOX", "address": {"city": "REDMOND", "state": "WA", "street": "2525 152ND AVE NE", "postcode": "98052"}}},
{"geometry": {"type": "Point", "coordinates": [-122.1377733313, 47.6333987337]}, "type": "Feature", "properties": {"collection_times": [{"days": "Mon-Fri", "time": "5:00pm"}, {"days": "Sat", "time": "1:00pm"}, {"days": "Sun", "time": "Closed"}], "id": "9805200047", "name": "USPS COLLECTION BOX - BLUE BOX", "address": {"city": "REDMOND", "state": "WA", "street": "2525 152ND AVE NE", "postcode": "98052"}}},
{"geometry": {"type": "Point", "coordinates": [-122.1436222536, 47.6859782981]}, "type": "Feature", "properties": {"collection_times": [{"days": "Mon-Fri", "time": "3:00pm"}, {"days": "Sat", "time": "12:30pm"}, {"days": "Sun", "time": "Closed"}], "id": "9805200048", "name": "USPS COLLECTION BOX - BLUE BOX", "address": {"city": "REDMOND", "state": "WA", "street": "14750 NE 95TH ST", "postcode": "98052"}}},
{"geometry": {"type": "Point", "coordinates": [-122.1216263968, 47.6702102793]}, "type": "Feature", "properties": {"collection_times": [{"days": "Mon-Fri", "time": "2:45pm"}, {"days": "Sat", "time": "12:30pm"}, {"days": "Sun", "time": "Closed"}], "id": "9805200049", "name": "USPS COLLECTION BOX - BLUE BOX", "address": {"city": "REDMOND", "state": "WA", "street": "7349 164TH AVE NE", "postcode": "98052"}}},
{"geometry": {"type": "Point", "coordinates": [-122.1045548786, 47.6714456537]}, "type": "Feature", "properties": {"collection_times": [{"days": "Mon-Fri", "time": "2:30pm"}, {"days": "Sat", "time": "12:30pm"}, {"days": "Sun", "time": "Closed"}], "id": "9805200052", "name": "USPS COLLECTION BOX - BLUE BOX", "address": {"city": "REDMOND", "state": "WA", "street": "17667 NE 76TH ST", "postcode": "98052"}}},
{"geometry": {"type": "Point", "coordinates": [-122.1385230413, 47.6314952024]}, "type": "Feature", "properties": {"collection_times": [{"days": "Mon-Fri", "time": "2:45pm"}, {"days": "Sat", "time": "1:00pm"}, {"days": "Sun", "time": "Closed"}], "id": "9805200053", "name": "USPS COLLECTION BOX - BLUE BOX", "address": {"city": "REDMOND", "state": "WA", "street": "15127 NE 24TH ST", "postcode": "98052"}}},
{"geometry": {"type": "Point", "coordinates": [-122.125557811, 47.6810860252]}, "type": "Feature", "properties": {"collection_times": [{"days": "Mon-Fri", "time": "5:00pm"}, {"days": "Sat", "time": "1:00pm"}, {"days": "Sun", "time": "Closed"}], "id": "9805200054", "name": "USPS COLLECTION BOX - BLUE BOX", "address": {"city": "REDMOND", "state": "WA", "street": "8867 161ST AVE NE", "postcode": "98052"}}},
{"geometry": {"type": "Point", "coordinates": [-122.1239347913, 47.6785036258]}, "type": "Feature", "properties": {"collection_times": [{"days": "Mon-Fri", "time": "5:30pm"}, {"days": "Sat", "time": "3:00pm"}, {"days": "Sun", "time": "Closed"}], "id": "9805200056", "name": "USPS COLLECTION BOX - APC", "address": {"city": "REDMOND", "state": "WA", "street": "7241 185TH AVE NE", "postcode": "98052"}}},
{"geometry": {"type": "Point", "coordinates": [-122.0243032203, 47.6442701109]}, "type": "Feature", "properties": {"collection_times": [{"days": "Mon-Fri", "time": "2:30pm"}, {"days": "Sat", "time": "12:30pm"}, {"days": "Sun", "time": "Closed"}], "id": "9805300001", "name": "USPS COLLECTION BOX - BLUE BOX", "address": {"city": "REDMOND", "state": "WA", "street": "23500 NE REDMOND FALL CITY RD", "postcode": "98053"}}},
{"geometry": {"type": "Point", "coordinates": [-122.2041792378, 47.4652861081]}, "type": "Feature", "properties": {"collection_times": [{"days": "Mon-Sat", "time": "1:00pm"}, {"days": "Sun", "time": "Closed"}], "id": "9805500007", "name": "USPS COLLECTION BOX - BLUE BOX", "address": {"city": "RENTON", "state": "WA", "street": "1650 EAGLE RIDGE DR S", "postcode": "98055"}}},
{"geometry": {"type": "Point", "coordinates": [-122.1970386753, 47.4429279504]}, "type": "Feature", "properties": {"collection_times": [{"days": "Mon-Fri", "time": "2:00pm"}, {"days": "Sat", "time": "1:00pm"}, {"days": "Sun", "time": "Closed"}], "id": "9805500009", "name": "USPS COLLECTION BOX - BLUE BOX", "address": {"city": "RENTON", "state": "WA", "street": "17801 108TH AVE SE", "postcode": "98055"}}},
{"geometry": {"type": "Point", "coordinates": [-122.2112764557, 47.444706624]}, "type": "Feature", "properties": {"collection_times": [{"days": "Mon-Fri", "time": "2:00pm"}, {"days": "Sat", "time": "2:30pm"}, {"days": "Sun", "time": "Closed"}], "id": "9805500011", "name": "USPS COLLECTION BOX - BLUE BOX", "address": {"city": "RENTON", "state": "WA", "street": "4300 TALBOT RD S", "postcode": "98055"}}},
{"geometry": {"type": "Point", "coordinates": [-122.2138754596, 47.4411681508]}, "type": "Feature", "properties": {"collection_times": [{"days": "Mon-Sat", "time": "1:00pm"}, {"days": "Sun", "time": "Closed"}], "id": "9805500012", "name": "USPS COLLECTION BOX - BLUE BOX", "address": {"city": "RENTON", "state": "WA", "street": "400 S 43RD ST", "postcode": "98055"}}},
{"geometry": {"type": "Point", "coordinates": [-122.2113269237, 47.4453288979]}, "type": "Feature", "properties": {"collection_times": [{"days": "Mon-Sat", "time": "1:00pm"}, {"days": "Sun", "time": "Closed"}], "id": "9805500035", "name": "USPS COLLECTION BOX - BLUE BOX", "address": {"city": "RENTON", "state": "WA", "street": "4011 TALBOT RD S", "postcode": "98055"}}},
{"geometry": {"type": "Point", "coordinates": [-122.2077987035, 47.4673677012]}, "type": "Feature", "properties": {"collection_times": [{"days": "Mon-Sat", "time": "1:00pm"}, {"days": "Sun", "time": "Closed"}], "id": "9805500068", "name": "USPS COLLECTION BOX - BLUE BOX", "address": {"city": "RENTON", "state": "WA", "street": "1400 TALBOT RD S", "postcode": "98055"}}},
{"geometry": {"type": "Point", "coordinates": [-122.2016653109, 47.5184875133]}, "type": "Feature", "properties": {"collection_times": [{"days": "Mon-Fri", "time": "3:00pm"}, {"days": "Sat", "time": "2:30pm"}, {"days": "Sun", "time": "Closed"}], "id": "9805600000", "name": "USPS COLLECTION BOX - BLUE BOX", "address": {"city": "NEWCASTLE", "state": "WA", "street": "1308 N 30TH ST", "postcode": "98056"}}},
{"geometry": {"type": "Point", "coordinates": [-122.1814300536, 47.499075833]}, "type": "Feature", "properties": {"collection_times": [{"days": "Mon-Sat", "time": "1:00pm"}, {"days": "Sun", "time": "Closed"}], "id": "9805600005", "name": "USPS COLLECTION BOX - BLUE BOX", "address": {"city": "NEWCASTLE", "state": "WA", "street": "2725 NE SUNSET BLVD", "postcode": "98056"}}},
{"geometry": {"type": "Point", "coordinates": [-122.1804045695, 47.500256096]}, "type": "Feature", "properties": {"collection_times": [{"days": "Mon-Sat", "time": "1:00pm"}, {"days": "Sun", "time": "Closed"}], "id": "9805600011", "name": "USPS COLLECTION BOX - BLUE BOX", "address": {"city": "NEWCASTLE", "state": "WA", "street": "2824 NE SUNSET BLVD", "postcode": "98056"}}},
{"geometry": {"type": "Point", "coordinates": [-122.1846060611, 47.5078766947]}, "type": "Feature", "properties": {"collection_times": [{"days": "Mon-Sat", "time": "1:00pm"}, {"days": "Sun", "time": "Closed"}], "id": "9805600012", "name": "USPS COLLECTION BOX - BLUE BOX", "address": {"city": "NEWCASTLE", "state": "WA", "street": "3030 NE 10TH ST", "postcode": "98056"}}},
{"geometry": {"type": "Point", "coordinates": [-122.1959432514, 47.532401894]}, "type": "Feature", "properties": {"collection_times": [{"days": "Mon-Sat", "time": "1:00pm"}, {"days": "Sun", "time": "Closed"}], "id": "9805600013", "name": "USPS COLLECTION BOX - BLUE BOX", "address": {"city": "NEWCASTLE", "state": "WA", "street": "1800 NE 44TH ST", "postcode": "98056"}}},
{"geometry": {"type": "Point", "coordinates": [-122.167417997, 47.5265371682]}, "type": "Feature", "properties": {"collection_times": [{"days": "Mon-Sat", "time": "1:00pm"}, {"days": "Sun", "time": "Closed"}], "id": "9805600014", "name": "USPS COLLECTION BOX - BLUE BOX", "address": {"city": "NEWCASTLE", "state": "WA", "street": "8416 129TH PL SE", "postcode": "98056"}}},
{"geometry": {"type": "Point", "coordinates": [-122.2169610401, 47.4708330283]}, "type": "Feature", "properties": {"collection_times": [{"days": "Mon-Fri", "time": "2:45pm"}, {"days": "Sat", "time": "2:30pm"}, {"days": "Sun", "time": "Closed"}], "id": "9805700003", "name": "USPS COLLECTION BOX - BLUE BOX", "address": {"city": "RENTON", "state": "WA", "street": "15 S GRADY WAY", "postcode": "98057"}}},
{"geometry": {"type": "Point", "coordinates": [-122.2099638602, 47.4722833733]}, "type": "Feature", "properties": {"collection_times": [{"days": "Mon-Fri", "time": "2:45pm"}, {"days": "Sat", "time": "2:30pm"}, {"days": "Sun", "time": "Closed"}], "id": "9805700005", "name": "USPS COLLECTION BOX - BLUE BOX", "address": {"city": "RENTON", "state": "WA", "street": "601 S GRADY WAY", "postcode": "98057"}}},
{"geometry": {"type": "Point", "coordinates": [-122.2048107169, 47.4752262881]}, "type": "Feature", "properties": {"collection_times": [{"days": "Mon-Sat", "time": "1:00pm"}, {"days": "Sun", "time": "Closed"}], "id": "9805700006", "name": "USPS COLLECTION BOX - BLUE BOX", "address": {"city": "RENTON", "state": "WA", "street": "1055 S GRADY WAY", "postcode": "98057"}}},
{"geometry": {"type": "Point", "coordinates": [-122.2379897437, 47.4663984575]}, "type": "Feature", "properties": {"collection_times": [{"days": "Mon-Sat", "time": "1:00pm"}, {"days": "Sun", "time": "Closed"}], "id": "9805700007", "name": "USPS COLLECTION BOX - BLUE BOX", "address": {"city": "RENTON", "state": "WA", "street": "1107 SW GRADY WAY", "postcode": "98057"}}},
{"geometry": {"type": "Point", "coordinates": [-122.2107928096, 47.4797074425]}, "type": "Feature", "properties": {"collection_times": [{"days": "Mon-Sat", "time": "1:00pm"}, {"days": "Sun", "time": "Closed"}], "id": "9805700008", "name": "USPS COLLECTION BOX - BLUE BOX", "address": {"city": "RENTON", "state": "WA", "street": "301 MORRIS AVE S", "postcode": "98057"}}},
{"geometry": {"type": "Point", "coordinates": [-122.2021980531, 47.4867576039]}, "type": "Feature", "properties": {"collection_times": [{"days": "Mon-Sat", "time": "1:00pm"}, {"days": "Sun", "time": "Closed"}], "id": "9805700010", "name": "USPS COLLECTION BOX - BLUE BOX", "address": {"city": "RENTON", "state": "WA", "street": "300 PARK AVE N", "postcode": "98057"}}},
{"geometry": {"type": "Point", "coordinates": [-122.2197877471, 47.4962096804]}, "type": "Feature", "properties": {"collection_times": [{"days": "Mon-Sat", "time": "1:00pm"}, {"days": "Sun", "time": "Closed"}], "id": "9805700011", "name": "USPS COLLECTION BOX - BLUE BOX", "address": {"city": "RENTON", "state": "WA", "street": "901 RAINIER AVE N", "postcode": "98057"}}},
{"geometry": {"type": "Point", "coordinates": [-122.2172075275, 47.4730645236]}, "type": "Feature", "properties": {"collection_times": [{"days": "Mon-Sat", "time": "1:00pm"}, {"days": "Sun", "time": "Closed"}], "id": "9805700013", "name": "USPS COLLECTION BOX - BLUE BOX", "address": {"city": "RENTON", "state": "WA", "street": "743 RAINIER AVE S", "postcode": "98057"}}},
{"geometry": {"type": "Point", "coordinates": [-122.2090557866, 47.46962851]}, "type": "Feature", "properties": {"collection_times": [{"days": "Mon-Sat", "time": "1:00pm"}, {"days": "Sun", "time": "Closed"}], "id": "9805700014", "name": "USPS COLLECTION BOX - BLUE BOX", "address": {"city": "RENTON", "state": "WA", "street": "700 S RENTON VILLAGE PL", "postcode": "98057"}}},
{"geometry": {"type": "Point", "coordinates": [-122.2161829092, 47.4763803047]}, "type": "Feature", "properties": {"collection_times": [{"days": "Mon-Fri", "time": "3:30pm"}, {"days": "Sat", "time": "2:30pm"}, {"days": "Sun", "time": "Closed"}], "id": "9805700015", "name": "USPS COLLECTION BOX - BLUE BOX", "address": {"city": "RENTON", "state": "WA", "street": "465 RENTON CENTER WAY SW", "postcode": "98057"}}},
{"geometry": {"type": "Point", "coordinates": [-122.2108501601, 47.4695012954]}, "type": "Feature", "properties": {"collection_times": [{"days": "Mon-Fri", "time": "3:00pm"}, {"days": "Sat", "time": "2:30pm"}, {"days": "Sun", "time": "Closed"}], "id": "9805700016", "name": "USPS COLLECTION BOX - BLUE BOX", "address": {"city": "RENTON", "state": "WA", "street": "555 S RENTON VILLAGE PL", "postcode": "98057"}}},
{"geometry": {"type": "Point", "coordinates": [-122.2181527453, 47.4796451588]}, "type": "Feature", "properties": {"collection_times": [{"days": "Mon-Sat", "time": "1:00pm"}, {"days": "Sun", "time": "Closed"}], "id": "9805700017", "name": "USPS COLLECTION BOX - BLUE BOX", "address": {"city": "RENTON", "state": "WA", "street": "53 SW SUNSET BLVD", "postcode": "98057"}}},
{"geometry": {"type": "Point", "coordinates": [-122.2055384579, 47.4812652652]}, "type": "Feature", "properties": {"collection_times": [{"days": "Mon-Sat", "time": "1:00pm"}, {"days": "Sun", "time": "Closed"}], "id": "9805700018", "name": "USPS COLLECTION BOX - BLUE BOX", "address": {"city": "RENTON", "state": "WA", "street": "199 WELLS AVE S", "postcode": "98057"}}},
{"geometry": {"type": "Point", "coordinates": [-122.2044730036, 47.4871197926]}, "type": "Feature", "properties": {"collection_times": [{"days": "Mon-Fri", "time": "5:00pm"}, {"days": "Sat", "time": "2:30pm"}, {"days": "Sun", "time": "Closed"}], "id": "9805700019", "name": "USPS COLLECTION BOX - BLUE BOX", "address": {"city": "RENTON", "state": "WA", "street": "315 WELLS AVE S", "postcode": "98057"}}},
{"geometry": {"type": "Point", "coordinates": [-122.2065959149, 47.4793659395]}, "type": "Feature", "properties": {"collection_times": [{"days": "Mon-Fri", "time": "5:00pm"}, {"days": "Sat", "time": "2:30pm"}, {"days": "Sun", "time": "Closed"}], "id": "9805700020", "name": "USPS COLLECTION BOX - BLUE BOX", "address": {"city": "RENTON", "state": "WA", "street": "314 WILLIAMS AVE S", "postcode": "98057"}}},
{"geometry": {"type": "Point", "coordinates": [-122.2065959149, 47.4793659395]}, "type": "Feature", "properties": {"collection_times": [{"days": "Mon-Fri", "time": "5:00pm"}, {"days": "Sat", "time": "9:30am"}, {"days": "Sun", "time": "Closed"}], "id": "9805700022", "name": "USPS COLLECTION BOX - PO LOBBY", "address": {"city": "RENTON", "state": "WA", "street": "314 WILLIAMS AVE S", "postcode": "98057"}}},
{"geometry": {"type": "Point", "coordinates": [-122.2065845623, 47.479149368]}, "type": "Feature", "properties": {"collection_times": [{"days": "Mon-Fri", "time": "5:00pm"}, {"days": "Sat", "time": "2:30pm"}, {"days": "Sun", "time": "Closed"}], "id": "9805700023", "name": "USPS COLLECTION BOX - BLUE BOX", "address": {"city": "RENTON", "state": "WA", "street": "314 WILLIAMS AVE S", "postcode": "98057"}}},
{"geometry": {"type": "Point", "coordinates": [-122.2312818973, 47.4659124412]}, "type": "Feature", "properties": {"collection_times": [{"days": "Mon-Sat", "time": "1:00pm"}, {"days": "Sun", "time": "Closed"}], "id": "9805700024", "name": "USPS COLLECTION BOX - BLUE BOX", "address": {"city": "RENTON", "state": "WA", "street": "1323 SW 16TH ST", "postcode": "98057"}}},
{"geometry": {"type": "Point", "coordinates": [-122.2145162918, 47.4798002138]}, "type": "Feature", "properties": {"collection_times": [{"days": "Mon-Sat", "time": "1:00pm"}, {"days": "Sun", "time": "Closed"}], "id": "9805700025", "name": "USPS COLLECTION BOX - BLUE BOX", "address": {"city": "RENTON", "state": "WA", "street": "200 S 3RD ST", "postcode": "98057"}}},
{"geometry": {"type": "Point", "coordinates": [-122.2211599491, 47.4438216276]}, "type": "Feature", "properties": {"collection_times": [{"days": "Mon-Fri", "time": "2:00pm"}, {"days": "Sat", "time": "1:00pm"}, {"days": "Sun", "time": "Closed"}], "id": "9805700026", "name": "USPS COLLECTION BOX - BLUE BOX", "address": {"city": "RENTON", "state": "WA", "street": "275 SW 41ST ST", "postcode": "98057"}}},
{"geometry": {"type": "Point", "coordinates": [-122.2149254493, 47.4411853753]}, "type": "Feature", "properties": {"collection_times": [{"days": "Mon-Fri", "time": "2:00pm"}, {"days": "Sat", "time": "1:00pm"}, {"days": "Sun", "time": "Closed"}], "id": "9805700029", "name": "USPS COLLECTION BOX - BLUE BOX", "address": {"city": "RENTON", "state": "WA", "street": "258 SW 43RD ST", "postcode": "98057"}}},
{"geometry": {"type": "Point", "coordinates": [-122.2336236381, 47.4737247537]}, "type": "Feature", "properties": {"collection_times": [{"days": "Mon-Fri", "time": "3:15pm"}, {"days": "Sat", "time": "2:30pm"}, {"days": "Sun", "time": "Closed"}], "id": "9805700030", "name": "USPS COLLECTION BOX - BLUE BOX", "address": {"city": "RENTON", "state": "WA", "street": "1131 SW 7TH ST", "postcode": "98057"}}},
{"geometry": {"type": "Point", "coordinates": [-122.2139391934, 47.4789694192]}, "type": "Feature", "properties": {"collection_times": [{"days": "Mon-Fri", "time": "5:00pm"}, {"days": "Sat", "time": "9:30am"}, {"days": "Sun", "time": "Closed"}], "id": "9805700031", "name": "USPS COLLECTION BOX - PO LOBBY", "address": {"city": "RENTON", "state": "WA", "street": "314 WILLIAMS AVE S", "postcode": "98057"}}},
{"geometry": {"type": "Point", "coordinates": [-122.2139478833, 47.4789693731]}, "type": "Feature", "properties": {"collection_times": [{"days": "Mon-Sat", "time": "1:00pm"}, {"days": "Sun", "time": "Closed"}], "id": "9805700032", "name": "USPS COLLECTION BOX - BLUE BOX", "address": {"city": "RENTON", "state": "WA", "street": "105 WILLIAMS AVE N", "postcode": "98057"}}},
{"geometry": {"type": "Point", "coordinates": [-122.1490291561, 47.4456084209]}, "type": "Feature", "properties": {"collection_times": [{"days": "Mon-Fri", "time": "2:00pm"}, {"days": "Sat", "time": "2:30pm"}, {"days": "Sun", "time": "Closed"}], "id": "9805800001", "name": "USPS COLLECTION BOX - BLUE BOX", "address": {"city": "RENTON", "state": "WA", "street": "17234 140TH AVE SE", "postcode": "98058"}}},
{"geometry": {"type": "Point", "coordinates": [-122.1516937757, 47.44490471]}, "type": "Feature", "properties": {"collection_times": [{"days": "Mon-Sat", "time": "1:00pm"}, {"days": "Sun", "time": "Closed"}], "id": "9805800002", "name": "USPS COLLECTION BOX - BLUE BOX", "address": {"city": "RENTON", "state": "WA", "street": "14201 SE PETROVITSKY RD", "postcode": "98058"}}},
{"geometry": {"type": "Point", "coordinates": [-122.186083097, 47.4481373422]}, "type": "Feature", "properties": {"collection_times": [{"days": "Mon-Fri", "time": "5:00pm"}, {"days": "Sat", "time": "4:00pm"}, {"days": "Sun", "time": "Closed"}], "id": "9805800004", "name": "USPS COLLECTION BOX - BLUE BOX", "address": {"city": "RENTON", "state": "WA", "street": "17200 116TH AVE SE", "postcode": "98058"}}},
{"geometry": {"type": "Point", "coordinates": [-122.186083097, 47.4481373422]}, "type": "Feature", "properties": {"collection_times": [{"days": "Mon-Fri", "time": "5:00pm"}, {"days": "Sat", "time": "4:00pm"}, {"days": "Sun", "time": "Closed"}], "id": "9805800010", "name": "USPS COLLECTION BOX - PO LOBBY", "address": {"city": "RENTON", "state": "WA", "street": "17200 116TH AVE SE", "postcode": "98058"}}},
{"geometry": {"type": "Point", "coordinates": [-122.186083097, 47.4481373422]}, "type": "Feature", "properties": {"collection_times": [{"days": "Mon-Fri", "time": "5:00pm"}, {"days": "Sat", "time": "4:00pm"}, {"days": "Sun", "time": "Closed"}], "id": "9805800012", "name": "USPS COLLECTION BOX - BLUE BOX", "address": {"city": "RENTON", "state": "WA", "street": "17200 116TH AVE SE", "postcode": "98058"}}},
{"geometry": {"type": "Point", "coordinates": [-122.186083097, 47.4481373422]}, "type": "Feature", "properties": {"collection_times": [{"days": "Mon-Fri", "time": "5:00pm"}, {"days": "Sat", "time": "4:00pm"}, {"days": "Sun", "time": "Closed"}], "id": "9805800015", "name": "USPS COLLECTION BOX - PO LOBBY", "address": {"city": "RENTON", "state": "WA", "street": "17200 116TH AVE SE", "postcode": "98058"}}},
{"geometry": {"type": "Point", "coordinates": [-122.1490291561, 47.4456084209]}, "type": "Feature", "properties": {"collection_times": [{"days": "Mon-Sat", "time": "1:00pm"}, {"days": "Sun", "time": "Closed"}], "id": "9805800016", "name": "USPS COLLECTION BOX - BLUE BOX", "address": {"city": "RENTON", "state": "WA", "street": "17305 SE 186TH WAY", "postcode": "98058"}}},
{"geometry": {"type": "Point", "coordinates": [-122.186083097, 47.4481373422]}, "type": "Feature", "properties": {"collection_times": [{"days": "Mon-Fri", "time": "5:00pm"}, {"days": "Sat", "time": "4:00pm"}, {"days": "Sun", "time": "Closed"}], "id": "9805800017", "name": "USPS COLLECTION BOX - APC", "address": {"city": "RENTON", "state": "WA", "street": "17200 116TH AVE SE", "postcode": "98058"}}},
{"geometry": {"type": "Point", "coordinates": [-122.1654550765, 47.5404312849]}, "type": "Feature", "properties": {"collection_times": [{"days": "Mon-Fri", "time": "3:15pm"}, {"days": "Sat", "time": "2:45pm"}, {"days": "Sun", "time": "Closed"}], "id": "9805900000", "name": "USPS COLLECTION BOX - BLUE BOX", "address": {"city": "NEWCASTLE", "state": "WA", "street": "6933 COAL CREEK PKWY SE", "postcode": "98059"}}},
{"geometry": {"type": "Point", "coordinates": [-122.1581767215, 47.479755873]}, "type": "Feature", "properties": {"collection_times": [{"days": "Mon-Sat", "time": "1:00pm"}, {"days": "Sun", "time": "Closed"}], "id": "9805900005", "name": "USPS COLLECTION BOX - BLUE BOX", "address": {"city": "NEWCASTLE", "state": "WA", "street": "4513 NE 4TH ST", "postcode": "98059"}}},
{"geometry": {"type": "Point", "coordinates": [-122.1549407741, 47.4885458419]}, "type": "Feature", "properties": {"collection_times": [{"days": "Mon-Sat", "time": "1:00pm"}, {"days": "Sun", "time": "Closed"}], "id": "9805900006", "name": "USPS COLLECTION BOX - BLUE BOX", "address": {"city": "NEWCASTLE", "state": "WA", "street": "4800 NE 4TH ST", "postcode": "98059"}}},
{"geometry": {"type": "Point", "coordinates": [-122.1593496295, 47.5047559509]}, "type": "Feature", "properties": {"collection_times": [{"days": "Mon-Sat", "time": "1:00pm"}, {"days": "Sun", "time": "Closed"}], "id": "9805900007", "name": "USPS COLLECTION BOX - BLUE BOX", "address": {"city": "NEWCASTLE", "state": "WA", "street": "4613 NE SUNSET BLVD", "postcode": "98059"}}},
{"geometry": {"type": "Point", "coordinates": [-122.164607161, 47.503886649]}, "type": "Feature", "properties": {"collection_times": [{"days": "Mon-Sat", "time": "1:00pm"}, {"days": "Sun", "time": "Closed"}], "id": "9805900008", "name": "USPS COLLECTION BOX - BLUE BOX", "address": {"city": "NEWCASTLE", "state": "WA", "street": "1300 UNION AVE NE", "postcode": "98059"}}},
{"geometry": {"type": "Point", "coordinates": [-122.1653624825, 47.540252854]}, "type": "Feature", "properties": {"collection_times": [{"days": "Mon-Sat", "time": "1:00pm"}, {"days": "Sun", "time": "Closed"}], "id": "9805900009", "name": "USPS COLLECTION BOX - BLUE BOX", "address": {"city": "NEWCASTLE", "state": "WA", "street": "6940 COAL CREEK PKWY SE", "postcode": "98059"}}},
{"geometry": {"type": "Point", "coordinates": [-122.1614014677, 47.4788828493]}, "type": "Feature", "properties": {"collection_times": [{"days": "Mon-Sat", "time": "1:00pm"}, {"days": "Sun", "time": "Closed"}], "id": "9805900010", "name": "USPS COLLECTION BOX - BLUE BOX", "address": {"city": "NEWCASTLE", "state": "WA", "street": "4300 NE 4TH ST", "postcode": "98059"}}},
{"geometry": {"type": "Point", "coordinates": [-122.1614310416, 47.4788745686]}, "type": "Feature", "properties": {"collection_times": [{"days": "Mon-Fri", "time": "5:00pm"}, {"days": "Sat", "time": "3:00pm"}, {"days": "Sun", "time": "Closed"}], "id": "9805900012", "name": "USPS COLLECTION BOX - BLUE BOX", "address": {"city": "NEWCASTLE", "state": "WA", "street": "4301 NE 4TH ST", "postcode": "98059"}}},
{"geometry": {"type": "Point", "coordinates": [-122.1614310416, 47.4788745686]}, "type": "Feature", "properties": {"collection_times": [{"days": "Mon-Fri", "time": "5:00pm"}, {"days": "Sat", "time": "3:00pm"}, {"days": "Sun", "time": "Closed"}], "id": "9805900014", "name": "USPS COLLECTION BOX - PO LOBBY", "address": {"city": "NEWCASTLE", "state": "WA", "street": "4301 NE 4TH ST", "postcode": "98059"}}},
{"geometry": {"type": "Point", "coordinates": [-122.1614310416, 47.4788745686]}, "type": "Feature", "properties": {"collection_times": [{"days": "Mon-Fri", "time": "5:00pm"}, {"days": "Sat", "time": "3:00pm"}, {"days": "Sun", "time": "Closed"}], "id": "9805900015", "name": "USPS COLLECTION BOX - APC", "address": {"city": "NEWCASTLE", "state": "WA", "street": "4301 NE 4TH ST", "postcode": "98059"}}},
{"geometry": {"type": "Point", "coordinates": [-122.1213393955, 47.4881119695]}, "type": "Feature", "properties": {"collection_times": [{"days": "Mon-Sat", "time": "1:00pm"}, {"days": "Sun", "time": "Closed"}], "id": "9805900016", "name": "USPS COLLECTION BOX - BLUE BOX", "address": {"city": "NEWCASTLE", "state": "WA", "street": "16426 SE 128TH ST", "postcode": "98059"}}},
{"geometry": {"type": "Point", "coordinates": [-122.1614310416, 47.4788745686]}, "type": "Feature", "properties": {"collection_times": [{"days": "Mon-Fri", "time": "5:00pm"}, {"days": "Sat", "time": "3:00pm"}, {"days": "Sun", "time": "Closed"}], "id": "9805900017", "name": "USPS COLLECTION BOX - PO LOBBY", "address": {"city": "NEWCASTLE", "state": "WA", "street": "4301 NE 4TH ST", "postcode": "98059"}}},
{"geometry": {"type": "Point", "coordinates": [-122.5103567321, 47.6645928811]}, "type": "Feature", "properties": {"collection_times": [{"days": "Mon-Fri", "time": "5:00pm"}, {"days": "Sat", "time": "2:15pm"}, {"days": "Sun", "time": "Closed"}], "id": "9806100969", "name": "USPS COLLECTION BOX - BLUE BOX", "address": {"city": "ROLLINGBAY", "state": "WA", "street": "10355 NE VALLEY RD", "postcode": "98061"}}},
{"geometry": {"type": "Point", "coordinates": [-122.5103567321, 47.6645928811]}, "type": "Feature", "properties": {"collection_times": [{"days": "Mon-Fri", "time": "5:00pm"}, {"days": "Sat-Sun", "time": "Closed"}], "id": "9806100970", "name": "USPS COLLECTION BOX - PO LOBBY", "address": {"city": "ROLLINGBAY", "state": "WA", "street": "10355 NE VALLEY RD", "postcode": "98061"}}},
{"geometry": {"type": "Point", "coordinates": [-122.361040752, 47.4667627759]}, "type": "Feature", "properties": {"collection_times": [{"days": "Mon-Fri", "time": "5:00pm"}, {"days": "Sat", "time": "1:30pm"}, {"days": "Sun", "time": "Closed"}], "id": "9806200991", "name": "USPS COLLECTION BOX - BLUE BOX", "address": {"city": "SEAHURST", "state": "WA", "street": "2116 SW 152ND ST", "postcode": "98062"}}},
{"geometry": {"type": "Point", "coordinates": [-122.361040752, 47.4667627759]}, "type": "Feature", "properties": {"collection_times": [{"days": "Mon-Fri", "time": "5:00pm"}, {"days": "Sat", "time": "1:30pm"}, {"days": "Sun", "time": "Closed"}], "id": "9806200992", "name": "USPS COLLECTION BOX - BLUE BOX", "address": {"city": "SEAHURST", "state": "WA", "street": "2116 SW 152ND ST", "postcode": "98062"}}},
{"geometry": {"type": "Point", "coordinates": [-121.8262245458, 47.5259578433]}, "type": "Feature", "properties": {"collection_times": [{"days": "Mon-Fri", "time": "4:30pm"}, {"days": "Sat", "time": "11:00am"}, {"days": "Sun", "time": "Closed"}], "id": "9806500000", "name": "USPS COLLECTION BOX - BLUE BOX", "address": {"city": "SNOQUALMIE", "state": "WA", "street": "8264 OLMSTEAD LN SE", "postcode": "98065"}}},
{"geometry": {"type": "Point", "coordinates": [-121.8262245458, 47.5259578433]}, "type": "Feature", "properties": {"collection_times": [{"days": "Mon-Fri", "time": "4:30pm"}, {"days": "Sat", "time": "11:00am"}, {"days": "Sun", "time": "Closed"}], "id": "9806500002", "name": "USPS COLLECTION BOX - PO LOBBY", "address": {"city": "SNOQUALMIE", "state": "WA", "street": "8264 OLMSTEAD LN SE", "postcode": "98065"}}},
{"geometry": {"type": "Point", "coordinates": [-121.8262245458, 47.5259578433]}, "type": "Feature", "properties": {"collection_times": [{"days": "Mon-Fri", "time": "4:30pm"}, {"days": "Sat", "time": "11:00am"}, {"days": "Sun", "time": "Closed"}], "id": "9806500003", "name": "USPS COLLECTION BOX - PO LOBBY", "address": {"city": "SNOQUALMIE", "state": "WA", "street": "8264 OLMSTEAD LN SE", "postcode": "98065"}}},
{"geometry": {"type": "Point", "coordinates": [-121.4122872552, 47.4190319646]}, "type": "Feature", "properties": {"collection_times": [{"days": "Mon-Sat", "time": "11:00am"}, {"days": "Sun", "time": "Closed"}], "id": "9806800001", "name": "USPS COLLECTION BOX - BLUE BOX", "address": {"city": "SNOQUALMIE PASS", "state": "WA", "street": "603 STATE ROUTE 906", "postcode": "98068"}}},
{"geometry": {"type": "Point", "coordinates": [-122.4604093746, 47.4520385496]}, "type": "Feature", "properties": {"collection_times": [{"days": "Mon-Sat", "time": "12:00pm"}, {"days": "Sun", "time": "Closed"}], "id": "9807000002", "name": "USPS COLLECTION BOX - BLUE BOX", "address": {"city": "VASHON", "state": "WA", "street": "17106 VASHON HWY SW", "postcode": "98070"}}},
{"geometry": {"type": "Point", "coordinates": [-122.4611350255, 47.3677749306]}, "type": "Feature", "properties": {"collection_times": [{"days": "Mon-Sat", "time": "12:00pm"}, {"days": "Sun", "time": "Closed"}], "id": "9807000003", "name": "USPS COLLECTION BOX - BLUE BOX", "address": {"city": "VASHON", "state": "WA", "street": "26316 99TH AVE SW", "postcode": "98070"}}},
{"geometry": {"type": "Point", "coordinates": [-122.4619514997, 47.445437938]}, "type": "Feature", "properties": {"collection_times": [{"days": "Mon-Fri", "time": "5:00pm"}, {"days": "Sat", "time": "4:00pm"}, {"days": "Sun", "time": "Closed"}], "id": "9807000007", "name": "USPS COLLECTION BOX - BLUE BOX", "address": {"city": "VASHON", "state": "WA", "street": "10005 SW 178TH ST", "postcode": "98070"}}},
{"geometry": {"type": "Point", "coordinates": [-122.4619514997, 47.445437938]}, "type": "Feature", "properties": {"collection_times": [{"days": "Mon-Fri", "time": "5:00pm"}, {"days": "Sat", "time": "4:00pm"}, {"days": "Sun", "time": "Closed"}], "id": "9807000011", "name": "USPS COLLECTION BOX - PO LOBBY", "address": {"city": "VASHON", "state": "WA", "street": "10005 SW 178TH ST", "postcode": "98070"}}},
{"geometry": {"type": "Point", "coordinates": [-122.4619514997, 47.445437938]}, "type": "Feature", "properties": {"collection_times": [{"days": "Mon-Fri", "time": "5:00pm"}, {"days": "Sat", "time": "4:00pm"}, {"days": "Sun", "time": "Closed"}], "id": "9807000012", "name": "USPS COLLECTION BOX - PO LOBBY", "address": {"city": "VASHON", "state": "WA", "street": "10005 SW 178TH ST", "postcode": "98070"}}},
{"geometry": {"type": "Point", "coordinates": [-122.4606809773, 47.4474433783]}, "type": "Feature", "properties": {"collection_times": [{"days": "Mon-Fri", "time": "5:00pm"}, {"days": "Sat", "time": "4:00pm"}, {"days": "Sun", "time": "Closed"}], "id": "9807000015", "name": "USPS COLLECTION BOX - BLUE BOX", "address": {"city": "VASHON", "state": "WA", "street": "9910 SW BANK RD", "postcode": "98070"}}},
{"geometry": {"type": "Point", "coordinates": [-122.1521700065, 47.7544083723]}, "type": "Feature", "properties": {"collection_times": [{"days": "Mon-Fri", "time": "1:30pm"}, {"days": "Sat", "time": "12:30pm"}, {"days": "Sun", "time": "Closed"}], "id": "9807200001", "name": "USPS COLLECTION BOX - BLUE BOX", "address": {"city": "WOODINVILLE", "state": "WA", "street": "14019 NE 175TH ST", "postcode": "98072"}}},
{"geometry": {"type": "Point", "coordinates": [-122.1493348654, 47.7556461704]}, "type": "Feature", "properties": {"collection_times": [{"days": "Mon-Fri", "time": "1:30pm"}, {"days": "Sat", "time": "12:30pm"}, {"days": "Sun", "time": "Closed"}], "id": "9807200002", "name": "USPS COLLECTION BOX - BLUE BOX", "address": {"city": "WOODINVILLE", "state": "WA", "street": "14160 NE 175TH ST", "postcode": "98072"}}},
{"geometry": {"type": "Point", "coordinates": [-122.161658175, 47.7560268823]}, "type": "Feature", "properties": {"collection_times": [{"days": "Mon-Fri", "time": "5:30pm"}, {"days": "Sat", "time": "3:00pm"}, {"days": "Sun", "time": "Closed"}], "id": "9807200007", "name": "USPS COLLECTION BOX - BLUE BOX", "address": {"city": "WOODINVILLE", "state": "WA", "street": "17610 WOODINVILLE SNOHOMISH RD NE", "postcode": "98072"}}},
{"geometry": {"type": "Point", "coordinates": [-122.161658175, 47.7560268823]}, "type": "Feature", "properties": {"collection_times": [{"days": "Mon-Fri", "time": "5:30pm"}, {"days": "Sat", "time": "3:00pm"}, {"days": "Sun", "time": "Closed"}], "id": "9807200012", "name": "USPS COLLECTION BOX - BLUE BOX", "address": {"city": "WOODINVILLE", "state": "WA", "street": "17610 WOODINVILLE SNOHOMISH RD NE", "postcode": "98072"}}},
{"geometry": {"type": "Point", "coordinates": [-122.161658175, 47.7560268823]}, "type": "Feature", "properties": {"collection_times": [{"days": "Mon-Fri", "time": "5:30pm"}, {"days": "Sat", "time": "3:00pm"}, {"days": "Sun", "time": "Closed"}], "id": "9807200013", "name": "USPS COLLECTION BOX - APC", "address": {"city": "WOODINVILLE", "state": "WA", "street": "17610 WOODINVILLE SNOHOMISH RD NE", "postcode": "98072"}}},
{"geometry": {"type": "Point", "coordinates": [-122.0353232757, 47.6156449862]}, "type": "Feature", "properties": {"collection_times": [{"days": "Mon-Fri", "time": "5:00pm"}, {"days": "Sat", "time": "1:00pm"}, {"days": "Sun", "time": "Closed"}], "id": "9807400000", "name": "USPS COLLECTION BOX - BLUE BOX", "address": {"city": "REDMOND", "state": "WA", "street": "704 228TH AVE NE", "postcode": "98074"}}},
{"geometry": {"type": "Point", "coordinates": [-122.0353232757, 47.6156449862]}, "type": "Feature", "properties": {"collection_times": [{"days": "Mon-Fri", "time": "5:00pm"}, {"days": "Sat", "time": "1:00pm"}, {"days": "Sun", "time": "Closed"}], "id": "9807400001", "name": "USPS COLLECTION BOX - BLUE BOX", "address": {"city": "REDMOND", "state": "WA", "street": "704 228TH AVE NE", "postcode": "98074"}}},
{"geometry": {"type": "Point", "coordinates": [-122.0561975654, 47.6437396342]}, "type": "Feature", "properties": {"collection_times": [{"days": "Mon-Fri", "time": "2:30pm"}, {"days": "Sat", "time": "12:30pm"}, {"days": "Sun", "time": "Closed"}], "id": "9807400002", "name": "USPS COLLECTION BOX - BLUE BOX", "address": {"city": "REDMOND", "state": "WA", "street": "3600 SAHALEE WAY NE", "postcode": "98074"}}},
{"geometry": {"type": "Point", "coordinates": [-122.0241192325, 47.5590099563]}, "type": "Feature", "properties": {"collection_times": [{"days": "Mon-Sat", "time": "10:30am"}, {"days": "Sun", "time": "Closed"}], "id": "9807500000", "name": "USPS COLLECTION BOX - BLUE BOX", "address": {"city": "ISSAQUAH", "state": "WA", "street": "2950 ISSAQUAH PINE LAKE RD SE", "postcode": "98075"}}},
{"geometry": {"type": "Point", "coordinates": [-122.0354998991, 47.5787849069]}, "type": "Feature", "properties": {"collection_times": [{"days": "Mon-Sat", "time": "10:00am"}, {"days": "Sun", "time": "Closed"}], "id": "9807500002", "name": "USPS COLLECTION BOX - BLUE BOX", "address": {"city": "ISSAQUAH", "state": "WA", "street": "3434 228TH AVE SE", "postcode": "98075"}}},
{"geometry": {"type": "Point", "coordinates": [-122.0251926034, 47.5670932424]}, "type": "Feature", "properties": {"collection_times": [{"days": "Mon-Sat", "time": "10:00am"}, {"days": "Sun", "time": "Closed"}], "id": "9807500003", "name": "USPS COLLECTION BOX - BLUE BOX", "address": {"city": "ISSAQUAH", "state": "WA", "street": "4343 ISSAQUAH PINE LAKE RD SE", "postcode": "98075"}}},
{"geometry": {"type": "Point", "coordinates": [-122.080787986, 47.7551557674]}, "type": "Feature", "properties": {"collection_times": [{"days": "Mon-Fri", "time": "1:30pm"}, {"days": "Sat", "time": "12:30pm"}, {"days": "Sun", "time": "Closed"}], "id": "9807700000", "name": "USPS COLLECTION BOX - BLUE BOX", "address": {"city": "WOODINVILLE", "state": "WA", "street": "19150 NE WOODINVILLE DUVALL RD", "postcode": "98077"}}},
{"geometry": {"type": "Point", "coordinates": [-122.2598483861, 47.8527054272]}, "type": "Feature", "properties": {"collection_times": [{"days": "Mon-Fri", "time": "12:00pm"}, {"days": "Sat", "time": "1:45pm"}, {"days": "Sun", "time": "Closed"}], "id": "9808700001", "name": "USPS COLLECTION BOX - BLUE BOX", "address": {"city": "LYNNWOOD", "state": "WA", "street": "16108 ASH WAY", "postcode": "98087"}}},
{"geometry": {"type": "Point", "coordinates": [-122.2828570476, 47.8632238511]}, "type": "Feature", "properties": {"collection_times": [{"days": "Mon-Fri", "time": "12:30pm"}, {"days": "Sat", "time": "3:00pm"}, {"days": "Sun", "time": "Closed"}], "id": "9808700002", "name": "USPS COLLECTION BOX - BLUE BOX", "address": {"city": "LYNNWOOD", "state": "WA", "street": "14826 HIGHWAY 99", "postcode": "98087"}}},
{"geometry": {"type": "Point", "coordinates": [-122.2791613451, 47.8811638779]}, "type": "Feature", "properties": {"collection_times": [{"days": "Mon-Fri", "time": "12:15pm"}, {"days": "Sat", "time": "3:00pm"}, {"days": "Sun", "time": "Closed"}], "id": "9808700003", "name": "USPS COLLECTION BOX - BLUE BOX", "address": {"city": "LYNNWOOD", "state": "WA", "street": "12926 MUKILTEO SPEEDWAY", "postcode": "98087"}}},
{"geometry": {"type": "Point", "coordinates": [-122.2751604861, 47.8731383997]}, "type": "Feature", "properties": {"collection_times": [{"days": "Mon-Fri", "time": "12:15pm"}, {"days": "Sat", "time": "3:00pm"}, {"days": "Sun", "time": "Closed"}], "id": "9808700004", "name": "USPS COLLECTION BOX - BLUE BOX", "address": {"city": "LYNNWOOD", "state": "WA", "street": "13619 MUKILTEO SPEEDWAY", "postcode": "98087"}}},
{"geometry": {"type": "Point", "coordinates": [-122.2495070684, 47.8496955324]}, "type": "Feature", "properties": {"collection_times": [{"days": "Mon-Fri", "time": "11:45am"}, {"days": "Sat-Sun", "time": "Closed"}], "id": "9808700005", "name": "USPS COLLECTION BOX - BLUE BOX", "address": {"city": "LYNNWOOD", "state": "WA", "street": "1133 164TH ST SW", "postcode": "98087"}}},
{"geometry": {"type": "Point", "coordinates": [-122.1765260747, 47.3222055812]}, "type": "Feature", "properties": {"collection_times": [{"days": "Mon-Sat", "time": "1:30pm"}, {"days": "Sun", "time": "Closed"}], "id": "9809200000", "name": "USPS COLLECTION BOX - BLUE BOX", "address": {"city": "AUBURN", "state": "WA", "street": "31207 124TH AVE SE", "postcode": "98092"}}},
{"geometry": {"type": "Point", "coordinates": [-122.1764579416, 47.3152586367]}, "type": "Feature", "properties": {"collection_times": [{"days": "Mon-Sat", "time": "1:30pm"}, {"days": "Sun", "time": "Closed"}], "id": "9809200003", "name": "USPS COLLECTION BOX - BLUE BOX", "address": {"city": "AUBURN", "state": "WA", "street": "12401 SE 320TH ST", "postcode": "98092"}}}
]}
