{"type": "FeatureCollection", "features": [
{"geometry": {"type": "Point", "coordinates": [-122.3623873788, 47.6343283891]}, "type": "Feature", "properties": {"collection_times": [{"days": "Mon-Fri", "time": "4:15pm"}, {"days": "Sat-Sun", "time": "Closed"}], "id": "9810100003", "name": "USPS COLLECTION BOX - BLUE BOX", "address": {"city": "SEATTLE", "state": "WA", "street": "1624 4TH AVE", "postcode": "98101"}}},
{"geometry": {"type": "Point", "coordinates": [-122.3366608197, 47.6066877128]}, "type": "Feature", "properties": {"collection_times": [{"days": "Mon-Fri", "time": "5:00pm"}, {"days": "Sat-Sun", "time": "Closed"}], "id": "9810100075", "name": "USPS COLLECTION BOX - BLUE BOX", "address": {"city": "SEATTLE", "state": "WA", "street": "1225 2ND AVE", "postcode": "98101"}}},
{"geometry": {"type": "Point", "coordinates": [-122.340017889, 47.6086894309]}, "type": "Feature", "properties": {"collection_times": [{"days": "Mon-Fri", "time": "4:30pm"}, {"days": "Sat-Sun", "time": "Closed"}], "id": "9810100100", "name": "USPS COLLECTION BOX - BLUE BOX", "address": {"city": "SEATTLE", "state": "WA", "street": "1501 1ST AVE", "postcode": "98101"}}},
{"geometry": {"type": "Point", "coordinates": [-122.333375467, 47.6117680543]}, "type": "Feature", "properties": {"collection_times": [{"days": "Mon-Fri", "time": "2:00pm"}, {"days": "Sat-Sun", "time": "Closed"}], "id": "9810100192", "name": "USPS COLLECTION BOX - BLUE BOX", "address": {"city": "SEATTLE", "state": "WA", "street": "1508 7TH AVE", "postcode": "98101"}}},
{"geometry": {"type": "Point", "coordinates": [-122.329231293, 47.60884773]}, "type": "Feature", "properties": {"collection_times": [{"days": "Mon-Fri", "time": "3:30pm"}, {"days": "Sat-Sun", "time": "Closed"}], "id": "9810100202", "name": "USPS COLLECTION BOX - BLUE BOX", "address": {"city": "SEATTLE", "state": "WA", "street": "1120 8TH AVE", "postcode": "98101"}}},
{"geometry": {"type": "Point", "coordinates": [-122.3288634569, 47.613448588]}, "type": "Feature", "properties": {"collection_times": [{"days": "Mon-Fri", "time": "4:00pm"}, {"days": "Sat-Sun", "time": "Closed"}], "id": "9810100662", "name": "USPS COLLECTION BOX - BLUE BOX", "address": {"city": "SEATTLE", "state": "WA", "street": "1101 PIKE ST", "postcode": "98101"}}},
{"geometry": {"type": "Point", "coordinates": [-122.3211731078, 47.610076867]}, "type": "Feature", "properties": {"collection_times": [{"days": "Mon-Fri", "time": "4:45pm"}, {"days": "Sat-Sun", "time": "Closed"}], "id": "9810100665", "name": "USPS COLLECTION BOX - BLUE BOX", "address": {"city": "SEATTLE", "state": "WA", "street": "900 BOYLSTON AVE", "postcode": "98101"}}},
{"geometry": {"type": "Point", "coordinates": [-122.3230442629, 47.6122215547]}, "type": "Feature", "properties": {"collection_times": [{"days": "Mon-Fri", "time": "3:30pm"}, {"days": "Sat-Sun", "time": "Closed"}], "id": "9810100670", "name": "USPS COLLECTION BOX - BLUE BOX", "address": {"city": "SEATTLE", "state": "WA", "street": "1200 BOYLSTON AVE", "postcode": "98101"}}},
{"geometry": {"type": "Point", "coordinates": [-122.3324299897, 47.6178707263]}, "type": "Feature", "properties": {"collection_times": [{"days": "Mon-Fri", "time": "4:00pm"}, {"days": "Sat-Sun", "time": "Closed"}], "id": "9810100874", "name": "USPS COLLECTION BOX - BLUE BOX", "address": {"city": "SEATTLE", "state": "WA", "street": "1933 MINOR AVE", "postcode": "98101"}}},
{"geometry": {"type": "Point", "coordinates": [-122.3423466112, 47.609842724]}, "type": "Feature", "properties": {"collection_times": [{"days": "Mon-Fri", "time": "1:45pm"}, {"days": "Sat-Sun", "time": "Closed"}], "id": "9810100914", "name": "USPS COLLECTION BOX - BLUE BOX", "address": {"city": "SEATTLE", "state": "WA", "street": "1916 PIKE PL", "postcode": "98101"}}},
{"geometry": {"type": "Point", "coordinates": [-122.3260317657, 47.6119885579]}, "type": "Feature", "properties": {"collection_times": [{"days": "Mon-Fri", "time": "3:30pm"}, {"days": "Sat-Sun", "time": "Closed"}], "id": "9810101019", "name": "USPS COLLECTION BOX - BLUE BOX", "address": {"city": "SEATTLE", "state": "WA", "street": "1200 UNIVERSITY ST", "postcode": "98101"}}},
{"geometry": {"type": "Point", "coordinates": [-122.3336270346, 47.6163524197]}, "type": "Feature", "properties": {"collection_times": [{"days": "Mon-Fri", "time": "3:30pm"}, {"days": "Sat-Sun", "time": "Closed"}], "id": "9810101031", "name": "USPS COLLECTION BOX - BLUE BOX", "address": {"city": "SEATTLE", "state": "WA", "street": "1000 STEWART ST", "postcode": "98101"}}},
{"geometry": {"type": "Point", "coordinates": [-122.328196278, 47.6110887003]}, "type": "Feature", "properties": {"collection_times": [{"days": "Mon-Fri", "time": "3:30pm"}, {"days": "Sat-Sun", "time": "Closed"}], "id": "9810101032", "name": "USPS COLLECTION BOX - BLUE BOX", "address": {"city": "SEATTLE", "state": "WA", "street": "1000 UNIVERSITY ST", "postcode": "98101"}}},
{"geometry": {"type": "Point", "coordinates": [-122.3350779466, 47.6101885392]}, "type": "Feature", "properties": {"collection_times": [{"days": "Mon-Fri", "time": "4:00pm"}, {"days": "Sat-Sun", "time": "Closed"}], "id": "9810101081", "name": "USPS COLLECTION BOX - BLUE BOX", "address": {"city": "SEATTLE", "state": "WA", "street": "52 UNIVERSITY ST", "postcode": "98101"}}},
{"geometry": {"type": "Point", "coordinates": [-122.334474379, 47.609491491]}, "type": "Feature", "properties": {"collection_times": [{"days": "Mon-Fri", "time": "4:30pm"}, {"days": "Sat-Sun", "time": "Closed"}], "id": "9810101227", "name": "USPS COLLECTION BOX - BLUE BOX", "address": {"city": "SEATTLE", "state": "WA", "street": "1326 5TH AVE", "postcode": "98101"}}},
{"geometry": {"type": "Point", "coordinates": [-122.3385981042, 47.6123636068]}, "type": "Feature", "properties": {"collection_times": [{"days": "Mon-Fri", "time": "4:15pm"}, {"days": "Sat-Sun", "time": "Closed"}], "id": "9810101234", "name": "USPS COLLECTION BOX - BLUE BOX", "address": {"city": "SEATTLE", "state": "WA", "street": "415 STEWART ST", "postcode": "98101"}}},
{"geometry": {"type": "Point", "coordinates": [-122.3368345097, 47.6086894703]}, "type": "Feature", "properties": {"collection_times": [{"days": "Mon-Fri", "time": "4:30pm"}, {"days": "Sat", "time": "12:00pm"}, {"days": "Sun", "time": "Closed"}], "id": "9810101553", "name": "USPS COLLECTION BOX - PO LOBBY", "address": {"city": "SEATTLE", "state": "WA", "street": "301 UNION ST", "postcode": "98101"}}},
{"geometry": {"type": "Point", "coordinates": [-122.33664, 47.61301]}, "type": "Feature", "properties": {"collection_times": [{"days": "Mon-Fri", "time": "4:30pm"}, {"days": "Sat", "time": "12:00pm"}, {"days": "Sun", "time": "Closed"}], "id": "9810101632", "name": "USPS COLLECTION BOX - BLUE BOX", "address": {"city": "SEATTLE", "state": "WA", "street": "509 OLIVE WAY", "postcode": "98101"}}},
{"geometry": {"type": "Point", "coordinates": [-122.3596795857, 47.6337203482]}, "type": "Feature", "properties": {"collection_times": [{"days": "Mon-Fri", "time": "5:00pm"}, {"days": "Sat", "time": "1:00pm"}, {"days": "Sun", "time": "Closed"}], "id": "9810101634", "name": "USPS COLLECTION BOX - BLUE BOX", "address": {"city": "SEATTLE", "state": "WA", "street": "1601 2ND AVE", "postcode": "98101"}}},
{"geometry": {"type": "Point", "coordinates": [-122.3387042418, 47.6094641799]}, "type": "Feature", "properties": {"collection_times": [{"days": "Mon-Fri", "time": "5:00pm"}, {"days": "Sat-Sun", "time": "Closed"}], "id": "9810101635", "name": "USPS COLLECTION BOX - BLUE BOX", "address": {"city": "SEATTLE", "state": "WA", "street": "222 PIKE ST", "postcode": "98101"}}},
{"geometry": {"type": "Point", "coordinates": [-122.3366082161, 47.608832993]}, "type": "Feature", "properties": {"collection_times": [{"days": "Mon-Fri", "time": "5:30pm"}, {"days": "Sat", "time": "2:00pm"}, {"days": "Sun", "time": "Closed"}], "id": "9810101640", "name": "USPS COLLECTION BOX - BLUE BOX", "address": {"city": "SEATTLE", "state": "WA", "street": "301 UNION ST", "postcode": "98101"}}},
{"geometry": {"type": "Point", "coordinates": [-122.340605907, 47.6077143286]}, "type": "Feature", "properties": {"collection_times": [{"days": "Mon-Fri", "time": "4:30pm"}, {"days": "Sat-Sun", "time": "Closed"}], "id": "9810101651", "name": "USPS COLLECTION BOX - BLUE BOX", "address": {"city": "SEATTLE", "state": "WA", "street": "1435 WESTERN AVE", "postcode": "98101"}}},
{"geometry": {"type": "Point", "coordinates": [-122.3359815704, 47.6093248982]}, "type": "Feature", "properties": {"collection_times": [{"days": "Mon-Fri", "time": "5:00pm"}, {"days": "Sat-Sun", "time": "Closed"}], "id": "9810101653", "name": "USPS COLLECTION BOX - BLUE BOX", "address": {"city": "SEATTLE", "state": "WA", "street": "1411 4TH AVE", "postcode": "98101"}}},
{"geometry": {"type": "Point", "coordinates": [-122.3583120852, 47.6332897512]}, "type": "Feature", "properties": {"collection_times": [{"days": "Mon-Fri", "time": "4:30pm"}, {"days": "Sat-Sun", "time": "Closed"}], "id": "9810101654", "name": "USPS COLLECTION BOX - BLUE BOX", "address": {"city": "SEATTLE", "state": "WA", "street": "1531 1ST AVE", "postcode": "98101"}}},
{"geometry": {"type": "Point", "coordinates": [-122.340023422, 47.61187498]}, "type": "Feature", "properties": {"collection_times": [{"days": "Mon-Fri", "time": "4:45pm"}, {"days": "Sat-Sun", "time": "Closed"}], "id": "9810101688", "name": "USPS COLLECTION BOX - BLUE BOX", "address": {"city": "SEATTLE", "state": "WA", "street": "1904 3RD AVE", "postcode": "98101"}}},
{"geometry": {"type": "Point", "coordinates": [-122.3370344262, 47.6054430177]}, "type": "Feature", "properties": {"collection_times": [{"days": "Mon-Fri", "time": "4:00pm"}, {"days": "Sat-Sun", "time": "Closed"}], "id": "9810101689", "name": "USPS COLLECTION BOX - BLUE BOX", "address": {"city": "SEATTLE", "state": "WA", "street": "1107 1ST AVE", "postcode": "98101"}}},
{"geometry": {"type": "Point", "coordinates": [-122.3368345097, 47.6086894703]}, "type": "Feature", "properties": {"collection_times": [{"days": "Mon-Fri", "time": "4:30pm"}, {"days": "Sat", "time": "12:00pm"}, {"days": "Sun", "time": "Closed"}], "id": "9810101690", "name": "USPS COLLECTION BOX - PO LOBBY", "address": {"city": "SEATTLE", "state": "WA", "street": "301 UNION ST", "postcode": "98101"}}},
{"geometry": {"type": "Point", "coordinates": [-122.3417163535, 47.6105810274]}, "type": "Feature", "properties": {"collection_times": [{"days": "Mon-Fri", "time": "5:00pm"}, {"days": "Sat", "time": "1:00pm"}, {"days": "Sun", "time": "Closed"}], "id": "9810101693", "name": "USPS COLLECTION BOX - BLUE BOX", "address": {"city": "SEATTLE", "state": "WA", "street": "1932 1ST AVE", "postcode": "98101"}}},
{"geometry": {"type": "Point", "coordinates": [-122.3339858102, 47.6126986406]}, "type": "Feature", "properties": {"collection_times": [{"days": "Mon-Fri", "time": "3:00pm"}, {"days": "Sat", "time": "12:00pm"}, {"days": "Sun", "time": "Closed"}], "id": "9810101694", "name": "USPS COLLECTION BOX - BLUE BOX", "address": {"city": "SEATTLE", "state": "WA", "street": "721 PINE ST", "postcode": "98101"}}},
{"geometry": {"type": "Point", "coordinates": [-122.3242065822, 47.609905212]}, "type": "Feature", "properties": {"collection_times": [{"days": "Mon-Fri", "time": "4:00pm"}, {"days": "Sat-Sun", "time": "Closed"}], "id": "9810101695", "name": "USPS COLLECTION BOX - BLUE BOX", "address": {"city": "SEATTLE", "state": "WA", "street": "1017 MINOR AVE", "postcode": "98101"}}},
{"geometry": {"type": "Point", "coordinates": [-122.3631539362, 47.6289553895]}, "type": "Feature", "properties": {"collection_times": [{"days": "Mon-Fri", "time": "4:00pm"}, {"days": "Sat-Sun", "time": "Closed"}], "id": "9810101696", "name": "USPS COLLECTION BOX - BLUE BOX", "address": {"city": "SEATTLE", "state": "WA", "street": "1100 5TH AVE", "postcode": "98101"}}},
{"geometry": {"type": "Point", "coordinates": [-122.3368345097, 47.6086894703]}, "type": "Feature", "properties": {"collection_times": [{"days": "Mon-Fri", "time": "4:30pm"}, {"days": "Sat", "time": "12:00pm"}, {"days": "Sun", "time": "Closed"}], "id": "9810101699", "name": "USPS COLLECTION BOX - APC", "address": {"city": "SEATTLE", "state": "WA", "street": "301 UNION ST", "postcode": "98101"}}},
{"geometry": {"type": "Point", "coordinates": [-122.3238657514, 47.6196849233]}, "type": "Feature", "properties": {"collection_times": [{"days": "Mon-Fri", "time": "1:30pm"}, {"days": "Sat", "time": "11:30am"}, {"days": "Sun", "time": "Closed"}], "id": "9810200655", "name": "USPS COLLECTION BOX - BLUE BOX", "address": {"city": "SEATTLE", "state": "WA", "street": "1661 E OLIVE WAY", "postcode": "98102"}}},
{"geometry": {"type": "Point", "coordinates": [-122.3229754947, 47.6230952821]}, "type": "Feature", "properties": {"collection_times": [{"days": "Mon-Fri", "time": "2:30pm"}, {"days": "Sat", "time": "11:30am"}, {"days": "Sun", "time": "Closed"}], "id": "9810200668", "name": "USPS COLLECTION BOX - BLUE BOX", "address": {"city": "SEATTLE", "state": "WA", "street": "705 E REPUBLICAN ST", "postcode": "98102"}}},
{"geometry": {"type": "Point", "coordinates": [-122.320876421, 47.6503787001]}, "type": "Feature", "properties": {"collection_times": [{"days": "Mon-Sat", "time": "11:30am"}, {"days": "Sun", "time": "Closed"}], "id": "9810200786", "name": "USPS COLLECTION BOX - BLUE BOX", "address": {"city": "SEATTLE", "state": "WA", "street": "3261 FRANKLIN AVE E", "postcode": "98102"}}},
{"geometry": {"type": "Point", "coordinates": [-122.3252462247, 47.6235632827]}, "type": "Feature", "properties": {"collection_times": [{"days": "Mon-Fri", "time": "2:30pm"}, {"days": "Sat", "time": "11:30am"}, {"days": "Sun", "time": "Closed"}], "id": "9810201015", "name": "USPS COLLECTION BOX - BLUE BOX", "address": {"city": "SEATTLE", "state": "WA", "street": "534 SUMMIT AVE E", "postcode": "98102"}}},
{"geometry": {"type": "Point", "coordinates": [-122.3253672821, 47.6355085375]}, "type": "Feature", "properties": {"collection_times": [{"days": "Mon-Fri", "time": "1:30pm"}, {"days": "Sat", "time": "11:30am"}, {"days": "Sun", "time": "Closed"}], "id": "9810201314", "name": "USPS COLLECTION BOX - BLUE BOX", "address": {"city": "SEATTLE", "state": "WA", "street": "1820 EASTLAKE AVE E", "postcode": "98102"}}},
{"geometry": {"type": "Point", "coordinates": [-122.3235604434, 47.6354525805]}, "type": "Feature", "properties": {"collection_times": [{"days": "Mon-Fri", "time": "2:30pm"}, {"days": "Sat", "time": "11:30am"}, {"days": "Sun", "time": "Closed"}], "id": "9810201584", "name": "USPS COLLECTION BOX - BLUE BOX", "address": {"city": "SEATTLE", "state": "WA", "street": "515 E LORETTA PL", "postcode": "98102"}}},
{"geometry": {"type": "Point", "coordinates": [-122.3266620982, 47.6232766627]}, "type": "Feature", "properties": {"collection_times": [{"days": "Mon-Fri", "time": "2:30pm"}, {"days": "Sat", "time": "11:30am"}, {"days": "Sun", "time": "Closed"}], "id": "9810201585", "name": "USPS COLLECTION BOX - BLUE BOX", "address": {"city": "SEATTLE", "state": "WA", "street": "509 BELLEVUE AVE E", "postcode": "98102"}}},
{"geometry": {"type": "Point", "coordinates": [-122.3284177429, 47.6393307387]}, "type": "Feature", "properties": {"collection_times": [{"days": "Mon-Fri", "time": "2:45pm"}, {"days": "Sat", "time": "11:30am"}, {"days": "Sun", "time": "Closed"}], "id": "9810201589", "name": "USPS COLLECTION BOX - BLUE BOX", "address": {"city": "SEATTLE", "state": "WA", "street": "2247 MINOR AVE E", "postcode": "98102"}}},
{"geometry": {"type": "Point", "coordinates": [-122.3199863575, 47.6413627465]}, "type": "Feature", "properties": {"collection_times": [{"days": "Mon-Sat", "time": "11:30am"}, {"days": "Sun", "time": "Closed"}], "id": "9810201590", "name": "USPS COLLECTION BOX - BLUE BOX", "address": {"city": "SEATTLE", "state": "WA", "street": "2400 10TH AVE E", "postcode": "98102"}}},
{"geometry": {"type": "Point", "coordinates": [-122.3258154222, 47.6405564157]}, "type": "Feature", "properties": {"collection_times": [{"days": "Mon-Fri", "time": "1:30pm"}, {"days": "Sat", "time": "11:30am"}, {"days": "Sun", "time": "Closed"}], "id": "9810201592", "name": "USPS COLLECTION BOX - BLUE BOX", "address": {"city": "SEATTLE", "state": "WA", "street": "2370 EASTLAKE AVE E", "postcode": "98102"}}},
{"geometry": {"type": "Point", "coordinates": [-122.3208692601, 47.6203704585]}, "type": "Feature", "properties": {"collection_times": [{"days": "Mon-Fri", "time": "5:30pm"}, {"days": "Sat", "time": "3:00pm"}, {"days": "Sun", "time": "Closed"}], "id": "9810201595", "name": "USPS COLLECTION BOX - PO LOBBY", "address": {"city": "SEATTLE", "state": "WA", "street": "212 BROADWAY E", "postcode": "98102"}}},
{"geometry": {"type": "Point", "coordinates": [-122.325861779, 47.6271928541]}, "type": "Feature", "properties": {"collection_times": [{"days": "Mon-Fri", "time": "12:30pm"}, {"days": "Sat", "time": "10:00am"}, {"days": "Sun", "time": "Closed"}], "id": "9810201596", "name": "USPS COLLECTION BOX - BLUE BOX", "address": {"city": "SEATTLE", "state": "WA", "street": "903 BELLEVUE PL E", "postcode": "98102"}}},
{"geometry": {"type": "Point", "coordinates": [-122.3445696509, 47.6846242554]}, "type": "Feature", "properties": {"collection_times": [{"days": "Mon-Fri", "time": "12:30pm"}, {"days": "Sat", "time": "3:30pm"}, {"days": "Sun", "time": "Closed"}], "id": "9810300612", "name": "USPS COLLECTION BOX - BLUE BOX", "address": {"city": "SEATTLE", "state": "WA", "street": "7621 AURORA AVE N", "postcode": "98103"}}},
{"geometry": {"type": "Point", "coordinates": [-122.3348888518, 47.6996793007]}, "type": "Feature", "properties": {"collection_times": [{"days": "Mon-Fri", "time": "1:45pm"}, {"days": "Sat", "time": "3:45pm"}, {"days": "Sun", "time": "Closed"}], "id": "9810300708", "name": "USPS COLLECTION BOX - BLUE BOX", "address": {"city": "SEATTLE", "state": "WA", "street": "9600 COLLEGE WAY N", "postcode": "98103"}}},
{"geometry": {"type": "Point", "coordinates": [-122.3497294924, 47.6505476541]}, "type": "Feature", "properties": {"collection_times": [{"days": "Mon-Fri", "time": "3:15pm"}, {"days": "Sat", "time": "1:30pm"}, {"days": "Sun", "time": "Closed"}], "id": "9810300781", "name": "USPS COLLECTION BOX - BLUE BOX", "address": {"city": "SEATTLE", "state": "WA", "street": "702 N 35TH ST", "postcode": "98103"}}},
{"geometry": {"type": "Point", "coordinates": [-122.3498371068, 47.6977904878]}, "type": "Feature", "properties": {"collection_times": [{"days": "Mon-Fri", "time": "12:00pm"}, {"days": "Sat", "time": "3:15pm"}, {"days": "Sun", "time": "Closed"}], "id": "9810300784", "name": "USPS COLLECTION BOX - BLUE BOX", "address": {"city": "SEATTLE", "state": "WA", "street": "705 N 95TH ST", "postcode": "98103"}}},
{"geometry": {"type": "Point", "coordinates": [-122.3743328984, 47.68688489]}, "type": "Feature", "properties": {"collection_times": [{"days": "Mon-Fri", "time": "1:00pm"}, {"days": "Sat", "time": "4:00pm"}, {"days": "Sun", "time": "Closed"}], "id": "9810300790", "name": "USPS COLLECTION BOX - BLUE BOX", "address": {"city": "SEATTLE", "state": "WA", "street": "1400 N 80TH ST", "postcode": "98103"}}},
{"geometry": {"type": "Point", "coordinates": [-122.3554331725, 47.6523821565]}, "type": "Feature", "properties": {"collection_times": [{"days": "Mon-Fri", "time": "2:30pm"}, {"days": "Sat", "time": "2:00pm"}, {"days": "Sun", "time": "Closed"}], "id": "9810300791", "name": "USPS COLLECTION BOX - BLUE BOX", "address": {"city": "SEATTLE", "state": "WA", "street": "315 N 36TH ST", "postcode": "98103"}}},
{"geometry": {"type": "Point", "coordinates": [-122.3552181238, 47.6812285613]}, "type": "Feature", "properties": {"collection_times": [{"days": "Mon-Fri", "time": "12:00pm"}, {"days": "Sat", "time": "3:00pm"}, {"days": "Sun", "time": "Closed"}], "id": "9810300794", "name": "USPS COLLECTION BOX - BLUE BOX", "address": {"city": "SEATTLE", "state": "WA", "street": "7220 GREENWOOD AVE N", "postcode": "98103"}}},
{"geometry": {"type": "Point", "coordinates": [-122.3552454281, 47.6927565432]}, "type": "Feature", "properties": {"collection_times": [{"days": "Mon-Fri", "time": "4:00pm"}, {"days": "Sat", "time": "3:00pm"}, {"days": "Sun", "time": "Closed"}], "id": "9810300798", "name": "USPS COLLECTION BOX - BLUE BOX", "address": {"city": "SEATTLE", "state": "WA", "street": "8750 GREENWOOD AVE N", "postcode": "98103"}}},
{"geometry": {"type": "Point", "coordinates": [-122.3472821758, 47.6789484183]}, "type": "Feature", "properties": {"collection_times": [{"days": "Mon-Fri", "time": "12:45pm"}, {"days": "Sat", "time": "3:30pm"}, {"days": "Sun", "time": "Closed"}], "id": "9810300843", "name": "USPS COLLECTION BOX - BLUE BOX", "address": {"city": "SEATTLE", "state": "WA", "street": "6809 LINDEN AVE N", "postcode": "98103"}}},
{"geometry": {"type": "Point", "coordinates": [-122.3499886209, 47.6605389529]}, "type": "Feature", "properties": {"collection_times": [{"days": "Mon-Fri", "time": "3:30pm"}, {"days": "Sat", "time": "1:30pm"}, {"days": "Sun", "time": "Closed"}], "id": "9810300844", "name": "USPS COLLECTION BOX - BLUE BOX", "address": {"city": "SEATTLE", "state": "WA", "street": "4416 FREMONT AVE N", "postcode": "98103"}}},
{"geometry": {"type": "Point", "coordinates": [-122.3351574444, 47.6468745792]}, "type": "Feature", "properties": {"collection_times": [{"days": "Mon-Fri", "time": "3:30pm"}, {"days": "Sat", "time": "2:15pm"}, {"days": "Sun", "time": "Closed"}], "id": "9810300892", "name": "USPS COLLECTION BOX - BLUE BOX", "address": {"city": "SEATTLE", "state": "WA", "street": "1900 N NORTHLAKE WAY", "postcode": "98103"}}},
{"geometry": {"type": "Point", "coordinates": [-122.3543986659, 47.658973113]}, "type": "Feature", "properties": {"collection_times": [{"days": "Mon-Fri", "time": "2:30pm"}, {"days": "Sat", "time": "1:30pm"}, {"days": "Sun", "time": "Closed"}], "id": "9810300903", "name": "USPS COLLECTION BOX - BLUE BOX", "address": {"city": "SEATTLE", "state": "WA", "street": "400 N 43RD ST", "postcode": "98103"}}},
{"geometry": {"type": "Point", "coordinates": [-122.354348323, 47.6684537994]}, "type": "Feature", "properties": {"collection_times": [{"days": "Mon-Fri", "time": "3:45pm"}, {"days": "Sat", "time": "2:45pm"}, {"days": "Sun", "time": "Closed"}], "id": "9810300906", "name": "USPS COLLECTION BOX - BLUE BOX", "address": {"city": "SEATTLE", "state": "WA", "street": "5500 PHINNEY AVE N", "postcode": "98103"}}},
{"geometry": {"type": "Point", "coordinates": [-122.3542995305, 47.671876776]}, "type": "Feature", "properties": {"collection_times": [{"days": "Mon-Fri", "time": "3:45pm"}, {"days": "Sat", "time": "3:00pm"}, {"days": "Sun", "time": "Closed"}], "id": "9810300907", "name": "USPS COLLECTION BOX - BLUE BOX", "address": {"city": "SEATTLE", "state": "WA", "street": "5918 PHINNEY AVE N", "postcode": "98103"}}},
{"geometry": {"type": "Point", "coordinates": [-122.3542723504, 47.6753839489]}, "type": "Feature", "properties": {"collection_times": [{"days": "Mon-Fri", "time": "3:45pm"}, {"days": "Sat", "time": "3:00pm"}, {"days": "Sun", "time": "Closed"}], "id": "9810300908", "name": "USPS COLLECTION BOX - BLUE BOX", "address": {"city": "SEATTLE", "state": "WA", "street": "6416 PHINNEY AVE N", "postcode": "98103"}}},
{"geometry": {"type": "Point", "coordinates": [-122.3418273335, 47.6985712776]}, "type": "Feature", "properties": {"collection_times": [{"days": "Mon-Fri", "time": "4:15pm"}, {"days": "Sat", "time": "3:45pm"}, {"days": "Sun", "time": "Closed"}], "id": "9810301004", "name": "USPS COLLECTION BOX - BLUE BOX", "address": {"city": "SEATTLE", "state": "WA", "street": "9600 STONE AVE N", "postcode": "98103"}}},
{"geometry": {"type": "Point", "coordinates": [-122.3435985024, 47.6714965668]}, "type": "Feature", "properties": {"collection_times": [{"days": "Mon-Fri", "time": "3:00pm"}, {"days": "Sat", "time": "1:30pm"}, {"days": "Sun", "time": "Closed"}], "id": "9810301007", "name": "USPS COLLECTION BOX - BLUE BOX", "address": {"city": "SEATTLE", "state": "WA", "street": "3601 STONE WAY N", "postcode": "98103"}}},
{"geometry": {"type": "Point", "coordinates": [-122.3302298223, 47.6554087179]}, "type": "Feature", "properties": {"collection_times": [{"days": "Mon-Sat", "time": "2:30pm"}, {"days": "Sun", "time": "Closed"}], "id": "9810301020", "name": "USPS COLLECTION BOX - BLUE BOX", "address": {"city": "SEATTLE", "state": "WA", "street": "3935 SUNNYSIDE AVE N", "postcode": "98103"}}},
{"geometry": {"type": "Point", "coordinates": [-122.3300266141, 47.6626670931]}, "type": "Feature", "properties": {"collection_times": [{"days": "Mon-Fri", "time": "2:00pm"}, {"days": "Sat", "time": "3:00pm"}, {"days": "Sun", "time": "Closed"}], "id": "9810301021", "name": "USPS COLLECTION BOX - BLUE BOX", "address": {"city": "SEATTLE", "state": "WA", "street": "2410 N 46TH ST", "postcode": "98103"}}},
{"geometry": {"type": "Point", "coordinates": [-122.336389362, 47.6511531338]}, "type": "Feature", "properties": {"collection_times": [{"days": "Mon-Sat", "time": "2:30pm"}, {"days": "Sun", "time": "Closed"}], "id": "9810301062", "name": "USPS COLLECTION BOX - BLUE BOX", "address": {"city": "SEATTLE", "state": "WA", "street": "3645 WALLINGFORD AVE N", "postcode": "98103"}}},
{"geometry": {"type": "Point", "coordinates": [-122.3361891809, 47.6556809365]}, "type": "Feature", "properties": {"collection_times": [{"days": "Mon-Sat", "time": "2:30pm"}, {"days": "Sun", "time": "Closed"}], "id": "9810301063", "name": "USPS COLLECTION BOX - BLUE BOX", "address": {"city": "SEATTLE", "state": "WA", "street": "4002 WALLINGFORD AVE N", "postcode": "98103"}}},
{"geometry": {"type": "Point", "coordinates": [-122.3364202465, 47.6884925313]}, "type": "Feature", "properties": {"collection_times": [{"days": "Mon-Fri", "time": "1:45pm"}, {"days": "Sat", "time": "4:00pm"}, {"days": "Sun", "time": "Closed"}], "id": "9810301067", "name": "USPS COLLECTION BOX - BLUE BOX", "address": {"city": "SEATTLE", "state": "WA", "street": "8055 WALLINGFORD AVE N", "postcode": "98103"}}},
{"geometry": {"type": "Point", "coordinates": [-122.3459537128, 47.6555329286]}, "type": "Feature", "properties": {"collection_times": [{"days": "Mon-Fri", "time": "2:30pm"}, {"days": "Sat", "time": "1:30pm"}, {"days": "Sun", "time": "Closed"}], "id": "9810301097", "name": "USPS COLLECTION BOX - BLUE BOX", "address": {"city": "SEATTLE", "state": "WA", "street": "4001 WHITMAN AVE N", "postcode": "98103"}}},
{"geometry": {"type": "Point", "coordinates": [-122.3542803989, 47.6739984967]}, "type": "Feature", "properties": {"collection_times": [{"days": "Mon-Fri", "time": "3:45pm"}, {"days": "Sat", "time": "3:00pm"}, {"days": "Sun", "time": "Closed"}], "id": "9810301398", "name": "USPS COLLECTION BOX - BLUE BOX", "address": {"city": "SEATTLE", "state": "WA", "street": "6212 PHINNEY AVE N", "postcode": "98103"}}},
{"geometry": {"type": "Point", "coordinates": [-122.3373567365, 47.6620583198]}, "type": "Feature", "properties": {"collection_times": [{"days": "Mon-Fri", "time": "2:00pm"}, {"days": "Sat", "time": "4:00pm"}, {"days": "Sun", "time": "Closed"}], "id": "9810301523", "name": "USPS COLLECTION BOX - BLUE BOX", "address": {"city": "SEATTLE", "state": "WA", "street": "1723 N 46TH ST", "postcode": "98103"}}},
{"geometry": {"type": "Point", "coordinates": [-122.35522664, 47.6891841571]}, "type": "Feature", "properties": {"collection_times": [{"days": "Mon-Fri", "time": "5:00pm"}, {"days": "Sat", "time": "3:00pm"}, {"days": "Sun", "time": "Closed"}], "id": "9810301528", "name": "USPS COLLECTION BOX - BLUE BOX", "address": {"city": "SEATTLE", "state": "WA", "street": "8306 GREENWOOD AVE N", "postcode": "98103"}}},
{"geometry": {"type": "Point", "coordinates": [-122.3416909976, 47.6629105096]}, "type": "Feature", "properties": {"collection_times": [{"days": "Mon-Fri", "time": "6:00pm"}, {"days": "Sat", "time": "4:00pm"}, {"days": "Sun", "time": "Closed"}], "id": "9810301531", "name": "USPS COLLECTION BOX - BLUE BOX", "address": {"city": "SEATTLE", "state": "WA", "street": "1330 N 47TH ST", "postcode": "98103"}}},
{"geometry": {"type": "Point", "coordinates": [-122.341706382, 47.662800864]}, "type": "Feature", "properties": {"collection_times": [{"days": "Mon-Fri", "time": "6:00pm"}, {"days": "Sat", "time": "4:00pm"}, {"days": "Sun", "time": "Closed"}], "id": "9810301534", "name": "USPS COLLECTION BOX - BLUE BOX", "address": {"city": "SEATTLE", "state": "WA", "street": "1329 N 47TH ST", "postcode": "98103"}}},
{"geometry": {"type": "Point", "coordinates": [-122.341706382, 47.662800864]}, "type": "Feature", "properties": {"collection_times": [{"days": "Mon-Fri", "time": "6:00pm"}, {"days": "Sat", "time": "4:00pm"}, {"days": "Sun", "time": "Closed"}], "id": "9810301536", "name": "USPS COLLECTION BOX - PO LOBBY", "address": {"city": "SEATTLE", "state": "WA", "street": "1329 N 47TH ST", "postcode": "98103"}}},
{"geometry": {"type": "Point", "coordinates": [-122.33646, 47.68552]}, "type": "Feature", "properties": {"collection_times": [{"days": "Mon-Fri", "time": "1:00pm"}, {"days": "Sat", "time": "4:00pm"}, {"days": "Sun", "time": "Closed"}], "id": "9810301537", "name": "USPS COLLECTION BOX - BLUE BOX", "address": {"city": "SEATTLE", "state": "WA", "street": "7850 E GREEN LAKE DR N", "postcode": "98103"}}},
{"geometry": {"type": "Point", "coordinates": [-122.3294669517, 47.6693158474]}, "type": "Feature", "properties": {"collection_times": [{"days": "Mon-Sat", "time": "4:00pm"}, {"days": "Sun", "time": "Closed"}], "id": "9810301540", "name": "USPS COLLECTION BOX - BLUE BOX", "address": {"city": "SEATTLE", "state": "WA", "street": "2345 N 56TH ST", "postcode": "98103"}}},
{"geometry": {"type": "Point", "coordinates": [-122.35522664, 47.6891841571]}, "type": "Feature", "properties": {"collection_times": [{"days": "Mon-Fri", "time": "5:00pm"}, {"days": "Sat-Sun", "time": "Closed"}], "id": "9810301541", "name": "USPS COLLECTION BOX - PO LOBBY", "address": {"city": "SEATTLE", "state": "WA", "street": "8306 GREENWOOD AVE N", "postcode": "98103"}}},
{"geometry": {"type": "Point", "coordinates": [-122.334171825, 47.6686705149]}, "type": "Feature", "properties": {"collection_times": [{"days": "Mon-Sat", "time": "4:00pm"}, {"days": "Sun", "time": "Closed"}], "id": "9810301545", "name": "USPS COLLECTION BOX - BLUE BOX", "address": {"city": "SEATTLE", "state": "WA", "street": "2211 N 55TH ST", "postcode": "98103"}}},
{"geometry": {"type": "Point", "coordinates": [-122.3427116518, 47.651301251]}, "type": "Feature", "properties": {"collection_times": [{"days": "Mon-Fri", "time": "3:00pm"}, {"days": "Sat", "time": "1:30pm"}, {"days": "Sun", "time": "Closed"}], "id": "9810301546", "name": "USPS COLLECTION BOX - BLUE BOX", "address": {"city": "SEATTLE", "state": "WA", "street": "3665 STONE WAY N", "postcode": "98103"}}},
{"geometry": {"type": "Point", "coordinates": [-122.341706382, 47.662800864]}, "type": "Feature", "properties": {"collection_times": [{"days": "Mon-Fri", "time": "6:00pm"}, {"days": "Sat", "time": "4:00pm"}, {"days": "Sun", "time": "Closed"}], "id": "9810301548", "name": "USPS COLLECTION BOX - APC", "address": {"city": "SEATTLE", "state": "WA", "street": "1329 N 47TH ST", "postcode": "98103"}}},
{"geometry": {"type": "Point", "coordinates": [-122.3289170195, 47.5999880179]}, "type": "Feature", "properties": {"collection_times": [{"days": "Mon-Fri", "time": "2:30pm"}, {"days": "Sat", "time": "8:30am"}, {"days": "Sun", "time": "Closed"}], "id": "9810400022", "name": "USPS COLLECTION BOX - BLUE BOX", "address": {"city": "SEATTLE", "state": "WA", "street": "306 4TH AVE S", "postcode": "98104"}}},
{"geometry": {"type": "Point", "coordinates": [-122.3290622882, 47.601595208]}, "type": "Feature", "properties": {"collection_times": [{"days": "Mon-Fri", "time": "3:45pm"}, {"days": "Sat-Sun", "time": "Closed"}], "id": "9810400027", "name": "USPS COLLECTION BOX - BLUE BOX", "address": {"city": "SEATTLE", "state": "WA", "street": "111 4TH AVE S", "postcode": "98104"}}},
{"geometry": {"type": "Point", "coordinates": [-122.3316732125, 47.6007507206]}, "type": "Feature", "properties": {"collection_times": [{"days": "Mon-Fri", "time": "3:45pm"}, {"days": "Sat-Sun", "time": "Closed"}], "id": "9810400084", "name": "USPS COLLECTION BOX - BLUE BOX", "address": {"city": "SEATTLE", "state": "WA", "street": "215 2ND AVE S", "postcode": "98104"}}},
{"geometry": {"type": "Point", "coordinates": [-122.3243180176, 47.5984201613]}, "type": "Feature", "properties": {"collection_times": [{"days": "Mon-Fri", "time": "4:30pm"}, {"days": "Sat-Sun", "time": "Closed"}], "id": "9810400195", "name": "USPS COLLECTION BOX - BLUE BOX", "address": {"city": "SEATTLE", "state": "WA", "street": "676 S KING ST", "postcode": "98104"}}},
{"geometry": {"type": "Point", "coordinates": [-122.326397891, 47.6057788702]}, "type": "Feature", "properties": {"collection_times": [{"days": "Mon-Fri", "time": "12:00pm"}, {"days": "Sat-Sun", "time": "Closed"}], "id": "9810400199", "name": "USPS COLLECTION BOX - BLUE BOX", "address": {"city": "SEATTLE", "state": "WA", "street": "805 CHERRY ST", "postcode": "98104"}}},
{"geometry": {"type": "Point", "coordinates": [-122.3230318883, 47.6035773014]}, "type": "Feature", "properties": {"collection_times": [{"days": "Mon-Fri", "time": "1:00pm"}, {"days": "Sat-Sun", "time": "Closed"}], "id": "9810400228", "name": "USPS COLLECTION BOX - BLUE BOX", "address": {"city": "SEATTLE", "state": "WA", "street": "325 9TH AVE", "postcode": "98104"}}},
{"geometry": {"type": "Point", "coordinates": [-122.3254759194, 47.6081859189]}, "type": "Feature", "properties": {"collection_times": [{"days": "Mon-Fri", "time": "4:30pm"}, {"days": "Sat-Sun", "time": "Closed"}], "id": "9810401029", "name": "USPS COLLECTION BOX - BLUE BOX", "address": {"city": "SEATTLE", "state": "WA", "street": "900 TERRY AVE", "postcode": "98104"}}},
{"geometry": {"type": "Point", "coordinates": [-122.3256352961, 47.5975841856]}, "type": "Feature", "properties": {"collection_times": [{"days": "Mon-Fri", "time": "2:00pm"}, {"days": "Sat", "time": "11:45am"}, {"days": "Sun", "time": "Closed"}], "id": "9810401073", "name": "USPS COLLECTION BOX - BLUE BOX", "address": {"city": "SEATTLE", "state": "WA", "street": "628 S WELLER ST", "postcode": "98104"}}},
{"geometry": {"type": "Point", "coordinates": [-122.3368919502, 47.6036079041]}, "type": "Feature", "properties": {"collection_times": [{"days": "Mon-Fri", "time": "4:30pm"}, {"days": "Sat-Sun", "time": "Closed"}], "id": "9810401076", "name": "USPS COLLECTION BOX - BLUE BOX", "address": {"city": "SEATTLE", "state": "WA", "street": "915 WESTERN AVE", "postcode": "98104"}}},
{"geometry": {"type": "Point", "coordinates": [-122.3358046948, 47.6029181839]}, "type": "Feature", "properties": {"collection_times": [{"days": "Mon-Fri", "time": "4:30pm"}, {"days": "Sat-Sun", "time": "Closed"}], "id": "9810401079", "name": "USPS COLLECTION BOX - BLUE BOX", "address": {"city": "SEATTLE", "state": "WA", "street": "79 COLUMBIA ST", "postcode": "98104"}}},
{"geometry": {"type": "Point", "coordinates": [-122.3325785513, 47.6024796632]}, "type": "Feature", "properties": {"collection_times": [{"days": "Mon-Fri", "time": "4:45pm"}, {"days": "Sat-Sun", "time": "Closed"}], "id": "9810401121", "name": "USPS COLLECTION BOX - BLUE BOX", "address": {"city": "SEATTLE", "state": "WA", "street": "618 2ND AVE", "postcode": "98104"}}},
{"geometry": {"type": "Point", "coordinates": [-122.332732246, 47.6024401036]}, "type": "Feature", "properties": {"collection_times": [{"days": "Mon-Fri", "time": "4:45pm"}, {"days": "Sat-Sun", "time": "Closed"}], "id": "9810401450", "name": "USPS COLLECTION BOX - BLUE BOX", "address": {"city": "SEATTLE", "state": "WA", "street": "621 2ND AVE", "postcode": "98104"}}},
{"geometry": {"type": "Point", "coordinates": [-122.3330245275, 47.6060860976]}, "type": "Feature", "properties": {"collection_times": [{"days": "Mon-Fri", "time": "5:00pm"}, {"days": "Sat-Sun", "time": "Closed"}], "id": "9810401572", "name": "USPS COLLECTION BOX - PO LOBBY", "address": {"city": "SEATTLE", "state": "WA", "street": "1001 4TH AVE", "postcode": "98104"}}},
{"geometry": {"type": "Point", "coordinates": [-122.3262746903, 47.6089490913]}, "type": "Feature", "properties": {"collection_times": [{"days": "Mon-Fri", "time": "4:30pm"}, {"days": "Sat", "time": "11:30am"}, {"days": "Sun", "time": "Closed"}], "id": "9810401589", "name": "USPS COLLECTION BOX - BLUE BOX", "address": {"city": "SEATTLE", "state": "WA", "street": "1000 MADISON ST", "postcode": "98104"}}},
{"geometry": {"type": "Point", "coordinates": [-122.3345227747, 47.604587484]}, "type": "Feature", "properties": {"collection_times": [{"days": "Mon-Fri", "time": "3:45pm"}, {"days": "Sat-Sun", "time": "Closed"}], "id": "9810401595", "name": "USPS COLLECTION BOX - BLUE BOX", "address": {"city": "SEATTLE", "state": "WA", "street": "914 2ND AVE", "postcode": "98104"}}},
{"geometry": {"type": "Point", "coordinates": [-122.3278721754, 47.6022291803]}, "type": "Feature", "properties": {"collection_times": [{"days": "Mon-Fri", "time": "4:30pm"}, {"days": "Sat-Sun", "time": "Closed"}], "id": "9810401597", "name": "USPS COLLECTION BOX - BLUE BOX", "address": {"city": "SEATTLE", "state": "WA", "street": "499 TERRACE ST", "postcode": "98104"}}},
{"geometry": {"type": "Point", "coordinates": [-122.3250900069, 47.5988588416]}, "type": "Feature", "properties": {"collection_times": [{"days": "Mon-Fri", "time": "5:00pm"}, {"days": "Sat", "time": "4:00pm"}, {"days": "Sun", "time": "Closed"}], "id": "9810401610", "name": "USPS COLLECTION BOX - BLUE BOX", "address": {"city": "SEATTLE", "state": "WA", "street": "409 MAYNARD AVE S STE 109", "postcode": "98104"}}},
{"geometry": {"type": "Point", "coordinates": [-122.3344987332, 47.5982522143]}, "type": "Feature", "properties": {"collection_times": [{"days": "Mon-Fri", "time": "4:30pm"}, {"days": "Sat-Sun", "time": "Closed"}], "id": "9810401615", "name": "USPS COLLECTION BOX - BLUE BOX", "address": {"city": "SEATTLE", "state": "WA", "street": "83 S KING ST", "postcode": "98104"}}},
{"geometry": {"type": "Point", "coordinates": [-122.3356737153, 47.6040371955]}, "type": "Feature", "properties": {"collection_times": [{"days": "Mon-Fri", "time": "4:30pm"}, {"days": "Sat", "time": "11:30am"}, {"days": "Sun", "time": "Closed"}], "id": "9810401620", "name": "USPS COLLECTION BOX - BLUE BOX", "address": {"city": "SEATTLE", "state": "WA", "street": "909 1ST AVE", "postcode": "98104"}}},
{"geometry": {"type": "Point", "coordinates": [-122.3330349614, 47.6046009679]}, "type": "Feature", "properties": {"collection_times": [{"days": "Mon-Fri", "time": "4:00pm"}, {"days": "Sat-Sun", "time": "Closed"}], "id": "9810401643", "name": "USPS COLLECTION BOX - BLUE BOX", "address": {"city": "SEATTLE", "state": "WA", "street": "810 3RD AVE", "postcode": "98104"}}},
{"geometry": {"type": "Point", "coordinates": [-122.3316706832, 47.5991118653]}, "type": "Feature", "properties": {"collection_times": [{"days": "Mon-Fri", "time": "3:45pm"}, {"days": "Sat-Sun", "time": "Closed"}], "id": "9810401656", "name": "USPS COLLECTION BOX - BLUE BOX", "address": {"city": "SEATTLE", "state": "WA", "street": "401 2ND AVE S", "postcode": "98104"}}},
{"geometry": {"type": "Point", "coordinates": [-122.3328668961, 47.5991534074]}, "type": "Feature", "properties": {"collection_times": [{"days": "Mon-Fri", "time": "3:45pm"}, {"days": "Sat-Sun", "time": "Closed"}], "id": "9810401659", "name": "USPS COLLECTION BOX - BLUE BOX", "address": {"city": "SEATTLE", "state": "WA", "street": "151 S JACKSON ST", "postcode": "98104"}}},
{"geometry": {"type": "Point", "coordinates": [-122.3342202957, 47.6002500802]}, "type": "Feature", "properties": {"collection_times": [{"days": "Mon-Fri", "time": "5:00pm"}, {"days": "Sat-Sun", "time": "Closed"}], "id": "9810401671", "name": "USPS COLLECTION BOX - BLUE BOX", "address": {"city": "SEATTLE", "state": "WA", "street": "217 1ST AVE S", "postcode": "98104"}}},
{"geometry": {"type": "Point", "coordinates": [-122.33103726, 47.602412121]}, "type": "Feature", "properties": {"collection_times": [{"days": "Mon-Fri", "time": "3:30pm"}, {"days": "Sat-Sun", "time": "Closed"}], "id": "9810401676", "name": "USPS COLLECTION BOX - BLUE BOX", "address": {"city": "SEATTLE", "state": "WA", "street": "516 3RD AVE", "postcode": "98104"}}},
{"geometry": {"type": "Point", "coordinates": [-122.3315823901, 47.6047482085]}, "type": "Feature", "properties": {"collection_times": [{"days": "Mon-Fri", "time": "4:00pm"}, {"days": "Sat-Sun", "time": "Closed"}], "id": "9810401694", "name": "USPS COLLECTION BOX - BLUE BOX", "address": {"city": "SEATTLE", "state": "WA", "street": "802 4TH AVE", "postcode": "98104"}}},
{"geometry": {"type": "Point", "coordinates": [-122.3214040967, 47.6051455079]}, "type": "Feature", "properties": {"collection_times": [{"days": "Mon-Fri", "time": "12:00pm"}, {"days": "Sat-Sun", "time": "Closed"}], "id": "9810401699", "name": "USPS COLLECTION BOX - BLUE BOX", "address": {"city": "SEATTLE", "state": "WA", "street": "415 BOREN AVE", "postcode": "98104"}}},
{"geometry": {"type": "Point", "coordinates": [-122.3303600656, 47.600877922]}, "type": "Feature", "properties": {"collection_times": [{"days": "Mon-Fri", "time": "3:45pm"}, {"days": "Sat-Sun", "time": "Closed"}], "id": "9810401700", "name": "USPS COLLECTION BOX - BLUE BOX", "address": {"city": "SEATTLE", "state": "WA", "street": "201 3RD AVE S", "postcode": "98104"}}},
{"geometry": {"type": "Point", "coordinates": [-122.3342103178, 47.6013892523]}, "type": "Feature", "properties": {"collection_times": [{"days": "Mon-Fri", "time": "4:00pm"}, {"days": "Sat-Sun", "time": "Closed"}], "id": "9810401701", "name": "USPS COLLECTION BOX - BLUE BOX", "address": {"city": "SEATTLE", "state": "WA", "street": "101 1ST AVE S", "postcode": "98104"}}},
{"geometry": {"type": "Point", "coordinates": [-122.3277697041, 47.5982926007]}, "type": "Feature", "properties": {"collection_times": [{"days": "Mon-Fri", "time": "4:00pm"}, {"days": "Sat-Sun", "time": "Closed"}], "id": "9810401704", "name": "USPS COLLECTION BOX - BLUE BOX", "address": {"city": "SEATTLE", "state": "WA", "street": "505 5TH AVE S", "postcode": "98104"}}},
{"geometry": {"type": "Point", "coordinates": [-122.3287168585, 47.603306097]}, "type": "Feature", "properties": {"collection_times": [{"days": "Mon-Fri", "time": "2:00pm"}, {"days": "Sat", "time": "12:30pm"}, {"days": "Sun", "time": "Closed"}], "id": "9810401705", "name": "USPS COLLECTION BOX - BLUE BOX", "address": {"city": "SEATTLE", "state": "WA", "street": "502 S WELLER ST", "postcode": "98104"}}},
{"geometry": {"type": "Point", "coordinates": [-122.3208779482, 47.6063863617]}, "type": "Feature", "properties": {"collection_times": [{"days": "Mon-Fri", "time": "4:15pm"}, {"days": "Sat-Sun", "time": "Closed"}], "id": "9810401706", "name": "USPS COLLECTION BOX - BLUE BOX", "address": {"city": "SEATTLE", "state": "WA", "street": "515 MINOR AVE", "postcode": "98104"}}},
{"geometry": {"type": "Point", "coordinates": [-122.3298020914, 47.604426886]}, "type": "Feature", "properties": {"collection_times": [{"days": "Mon-Fri", "time": "3:30pm"}, {"days": "Sat-Sun", "time": "Closed"}], "id": "9810401709", "name": "USPS COLLECTION BOX - BLUE BOX", "address": {"city": "SEATTLE", "state": "WA", "street": "700 5TH AVE", "postcode": "98104"}}},
{"geometry": {"type": "Point", "coordinates": [-122.3287298936, 47.6032973605]}, "type": "Feature", "properties": {"collection_times": [{"days": "Mon-Fri", "time": "3:00pm"}, {"days": "Sat-Sun", "time": "Closed"}], "id": "9810401710", "name": "USPS COLLECTION BOX - BLUE BOX", "address": {"city": "SEATTLE", "state": "WA", "street": "300 5TH AVE", "postcode": "98104"}}},
{"geometry": {"type": "Point", "coordinates": [-122.3250900069, 47.5988588416]}, "type": "Feature", "properties": {"collection_times": [{"days": "Mon-Fri", "time": "5:00pm"}, {"days": "Sat-Sun", "time": "Closed"}], "id": "9810401711", "name": "USPS COLLECTION BOX - PO LOBBY", "address": {"city": "SEATTLE", "state": "WA", "street": "409 MAYNARD AVE S STE 109", "postcode": "98104"}}},
{"geometry": {"type": "Point", "coordinates": [-122.3248251392, 47.6614389528]}, "type": "Feature", "properties": {"collection_times": [{"days": "Mon-Fri", "time": "11:30am"}, {"days": "Sat", "time": "11:15am"}, {"days": "Sun", "time": "Closed"}], "id": "9810500015", "name": "USPS COLLECTION BOX - BLUE BOX", "address": {"city": "SEATTLE", "state": "WA", "street": "324 NE 45TH ST", "postcode": "98105"}}},
{"geometry": {"type": "Point", "coordinates": [-122.3285693496, 47.6650542096]}, "type": "Feature", "properties": {"collection_times": [{"days": "Mon-Fri", "time": "11:30am"}, {"days": "Sat", "time": "11:15am"}, {"days": "Sun", "time": "Closed"}], "id": "9810500110", "name": "USPS COLLECTION BOX - BLUE BOX", "address": {"city": "SEATTLE", "state": "WA", "street": "2508 N 50TH ST", "postcode": "98105"}}},
{"geometry": {"type": "Point", "coordinates": [-122.3187642736, 47.6613673011]}, "type": "Feature", "properties": {"collection_times": [{"days": "Mon-Fri", "time": "4:15pm"}, {"days": "Sat", "time": "11:30am"}, {"days": "Sun", "time": "Closed"}], "id": "9810500232", "name": "USPS COLLECTION BOX - BLUE BOX", "address": {"city": "SEATTLE", "state": "WA", "street": "900 NE 45TH ST", "postcode": "98105"}}},
{"geometry": {"type": "Point", "coordinates": [-122.3164819533, 47.6612393449]}, "type": "Feature", "properties": {"collection_times": [{"days": "Mon-Fri", "time": "4:30pm"}, {"days": "Sat", "time": "11:30am"}, {"days": "Sun", "time": "Closed"}], "id": "9810500251", "name": "USPS COLLECTION BOX - BLUE BOX", "address": {"city": "SEATTLE", "state": "WA", "street": "1107 NE 45TH ST", "postcode": "98105"}}},
{"geometry": {"type": "Point", "coordinates": [-122.3151908747, 47.6631511115]}, "type": "Feature", "properties": {"collection_times": [{"days": "Mon-Fri", "time": "4:30pm"}, {"days": "Sat", "time": "11:30am"}, {"days": "Sun", "time": "Closed"}], "id": "9810500264", "name": "USPS COLLECTION BOX - BLUE BOX", "address": {"city": "SEATTLE", "state": "WA", "street": "4700 12TH AVE NE", "postcode": "98105"}}},
{"geometry": {"type": "Point", "coordinates": [-122.3119985389, 47.6652407285]}, "type": "Feature", "properties": {"collection_times": [{"days": "Mon-Sat", "time": "11:30am"}, {"days": "Sun", "time": "Closed"}], "id": "9810500298", "name": "USPS COLLECTION BOX - BLUE BOX", "address": {"city": "SEATTLE", "state": "WA", "street": "5043 15TH AVE NE", "postcode": "98105"}}},
{"geometry": {"type": "Point", "coordinates": [-122.3097323783, 47.6614862823]}, "type": "Feature", "properties": {"collection_times": [{"days": "Mon-Sat", "time": "11:30am"}, {"days": "Sun", "time": "Closed"}], "id": "9810500341", "name": "USPS COLLECTION BOX - BLUE BOX", "address": {"city": "SEATTLE", "state": "WA", "street": "4503 17TH AVE NE", "postcode": "98105"}}},
{"geometry": {"type": "Point", "coordinates": [-122.3095954139, 47.6674678733]}, "type": "Feature", "properties": {"collection_times": [{"days": "Mon-Sat", "time": "11:30am"}, {"days": "Sun", "time": "Closed"}], "id": "9810500343", "name": "USPS COLLECTION BOX - BLUE BOX", "address": {"city": "SEATTLE", "state": "WA", "street": "5201 17TH AVE NE", "postcode": "98105"}}},
{"geometry": {"type": "Point", "coordinates": [-122.3065110064, 47.6660671904]}, "type": "Feature", "properties": {"collection_times": [{"days": "Mon-Fri", "time": "11:30am"}, {"days": "Sat", "time": "12:30pm"}, {"days": "Sun", "time": "Closed"}], "id": "9810500372", "name": "USPS COLLECTION BOX - BLUE BOX", "address": {"city": "SEATTLE", "state": "WA", "street": "5045 20TH AVE NE", "postcode": "98105"}}},
{"geometry": {"type": "Point", "coordinates": [-122.3005809314, 47.6663425675]}, "type": "Feature", "properties": {"collection_times": [{"days": "Mon-Fri", "time": "2:30pm"}, {"days": "Sat", "time": "12:00pm"}, {"days": "Sun", "time": "Closed"}], "id": "9810500411", "name": "USPS COLLECTION BOX - BLUE BOX", "address": {"city": "SEATTLE", "state": "WA", "street": "2500 NE BLAKELEY ST", "postcode": "98105"}}},
{"geometry": {"type": "Point", "coordinates": [-122.2993338666, 47.6685782329]}, "type": "Feature", "properties": {"collection_times": [{"days": "Mon-Fri", "time": "11:30am"}, {"days": "Sat", "time": "12:30pm"}, {"days": "Sun", "time": "Closed"}], "id": "9810500422", "name": "USPS COLLECTION BOX - BLUE BOX", "address": {"city": "SEATTLE", "state": "WA", "street": "2618 NE 55TH ST", "postcode": "98105"}}},
{"geometry": {"type": "Point", "coordinates": [-122.291043076, 47.6685938477]}, "type": "Feature", "properties": {"collection_times": [{"days": "Mon-Fri", "time": "11:30am"}, {"days": "Sat", "time": "12:15pm"}, {"days": "Sun", "time": "Closed"}], "id": "9810500489", "name": "USPS COLLECTION BOX - BLUE BOX", "address": {"city": "SEATTLE", "state": "WA", "street": "3426 NE 55TH ST", "postcode": "98105"}}},
{"geometry": {"type": "Point", "coordinates": [-122.28895902, 47.6610537545]}, "type": "Feature", "properties": {"collection_times": [{"days": "Mon-Fri", "time": "2:45pm"}, {"days": "Sat", "time": "12:30pm"}, {"days": "Sun", "time": "Closed"}], "id": "9810500517", "name": "USPS COLLECTION BOX - BLUE BOX", "address": {"city": "SEATTLE", "state": "WA", "street": "3619 NE 45TH ST", "postcode": "98105"}}},
{"geometry": {"type": "Point", "coordinates": [-122.285755297, 47.6683739481]}, "type": "Feature", "properties": {"collection_times": [{"days": "Mon-Fri", "time": "11:30am"}, {"days": "Sat", "time": "12:15pm"}, {"days": "Sun", "time": "Closed"}], "id": "9810500524", "name": "USPS COLLECTION BOX - BLUE BOX", "address": {"city": "SEATTLE", "state": "WA", "street": "5257 39TH AVE NE", "postcode": "98105"}}},
{"geometry": {"type": "Point", "coordinates": [-122.284859111, 47.6636514719]}, "type": "Feature", "properties": {"collection_times": [{"days": "Mon-Fri", "time": "11:30am"}, {"days": "Sat", "time": "12:15pm"}, {"days": "Sun", "time": "Closed"}], "id": "9810500526", "name": "USPS COLLECTION BOX - BLUE BOX", "address": {"city": "SEATTLE", "state": "WA", "street": "4802 TERRACE DR NE", "postcode": "98105"}}},
{"geometry": {"type": "Point", "coordinates": [-122.2823046057, 47.6560061122]}, "type": "Feature", "properties": {"collection_times": [{"days": "Mon-Fri", "time": "11:30am"}, {"days": "Sat", "time": "12:15pm"}, {"days": "Sun", "time": "Closed"}], "id": "9810500537", "name": "USPS COLLECTION BOX - BLUE BOX", "address": {"city": "SEATTLE", "state": "WA", "street": "4203 NE 38TH ST", "postcode": "98105"}}},
{"geometry": {"type": "Point", "coordinates": [-122.2769055008, 47.6545958146]}, "type": "Feature", "properties": {"collection_times": [{"days": "Mon-Fri", "time": "11:30am"}, {"days": "Sat", "time": "12:15pm"}, {"days": "Sun", "time": "Closed"}], "id": "9810500550", "name": "USPS COLLECTION BOX - BLUE BOX", "address": {"city": "SEATTLE", "state": "WA", "street": "3624 47TH AVE NE", "postcode": "98105"}}},
{"geometry": {"type": "Point", "coordinates": [-122.2718247723, 47.6579946662]}, "type": "Feature", "properties": {"collection_times": [{"days": "Mon-Fri", "time": "11:30am"}, {"days": "Sat", "time": "12:15pm"}, {"days": "Sun", "time": "Closed"}], "id": "9810500563", "name": "USPS COLLECTION BOX - BLUE BOX", "address": {"city": "SEATTLE", "state": "WA", "street": "5129 NE 41ST ST", "postcode": "98105"}}},
{"geometry": {"type": "Point", "coordinates": [-122.2689075955, 47.6611082142]}, "type": "Feature", "properties": {"collection_times": [{"days": "Mon-Fri", "time": "11:30am"}, {"days": "Sat", "time": "12:15pm"}, {"days": "Sun", "time": "Closed"}], "id": "9810500575", "name": "USPS COLLECTION BOX - BLUE BOX", "address": {"city": "SEATTLE", "state": "WA", "street": "4437 55TH AVE NE", "postcode": "98105"}}},
{"geometry": {"type": "Point", "coordinates": [-122.3255760617, 47.6673128339]}, "type": "Feature", "properties": {"collection_times": [{"days": "Mon-Fri", "time": "11:30am"}, {"days": "Sat", "time": "11:15am"}, {"days": "Sun", "time": "Closed"}], "id": "9810500834", "name": "USPS COLLECTION BOX - BLUE BOX", "address": {"city": "SEATTLE", "state": "WA", "street": "5302 LATONA AVE NE", "postcode": "98105"}}},
{"geometry": {"type": "Point", "coordinates": [-122.3178549507, 47.6587263512]}, "type": "Feature", "properties": {"collection_times": [{"days": "Mon-Fri", "time": "4:15pm"}, {"days": "Sat", "time": "11:30am"}, {"days": "Sun", "time": "Closed"}], "id": "9810500971", "name": "USPS COLLECTION BOX - BLUE BOX", "address": {"city": "SEATTLE", "state": "WA", "street": "4225 ROOSEVELT WAY NE", "postcode": "98105"}}},
{"geometry": {"type": "Point", "coordinates": [-122.2835079705, 47.664066718]}, "type": "Feature", "properties": {"collection_times": [{"days": "Mon-Fri", "time": "2:45pm"}, {"days": "Sat", "time": "1:00pm"}, {"days": "Sun", "time": "Closed"}], "id": "9810500984", "name": "USPS COLLECTION BOX - BLUE BOX", "address": {"city": "SEATTLE", "state": "WA", "street": "4800 SAND POINT WAY NE", "postcode": "98105"}}},
{"geometry": {"type": "Point", "coordinates": [-122.2740349425, 47.668227968]}, "type": "Feature", "properties": {"collection_times": [{"days": "Mon-Fri", "time": "3:00pm"}, {"days": "Sat", "time": "12:30pm"}, {"days": "Sun", "time": "Closed"}], "id": "9810500985", "name": "USPS COLLECTION BOX - BLUE BOX", "address": {"city": "SEATTLE", "state": "WA", "street": "5464 SAND POINT WAY NE", "postcode": "98105"}}},
{"geometry": {"type": "Point", "coordinates": [-122.2753975369, 47.6720585552]}, "type": "Feature", "properties": {"collection_times": [{"days": "Mon-Fri", "time": "11:30am"}, {"days": "Sat", "time": "12:00pm"}, {"days": "Sun", "time": "Closed"}], "id": "9810501037", "name": "USPS COLLECTION BOX - BLUE BOX", "address": {"city": "SEATTLE", "state": "WA", "street": "5800 ANN ARBOR AVE NE", "postcode": "98105"}}},
{"geometry": {"type": "Point", "coordinates": [-122.2978914136, 47.6633978692]}, "type": "Feature", "properties": {"collection_times": [{"days": "Mon-Fri", "time": "4:00pm"}, {"days": "Sat", "time": "12:00pm"}, {"days": "Sun", "time": "Closed"}], "id": "9810501044", "name": "USPS COLLECTION BOX - BLUE BOX", "address": {"city": "SEATTLE", "state": "WA", "street": "2700 NE UNIVERSITY VILLAGE ST", "postcode": "98105"}}},
{"geometry": {"type": "Point", "coordinates": [-122.3130132704, 47.6632267004]}, "type": "Feature", "properties": {"collection_times": [{"days": "Mon-Fri", "time": "4:00pm"}, {"days": "Sat", "time": "11:30am"}, {"days": "Sun", "time": "Closed"}], "id": "9810501049", "name": "USPS COLLECTION BOX - BLUE BOX", "address": {"city": "SEATTLE", "state": "WA", "street": "4760 UNIVERSITY WAY NE", "postcode": "98105"}}},
{"geometry": {"type": "Point", "coordinates": [-122.3129361885, 47.6686451642]}, "type": "Feature", "properties": {"collection_times": [{"days": "Mon-Fri", "time": "4:15pm"}, {"days": "Sat", "time": "11:30am"}, {"days": "Sun", "time": "Closed"}], "id": "9810501050", "name": "USPS COLLECTION BOX - BLUE BOX", "address": {"city": "SEATTLE", "state": "WA", "street": "5504 UNIVERSITY WAY NE", "postcode": "98105"}}},
{"geometry": {"type": "Point", "coordinates": [-122.3040980574, 47.6628673859]}, "type": "Feature", "properties": {"collection_times": [{"days": "Mon-Fri", "time": "12:15pm"}, {"days": "Sat", "time": "11:30am"}, {"days": "Sun", "time": "Closed"}], "id": "9810501052", "name": "USPS COLLECTION BOX - BLUE BOX", "address": {"city": "SEATTLE", "state": "WA", "street": "5644 UNIVERSITY WAY NE", "postcode": "98105"}}},
{"geometry": {"type": "Point", "coordinates": [-122.3130919291, 47.6589998267]}, "type": "Feature", "properties": {"collection_times": [{"days": "Mon-Fri", "time": "5:30pm"}, {"days": "Sat", "time": "4:15pm"}, {"days": "Sun", "time": "Closed"}], "id": "9810501559", "name": "USPS COLLECTION BOX - BLUE BOX", "address": {"city": "SEATTLE", "state": "WA", "street": "4244 UNIVERSITY WAY NE", "postcode": "98105"}}},
{"geometry": {"type": "Point", "coordinates": [-122.3008151445, 47.6627254848]}, "type": "Feature", "properties": {"collection_times": [{"days": "Mon-Fri", "time": "4:00pm"}, {"days": "Sat", "time": "12:00pm"}, {"days": "Sun", "time": "Closed"}], "id": "9810501566", "name": "USPS COLLECTION BOX - BLUE BOX", "address": {"city": "SEATTLE", "state": "WA", "street": "4616 25TH AVE NE", "postcode": "98105"}}},
{"geometry": {"type": "Point", "coordinates": [-122.294316694, 47.6628173181]}, "type": "Feature", "properties": {"collection_times": [{"days": "Mon-Fri", "time": "2:45pm"}, {"days": "Sat", "time": "12:00pm"}, {"days": "Sun", "time": "Closed"}], "id": "9810501574", "name": "USPS COLLECTION BOX - BLUE BOX", "address": {"city": "SEATTLE", "state": "WA", "street": "4600 UNION BAY PL NE", "postcode": "98105"}}},
{"geometry": {"type": "Point", "coordinates": [-122.31738, 47.66983]}, "type": "Feature", "properties": {"collection_times": [{"days": "Mon-Sat", "time": "11:30am"}, {"days": "Sun", "time": "Closed"}], "id": "9810501576", "name": "USPS COLLECTION BOX - BLUE BOX", "address": {"city": "SEATTLE", "state": "WA", "street": "5615 ROOSEVELT WAY NE", "postcode": "98105"}}},
{"geometry": {"type": "Point", "coordinates": [-122.3130211261, 47.6627873669]}, "type": "Feature", "properties": {"collection_times": [{"days": "Mon-Fri", "time": "4:00pm"}, {"days": "Sat", "time": "11:30am"}, {"days": "Sun", "time": "Closed"}], "id": "9810501577", "name": "USPS COLLECTION BOX - BLUE BOX", "address": {"city": "SEATTLE", "state": "WA", "street": "4710 UNIVERSITY WAY NE", "postcode": "98105"}}},
{"geometry": {"type": "Point", "coordinates": [-122.2840429214, 47.6685623784]}, "type": "Feature", "properties": {"collection_times": [{"days": "Mon-Fri", "time": "3:00pm"}, {"days": "Sat", "time": "12:00pm"}, {"days": "Sun", "time": "Closed"}], "id": "9810501579", "name": "USPS COLLECTION BOX - BLUE BOX", "address": {"city": "SEATTLE", "state": "WA", "street": "4026 NE 55TH ST", "postcode": "98105"}}},
{"geometry": {"type": "Point", "coordinates": [-122.2970213165, 47.6685871515]}, "type": "Feature", "properties": {"collection_times": [{"days": "Mon-Fri", "time": "11:30am"}, {"days": "Sat", "time": "12:30pm"}, {"days": "Sun", "time": "Closed"}], "id": "9810501582", "name": "USPS COLLECTION BOX - BLUE BOX", "address": {"city": "SEATTLE", "state": "WA", "street": "2818 NE 55TH ST", "postcode": "98105"}}},
{"geometry": {"type": "Point", "coordinates": [-122.3131392336, 47.6568970952]}, "type": "Feature", "properties": {"collection_times": [{"days": "Mon-Fri", "time": "4:00pm"}, {"days": "Sat", "time": "11:30am"}, {"days": "Sun", "time": "Closed"}], "id": "9810501583", "name": "USPS COLLECTION BOX - BLUE BOX", "address": {"city": "SEATTLE", "state": "WA", "street": "4100 UNIVERSITY WAY NE", "postcode": "98105"}}},
{"geometry": {"type": "Point", "coordinates": [-122.3130919291, 47.6589998267]}, "type": "Feature", "properties": {"collection_times": [{"days": "Mon-Fri", "time": "5:30pm"}, {"days": "Sat", "time": "4:00pm"}, {"days": "Sun", "time": "Closed"}], "id": "9810501584", "name": "USPS COLLECTION BOX - BLUE BOX", "address": {"city": "SEATTLE", "state": "WA", "street": "4244 UNIVERSITY WAY NE", "postcode": "98105"}}},
{"geometry": {"type": "Point", "coordinates": [-122.3130919291, 47.6589998267]}, "type": "Feature", "properties": {"collection_times": [{"days": "Mon-Fri", "time": "5:30pm"}, {"days": "Sat", "time": "4:00pm"}, {"days": "Sun", "time": "Closed"}], "id": "9810501585", "name": "USPS COLLECTION BOX - APC", "address": {"city": "SEATTLE", "state": "WA", "street": "4244 UNIVERSITY WAY NE", "postcode": "98105"}}},
{"geometry": {"type": "Point", "coordinates": [-122.3539158676, 47.5154979752]}, "type": "Feature", "properties": {"collection_times": [{"days": "Mon-Fri", "time": "10:30am"}, {"days": "Sat", "time": "11:30am"}, {"days": "Sun", "time": "Closed"}], "id": "9810600321", "name": "USPS COLLECTION BOX - BLUE BOX", "address": {"city": "SEATTLE", "state": "WA", "street": "9800 15TH AVE SW", "postcode": "98106"}}},
{"geometry": {"type": "Point", "coordinates": [-122.3546589266, 47.5481890359]}, "type": "Feature", "properties": {"collection_times": [{"days": "Mon-Sat", "time": "10:30am"}, {"days": "Sun", "time": "Closed"}], "id": "9810601349", "name": "USPS COLLECTION BOX - BLUE BOX", "address": {"city": "SEATTLE", "state": "WA", "street": "6000 16TH AVE SW", "postcode": "98106"}}},
{"geometry": {"type": "Point", "coordinates": [-122.3768040997, 47.6990693674]}, "type": "Feature", "properties": {"collection_times": [{"days": "Mon-Fri", "time": "10:30am"}, {"days": "Sat", "time": "11:30am"}, {"days": "Sun", "time": "Closed"}], "id": "9810602161", "name": "USPS COLLECTION BOX - BLUE BOX", "address": {"city": "SEATTLE", "state": "WA", "street": "9600 15TH AVE SW", "postcode": "98106"}}},
{"geometry": {"type": "Point", "coordinates": [-122.3686026452, 47.6659204912]}, "type": "Feature", "properties": {"collection_times": [{"days": "Mon-Fri", "time": "1:00pm"}, {"days": "Sat", "time": "2:00pm"}, {"days": "Sun", "time": "Closed"}], "id": "9810700233", "name": "USPS COLLECTION BOX - BLUE BOX", "address": {"city": "SEATTLE", "state": "WA", "street": "5101 9TH AVE NW", "postcode": "98107"}}},
{"geometry": {"type": "Point", "coordinates": [-122.3789413807, 47.6687074171]}, "type": "Feature", "properties": {"collection_times": [{"days": "Mon-Sat", "time": "3:30pm"}, {"days": "Sun", "time": "Closed"}], "id": "9810700346", "name": "USPS COLLECTION BOX - BLUE BOX", "address": {"city": "SEATTLE", "state": "WA", "street": "1700 NW MARKET ST", "postcode": "98107"}}},
{"geometry": {"type": "Point", "coordinates": [-122.3105501169, 47.5547294463]}, "type": "Feature", "properties": {"collection_times": [{"days": "Mon-Fri", "time": "3:45pm"}, {"days": "Sat", "time": "3:30pm"}, {"days": "Sun", "time": "Closed"}], "id": "9810700347", "name": "USPS COLLECTION BOX - BLUE BOX", "address": {"city": "SEATTLE", "state": "WA", "street": "5300 17TH AVE NW", "postcode": "98107"}}},
{"geometry": {"type": "Point", "coordinates": [-122.3875252345, 47.6716662471]}, "type": "Feature", "properties": {"collection_times": [{"days": "Mon-Fri", "time": "3:30pm"}, {"days": "Sat", "time": "4:00pm"}, {"days": "Sun", "time": "Closed"}], "id": "9810700400", "name": "USPS COLLECTION BOX - BLUE BOX", "address": {"city": "SEATTLE", "state": "WA", "street": "5900 24TH AVE NW", "postcode": "98107"}}},
{"geometry": {"type": "Point", "coordinates": [-122.3889357736, 47.6701074113]}, "type": "Feature", "properties": {"collection_times": [{"days": "Mon-Fri", "time": "1:00pm"}, {"days": "Sat", "time": "3:00pm"}, {"days": "Sun", "time": "Closed"}], "id": "9810700415", "name": "USPS COLLECTION BOX - BLUE BOX", "address": {"city": "SEATTLE", "state": "WA", "street": "2453 NW 57TH ST", "postcode": "98107"}}},
{"geometry": {"type": "Point", "coordinates": [-122.393017117, 47.668728916]}, "type": "Feature", "properties": {"collection_times": [{"days": "Mon-Fri", "time": "1:30pm"}, {"days": "Sat", "time": "3:00pm"}, {"days": "Sun", "time": "Closed"}], "id": "9810700427", "name": "USPS COLLECTION BOX - BLUE BOX", "address": {"city": "SEATTLE", "state": "WA", "street": "2804 NW MARKET ST", "postcode": "98107"}}},
{"geometry": {"type": "Point", "coordinates": [-122.3983682587, 47.6714579222]}, "type": "Feature", "properties": {"collection_times": [{"days": "Mon-Fri", "time": "1:00pm"}, {"days": "Sat", "time": "3:00pm"}, {"days": "Sun", "time": "Closed"}], "id": "9810700465", "name": "USPS COLLECTION BOX - BLUE BOX", "address": {"city": "SEATTLE", "state": "WA", "street": "5816 32ND AVE NW", "postcode": "98107"}}},
{"geometry": {"type": "Point", "coordinates": [-122.3832649863, 47.6664283074]}, "type": "Feature", "properties": {"collection_times": [{"days": "Mon-Fri", "time": "3:45pm"}, {"days": "Sat", "time": "3:30pm"}, {"days": "Sun", "time": "Closed"}], "id": "9810700633", "name": "USPS COLLECTION BOX - BLUE BOX", "address": {"city": "SEATTLE", "state": "WA", "street": "5301 BALLARD AVE NW", "postcode": "98107"}}},
{"geometry": {"type": "Point", "coordinates": [-122.3658529987, 47.6602042357]}, "type": "Feature", "properties": {"collection_times": [{"days": "Mon-Fri", "time": "1:00pm"}, {"days": "Sat", "time": "2:00pm"}, {"days": "Sun", "time": "Closed"}], "id": "9810700839", "name": "USPS COLLECTION BOX - BLUE BOX", "address": {"city": "SEATTLE", "state": "WA", "street": "4368 LEARY WAY NW", "postcode": "98107"}}},
{"geometry": {"type": "Point", "coordinates": [-122.4064400667, 47.6745113949]}, "type": "Feature", "properties": {"collection_times": [{"days": "Mon-Fri", "time": "1:30pm"}, {"days": "Sat", "time": "3:00pm"}, {"days": "Sun", "time": "Closed"}], "id": "9810700992", "name": "USPS COLLECTION BOX - BLUE BOX", "address": {"city": "SEATTLE", "state": "WA", "street": "6341 SEAVIEW AVE NW", "postcode": "98107"}}},
{"geometry": {"type": "Point", "coordinates": [-122.3687392545, 47.6628781753]}, "type": "Feature", "properties": {"collection_times": [{"days": "Mon-Fri", "time": "3:30pm"}, {"days": "Sat", "time": "2:00pm"}, {"days": "Sun", "time": "Closed"}], "id": "9810701576", "name": "USPS COLLECTION BOX - BLUE BOX", "address": {"city": "SEATTLE", "state": "WA", "street": "907 NW BALLARD WAY", "postcode": "98107"}}},
{"geometry": {"type": "Point", "coordinates": [-122.3788060819, 47.6690677087]}, "type": "Feature", "properties": {"collection_times": [{"days": "Mon-Fri", "time": "4:15pm"}, {"days": "Sat", "time": "1:00pm"}, {"days": "Sun", "time": "Closed"}], "id": "9810702162", "name": "USPS COLLECTION BOX - BLUE BOX", "address": {"city": "SEATTLE", "state": "WA", "street": "1421 N 57TH ST", "postcode": "98107"}}},
{"geometry": {"type": "Point", "coordinates": [-122.3096617148, 47.670310452]}, "type": "Feature", "properties": {"collection_times": [{"days": "Mon-Fri", "time": "5:00pm"}, {"days": "Sat", "time": "3:00pm"}, {"days": "Sun", "time": "Closed"}], "id": "9810702163", "name": "USPS COLLECTION BOX - BLUE BOX", "address": {"city": "SEATTLE", "state": "WA", "street": "5706 17TH AVE NW", "postcode": "98107"}}},
{"geometry": {"type": "Point", "coordinates": [-122.3849186214, 47.6687526195]}, "type": "Feature", "properties": {"collection_times": [{"days": "Mon-Fri", "time": "3:30pm"}, {"days": "Sat", "time": "4:00pm"}, {"days": "Sun", "time": "Closed"}], "id": "9810702172", "name": "USPS COLLECTION BOX - BLUE BOX", "address": {"city": "SEATTLE", "state": "WA", "street": "2208 NW MARKET ST", "postcode": "98107"}}},
{"geometry": {"type": "Point", "coordinates": [-122.3991976615, 47.6675338539]}, "type": "Feature", "properties": {"collection_times": [{"days": "Mon-Fri", "time": "1:30pm"}, {"days": "Sat", "time": "3:00pm"}, {"days": "Sun", "time": "Closed"}], "id": "9810702174", "name": "USPS COLLECTION BOX - BLUE BOX", "address": {"city": "SEATTLE", "state": "WA", "street": "3256 NW 54TH ST", "postcode": "98107"}}},
{"geometry": {"type": "Point", "coordinates": [-122.3984695111, 47.6753993138]}, "type": "Feature", "properties": {"collection_times": [{"days": "Mon-Fri", "time": "1:00pm"}, {"days": "Sat", "time": "3:00pm"}, {"days": "Sun", "time": "Closed"}], "id": "9810702175", "name": "USPS COLLECTION BOX - BLUE BOX", "address": {"city": "SEATTLE", "state": "WA", "street": "6429 32ND AVE NW", "postcode": "98107"}}},
{"geometry": {"type": "Point", "coordinates": [-122.3745800933, 47.6709452571]}, "type": "Feature", "properties": {"collection_times": [{"days": "Mon-Fri", "time": "4:30pm"}, {"days": "Sat", "time": "1:30pm"}, {"days": "Sun", "time": "Closed"}], "id": "9810702177", "name": "USPS COLLECTION BOX - BLUE BOX", "address": {"city": "SEATTLE", "state": "WA", "street": "1406 NW 58TH ST", "postcode": "98107"}}},
{"geometry": {"type": "Point", "coordinates": [-122.3096617148, 47.670310452]}, "type": "Feature", "properties": {"collection_times": [{"days": "Mon-Fri", "time": "6:00pm"}, {"days": "Sat", "time": "3:00pm"}, {"days": "Sun", "time": "Closed"}], "id": "9810702179", "name": "USPS COLLECTION BOX - PO LOBBY", "address": {"city": "SEATTLE", "state": "WA", "street": "5706 17TH AVE NW", "postcode": "98107"}}},
{"geometry": {"type": "Point", "coordinates": [-122.3096617148, 47.670310452]}, "type": "Feature", "properties": {"collection_times": [{"days": "Mon-Fri", "time": "6:00pm"}, {"days": "Sat", "time": "3:00pm"}, {"days": "Sun", "time": "Closed"}], "id": "9810702180", "name": "USPS COLLECTION BOX - APC", "address": {"city": "SEATTLE", "state": "WA", "street": "5706 17TH AVE NW", "postcode": "98107"}}},
{"geometry": {"type": "Point", "coordinates": [-122.3307511902, 47.5265919444]}, "type": "Feature", "properties": {"collection_times": [{"days": "Mon-Fri", "time": "2:30pm"}, {"days": "Sat", "time": "11:30am"}, {"days": "Sun", "time": "Closed"}], "id": "9810800055", "name": "USPS COLLECTION BOX - BLUE BOX", "address": {"city": "SEATTLE", "state": "WA", "street": "309 S CLOVERDALE ST", "postcode": "98108"}}},
{"geometry": {"type": "Point", "coordinates": [-122.3262352983, 47.5479941742]}, "type": "Feature", "properties": {"collection_times": [{"days": "Mon-Fri", "time": "4:15pm"}, {"days": "Sat", "time": "11:30am"}, {"days": "Sun", "time": "Closed"}], "id": "9810800179", "name": "USPS COLLECTION BOX - BLUE BOX", "address": {"city": "SEATTLE", "state": "WA", "street": "6101 6TH AVE S", "postcode": "98108"}}},
{"geometry": {"type": "Point", "coordinates": [-122.3176471983, 47.5477331925]}, "type": "Feature", "properties": {"collection_times": [{"days": "Mon-Fri", "time": "4:30pm"}, {"days": "Sat", "time": "11:30am"}, {"days": "Sun", "time": "Closed"}], "id": "9810800266", "name": "USPS COLLECTION BOX - BLUE BOX", "address": {"city": "SEATTLE", "state": "WA", "street": "1209 S BAILEY ST", "postcode": "98108"}}},
{"geometry": {"type": "Point", "coordinates": [-122.3162014354, 47.5578968687]}, "type": "Feature", "properties": {"collection_times": [{"days": "Mon-Fri", "time": "11:00am"}, {"days": "Sat", "time": "1:00pm"}, {"days": "Sun", "time": "Closed"}], "id": "9810800275", "name": "USPS COLLECTION BOX - BLUE BOX", "address": {"city": "SEATTLE", "state": "WA", "street": "4951 13TH AVE S", "postcode": "98108"}}},
{"geometry": {"type": "Point", "coordinates": [-122.3046740375, 47.5593436823]}, "type": "Feature", "properties": {"collection_times": [{"days": "Mon-Fri", "time": "4:00pm"}, {"days": "Sat", "time": "12:30pm"}, {"days": "Sun", "time": "Closed"}], "id": "9810800641", "name": "USPS COLLECTION BOX - BLUE BOX", "address": {"city": "SEATTLE", "state": "WA", "street": "4809 BEACON AVE S", "postcode": "98108"}}},
{"geometry": {"type": "Point", "coordinates": [-122.2949276363, 47.5382613952]}, "type": "Feature", "properties": {"collection_times": [{"days": "Mon-Fri", "time": "11:00am"}, {"days": "Sat", "time": "12:30pm"}, {"days": "Sun", "time": "Closed"}], "id": "9810800645", "name": "USPS COLLECTION BOX - BLUE BOX", "address": {"city": "SEATTLE", "state": "WA", "street": "7144 BEACON AVE S", "postcode": "98108"}}},
{"geometry": {"type": "Point", "coordinates": [-122.3153108731, 47.5168258824]}, "type": "Feature", "properties": {"collection_times": [{"days": "Mon-Fri", "time": "12:00pm"}, {"days": "Sat", "time": "11:30am"}, {"days": "Sun", "time": "Closed"}], "id": "9810800718", "name": "USPS COLLECTION BOX - BLUE BOX", "address": {"city": "SEATTLE", "state": "WA", "street": "9627 DES MOINES MEMORIAL DR", "postcode": "98108"}}},
{"geometry": {"type": "Point", "coordinates": [-122.3256683501, 47.5517524619]}, "type": "Feature", "properties": {"collection_times": [{"days": "Mon-Fri", "time": "5:00pm"}, {"days": "Sat", "time": "3:30pm"}, {"days": "Sun", "time": "Closed"}], "id": "9810801555", "name": "USPS COLLECTION BOX - PO LOBBY", "address": {"city": "SEATTLE", "state": "WA", "street": "620 S ORCAS ST", "postcode": "98108"}}},
{"geometry": {"type": "Point", "coordinates": [-122.3256683501, 47.5517524619]}, "type": "Feature", "properties": {"collection_times": [{"days": "Mon-Fri", "time": "5:30pm"}, {"days": "Sat", "time": "3:00pm"}, {"days": "Sun", "time": "Closed"}], "id": "9810801561", "name": "USPS COLLECTION BOX - BLUE BOX", "address": {"city": "SEATTLE", "state": "WA", "street": "620 S ORCAS ST", "postcode": "98108"}}},
{"geometry": {"type": "Point", "coordinates": [-122.3149098044, 47.5221506487]}, "type": "Feature", "properties": {"collection_times": [{"days": "Mon-Fri", "time": "3:30pm"}, {"days": "Sat", "time": "11:30am"}, {"days": "Sun", "time": "Closed"}], "id": "9810801565", "name": "USPS COLLECTION BOX - BLUE BOX", "address": {"city": "SEATTLE", "state": "WA", "street": "1401 S DIRECTOR ST", "postcode": "98108"}}},
{"geometry": {"type": "Point", "coordinates": [-122.3139568749, 47.5459867379]}, "type": "Feature", "properties": {"collection_times": [{"days": "Mon-Fri", "time": "3:30pm"}, {"days": "Sat", "time": "11:30am"}, {"days": "Sun", "time": "Closed"}], "id": "9810801569", "name": "USPS COLLECTION BOX - BLUE BOX", "address": {"city": "SEATTLE", "state": "WA", "street": "9404 E MARGINAL WAY S", "postcode": "98108"}}},
{"geometry": {"type": "Point", "coordinates": [-122.3139568749, 47.5459867379]}, "type": "Feature", "properties": {"collection_times": [{"days": "Mon-Fri", "time": "3:45pm"}, {"days": "Sat", "time": "11:30am"}, {"days": "Sun", "time": "Closed"}], "id": "9810801570", "name": "USPS COLLECTION BOX - BLUE BOX", "address": {"city": "SEATTLE", "state": "WA", "street": "7755 E MARGINAL WAY S", "postcode": "98108"}}},
{"geometry": {"type": "Point", "coordinates": [-122.3041158215, 47.538319376]}, "type": "Feature", "properties": {"collection_times": [{"days": "Mon-Fri", "time": "5:00pm"}, {"days": "Sat", "time": "11:30am"}, {"days": "Sun", "time": "Closed"}], "id": "9810801572", "name": "USPS COLLECTION BOX - BLUE BOX", "address": {"city": "SEATTLE", "state": "WA", "street": "7277 PERIMETER RD S", "postcode": "98108"}}},
{"geometry": {"type": "Point", "coordinates": [-122.3282154459, 47.534097122]}, "type": "Feature", "properties": {"collection_times": [{"days": "Mon-Fri", "time": "4:15pm"}, {"days": "Sat", "time": "11:30am"}, {"days": "Sun", "time": "Closed"}], "id": "9810801575", "name": "USPS COLLECTION BOX - BLUE BOX", "address": {"city": "SEATTLE", "state": "WA", "street": "7701 5TH AVE S", "postcode": "98108"}}},
{"geometry": {"type": "Point", "coordinates": [-122.3496066901, 47.6405613999]}, "type": "Feature", "properties": {"collection_times": [{"days": "Mon-Fri", "time": "12:30pm"}, {"days": "Sat", "time": "11:30am"}, {"days": "Sun", "time": "Closed"}], "id": "9810900013", "name": "USPS COLLECTION BOX - BLUE BOX", "address": {"city": "SEATTLE", "state": "WA", "street": "2421 4TH AVE N", "postcode": "98109"}}},
{"geometry": {"type": "Point", "coordinates": [-122.3516650387, 47.6295137461]}, "type": "Feature", "properties": {"collection_times": [{"days": "Mon-Fri", "time": "1:00pm"}, {"days": "Sat", "time": "12:00pm"}, {"days": "Sun", "time": "Closed"}], "id": "9810900042", "name": "USPS COLLECTION BOX - BLUE BOX", "address": {"city": "SEATTLE", "state": "WA", "street": "1133 BIGELOW AVE N", "postcode": "98109"}}},
{"geometry": {"type": "Point", "coordinates": [-122.3518394679, 47.6254766032]}, "type": "Feature", "properties": {"collection_times": [{"days": "Mon-Fri", "time": "3:30pm"}, {"days": "Sat", "time": "12:00pm"}, {"days": "Sun", "time": "Closed"}], "id": "9810900079", "name": "USPS COLLECTION BOX - BLUE BOX", "address": {"city": "SEATTLE", "state": "WA", "street": "200 ROY ST", "postcode": "98109"}}},
{"geometry": {"type": "Point", "coordinates": [-122.3529129129, 47.6198356458]}, "type": "Feature", "properties": {"collection_times": [{"days": "Mon-Fri", "time": "3:30pm"}, {"days": "Sat-Sun", "time": "Closed"}], "id": "9810900080", "name": "USPS COLLECTION BOX - BLUE BOX", "address": {"city": "SEATTLE", "state": "WA", "street": "205 2ND AVE N", "postcode": "98109"}}},
{"geometry": {"type": "Point", "coordinates": [-122.3359791307, 47.61878838]}, "type": "Feature", "properties": {"collection_times": [{"days": "Mon-Fri", "time": "4:30pm"}, {"days": "Sat-Sun", "time": "Closed"}], "id": "9810900661", "name": "USPS COLLECTION BOX - BLUE BOX", "address": {"city": "SEATTLE", "state": "WA", "street": "121 BOREN AVE N", "postcode": "98109"}}},
{"geometry": {"type": "Point", "coordinates": [-122.343295098, 47.6376347071]}, "type": "Feature", "properties": {"collection_times": [{"days": "Mon-Fri", "time": "12:30pm"}, {"days": "Sat", "time": "11:30am"}, {"days": "Sun", "time": "Closed"}], "id": "9810900725", "name": "USPS COLLECTION BOX - BLUE BOX", "address": {"city": "SEATTLE", "state": "WA", "street": "2100 DEXTER AVE N", "postcode": "98109"}}},
{"geometry": {"type": "Point", "coordinates": [-120.5562630964, 47.4112505258]}, "type": "Feature", "properties": {"collection_times": [{"days": "Mon-Fri", "time": "3:15pm"}, {"days": "Sat-Sun", "time": "Closed"}], "id": "9810900727", "name": "USPS COLLECTION BOX - BLUE BOX", "address": {"city": "SEATTLE", "state": "WA", "street": "1620 DEXTER AVE N", "postcode": "98109"}}},
{"geometry": {"type": "Point", "coordinates": [-122.3422105259, 47.6345671786]}, "type": "Feature", "properties": {"collection_times": [{"days": "Mon-Fri", "time": "3:30pm"}, {"days": "Sat-Sun", "time": "Closed"}], "id": "9810900728", "name": "USPS COLLECTION BOX - BLUE BOX", "address": {"city": "SEATTLE", "state": "WA", "street": "1758 DEXTER AVE N", "postcode": "98109"}}},
{"geometry": {"type": "Point", "coordinates": [-122.3291972572, 47.6211222606]}, "type": "Feature", "properties": {"collection_times": [{"days": "Mon-Fri", "time": "3:15pm"}, {"days": "Sat-Sun", "time": "Closed"}], "id": "9810900740", "name": "USPS COLLECTION BOX - BLUE BOX", "address": {"city": "SEATTLE", "state": "WA", "street": "325 EASTLAKE AVE E", "postcode": "98109"}}},
{"geometry": {"type": "Point", "coordinates": [-122.3352294951, 47.6197469687]}, "type": "Feature", "properties": {"collection_times": [{"days": "Mon-Fri", "time": "4:30pm"}, {"days": "Sat-Sun", "time": "Closed"}], "id": "9810900767", "name": "USPS COLLECTION BOX - BLUE BOX", "address": {"city": "SEATTLE", "state": "WA", "street": "1120 JOHN ST", "postcode": "98109"}}},
{"geometry": {"type": "Point", "coordinates": [-122.3342552217, 47.6208797519]}, "type": "Feature", "properties": {"collection_times": [{"days": "Mon-Fri", "time": "3:30pm"}, {"days": "Sat-Sun", "time": "Closed"}], "id": "9810900768", "name": "USPS COLLECTION BOX - BLUE BOX", "address": {"city": "SEATTLE", "state": "WA", "street": "300 FAIRVIEW AVE N", "postcode": "98109"}}},
{"geometry": {"type": "Point", "coordinates": [-122.3569899024, 47.638188934]}, "type": "Feature", "properties": {"collection_times": [{"days": "Mon-Fri", "time": "3:30pm"}, {"days": "Sat", "time": "11:30am"}, {"days": "Sun", "time": "Closed"}], "id": "9810900921", "name": "USPS COLLECTION BOX - BLUE BOX", "address": {"city": "SEATTLE", "state": "WA", "street": "2135 QUEEN ANNE AVE N", "postcode": "98109"}}},
{"geometry": {"type": "Point", "coordinates": [-122.356546582, 47.6296448569]}, "type": "Feature", "properties": {"collection_times": [{"days": "Mon-Fri", "time": "1:00pm"}, {"days": "Sat", "time": "12:00pm"}, {"days": "Sun", "time": "Closed"}], "id": "9810900926", "name": "USPS COLLECTION BOX - BLUE BOX", "address": {"city": "SEATTLE", "state": "WA", "street": "1206 QUEEN ANNE AVE N", "postcode": "98109"}}},
{"geometry": {"type": "Point", "coordinates": [-122.3570521884, 47.6359947502]}, "type": "Feature", "properties": {"collection_times": [{"days": "Mon-Fri", "time": "3:45pm"}, {"days": "Sat", "time": "12:00pm"}, {"days": "Sun", "time": "Closed"}], "id": "9810900927", "name": "USPS COLLECTION BOX - BLUE BOX", "address": {"city": "SEATTLE", "state": "WA", "street": "1901 QUEEN ANNE AVE N", "postcode": "98109"}}},
{"geometry": {"type": "Point", "coordinates": [-122.3566536196, 47.6306512773]}, "type": "Feature", "properties": {"collection_times": [{"days": "Mon-Fri", "time": "1:00pm"}, {"days": "Sat", "time": "12:00pm"}, {"days": "Sun", "time": "Closed"}], "id": "9810900928", "name": "USPS COLLECTION BOX - BLUE BOX", "address": {"city": "SEATTLE", "state": "WA", "street": "1321 QUEEN ANNE AVE N", "postcode": "98109"}}},
{"geometry": {"type": "Point", "coordinates": [-122.3574197585, 47.6495657319]}, "type": "Feature", "properties": {"collection_times": [{"days": "Mon-Fri", "time": "3:15pm"}, {"days": "Sat", "time": "11:30am"}, {"days": "Sun", "time": "Closed"}], "id": "9810900930", "name": "USPS COLLECTION BOX - BLUE BOX", "address": {"city": "SEATTLE", "state": "WA", "street": "9 NICKERSON ST", "postcode": "98109"}}},
{"geometry": {"type": "Point", "coordinates": [-122.3566487014, 47.6285370114]}, "type": "Feature", "properties": {"collection_times": [{"days": "Mon-Fri", "time": "12:45pm"}, {"days": "Sat", "time": "12:00pm"}, {"days": "Sun", "time": "Closed"}], "id": "9810900931", "name": "USPS COLLECTION BOX - BLUE BOX", "address": {"city": "SEATTLE", "state": "WA", "street": "1012 QUEEN ANNE AVE N", "postcode": "98109"}}},
{"geometry": {"type": "Point", "coordinates": [-122.3568901685, 47.6431012128]}, "type": "Feature", "properties": {"collection_times": [{"days": "Mon-Fri", "time": "12:30pm"}, {"days": "Sat", "time": "11:30am"}, {"days": "Sun", "time": "Closed"}], "id": "9810900932", "name": "USPS COLLECTION BOX - BLUE BOX", "address": {"city": "SEATTLE", "state": "WA", "street": "2557 QUEEN ANNE AVE N", "postcode": "98109"}}},
{"geometry": {"type": "Point", "coordinates": [-122.3463196784, 47.6282926033]}, "type": "Feature", "properties": {"collection_times": [{"days": "Mon-Fri", "time": "12:45pm"}, {"days": "Sat", "time": "12:00pm"}, {"days": "Sun", "time": "Closed"}], "id": "9810901026", "name": "USPS COLLECTION BOX - BLUE BOX", "address": {"city": "SEATTLE", "state": "WA", "street": "1021 TAYLOR AVE N", "postcode": "98109"}}},
{"geometry": {"type": "Point", "coordinates": [-122.3403355146, 47.6340388502]}, "type": "Feature", "properties": {"collection_times": [{"days": "Mon-Fri", "time": "4:00pm"}, {"days": "Sat-Sun", "time": "Closed"}], "id": "9810901084", "name": "USPS COLLECTION BOX - BLUE BOX", "address": {"city": "SEATTLE", "state": "WA", "street": "1530 WESTLAKE AVE N", "postcode": "98109"}}},
{"geometry": {"type": "Point", "coordinates": [-122.3385416145, 47.6232785992]}, "type": "Feature", "properties": {"collection_times": [{"days": "Mon-Fri", "time": "3:45pm"}, {"days": "Sat-Sun", "time": "Closed"}], "id": "9810901093", "name": "USPS COLLECTION BOX - BLUE BOX", "address": {"city": "SEATTLE", "state": "WA", "street": "503 WESTLAKE AVE N", "postcode": "98109"}}},
{"geometry": {"type": "Point", "coordinates": [-122.3555415121, 47.6223140532]}, "type": "Feature", "properties": {"collection_times": [{"days": "Mon-Fri", "time": "6:00pm"}, {"days": "Sat", "time": "4:00pm"}, {"days": "Sun", "time": "Closed"}], "id": "9810901554", "name": "USPS COLLECTION BOX - PO LOBBY", "address": {"city": "SEATTLE", "state": "WA", "street": "415 1ST AVE N", "postcode": "98109"}}},
{"geometry": {"type": "Point", "coordinates": [-122.3555415121, 47.6223140532]}, "type": "Feature", "properties": {"collection_times": [{"days": "Mon-Fri", "time": "6:00pm"}, {"days": "Sat", "time": "4:00pm"}, {"days": "Sun", "time": "Closed"}], "id": "9810902177", "name": "USPS COLLECTION BOX - BLUE BOX", "address": {"city": "SEATTLE", "state": "WA", "street": "415 1ST AVE N", "postcode": "98109"}}},
{"geometry": {"type": "Point", "coordinates": [-122.3555415121, 47.6223140532]}, "type": "Feature", "properties": {"collection_times": [{"days": "Mon-Fri", "time": "6:00pm"}, {"days": "Sat", "time": "4:00pm"}, {"days": "Sun", "time": "Closed"}], "id": "9810902179", "name": "USPS COLLECTION BOX - BLUE BOX", "address": {"city": "SEATTLE", "state": "WA", "street": "415 1ST AVE N", "postcode": "98109"}}},
{"geometry": {"type": "Point", "coordinates": [-122.34036147, 47.6357776231]}, "type": "Feature", "properties": {"collection_times": [{"days": "Mon-Fri", "time": "3:45pm"}, {"days": "Sat-Sun", "time": "Closed"}], "id": "9810902190", "name": "USPS COLLECTION BOX - BLUE BOX", "address": {"city": "SEATTLE", "state": "WA", "street": "1818 WESTLAKE AVE N", "postcode": "98109"}}},
{"geometry": {"type": "Point", "coordinates": [-122.3383886902, 47.6220836035]}, "type": "Feature", "properties": {"collection_times": [{"days": "Mon-Fri", "time": "3:45pm"}, {"days": "Sat-Sun", "time": "Closed"}], "id": "9810902197", "name": "USPS COLLECTION BOX - BLUE BOX", "address": {"city": "SEATTLE", "state": "WA", "street": "400 WESTLAKE AVE N", "postcode": "98109"}}},
{"geometry": {"type": "Point", "coordinates": [-122.3448631483, 47.6254389652]}, "type": "Feature", "properties": {"collection_times": [{"days": "Mon-Fri", "time": "4:00pm"}, {"days": "Sat", "time": "12:00pm"}, {"days": "Sun", "time": "Closed"}], "id": "9810902200", "name": "USPS COLLECTION BOX - BLUE BOX", "address": {"city": "SEATTLE", "state": "WA", "street": "702 6TH AVE N", "postcode": "98109"}}},
{"geometry": {"type": "Point", "coordinates": [-122.3407526667, 47.6197626803]}, "type": "Feature", "properties": {"collection_times": [{"days": "Mon-Fri", "time": "3:45pm"}, {"days": "Sat-Sun", "time": "Closed"}], "id": "9810902202", "name": "USPS COLLECTION BOX - BLUE BOX", "address": {"city": "SEATTLE", "state": "WA", "street": "822 JOHN ST", "postcode": "98109"}}},
{"geometry": {"type": "Point", "coordinates": [-122.3314443469, 47.6220269782]}, "type": "Feature", "properties": {"collection_times": [{"days": "Mon-Fri", "time": "4:30pm"}, {"days": "Sat", "time": "11:30am"}, {"days": "Sun", "time": "Closed"}], "id": "9810902209", "name": "USPS COLLECTION BOX - BLUE BOX", "address": {"city": "SEATTLE", "state": "WA", "street": "1260 HARRISON ST", "postcode": "98109"}}},
{"geometry": {"type": "Point", "coordinates": [-122.340967961, 47.629834235]}, "type": "Feature", "properties": {"collection_times": [{"days": "Mon-Fri", "time": "4:30pm"}, {"days": "Sat-Sun", "time": "Closed"}], "id": "9810902224", "name": "USPS COLLECTION BOX - BLUE BOX", "address": {"city": "SEATTLE", "state": "WA", "street": "1200 WESTLAKE AVE N", "postcode": "98109"}}},
{"geometry": {"type": "Point", "coordinates": [-122.3423056087, 47.6212625716]}, "type": "Feature", "properties": {"collection_times": [{"days": "Mon-Fri", "time": "2:30pm"}, {"days": "Sat", "time": "12:00pm"}, {"days": "Sun", "time": "Closed"}], "id": "9810902228", "name": "USPS COLLECTION BOX - BLUE BOX", "address": {"city": "SEATTLE", "state": "WA", "street": "330 DEXTER AVE N", "postcode": "98109"}}},
{"geometry": {"type": "Point", "coordinates": [-122.3422984519, 47.6201276827]}, "type": "Feature", "properties": {"collection_times": [{"days": "Mon-Fri", "time": "2:30pm"}, {"days": "Sat", "time": "12:00pm"}, {"days": "Sun", "time": "Closed"}], "id": "9810902239", "name": "USPS COLLECTION BOX - BLUE BOX", "address": {"city": "SEATTLE", "state": "WA", "street": "234 DEXTER AVE N", "postcode": "98109"}}},
{"geometry": {"type": "Point", "coordinates": [-122.3309352176, 47.6261887284]}, "type": "Feature", "properties": {"collection_times": [{"days": "Mon-Fri", "time": "1:30pm"}, {"days": "Sat", "time": "11:30am"}, {"days": "Sun", "time": "Closed"}], "id": "9810902243", "name": "USPS COLLECTION BOX - BLUE BOX", "address": {"city": "SEATTLE", "state": "WA", "street": "823 YALE AVE N", "postcode": "98109"}}},
{"geometry": {"type": "Point", "coordinates": [-122.3423039286, 47.6185741635]}, "type": "Feature", "properties": {"collection_times": [{"days": "Mon-Fri", "time": "2:30pm"}, {"days": "Sat", "time": "12:00pm"}, {"days": "Sun", "time": "Closed"}], "id": "9810902246", "name": "USPS COLLECTION BOX - BLUE BOX", "address": {"city": "SEATTLE", "state": "WA", "street": "100 DEXTER AVE N", "postcode": "98109"}}},
{"geometry": {"type": "Point", "coordinates": [-122.3555415121, 47.6223140532]}, "type": "Feature", "properties": {"collection_times": [{"days": "Mon-Fri", "time": "6:00pm"}, {"days": "Sat", "time": "4:00pm"}, {"days": "Sun", "time": "Closed"}], "id": "9810902248", "name": "USPS COLLECTION BOX - APC", "address": {"city": "SEATTLE", "state": "WA", "street": "415 1ST AVE N", "postcode": "98109"}}},
{"geometry": {"type": "Point", "coordinates": [-122.3404137123, 47.6371585285]}, "type": "Feature", "properties": {"collection_times": [{"days": "Mon-Fri", "time": "3:45pm"}, {"days": "Sat", "time": "11:30am"}, {"days": "Sun", "time": "Closed"}], "id": "9810902249", "name": "USPS COLLECTION BOX - BLUE BOX", "address": {"city": "SEATTLE", "state": "WA", "street": "2046 WESTLAKE AVE N", "postcode": "98109"}}},
{"geometry": {"type": "Point", "coordinates": [-122.5197308778, 47.635693004]}, "type": "Feature", "properties": {"collection_times": [{"days": "Mon-Fri", "time": "4:00pm"}, {"days": "Sat", "time": "2:00pm"}, {"days": "Sun", "time": "Closed"}], "id": "9811000630", "name": "USPS COLLECTION BOX - BLUE BOX", "address": {"city": "BAINBRIDGE IS", "state": "WA", "street": "301 HIGH SCHOOL RD NE", "postcode": "98110"}}},
{"geometry": {"type": "Point", "coordinates": [-122.5311289398, 47.6415594789]}, "type": "Feature", "properties": {"collection_times": [{"days": "Mon-Sat", "time": "12:00pm"}, {"days": "Sun", "time": "Closed"}], "id": "9811000918", "name": "USPS COLLECTION BOX - BLUE BOX", "address": {"city": "BAINBRIDGE IS", "state": "WA", "street": "4569 LYNWOOD CENTER RD NE", "postcode": "98110"}}},
{"geometry": {"type": "Point", "coordinates": [-122.5141477341, 47.6249666403]}, "type": "Feature", "properties": {"collection_times": [{"days": "Mon-Fri", "time": "4:00pm"}, {"days": "Sat", "time": "2:30pm"}, {"days": "Sun", "time": "Closed"}], "id": "9811001468", "name": "USPS COLLECTION BOX - BLUE BOX", "address": {"city": "BAINBRIDGE IS", "state": "WA", "street": "600 WINSLOW WAY E", "postcode": "98110"}}},
{"geometry": {"type": "Point", "coordinates": [-122.520459412, 47.6249629483]}, "type": "Feature", "properties": {"collection_times": [{"days": "Mon-Fri", "time": "4:00pm"}, {"days": "Sat", "time": "2:00pm"}, {"days": "Sun", "time": "Closed"}], "id": "9811001469", "name": "USPS COLLECTION BOX - BLUE BOX", "address": {"city": "BAINBRIDGE IS", "state": "WA", "street": "140 WINSLOW WAY E", "postcode": "98110"}}},
{"geometry": {"type": "Point", "coordinates": [-122.56458, 47.642902]}, "type": "Feature", "properties": {"collection_times": [{"days": "Mon-Fri", "time": "11:00am"}, {"days": "Sat", "time": "10:00am"}, {"days": "Sun", "time": "Closed"}], "id": "9811001470", "name": "USPS COLLECTION BOX - BLUE BOX", "address": {"city": "BAINBRIDGE IS", "state": "WA", "street": "8800 FLETCHER BAY RD NE", "postcode": "98110"}}},
{"geometry": {"type": "Point", "coordinates": [-122.5190080284, 47.6248404532]}, "type": "Feature", "properties": {"collection_times": [{"days": "Mon-Fri", "time": "5:15pm"}, {"days": "Sat", "time": "3:15pm"}, {"days": "Sun", "time": "Closed"}], "id": "9811001560", "name": "USPS COLLECTION BOX - PO LOBBY", "address": {"city": "BAINBRIDGE IS", "state": "WA", "street": "271 WINSLOW WAY E", "postcode": "98110"}}},
{"geometry": {"type": "Point", "coordinates": [-122.5190080284, 47.6248404532]}, "type": "Feature", "properties": {"collection_times": [{"days": "Mon-Fri", "time": "5:15pm"}, {"days": "Sat", "time": "3:15pm"}, {"days": "Sun", "time": "Closed"}], "id": "9811001570", "name": "USPS COLLECTION BOX - APC", "address": {"city": "BAINBRIDGE IS", "state": "WA", "street": "271 WINSLOW WAY E", "postcode": "98110"}}},
{"geometry": {"type": "Point", "coordinates": [-122.5190080282, 47.6248404533]}, "type": "Feature", "properties": {"collection_times": [{"days": "Mon-Fri", "time": "5:15pm"}, {"days": "Sat", "time": "3:15pm"}, {"days": "Sun", "time": "Closed"}], "id": "9811001571", "name": "USPS COLLECTION BOX - BLUE BOX", "address": {"city": "BAINBRIDGE IS", "state": "WA", "street": "271 WINSLOW WAY E", "postcode": "98110"}}},
{"geometry": {"type": "Point", "coordinates": [-122.5190080284, 47.6248404532]}, "type": "Feature", "properties": {"collection_times": [{"days": "Mon-Fri", "time": "5:15pm"}, {"days": "Sat", "time": "3:15pm"}, {"days": "Sun", "time": "Closed"}], "id": "9811001572", "name": "USPS COLLECTION BOX - BLUE BOX", "address": {"city": "BAINBRIDGE IS", "state": "WA", "street": "271 WINSLOW WAY E", "postcode": "98110"}}},
{"geometry": {"type": "Point", "coordinates": [-122.3123982736, 47.633384005]}, "type": "Feature", "properties": {"collection_times": [{"days": "Mon-Fri", "time": "12:30pm"}, {"days": "Sat", "time": "1:30pm"}, {"days": "Sun", "time": "Closed"}], "id": "9811200291", "name": "USPS COLLECTION BOX - BLUE BOX", "address": {"city": "SEATTLE", "state": "WA", "street": "1500 15TH AVE E", "postcode": "98112"}}},
{"geometry": {"type": "Point", "coordinates": [-122.3128195714, 47.603558458]}, "type": "Feature", "properties": {"collection_times": [{"days": "Mon-Fri", "time": "4:00pm"}, {"days": "Sat", "time": "1:30pm"}, {"days": "Sun", "time": "Closed"}], "id": "9811200294", "name": "USPS COLLECTION BOX - BLUE BOX", "address": {"city": "SEATTLE", "state": "WA", "street": "200 15TH AVE E", "postcode": "98112"}}},
{"geometry": {"type": "Point", "coordinates": [-122.3104637609, 47.6395842758]}, "type": "Feature", "properties": {"collection_times": [{"days": "Mon-Fri", "time": "12:30pm"}, {"days": "Sat", "time": "1:30pm"}, {"days": "Sun", "time": "Closed"}], "id": "9811200325", "name": "USPS COLLECTION BOX - BLUE BOX", "address": {"city": "SEATTLE", "state": "WA", "street": "1602 E LYNN ST", "postcode": "98112"}}},
{"geometry": {"type": "Point", "coordinates": [-122.3099722326, 47.6335049904]}, "type": "Feature", "properties": {"collection_times": [{"days": "Mon-Fri", "time": "12:30pm"}, {"days": "Sat", "time": "1:30pm"}, {"days": "Sun", "time": "Closed"}], "id": "9811200335", "name": "USPS COLLECTION BOX - BLUE BOX", "address": {"city": "SEATTLE", "state": "WA", "street": "1501 17TH AVE E", "postcode": "98112"}}},
{"geometry": {"type": "Point", "coordinates": [-122.30569, 47.645535]}, "type": "Feature", "properties": {"collection_times": [{"days": "Mon-Fri", "time": "3:30pm"}, {"days": "Sat-Sun", "time": "Closed"}], "id": "9811200351", "name": "USPS COLLECTION BOX - BLUE BOX", "address": {"city": "SEATTLE", "state": "WA", "street": "2725 MONTLAKE BLVD E", "postcode": "98112"}}},
{"geometry": {"type": "Point", "coordinates": [-122.3073404487, 47.6380053924]}, "type": "Feature", "properties": {"collection_times": [{"days": "Mon-Fri", "time": "12:30pm"}, {"days": "Sat", "time": "1:30pm"}, {"days": "Sun", "time": "Closed"}], "id": "9811200360", "name": "USPS COLLECTION BOX - BLUE BOX", "address": {"city": "SEATTLE", "state": "WA", "street": "2100 BOYER AVE E", "postcode": "98112"}}},
{"geometry": {"type": "Point", "coordinates": [-122.3075418523, 47.611615577]}, "type": "Feature", "properties": {"collection_times": [{"days": "Mon-Fri", "time": "12:30pm"}, {"days": "Sat", "time": "1:30pm"}, {"days": "Sun", "time": "Closed"}], "id": "9811200362", "name": "USPS COLLECTION BOX - BLUE BOX", "address": {"city": "SEATTLE", "state": "WA", "street": "1100 19TH AVE E", "postcode": "98112"}}},
{"geometry": {"type": "Point", "coordinates": [-122.3073726011, 47.6232624678]}, "type": "Feature", "properties": {"collection_times": [{"days": "Mon-Fri", "time": "12:30pm"}, {"days": "Sat", "time": "1:30pm"}, {"days": "Sun", "time": "Closed"}], "id": "9811200363", "name": "USPS COLLECTION BOX - BLUE BOX", "address": {"city": "SEATTLE", "state": "WA", "street": "501 19TH AVE E", "postcode": "98112"}}},
{"geometry": {"type": "Point", "coordinates": [-122.3083840066, 47.6205533377]}, "type": "Feature", "properties": {"collection_times": [{"days": "Mon-Fri", "time": "12:30pm"}, {"days": "Sat", "time": "1:30pm"}, {"days": "Sun", "time": "Closed"}], "id": "9811200364", "name": "USPS COLLECTION BOX - BLUE BOX", "address": {"city": "SEATTLE", "state": "WA", "street": "1820 E THOMAS ST", "postcode": "98112"}}},
{"geometry": {"type": "Point", "coordinates": [-122.3043443142, 47.5797478454]}, "type": "Feature", "properties": {"collection_times": [{"days": "Mon-Fri", "time": "12:30pm"}, {"days": "Sat", "time": "1:30pm"}, {"days": "Sun", "time": "Closed"}], "id": "9811200384", "name": "USPS COLLECTION BOX - BLUE BOX", "address": {"city": "SEATTLE", "state": "WA", "street": "2605 22ND AVE E", "postcode": "98112"}}},
{"geometry": {"type": "Point", "coordinates": [-122.3019802816, 47.6395545263]}, "type": "Feature", "properties": {"collection_times": [{"days": "Mon-Fri", "time": "12:30pm"}, {"days": "Sat", "time": "1:30pm"}, {"days": "Sun", "time": "Closed"}], "id": "9811200396", "name": "USPS COLLECTION BOX - BLUE BOX", "address": {"city": "SEATTLE", "state": "WA", "street": "2300 24TH AVE E", "postcode": "98112"}}},
{"geometry": {"type": "Point", "coordinates": [-122.2962083934, 47.6235524332]}, "type": "Feature", "properties": {"collection_times": [{"days": "Mon-Fri", "time": "3:45pm"}, {"days": "Sat", "time": "1:30pm"}, {"days": "Sun", "time": "Closed"}], "id": "9811200426", "name": "USPS COLLECTION BOX - BLUE BOX", "address": {"city": "SEATTLE", "state": "WA", "street": "2802 E MADISON ST", "postcode": "98112"}}},
{"geometry": {"type": "Point", "coordinates": [-122.2867011183, 47.6281360503]}, "type": "Feature", "properties": {"collection_times": [{"days": "Mon-Sat", "time": "1:30pm"}, {"days": "Sun", "time": "Closed"}], "id": "9811200510", "name": "USPS COLLECTION BOX - BLUE BOX", "address": {"city": "SEATTLE", "state": "WA", "street": "1030 36TH AVE E", "postcode": "98112"}}},
{"geometry": {"type": "Point", "coordinates": [-122.2918774455, 47.6263406396]}, "type": "Feature", "properties": {"collection_times": [{"days": "Mon-Fri", "time": "3:30pm"}, {"days": "Sat", "time": "1:30pm"}, {"days": "Sun", "time": "Closed"}], "id": "9811200830", "name": "USPS COLLECTION BOX - BLUE BOX", "address": {"city": "SEATTLE", "state": "WA", "street": "3109 E MADISON ST", "postcode": "98112"}}},
{"geometry": {"type": "Point", "coordinates": [-122.313367531, 47.6230723871]}, "type": "Feature", "properties": {"collection_times": [{"days": "Mon-Fri", "time": "4:00pm"}, {"days": "Sat", "time": "1:30pm"}, {"days": "Sun", "time": "Closed"}], "id": "9811201441", "name": "USPS COLLECTION BOX - BLUE BOX", "address": {"city": "SEATTLE", "state": "WA", "street": "1463 E REPUBLICAN ST", "postcode": "98112"}}},
{"geometry": {"type": "Point", "coordinates": [-122.3088058236, 47.645546298]}, "type": "Feature", "properties": {"collection_times": [{"days": "Mon-Fri", "time": "3:30pm"}, {"days": "Sat", "time": "1:30pm"}, {"days": "Sun", "time": "Closed"}], "id": "9811201444", "name": "USPS COLLECTION BOX - BLUE BOX", "address": {"city": "SEATTLE", "state": "WA", "street": "1807 E HAMLIN ST", "postcode": "98112"}}},
{"geometry": {"type": "Point", "coordinates": [-122.2794047026, 47.6349604234]}, "type": "Feature", "properties": {"collection_times": [{"days": "Mon-Fri", "time": "3:30pm"}, {"days": "Sat", "time": "1:30pm"}, {"days": "Sun", "time": "Closed"}], "id": "9811201445", "name": "USPS COLLECTION BOX - BLUE BOX", "address": {"city": "SEATTLE", "state": "WA", "street": "4128 E MADISON ST", "postcode": "98112"}}},
{"geometry": {"type": "Point", "coordinates": [-122.3125486102, 47.6255477]}, "type": "Feature", "properties": {"collection_times": [{"days": "Mon-Fri", "time": "12:30pm"}, {"days": "Sat", "time": "1:30pm"}, {"days": "Sun", "time": "Closed"}], "id": "9811201447", "name": "USPS COLLECTION BOX - BLUE BOX", "address": {"city": "SEATTLE", "state": "WA", "street": "706 15TH AVE E", "postcode": "98112"}}},
{"geometry": {"type": "Point", "coordinates": [-122.3279218693, 47.6850311933]}, "type": "Feature", "properties": {"collection_times": [{"days": "Mon-Sat", "time": "12:00pm"}, {"days": "Sun", "time": "Closed"}], "id": "9811500112", "name": "USPS COLLECTION BOX - BLUE BOX", "address": {"city": "SEATTLE", "state": "WA", "street": "100 NE 77TH ST", "postcode": "98115"}}},
{"geometry": {"type": "Point", "coordinates": [-122.322884985, 47.6891246469]}, "type": "Feature", "properties": {"collection_times": [{"days": "Mon-Fri", "time": "2:30pm"}, {"days": "Sat", "time": "12:30pm"}, {"days": "Sun", "time": "Closed"}], "id": "9811500149", "name": "USPS COLLECTION BOX - BLUE BOX", "address": {"city": "SEATTLE", "state": "WA", "street": "8320 5TH AVE NE", "postcode": "98115"}}},
{"geometry": {"type": "Point", "coordinates": [-122.3121081594, 47.6876718185]}, "type": "Feature", "properties": {"collection_times": [{"days": "Mon-Fri", "time": "1:00pm"}, {"days": "Sat", "time": "9:30am"}, {"days": "Sun", "time": "Closed"}], "id": "9811500297", "name": "USPS COLLECTION BOX - BLUE BOX", "address": {"city": "SEATTLE", "state": "WA", "street": "8014 15TH AVE NE", "postcode": "98115"}}},
{"geometry": {"type": "Point", "coordinates": [-122.3088431072, 47.6832153513]}, "type": "Feature", "properties": {"collection_times": [{"days": "Mon-Sat", "time": "12:00pm"}, {"days": "Sun", "time": "Closed"}], "id": "9811500356", "name": "USPS COLLECTION BOX - BLUE BOX", "address": {"city": "SEATTLE", "state": "WA", "street": "7503 18TH AVE NE", "postcode": "98115"}}},
{"geometry": {"type": "Point", "coordinates": [-122.3066470503, 47.6767271452]}, "type": "Feature", "properties": {"collection_times": [{"days": "Mon-Fri", "time": "11:45am"}, {"days": "Sat", "time": "12:30pm"}, {"days": "Sun", "time": "Closed"}], "id": "9811500373", "name": "USPS COLLECTION BOX - BLUE BOX", "address": {"city": "SEATTLE", "state": "WA", "street": "6501 20TH AVE NE", "postcode": "98115"}}},
{"geometry": {"type": "Point", "coordinates": [-122.306686573, 47.6847212581]}, "type": "Feature", "properties": {"collection_times": [{"days": "Mon-Sat", "time": "12:00pm"}, {"days": "Sun", "time": "Closed"}], "id": "9811500374", "name": "USPS COLLECTION BOX - BLUE BOX", "address": {"city": "SEATTLE", "state": "WA", "street": "7557 20TH AVE NE", "postcode": "98115"}}},
{"geometry": {"type": "Point", "coordinates": [-122.2902069074, 47.6753612745]}, "type": "Feature", "properties": {"collection_times": [{"days": "Mon-Fri", "time": "11:15am"}, {"days": "Sat", "time": "12:30pm"}, {"days": "Sun", "time": "Closed"}], "id": "9811500491", "name": "USPS COLLECTION BOX - BLUE BOX", "address": {"city": "SEATTLE", "state": "WA", "street": "6256 35TH AVE NE", "postcode": "98115"}}},
{"geometry": {"type": "Point", "coordinates": [-122.2848703459, 47.6770702773]}, "type": "Feature", "properties": {"collection_times": [{"days": "Mon-Fri", "time": "11:15am"}, {"days": "Sat", "time": "12:30pm"}, {"days": "Sun", "time": "Closed"}], "id": "9811500530", "name": "USPS COLLECTION BOX - BLUE BOX", "address": {"city": "SEATTLE", "state": "WA", "street": "6514 40TH AVE NE", "postcode": "98115"}}},
{"geometry": {"type": "Point", "coordinates": [-122.2764424471, 47.6831080931]}, "type": "Feature", "properties": {"collection_times": [{"days": "Mon-Fri", "time": "11:30am"}, {"days": "Sat", "time": "12:30pm"}, {"days": "Sun", "time": "Closed"}], "id": "9811500554", "name": "USPS COLLECTION BOX - BLUE BOX", "address": {"city": "SEATTLE", "state": "WA", "street": "4802 NE 75TH ST", "postcode": "98115"}}},
{"geometry": {"type": "Point", "coordinates": [-122.2704974923, 47.6759342389]}, "type": "Feature", "properties": {"collection_times": [{"days": "Mon-Fri", "time": "11:30am"}, {"days": "Sat", "time": "12:30pm"}, {"days": "Sun", "time": "Closed"}], "id": "9811500569", "name": "USPS COLLECTION BOX - BLUE BOX", "address": {"city": "SEATTLE", "state": "WA", "street": "6504 53RD AVE NE", "postcode": "98115"}}},
{"geometry": {"type": "Point", "coordinates": [-122.2639153166, 47.6838659013]}, "type": "Feature", "properties": {"collection_times": [{"days": "Mon-Fri", "time": "3:00pm"}, {"days": "Sat-Sun", "time": "Closed"}], "id": "9811500987", "name": "USPS COLLECTION BOX - BLUE BOX", "address": {"city": "SEATTLE", "state": "WA", "street": "7601 SAND POINT WAY NE", "postcode": "98115"}}},
{"geometry": {"type": "Point", "coordinates": [-122.2906764063, 47.693601731]}, "type": "Feature", "properties": {"collection_times": [{"days": "Mon-Fri", "time": "11:30am"}, {"days": "Sat", "time": "1:00pm"}, {"days": "Sun", "time": "Closed"}], "id": "9811501549", "name": "USPS COLLECTION BOX - BLUE BOX", "address": {"city": "SEATTLE", "state": "WA", "street": "8917 35TH AVE NE", "postcode": "98115"}}},
{"geometry": {"type": "Point", "coordinates": [-122.3175255828, 47.692501334]}, "type": "Feature", "properties": {"collection_times": [{"days": "Mon-Sat", "time": "1:00pm"}, {"days": "Sun", "time": "Closed"}], "id": "9811501550", "name": "USPS COLLECTION BOX - BLUE BOX", "address": {"city": "SEATTLE", "state": "WA", "street": "8830 ROOSEVELT WAY NE", "postcode": "98115"}}},
{"geometry": {"type": "Point", "coordinates": [-122.3122749673, 47.6909703989]}, "type": "Feature", "properties": {"collection_times": [{"days": "Mon-Fri", "time": "12:15pm"}, {"days": "Sat", "time": "1:00pm"}, {"days": "Sun", "time": "Closed"}], "id": "9811501558", "name": "USPS COLLECTION BOX - BLUE BOX", "address": {"city": "SEATTLE", "state": "WA", "street": "8501 15TH AVE NE", "postcode": "98115"}}},
{"geometry": {"type": "Point", "coordinates": [-122.3241505031, 47.6784358421]}, "type": "Feature", "properties": {"collection_times": [{"days": "Mon-Fri", "time": "4:15pm"}, {"days": "Sat", "time": "9:30am"}, {"days": "Sun", "time": "Closed"}], "id": "9811501568", "name": "USPS COLLECTION BOX - BLUE BOX", "address": {"city": "SEATTLE", "state": "WA", "street": "444 NE RAVENNA BLVD", "postcode": "98115"}}},
{"geometry": {"type": "Point", "coordinates": [-122.3246537032, 47.6799635216]}, "type": "Feature", "properties": {"collection_times": [{"days": "Mon-Fri", "time": "4:30pm"}, {"days": "Sat", "time": "12:00pm"}, {"days": "Sun", "time": "Closed"}], "id": "9811501572", "name": "USPS COLLECTION BOX - BLUE BOX", "address": {"city": "SEATTLE", "state": "WA", "street": "7119 WOODLAWN AVE NE", "postcode": "98115"}}},
{"geometry": {"type": "Point", "coordinates": [-122.2904665201, 47.6854534524]}, "type": "Feature", "properties": {"collection_times": [{"days": "Mon-Fri", "time": "5:30pm"}, {"days": "Sat", "time": "3:00pm"}, {"days": "Sun", "time": "Closed"}], "id": "9811501575", "name": "USPS COLLECTION BOX - PO LOBBY", "address": {"city": "SEATTLE", "state": "WA", "street": "7724 35TH AVE NE", "postcode": "98115"}}},
{"geometry": {"type": "Point", "coordinates": [-122.2904665201, 47.6854534524]}, "type": "Feature", "properties": {"collection_times": [{"days": "Mon-Fri", "time": "5:30pm"}, {"days": "Sat", "time": "3:00pm"}, {"days": "Sun", "time": "Closed"}], "id": "9811501576", "name": "USPS COLLECTION BOX - BLUE BOX", "address": {"city": "SEATTLE", "state": "WA", "street": "7724 35TH AVE NE", "postcode": "98115"}}},
{"geometry": {"type": "Point", "coordinates": [-122.3701050031, 47.6759720936]}, "type": "Feature", "properties": {"collection_times": [{"days": "Mon-Fri", "time": "4:00pm"}, {"days": "Sat", "time": "12:00pm"}, {"days": "Sun", "time": "Closed"}], "id": "9811501580", "name": "USPS COLLECTION BOX - BLUE BOX", "address": {"city": "SEATTLE", "state": "WA", "street": "1006 NE 65TH ST", "postcode": "98115"}}},
{"geometry": {"type": "Point", "coordinates": [-122.3037442902, 47.6780303135]}, "type": "Feature", "properties": {"collection_times": [{"days": "Mon-Fri", "time": "4:00pm"}, {"days": "Sat", "time": "9:00am"}, {"days": "Sun", "time": "Closed"}], "id": "9811501588", "name": "USPS COLLECTION BOX - BLUE BOX", "address": {"city": "SEATTLE", "state": "WA", "street": "6500 RAVENNA AVE NE", "postcode": "98115"}}},
{"geometry": {"type": "Point", "coordinates": [-122.2907633265, 47.6894128007]}, "type": "Feature", "properties": {"collection_times": [{"days": "Mon-Fri", "time": "1:00pm"}, {"days": "Sat", "time": "12:00pm"}, {"days": "Sun", "time": "Closed"}], "id": "9811501590", "name": "USPS COLLECTION BOX - BLUE BOX", "address": {"city": "SEATTLE", "state": "WA", "street": "8405 35TH AVE NE", "postcode": "98115"}}},
{"geometry": {"type": "Point", "coordinates": [-122.2904665201, 47.6854534524]}, "type": "Feature", "properties": {"collection_times": [{"days": "Mon-Fri", "time": "5:30pm"}, {"days": "Sat", "time": "3:00pm"}, {"days": "Sun", "time": "Closed"}], "id": "9811501593", "name": "USPS COLLECTION BOX - APC", "address": {"city": "SEATTLE", "state": "WA", "street": "7724 35TH AVE NE", "postcode": "98115"}}},
{"geometry": {"type": "Point", "coordinates": [-122.2636070218, 47.6825843584]}, "type": "Feature", "properties": {"collection_times": [{"days": "Mon-Fri", "time": "3:00pm"}, {"days": "Sat-Sun", "time": "Closed"}], "id": "9811501594", "name": "USPS COLLECTION BOX - BLUE BOX", "address": {"city": "SEATTLE", "state": "WA", "street": "7400 SAND POINT WAY NE", "postcode": "98115"}}},
{"geometry": {"type": "Point", "coordinates": [-122.4134024842, 47.5742967705]}, "type": "Feature", "properties": {"collection_times": [{"days": "Mon-Fri", "time": "11:30am"}, {"days": "Sat", "time": "12:30pm"}, {"days": "Sun", "time": "Closed"}], "id": "9811600581", "name": "USPS COLLECTION BOX - BLUE BOX", "address": {"city": "SEATTLE", "state": "WA", "street": "3254 63RD AVE SW", "postcode": "98116"}}},
{"geometry": {"type": "Point", "coordinates": [-122.4108545324, 47.5789865486]}, "type": "Feature", "properties": {"collection_times": [{"days": "Mon-Sat", "time": "11:30am"}, {"days": "Sun", "time": "Closed"}], "id": "9811600599", "name": "USPS COLLECTION BOX - BLUE BOX", "address": {"city": "SEATTLE", "state": "WA", "street": "2738 ALKI AVE SW", "postcode": "98116"}}},
{"geometry": {"type": "Point", "coordinates": [-122.3865008888, 47.5836343477]}, "type": "Feature", "properties": {"collection_times": [{"days": "Mon-Fri", "time": "4:00pm"}, {"days": "Sat", "time": "11:30am"}, {"days": "Sun", "time": "Closed"}], "id": "9811600692", "name": "USPS COLLECTION BOX - BLUE BOX", "address": {"city": "SEATTLE", "state": "WA", "street": "2237 CALIFORNIA AVE SW", "postcode": "98116"}}},
{"geometry": {"type": "Point", "coordinates": [-122.394647972, 47.57525904]}, "type": "Feature", "properties": {"collection_times": [{"days": "Mon-Fri", "time": "3:30pm"}, {"days": "Sat", "time": "12:30pm"}, {"days": "Sun", "time": "Closed"}], "id": "9811600701", "name": "USPS COLLECTION BOX - BLUE BOX", "address": {"city": "SEATTLE", "state": "WA", "street": "3045 CALIFORNIA AVE SW", "postcode": "98116"}}},
{"geometry": {"type": "Point", "coordinates": [-122.3854244436, 47.5610130739]}, "type": "Feature", "properties": {"collection_times": [{"days": "Mon-Fri", "time": "3:30pm"}, {"days": "Sat", "time": "12:30pm"}, {"days": "Sun", "time": "Closed"}], "id": "9811601445", "name": "USPS COLLECTION BOX - BLUE BOX", "address": {"city": "SEATTLE", "state": "WA", "street": "4199 SW ALASKA ST", "postcode": "98116"}}},
{"geometry": {"type": "Point", "coordinates": [-122.3867016854, 47.5644990069]}, "type": "Feature", "properties": {"collection_times": [{"days": "Mon-Fri", "time": "5:00pm"}, {"days": "Sat", "time": "3:00pm"}, {"days": "Sun", "time": "Closed"}], "id": "9811601557", "name": "USPS COLLECTION BOX - PO LOBBY", "address": {"city": "SEATTLE", "state": "WA", "street": "4412 CALIFORNIA AVE SW", "postcode": "98116"}}},
{"geometry": {"type": "Point", "coordinates": [-122.3867016854, 47.5644990069]}, "type": "Feature", "properties": {"collection_times": [{"days": "Mon-Fri", "time": "5:00pm"}, {"days": "Sat", "time": "3:00pm"}, {"days": "Sun", "time": "Closed"}], "id": "9811601561", "name": "USPS COLLECTION BOX - BLUE BOX", "address": {"city": "SEATTLE", "state": "WA", "street": "4412 CALIFORNIA AVE SW", "postcode": "98116"}}},
{"geometry": {"type": "Point", "coordinates": [-122.3869060382, 47.5600502294]}, "type": "Feature", "properties": {"collection_times": [{"days": "Mon-Fri", "time": "3:30pm"}, {"days": "Sat", "time": "12:30pm"}, {"days": "Sun", "time": "Closed"}], "id": "9811601564", "name": "USPS COLLECTION BOX - BLUE BOX", "address": {"city": "SEATTLE", "state": "WA", "street": "4759 CALIFORNIA AVE SW", "postcode": "98116"}}},
{"geometry": {"type": "Point", "coordinates": [-122.3867016854, 47.5644990069]}, "type": "Feature", "properties": {"collection_times": [{"days": "Mon-Fri", "time": "5:00pm"}, {"days": "Sat", "time": "3:00pm"}, {"days": "Sun", "time": "Closed"}], "id": "9811601565", "name": "USPS COLLECTION BOX - APC", "address": {"city": "SEATTLE", "state": "WA", "street": "4412 CALIFORNIA AVE SW", "postcode": "98116"}}},
{"geometry": {"type": "Point", "coordinates": [-122.3605606679, 47.6803289449]}, "type": "Feature", "properties": {"collection_times": [{"days": "Mon-Fri", "time": "12:30pm"}, {"days": "Sat", "time": "1:30pm"}, {"days": "Sun", "time": "Closed"}], "id": "9811700051", "name": "USPS COLLECTION BOX - BLUE BOX", "address": {"city": "SEATTLE", "state": "WA", "street": "7001 3RD AVE NW", "postcode": "98117"}}},
{"geometry": {"type": "Point", "coordinates": [-122.3505175685, 47.6760608155]}, "type": "Feature", "properties": {"collection_times": [{"days": "Mon-Fri", "time": "12:30pm"}, {"days": "Sat", "time": "1:30pm"}, {"days": "Sun", "time": "Closed"}], "id": "9811700194", "name": "USPS COLLECTION BOX - BLUE BOX", "address": {"city": "SEATTLE", "state": "WA", "street": "618 NW 65TH ST", "postcode": "98117"}}},
{"geometry": {"type": "Point", "coordinates": [-122.370396011, 47.686625822]}, "type": "Feature", "properties": {"collection_times": [{"days": "Mon-Fri", "time": "12:00pm"}, {"days": "Sat", "time": "1:00pm"}, {"days": "Sun", "time": "Closed"}], "id": "9811700252", "name": "USPS COLLECTION BOX - BLUE BOX", "address": {"city": "SEATTLE", "state": "WA", "street": "7751 11TH AVE NW", "postcode": "98117"}}},
{"geometry": {"type": "Point", "coordinates": [-122.3766912316, 47.6780860996]}, "type": "Feature", "properties": {"collection_times": [{"days": "Mon-Fri", "time": "12:00pm"}, {"days": "Sat", "time": "1:00pm"}, {"days": "Sun", "time": "Closed"}], "id": "9811700312", "name": "USPS COLLECTION BOX - BLUE BOX", "address": {"city": "SEATTLE", "state": "WA", "street": "6754 15TH AVE NW", "postcode": "98117"}}},
{"geometry": {"type": "Point", "coordinates": [-122.3767310761, 47.6891270317]}, "type": "Feature", "properties": {"collection_times": [{"days": "Mon-Fri", "time": "3:00pm"}, {"days": "Sat", "time": "1:00pm"}, {"days": "Sun", "time": "Closed"}], "id": "9811700315", "name": "USPS COLLECTION BOX - BLUE BOX", "address": {"city": "SEATTLE", "state": "WA", "street": "8340 15TH AVE NW", "postcode": "98117"}}},
{"geometry": {"type": "Point", "coordinates": [-122.3813111733, 47.6887172935]}, "type": "Feature", "properties": {"collection_times": [{"days": "Mon-Fri", "time": "2:00pm"}, {"days": "Sat", "time": "2:30pm"}, {"days": "Sun", "time": "Closed"}], "id": "9811700368", "name": "USPS COLLECTION BOX - BLUE BOX", "address": {"city": "SEATTLE", "state": "WA", "street": "1902 NW 83RD ST", "postcode": "98117"}}},
{"geometry": {"type": "Point", "coordinates": [-122.3022800508, 47.5442271366]}, "type": "Feature", "properties": {"collection_times": [{"days": "Mon-Fri", "time": "1:00pm"}, {"days": "Sat", "time": "2:30pm"}, {"days": "Sun", "time": "Closed"}], "id": "9811700401", "name": "USPS COLLECTION BOX - BLUE BOX", "address": {"city": "SEATTLE", "state": "WA", "street": "6501 24TH AVE NW", "postcode": "98117"}}},
{"geometry": {"type": "Point", "coordinates": [-122.3800878587, 47.6876383087]}, "type": "Feature", "properties": {"collection_times": [{"days": "Mon-Fri", "time": "1:30pm"}, {"days": "Sat", "time": "2:00pm"}, {"days": "Sun", "time": "Closed"}], "id": "9811700402", "name": "USPS COLLECTION BOX - BLUE BOX", "address": {"city": "SEATTLE", "state": "WA", "street": "6754 24TH AVE NW", "postcode": "98117"}}},
{"geometry": {"type": "Point", "coordinates": [-122.3875891366, 47.6833159028]}, "type": "Feature", "properties": {"collection_times": [{"days": "Mon-Sat", "time": "2:00pm"}, {"days": "Sun", "time": "Closed"}], "id": "9811700404", "name": "USPS COLLECTION BOX - BLUE BOX", "address": {"city": "SEATTLE", "state": "WA", "street": "7500 24TH AVE NW", "postcode": "98117"}}},
{"geometry": {"type": "Point", "coordinates": [-122.3875372362, 47.6880316148]}, "type": "Feature", "properties": {"collection_times": [{"days": "Mon-Fri", "time": "3:30pm"}, {"days": "Sat", "time": "2:00pm"}, {"days": "Sun", "time": "Closed"}], "id": "9811700405", "name": "USPS COLLECTION BOX - BLUE BOX", "address": {"city": "SEATTLE", "state": "WA", "street": "8000 24TH AVE NW", "postcode": "98117"}}},
{"geometry": {"type": "Point", "coordinates": [-122.4045522698, 47.6804592481]}, "type": "Feature", "properties": {"collection_times": [{"days": "Mon-Fri", "time": "1:30pm"}, {"days": "Sat", "time": "3:00pm"}, {"days": "Sun", "time": "Closed"}], "id": "9811700993", "name": "USPS COLLECTION BOX - BLUE BOX", "address": {"city": "SEATTLE", "state": "WA", "street": "7001 SEAVIEW AVE NW", "postcode": "98117"}}},
{"geometry": {"type": "Point", "coordinates": [-122.3766947589, 47.6933479593]}, "type": "Feature", "properties": {"collection_times": [{"days": "Mon-Fri", "time": "3:30pm"}, {"days": "Sat", "time": "1:00pm"}, {"days": "Sun", "time": "Closed"}], "id": "9811701574", "name": "USPS COLLECTION BOX - BLUE BOX", "address": {"city": "SEATTLE", "state": "WA", "street": "8728 15TH AVE NW", "postcode": "98117"}}},
{"geometry": {"type": "Point", "coordinates": [-122.3624709472, 47.701588775]}, "type": "Feature", "properties": {"collection_times": [{"days": "Mon-Fri", "time": "12:30pm"}, {"days": "Sat", "time": "11:00am"}, {"days": "Sun", "time": "Closed"}], "id": "9811701586", "name": "USPS COLLECTION BOX - BLUE BOX", "address": {"city": "SEATTLE", "state": "WA", "street": "9999 HOLMAN RD NW", "postcode": "98117"}}},
{"geometry": {"type": "Point", "coordinates": [-122.3983043789, 47.6903840826]}, "type": "Feature", "properties": {"collection_times": [{"days": "Mon-Fri", "time": "1:30pm"}, {"days": "Sat", "time": "2:00pm"}, {"days": "Sun", "time": "Closed"}], "id": "9811701587", "name": "USPS COLLECTION BOX - BLUE BOX", "address": {"city": "SEATTLE", "state": "WA", "street": "8371 32ND AVE NW", "postcode": "98117"}}},
{"geometry": {"type": "Point", "coordinates": [-122.38527172, 47.6930149834]}, "type": "Feature", "properties": {"collection_times": [{"days": "Mon-Fri", "time": "2:00pm"}, {"days": "Sat", "time": "2:30pm"}, {"days": "Sun", "time": "Closed"}], "id": "9811701588", "name": "USPS COLLECTION BOX - BLUE BOX", "address": {"city": "SEATTLE", "state": "WA", "street": "2303 NW 89TH PL", "postcode": "98117"}}},
{"geometry": {"type": "Point", "coordinates": [-122.2698457091, 47.5549039571]}, "type": "Feature", "properties": {"collection_times": [{"days": "Mon-Fri", "time": "3:15pm"}, {"days": "Sat", "time": "11:45am"}, {"days": "Sun", "time": "Closed"}], "id": "9811800567", "name": "USPS COLLECTION BOX - BLUE BOX", "address": {"city": "SEATTLE", "state": "WA", "street": "5100 S DAWSON ST", "postcode": "98118"}}},
{"geometry": {"type": "Point", "coordinates": [-122.2670923987, 47.5433466831]}, "type": "Feature", "properties": {"collection_times": [{"days": "Mon-Fri", "time": "11:45am"}, {"days": "Sat", "time": "11:30am"}, {"days": "Sun", "time": "Closed"}], "id": "9811800568", "name": "USPS COLLECTION BOX - BLUE BOX", "address": {"city": "SEATTLE", "state": "WA", "street": "6500 52ND AVE S", "postcode": "98118"}}},
{"geometry": {"type": "Point", "coordinates": [-122.265432062, 47.5168475514]}, "type": "Feature", "properties": {"collection_times": [{"days": "Mon-Sat", "time": "11:30am"}, {"days": "Sun", "time": "Closed"}], "id": "9811800573", "name": "USPS COLLECTION BOX - BLUE BOX", "address": {"city": "SEATTLE", "state": "WA", "street": "5318 S ROXBURY ST", "postcode": "98118"}}},
{"geometry": {"type": "Point", "coordinates": [-122.285640049, 47.5590903648]}, "type": "Feature", "properties": {"collection_times": [{"days": "Mon-Fri", "time": "3:30pm"}, {"days": "Sat", "time": "11:45am"}, {"days": "Sun", "time": "Closed"}], "id": "9811800949", "name": "USPS COLLECTION BOX - BLUE BOX", "address": {"city": "SEATTLE", "state": "WA", "street": "4824 RAINIER AVE S", "postcode": "98118"}}},
{"geometry": {"type": "Point", "coordinates": [-122.2619123274, 47.5510378256]}, "type": "Feature", "properties": {"collection_times": [{"days": "Mon-Sat", "time": "11:45am"}, {"days": "Sun", "time": "Closed"}], "id": "9811800995", "name": "USPS COLLECTION BOX - BLUE BOX", "address": {"city": "SEATTLE", "state": "WA", "street": "5701 S ORCAS ST", "postcode": "98118"}}},
{"geometry": {"type": "Point", "coordinates": [-122.2864458536, 47.5606785617]}, "type": "Feature", "properties": {"collection_times": [{"days": "Mon-Fri", "time": "5:30pm"}, {"days": "Sat", "time": "3:00pm"}, {"days": "Sun", "time": "Closed"}], "id": "9811801546", "name": "USPS COLLECTION BOX - PO LOBBY", "address": {"city": "SEATTLE", "state": "WA", "street": "3727 S ALASKA ST", "postcode": "98118"}}},
{"geometry": {"type": "Point", "coordinates": [-122.2860762105, 47.5607084187]}, "type": "Feature", "properties": {"collection_times": [{"days": "Mon-Fri", "time": "5:30pm"}, {"days": "Sat", "time": "3:00pm"}, {"days": "Sun", "time": "Closed"}], "id": "9811801550", "name": "USPS COLLECTION BOX - BLUE BOX", "address": {"city": "SEATTLE", "state": "WA", "street": "3727 S ALASKA ST", "postcode": "98118"}}},
{"geometry": {"type": "Point", "coordinates": [-122.2759454519, 47.54606331]}, "type": "Feature", "properties": {"collection_times": [{"days": "Mon-Sat", "time": "11:30am"}, {"days": "Sun", "time": "Closed"}], "id": "9811801553", "name": "USPS COLLECTION BOX - BLUE BOX", "address": {"city": "SEATTLE", "state": "WA", "street": "6298 RAINIER AVE S", "postcode": "98118"}}},
{"geometry": {"type": "Point", "coordinates": [-122.2838352139, 47.5370136057]}, "type": "Feature", "properties": {"collection_times": [{"days": "Mon-Fri", "time": "4:00pm"}, {"days": "Sat", "time": "12:30pm"}, {"days": "Sun", "time": "Closed"}], "id": "9811801555", "name": "USPS COLLECTION BOX - BLUE BOX", "address": {"city": "SEATTLE", "state": "WA", "street": "3900 S OTHELLO ST", "postcode": "98118"}}},
{"geometry": {"type": "Point", "coordinates": [-122.3611481432, 47.6503473641]}, "type": "Feature", "properties": {"collection_times": [{"days": "Mon-Fri", "time": "3:30pm"}, {"days": "Sat-Sun", "time": "Closed"}], "id": "9811900059", "name": "USPS COLLECTION BOX - BLUE BOX", "address": {"city": "SEATTLE", "state": "WA", "street": "315 W BERTONA ST", "postcode": "98119"}}},
{"geometry": {"type": "Point", "coordinates": [-122.3610333781, 47.6395235109]}, "type": "Feature", "properties": {"collection_times": [{"days": "Mon-Fri", "time": "3:30pm"}, {"days": "Sat", "time": "10:30am"}, {"days": "Sun", "time": "Closed"}], "id": "9811900063", "name": "USPS COLLECTION BOX - BLUE BOX", "address": {"city": "SEATTLE", "state": "WA", "street": "305 W MCGRAW ST", "postcode": "98119"}}},
{"geometry": {"type": "Point", "coordinates": [-122.3571669504, 47.6256589704]}, "type": "Feature", "properties": {"collection_times": [{"days": "Mon-Fri", "time": "4:30pm"}, {"days": "Sat-Sun", "time": "Closed"}], "id": "9811900140", "name": "USPS COLLECTION BOX - BLUE BOX", "address": {"city": "SEATTLE", "state": "WA", "street": "25 W ROY ST", "postcode": "98119"}}},
{"geometry": {"type": "Point", "coordinates": [-122.3650837996, 47.6370001996]}, "type": "Feature", "properties": {"collection_times": [{"days": "Mon-Sat", "time": "12:30pm"}, {"days": "Sun", "time": "Closed"}], "id": "9811900189", "name": "USPS COLLECTION BOX - BLUE BOX", "address": {"city": "SEATTLE", "state": "WA", "street": "1959 6TH AVE W", "postcode": "98119"}}},
{"geometry": {"type": "Point", "coordinates": [-122.3648282659, 47.6517610722]}, "type": "Feature", "properties": {"collection_times": [{"days": "Mon-Fri", "time": "3:00pm"}, {"days": "Sat", "time": "12:30pm"}, {"days": "Sun", "time": "Closed"}], "id": "9811900191", "name": "USPS COLLECTION BOX - BLUE BOX", "address": {"city": "SEATTLE", "state": "WA", "street": "620 W NICKERSON ST", "postcode": "98119"}}},
{"geometry": {"type": "Point", "coordinates": [-122.3652951737, 47.6395279702]}, "type": "Feature", "properties": {"collection_times": [{"days": "Mon-Sat", "time": "12:30pm"}, {"days": "Sun", "time": "Closed"}], "id": "9811900196", "name": "USPS COLLECTION BOX - BLUE BOX", "address": {"city": "SEATTLE", "state": "WA", "street": "625 W MCGRAW ST", "postcode": "98119"}}},
{"geometry": {"type": "Point", "coordinates": [-122.3702291895, 47.6390619645]}, "type": "Feature", "properties": {"collection_times": [{"days": "Mon-Sat", "time": "12:30pm"}, {"days": "Sun", "time": "Closed"}], "id": "9811900244", "name": "USPS COLLECTION BOX - BLUE BOX", "address": {"city": "SEATTLE", "state": "WA", "street": "2142 10TH AVE W", "postcode": "98119"}}},
{"geometry": {"type": "Point", "coordinates": [-122.3698672283, 47.6443243924]}, "type": "Feature", "properties": {"collection_times": [{"days": "Mon-Sat", "time": "12:30pm"}, {"days": "Sun", "time": "Closed"}], "id": "9811900245", "name": "USPS COLLECTION BOX - BLUE BOX", "address": {"city": "SEATTLE", "state": "WA", "street": "918 W NEWELL ST", "postcode": "98119"}}},
{"geometry": {"type": "Point", "coordinates": [-122.3825819481, 47.6559092242]}, "type": "Feature", "properties": {"collection_times": [{"days": "Mon-Fri", "time": "3:00pm"}, {"days": "Sat", "time": "12:30pm"}, {"days": "Sun", "time": "Closed"}], "id": "9811901636", "name": "USPS COLLECTION BOX - BLUE BOX", "address": {"city": "SEATTLE", "state": "WA", "street": "4005 20TH AVE W", "postcode": "98119"}}},
{"geometry": {"type": "Point", "coordinates": [-122.332634, 47.60236]}, "type": "Feature", "properties": {"collection_times": [{"days": "Mon-Fri", "time": "4:30pm"}, {"days": "Sat-Sun", "time": "Closed"}], "id": "9811901639", "name": "USPS COLLECTION BOX - BLUE BOX", "address": {"city": "SEATTLE", "state": "WA", "street": "601 2ND AVE", "postcode": "98119"}}},
{"geometry": {"type": "Point", "coordinates": [-122.38107274, 47.655063847]}, "type": "Feature", "properties": {"collection_times": [{"days": "Mon-Fri", "time": "2:45pm"}, {"days": "Sat", "time": "8:30am"}, {"days": "Sun", "time": "Closed"}], "id": "9811901642", "name": "USPS COLLECTION BOX - BLUE BOX", "address": {"city": "SEATTLE", "state": "WA", "street": "1900 W NICKERSON ST", "postcode": "98119"}}},
{"geometry": {"type": "Point", "coordinates": [-122.3595108834, 47.6193331059]}, "type": "Feature", "properties": {"collection_times": [{"days": "Mon-Fri", "time": "4:30pm"}, {"days": "Sat-Sun", "time": "Closed"}], "id": "9811901644", "name": "USPS COLLECTION BOX - BLUE BOX", "address": {"city": "SEATTLE", "state": "WA", "street": "201 ELLIOTT AVE W", "postcode": "98119"}}},
{"geometry": {"type": "Point", "coordinates": [-122.3568797526, 47.6272254256]}, "type": "Feature", "properties": {"collection_times": [{"days": "Mon-Sat", "time": "12:30pm"}, {"days": "Sun", "time": "Closed"}], "id": "9811901665", "name": "USPS COLLECTION BOX - BLUE BOX", "address": {"city": "SEATTLE", "state": "WA", "street": "11 W ALOHA ST", "postcode": "98119"}}},
{"geometry": {"type": "Point", "coordinates": [-122.3581367702, 47.6223064571]}, "type": "Feature", "properties": {"collection_times": [{"days": "Mon-Fri", "time": "4:15pm"}, {"days": "Sat", "time": "12:30pm"}, {"days": "Sun", "time": "Closed"}], "id": "9811901669", "name": "USPS COLLECTION BOX - BLUE BOX", "address": {"city": "SEATTLE", "state": "WA", "street": "415 1ST AVE W", "postcode": "98119"}}},
{"geometry": {"type": "Point", "coordinates": [-122.3402074491, 47.613017942]}, "type": "Feature", "properties": {"collection_times": [{"days": "Mon-Fri", "time": "5:00pm"}, {"days": "Sat", "time": "1:00pm"}, {"days": "Sun", "time": "Closed"}], "id": "9812100009", "name": "USPS COLLECTION BOX - BLUE BOX", "address": {"city": "SEATTLE", "state": "WA", "street": "2001 4TH AVE", "postcode": "98121"}}},
{"geometry": {"type": "Point", "coordinates": [-122.3487913176, 47.6172978978]}, "type": "Feature", "properties": {"collection_times": [{"days": "Mon-Fri", "time": "3:45pm"}, {"days": "Sat-Sun", "time": "Closed"}], "id": "9812100032", "name": "USPS COLLECTION BOX - BLUE BOX", "address": {"city": "SEATTLE", "state": "WA", "street": "320 CEDAR ST", "postcode": "98121"}}},
{"geometry": {"type": "Point", "coordinates": [-122.3609347052, 47.6416189652]}, "type": "Feature", "properties": {"collection_times": [{"days": "Mon-Fri", "time": "5:00pm"}, {"days": "Sat", "time": "1:00pm"}, {"days": "Sun", "time": "Closed"}], "id": "9812100040", "name": "USPS COLLECTION BOX - BLUE BOX", "address": {"city": "SEATTLE", "state": "WA", "street": "2505 3RD AVE", "postcode": "98121"}}},
{"geometry": {"type": "Point", "coordinates": [-122.3465018309, 47.6144597337]}, "type": "Feature", "properties": {"collection_times": [{"days": "Mon-Fri", "time": "5:00pm"}, {"days": "Sat", "time": "1:00pm"}, {"days": "Sun", "time": "Closed"}], "id": "9812100067", "name": "USPS COLLECTION BOX - BLUE BOX", "address": {"city": "SEATTLE", "state": "WA", "street": "2331 2ND AVE", "postcode": "98121"}}},
{"geometry": {"type": "Point", "coordinates": [-122.3435451246, 47.6126635728]}, "type": "Feature", "properties": {"collection_times": [{"days": "Mon-Fri", "time": "5:00pm"}, {"days": "Sat", "time": "1:00pm"}, {"days": "Sun", "time": "Closed"}], "id": "9812100069", "name": "USPS COLLECTION BOX - BLUE BOX", "address": {"city": "SEATTLE", "state": "WA", "street": "2131 2ND AVE", "postcode": "98121"}}},
{"geometry": {"type": "Point", "coordinates": [-122.3430851633, 47.6125289788]}, "type": "Feature", "properties": {"collection_times": [{"days": "Mon-Fri", "time": "5:00pm"}, {"days": "Sat", "time": "1:00pm"}, {"days": "Sun", "time": "Closed"}], "id": "9812100071", "name": "USPS COLLECTION BOX - BLUE BOX", "address": {"city": "SEATTLE", "state": "WA", "street": "2100 2ND AVE", "postcode": "98121"}}},
{"geometry": {"type": "Point", "coordinates": [-122.3505868523, 47.6158458961]}, "type": "Feature", "properties": {"collection_times": [{"days": "Mon-Fri", "time": "5:00pm"}, {"days": "Sat", "time": "1:00pm"}, {"days": "Sun", "time": "Closed"}], "id": "9812100098", "name": "USPS COLLECTION BOX - BLUE BOX", "address": {"city": "SEATTLE", "state": "WA", "street": "2700 1ST AVE", "postcode": "98121"}}},
{"geometry": {"type": "Point", "coordinates": [-122.3542525541, 47.6144808886]}, "type": "Feature", "properties": {"collection_times": [{"days": "Mon-Fri", "time": "5:00pm"}, {"days": "Sat", "time": "1:00pm"}, {"days": "Sun", "time": "Closed"}], "id": "9812100912", "name": "USPS COLLECTION BOX - BLUE BOX", "address": {"city": "SEATTLE", "state": "WA", "street": "2815 ALASKAN WAY", "postcode": "98121"}}},
{"geometry": {"type": "Point", "coordinates": [-122.3555644041, 47.6175649838]}, "type": "Feature", "properties": {"collection_times": [{"days": "Mon-Fri", "time": "2:15pm"}, {"days": "Sat-Sun", "time": "Closed"}], "id": "9812101078", "name": "USPS COLLECTION BOX - BLUE BOX", "address": {"city": "SEATTLE", "state": "WA", "street": "3028 WESTERN AVE", "postcode": "98121"}}},
{"geometry": {"type": "Point", "coordinates": [-122.3448049483, 47.6111099953]}, "type": "Feature", "properties": {"collection_times": [{"days": "Mon-Fri", "time": "5:00pm"}, {"days": "Sat", "time": "1:00pm"}, {"days": "Sun", "time": "Closed"}], "id": "9812101462", "name": "USPS COLLECTION BOX - BLUE BOX", "address": {"city": "SEATTLE", "state": "WA", "street": "2107 ELLIOTT AVE", "postcode": "98121"}}},
{"geometry": {"type": "Point", "coordinates": [-122.3422367194, 47.613166091]}, "type": "Feature", "properties": {"collection_times": [{"days": "Mon-Fri", "time": "3:45pm"}, {"days": "Sat", "time": "11:30am"}, {"days": "Sun", "time": "Closed"}], "id": "9812101569", "name": "USPS COLLECTION BOX - BLUE BOX", "address": {"city": "SEATTLE", "state": "WA", "street": "2100 3RD AVE", "postcode": "98121"}}},
{"geometry": {"type": "Point", "coordinates": [-122.3388532519, 47.6146145235]}, "type": "Feature", "properties": {"collection_times": [{"days": "Mon-Fri", "time": "4:00pm"}, {"days": "Sat", "time": "11:30am"}, {"days": "Sun", "time": "Closed"}], "id": "9812101573", "name": "USPS COLLECTION BOX - BLUE BOX", "address": {"city": "SEATTLE", "state": "WA", "street": "2033 6TH AVE", "postcode": "98121"}}},
{"geometry": {"type": "Point", "coordinates": [-122.3367003984, 47.6173656392]}, "type": "Feature", "properties": {"collection_times": [{"days": "Mon-Fri", "time": "5:00pm"}, {"days": "Sat", "time": "1:00pm"}, {"days": "Sun", "time": "Closed"}], "id": "9812101574", "name": "USPS COLLECTION BOX - BLUE BOX", "address": {"city": "SEATTLE", "state": "WA", "street": "901 LENORA ST", "postcode": "98121"}}},
{"geometry": {"type": "Point", "coordinates": [-122.3488661845, 47.6146745451]}, "type": "Feature", "properties": {"collection_times": [{"days": "Mon-Fri", "time": "5:00pm"}, {"days": "Sat", "time": "1:00pm"}, {"days": "Sun", "time": "Closed"}], "id": "9812101577", "name": "USPS COLLECTION BOX - BLUE BOX", "address": {"city": "SEATTLE", "state": "WA", "street": "2505 1ST AVE", "postcode": "98121"}}},
{"geometry": {"type": "Point", "coordinates": [-122.352384931, 47.614454277]}, "type": "Feature", "properties": {"collection_times": [{"days": "Mon-Fri", "time": "4:30pm"}, {"days": "Sat-Sun", "time": "Closed"}], "id": "9812101582", "name": "USPS COLLECTION BOX - BLUE BOX", "address": {"city": "SEATTLE", "state": "WA", "street": "2601 ELLIOTT AVE", "postcode": "98121"}}},
{"geometry": {"type": "Point", "coordinates": [-122.3429724931, 47.6111969661]}, "type": "Feature", "properties": {"collection_times": [{"days": "Mon-Fri", "time": "5:00pm"}, {"days": "Sat", "time": "1:00pm"}, {"days": "Sun", "time": "Closed"}], "id": "9812101586", "name": "USPS COLLECTION BOX - BLUE BOX", "address": {"city": "SEATTLE", "state": "WA", "street": "2025 1ST AVE", "postcode": "98121"}}},
{"geometry": {"type": "Point", "coordinates": [-122.3508909745, 47.6170510626]}, "type": "Feature", "properties": {"collection_times": [{"days": "Mon-Fri", "time": "4:00pm"}, {"days": "Sat-Sun", "time": "Closed"}], "id": "9812101611", "name": "USPS COLLECTION BOX - BLUE BOX", "address": {"city": "SEATTLE", "state": "WA", "street": "2815 2ND AVE", "postcode": "98121"}}},
{"geometry": {"type": "Point", "coordinates": [-122.341089615, 47.612510281]}, "type": "Feature", "properties": {"collection_times": [{"days": "Mon-Fri", "time": "3:30pm"}, {"days": "Sat-Sun", "time": "Closed"}], "id": "9812101615", "name": "USPS COLLECTION BOX - BLUE BOX", "address": {"city": "SEATTLE", "state": "WA", "street": "2010 3RD AVE", "postcode": "98121"}}},
{"geometry": {"type": "Point", "coordinates": [-122.3475380572, 47.6107823966]}, "type": "Feature", "properties": {"collection_times": [{"days": "Mon-Fri", "time": "2:30pm"}, {"days": "Sat-Sun", "time": "Closed"}], "id": "9812101622", "name": "USPS COLLECTION BOX - BLUE BOX", "address": {"city": "SEATTLE", "state": "WA", "street": "2200 ALASKAN WAY", "postcode": "98121"}}},
{"geometry": {"type": "Point", "coordinates": [-122.3405050279, 47.6145459479]}, "type": "Feature", "properties": {"collection_times": [{"days": "Mon-Fri", "time": "3:45pm"}, {"days": "Sat-Sun", "time": "Closed"}], "id": "9812101624", "name": "USPS COLLECTION BOX - BLUE BOX", "address": {"city": "SEATTLE", "state": "WA", "street": "2100 5TH AVE", "postcode": "98121"}}},
{"geometry": {"type": "Point", "coordinates": [-122.3512318248, 47.6185732309]}, "type": "Feature", "properties": {"collection_times": [{"days": "Mon-Fri", "time": "3:00pm"}, {"days": "Sat-Sun", "time": "Closed"}], "id": "9812101626", "name": "USPS COLLECTION BOX - BLUE BOX", "address": {"city": "SEATTLE", "state": "WA", "street": "2901 3RD AVE", "postcode": "98121"}}},
{"geometry": {"type": "Point", "coordinates": [-122.3180964278, 47.614039093]}, "type": "Feature", "properties": {"collection_times": [{"days": "Mon-Fri", "time": "4:15pm"}, {"days": "Sat", "time": "1:30pm"}, {"days": "Sun", "time": "Closed"}], "id": "9812200249", "name": "USPS COLLECTION BOX - BLUE BOX", "address": {"city": "SEATTLE", "state": "WA", "street": "1101 E PIKE ST", "postcode": "98122"}}},
{"geometry": {"type": "Point", "coordinates": [-122.3167080457, 47.6057744814]}, "type": "Feature", "properties": {"collection_times": [{"days": "Mon-Fri", "time": "12:30pm"}, {"days": "Sat", "time": "1:30pm"}, {"days": "Sun", "time": "Closed"}], "id": "9812200259", "name": "USPS COLLECTION BOX - BLUE BOX", "address": {"city": "SEATTLE", "state": "WA", "street": "464 12TH AVE", "postcode": "98122"}}},
{"geometry": {"type": "Point", "coordinates": [-122.3155221974, 47.6134161128]}, "type": "Feature", "properties": {"collection_times": [{"days": "Mon-Fri", "time": "4:15pm"}, {"days": "Sat", "time": "1:30pm"}, {"days": "Sun", "time": "Closed"}], "id": "9812200279", "name": "USPS COLLECTION BOX - BLUE BOX", "address": {"city": "SEATTLE", "state": "WA", "street": "1300 E MADISON ST", "postcode": "98122"}}},
{"geometry": {"type": "Point", "coordinates": [-122.3143142416, 47.6145295215]}, "type": "Feature", "properties": {"collection_times": [{"days": "Mon-Sat", "time": "1:30pm"}, {"days": "Sun", "time": "Closed"}], "id": "9812200280", "name": "USPS COLLECTION BOX - BLUE BOX", "address": {"city": "SEATTLE", "state": "WA", "street": "1535 14TH AVE", "postcode": "98122"}}},
{"geometry": {"type": "Point", "coordinates": [-122.3126803759, 47.6177153177]}, "type": "Feature", "properties": {"collection_times": [{"days": "Mon-Fri", "time": "12:30pm"}, {"days": "Sat", "time": "1:30pm"}, {"days": "Sun", "time": "Closed"}], "id": "9812200293", "name": "USPS COLLECTION BOX - BLUE BOX", "address": {"city": "SEATTLE", "state": "WA", "street": "1804 15TH AVE", "postcode": "98122"}}},
{"geometry": {"type": "Point", "coordinates": [-122.3113655736, 47.6150202236]}, "type": "Feature", "properties": {"collection_times": [{"days": "Mon-Sat", "time": "1:30pm"}, {"days": "Sun", "time": "Closed"}], "id": "9812200326", "name": "USPS COLLECTION BOX - BLUE BOX", "address": {"city": "SEATTLE", "state": "WA", "street": "1605 E MADISON ST", "postcode": "98122"}}},
{"geometry": {"type": "Point", "coordinates": [-122.3101474193, 47.6129578449]}, "type": "Feature", "properties": {"collection_times": [{"days": "Mon-Sat", "time": "1:30pm"}, {"days": "Sun", "time": "Closed"}], "id": "9812200353", "name": "USPS COLLECTION BOX - BLUE BOX", "address": {"city": "SEATTLE", "state": "WA", "street": "1700 E UNION ST", "postcode": "98122"}}},
{"geometry": {"type": "Point", "coordinates": [-122.3207853973, 47.6153035489]}, "type": "Feature", "properties": {"collection_times": [{"days": "Mon-Fri", "time": "1:00pm"}, {"days": "Sat-Sun", "time": "Closed"}], "id": "9812200681", "name": "USPS COLLECTION BOX - BLUE BOX", "address": {"city": "SEATTLE", "state": "WA", "street": "900 E PINE ST", "postcode": "98122"}}},
{"geometry": {"type": "Point", "coordinates": [-122.3207585796, 47.6130895221]}, "type": "Feature", "properties": {"collection_times": [{"days": "Mon-Fri", "time": "3:30pm"}, {"days": "Sat", "time": "1:30pm"}, {"days": "Sun", "time": "Closed"}], "id": "9812200686", "name": "USPS COLLECTION BOX - BLUE BOX", "address": {"city": "SEATTLE", "state": "WA", "street": "1400 BROADWAY", "postcode": "98122"}}},
{"geometry": {"type": "Point", "coordinates": [-122.2851277217, 47.6021025145]}, "type": "Feature", "properties": {"collection_times": [{"days": "Mon-Fri", "time": "3:30pm"}, {"days": "Sat", "time": "1:30pm"}, {"days": "Sun", "time": "Closed"}], "id": "9812200833", "name": "USPS COLLECTION BOX - BLUE BOX", "address": {"city": "SEATTLE", "state": "WA", "street": "102 LAKESIDE AVE", "postcode": "98122"}}},
{"geometry": {"type": "Point", "coordinates": [-122.3168751354, 47.6095393727]}, "type": "Feature", "properties": {"collection_times": [{"days": "Mon-Fri", "time": "12:30pm"}, {"days": "Sat", "time": "1:30pm"}, {"days": "Sun", "time": "Closed"}], "id": "9812202167", "name": "USPS COLLECTION BOX - BLUE BOX", "address": {"city": "SEATTLE", "state": "WA", "street": "825 12TH AVE", "postcode": "98122"}}},
{"geometry": {"type": "Point", "coordinates": [-122.3026136452, 47.5926775869]}, "type": "Feature", "properties": {"collection_times": [{"days": "Mon-Fri", "time": "6:00pm"}, {"days": "Sat", "time": "3:00pm"}, {"days": "Sun", "time": "Closed"}], "id": "9812202172", "name": "USPS COLLECTION BOX - PO LOBBY", "address": {"city": "SEATTLE", "state": "WA", "street": "1110 23RD AVE", "postcode": "98122"}}},
{"geometry": {"type": "Point", "coordinates": [-122.3026136452, 47.5926775869]}, "type": "Feature", "properties": {"collection_times": [{"days": "Mon-Fri", "time": "6:00pm"}, {"days": "Sat", "time": "3:00pm"}, {"days": "Sun", "time": "Closed"}], "id": "9812202173", "name": "USPS COLLECTION BOX - BLUE BOX", "address": {"city": "SEATTLE", "state": "WA", "street": "1110 23RD AVE", "postcode": "98122"}}},
{"geometry": {"type": "Point", "coordinates": [-122.3173796906, 47.6043037884]}, "type": "Feature", "properties": {"collection_times": [{"days": "Mon-Fri", "time": "12:30pm"}, {"days": "Sat", "time": "1:30pm"}, {"days": "Sun", "time": "Closed"}], "id": "9812202179", "name": "USPS COLLECTION BOX - BLUE BOX", "address": {"city": "SEATTLE", "state": "WA", "street": "1211 E ALDER ST", "postcode": "98122"}}},
{"geometry": {"type": "Point", "coordinates": [-122.2892384894, 47.6125046532]}, "type": "Feature", "properties": {"collection_times": [{"days": "Mon-Sat", "time": "1:30pm"}, {"days": "Sun", "time": "Closed"}], "id": "9812202194", "name": "USPS COLLECTION BOX - BLUE BOX", "address": {"city": "SEATTLE", "state": "WA", "street": "1138 34TH AVE", "postcode": "98122"}}},
{"geometry": {"type": "Point", "coordinates": [-122.3278776237, 47.6152899047]}, "type": "Feature", "properties": {"collection_times": [{"days": "Mon-Fri", "time": "2:00pm"}, {"days": "Sat", "time": "11:30am"}, {"days": "Sun", "time": "Closed"}], "id": "9812202200", "name": "USPS COLLECTION BOX - BLUE BOX", "address": {"city": "SEATTLE", "state": "WA", "street": "300 E PINE ST", "postcode": "98122"}}},
{"geometry": {"type": "Point", "coordinates": [-122.3026136452, 47.5926775869]}, "type": "Feature", "properties": {"collection_times": [{"days": "Mon-Fri", "time": "6:00pm"}, {"days": "Sat", "time": "3:00pm"}, {"days": "Sun", "time": "Closed"}], "id": "9812202203", "name": "USPS COLLECTION BOX - APC", "address": {"city": "SEATTLE", "state": "WA", "street": "1110 23RD AVE", "postcode": "98122"}}},
{"geometry": {"type": "Point", "coordinates": [-122.3094988995, 47.6115876767]}, "type": "Feature", "properties": {"collection_times": [{"days": "Mon-Fri", "time": "4:00pm"}, {"days": "Sat-Sun", "time": "Closed"}], "id": "9812202204", "name": "USPS COLLECTION BOX - BLUE BOX", "address": {"city": "SEATTLE", "state": "WA", "street": "609 E UNION ST", "postcode": "98122"}}},
{"geometry": {"type": "Point", "coordinates": [-122.3232593318, 47.7109312739]}, "type": "Feature", "properties": {"collection_times": [{"days": "Mon-Fri", "time": "2:30pm"}, {"days": "Sat", "time": "9:30am"}, {"days": "Sun", "time": "Closed"}], "id": "9812500153", "name": "USPS COLLECTION BOX - BLUE BOX", "address": {"city": "SEATTLE", "state": "WA", "street": "11300 5TH AVE NE", "postcode": "98125"}}},
{"geometry": {"type": "Point", "coordinates": [-122.3179427713, 47.7087216693]}, "type": "Feature", "properties": {"collection_times": [{"days": "Mon-Sat", "time": "9:00am"}, {"days": "Sun", "time": "Closed"}], "id": "9812500980", "name": "USPS COLLECTION BOX - BLUE BOX", "address": {"city": "SEATTLE", "state": "WA", "street": "11029 ROOSEVELT WAY NE", "postcode": "98125"}}},
{"geometry": {"type": "Point", "coordinates": [-122.2950490039, 47.7179620766]}, "type": "Feature", "properties": {"collection_times": [{"days": "Mon-Fri", "time": "1:00pm"}, {"days": "Sat", "time": "12:30pm"}, {"days": "Sun", "time": "Closed"}], "id": "9812502132", "name": "USPS COLLECTION BOX - BLUE BOX", "address": {"city": "SEATTLE", "state": "WA", "street": "12360 31ST AVE NE", "postcode": "98125"}}},
{"geometry": {"type": "Point", "coordinates": [-122.2923765117, 47.7285275226]}, "type": "Feature", "properties": {"collection_times": [{"days": "Mon-Sat", "time": "1:00pm"}, {"days": "Sun", "time": "Closed"}], "id": "9812502143", "name": "USPS COLLECTION BOX - BLUE BOX", "address": {"city": "SEATTLE", "state": "WA", "street": "13751 LAKE CITY WAY NE", "postcode": "98125"}}},
{"geometry": {"type": "Point", "coordinates": [-122.3204855612, 47.7088599088]}, "type": "Feature", "properties": {"collection_times": [{"days": "Mon-Fri", "time": "5:30pm"}, {"days": "Sat", "time": "12:00pm"}, {"days": "Sun", "time": "Closed"}], "id": "9812502145", "name": "USPS COLLECTION BOX - BLUE BOX", "address": {"city": "SEATTLE", "state": "WA", "street": "11036 8TH AVE NE", "postcode": "98125"}}},
{"geometry": {"type": "Point", "coordinates": [-122.3204855612, 47.7088599088]}, "type": "Feature", "properties": {"collection_times": [{"days": "Mon-Fri", "time": "5:30pm"}, {"days": "Sat-Sun", "time": "Closed"}], "id": "9812502148", "name": "USPS COLLECTION BOX - PO LOBBY", "address": {"city": "SEATTLE", "state": "WA", "street": "11036 8TH AVE NE", "postcode": "98125"}}},
{"geometry": {"type": "Point", "coordinates": [-122.2930045605, 47.7229158501]}, "type": "Feature", "properties": {"collection_times": [{"days": "Mon-Sat", "time": "1:00pm"}, {"days": "Sun", "time": "Closed"}], "id": "9812502150", "name": "USPS COLLECTION BOX - BLUE BOX", "address": {"city": "SEATTLE", "state": "WA", "street": "13000 LAKE CITY WAY NE", "postcode": "98125"}}},
{"geometry": {"type": "Point", "coordinates": [-122.2953496139, 47.7210617843]}, "type": "Feature", "properties": {"collection_times": [{"days": "Mon-Fri", "time": "5:30pm"}, {"days": "Sat", "time": "3:00pm"}, {"days": "Sun", "time": "Closed"}], "id": "9812502152", "name": "USPS COLLECTION BOX - BLUE BOX", "address": {"city": "SEATTLE", "state": "WA", "street": "3019 NE 127TH ST", "postcode": "98125"}}},
{"geometry": {"type": "Point", "coordinates": [-122.3242742309, 47.7085350659]}, "type": "Feature", "properties": {"collection_times": [{"days": "Mon-Fri", "time": "2:30pm"}, {"days": "Sat", "time": "10:00am"}, {"days": "Sun", "time": "Closed"}], "id": "9812502154", "name": "USPS COLLECTION BOX - BLUE BOX", "address": {"city": "SEATTLE", "state": "WA", "street": "401 NE NORTHGATE WAY", "postcode": "98125"}}},
{"geometry": {"type": "Point", "coordinates": [-122.2958868012, 47.7210366608]}, "type": "Feature", "properties": {"collection_times": [{"days": "Mon-Fri", "time": "5:30pm"}, {"days": "Sat", "time": "3:00pm"}, {"days": "Sun", "time": "Closed"}], "id": "9812502156", "name": "USPS COLLECTION BOX - PO LOBBY", "address": {"city": "SEATTLE", "state": "WA", "street": "3019 NE 127TH ST", "postcode": "98125"}}},
{"geometry": {"type": "Point", "coordinates": [-122.2964680579, 47.7156857141]}, "type": "Feature", "properties": {"collection_times": [{"days": "Mon-Fri", "time": "4:30pm"}, {"days": "Sat", "time": "1:00pm"}, {"days": "Sun", "time": "Closed"}], "id": "9812502158", "name": "USPS COLLECTION BOX - BLUE BOX", "address": {"city": "SEATTLE", "state": "WA", "street": "12015 30TH AVE NE", "postcode": "98125"}}},
{"geometry": {"type": "Point", "coordinates": [-122.2958868012, 47.7210366608]}, "type": "Feature", "properties": {"collection_times": [{"days": "Mon-Fri", "time": "5:30pm"}, {"days": "Sat", "time": "3:00pm"}, {"days": "Sun", "time": "Closed"}], "id": "9812502160", "name": "USPS COLLECTION BOX - APC", "address": {"city": "SEATTLE", "state": "WA", "street": "3019 NE 127TH ST", "postcode": "98125"}}},
{"geometry": {"type": "Point", "coordinates": [-122.3242742309, 47.7085350659]}, "type": "Feature", "properties": {"collection_times": [{"days": "Mon-Fri", "time": "2:30pm"}, {"days": "Sat", "time": "10:00am"}, {"days": "Sun", "time": "Closed"}], "id": "9812502162", "name": "USPS COLLECTION BOX - BLUE BOX", "address": {"city": "SEATTLE", "state": "WA", "street": "401 NE NORTHGATE WAY", "postcode": "98125"}}},
{"geometry": {"type": "Point", "coordinates": [-122.3743785217, 47.5482679115]}, "type": "Feature", "properties": {"collection_times": [{"days": "Mon-Fri", "time": "11:00am"}, {"days": "Sat", "time": "11:30am"}, {"days": "Sun", "time": "Closed"}], "id": "9812600656", "name": "USPS COLLECTION BOX - BLUE BOX", "address": {"city": "SEATTLE", "state": "WA", "street": "2603 BELVIDERE AVE SW", "postcode": "98126"}}},
{"geometry": {"type": "Point", "coordinates": [-122.3668915687, 47.5245704741]}, "type": "Feature", "properties": {"collection_times": [{"days": "Mon-Fri", "time": "6:00pm"}, {"days": "Sat", "time": "3:00pm"}, {"days": "Sun", "time": "Closed"}], "id": "9812601563", "name": "USPS COLLECTION BOX - PO LOBBY", "address": {"city": "SEATTLE", "state": "WA", "street": "2721 SW TRENTON ST", "postcode": "98126"}}},
{"geometry": {"type": "Point", "coordinates": [-122.3672091848, 47.5246322839]}, "type": "Feature", "properties": {"collection_times": [{"days": "Mon-Fri", "time": "6:00pm"}, {"days": "Sat", "time": "3:00pm"}, {"days": "Sun", "time": "Closed"}], "id": "9812601566", "name": "USPS COLLECTION BOX - BLUE BOX", "address": {"city": "SEATTLE", "state": "WA", "street": "2721 SW TRENTON ST", "postcode": "98126"}}},
{"geometry": {"type": "Point", "coordinates": [-122.3668915687, 47.5245704741]}, "type": "Feature", "properties": {"collection_times": [{"days": "Mon-Fri", "time": "6:00pm"}, {"days": "Sat", "time": "3:00pm"}, {"days": "Sun", "time": "Closed"}], "id": "9812601573", "name": "USPS COLLECTION BOX - APC", "address": {"city": "SEATTLE", "state": "WA", "street": "2721 SW TRENTON ST", "postcode": "98126"}}},
{"geometry": {"type": "Point", "coordinates": [-122.3444849514, 47.7014776251]}, "type": "Feature", "properties": {"collection_times": [{"days": "Mon-Fri", "time": "2:00pm"}, {"days": "Sat", "time": "9:30am"}, {"days": "Sun", "time": "Closed"}], "id": "9813300615", "name": "USPS COLLECTION BOX - BLUE BOX", "address": {"city": "SHORELINE", "state": "WA", "street": "10004 AURORA AVE N", "postcode": "98133"}}},
{"geometry": {"type": "Point", "coordinates": [-122.3450533977, 47.7246954065]}, "type": "Feature", "properties": {"collection_times": [{"days": "Mon-Fri", "time": "2:00pm"}, {"days": "Sat", "time": "9:30am"}, {"days": "Sun", "time": "Closed"}], "id": "9813300619", "name": "USPS COLLECTION BOX - BLUE BOX", "address": {"city": "SHORELINE", "state": "WA", "street": "13201 AURORA AVE N", "postcode": "98133"}}},
{"geometry": {"type": "Point", "coordinates": [-122.345090373, 47.7396873235]}, "type": "Feature", "properties": {"collection_times": [{"days": "Mon-Fri", "time": "2:00pm"}, {"days": "Sat", "time": "9:15am"}, {"days": "Sun", "time": "Closed"}], "id": "9813300621", "name": "USPS COLLECTION BOX - BLUE BOX", "address": {"city": "SHORELINE", "state": "WA", "street": "15332 AURORA AVE N", "postcode": "98133"}}},
{"geometry": {"type": "Point", "coordinates": [-122.3297543033, 47.7264624362]}, "type": "Feature", "properties": {"collection_times": [{"days": "Mon-Sat", "time": "10:00am"}, {"days": "Sun", "time": "Closed"}], "id": "9813300983", "name": "USPS COLLECTION BOX - BLUE BOX", "address": {"city": "SHORELINE", "state": "WA", "street": "13417 ROOSEVELT WAY N", "postcode": "98133"}}},
{"geometry": {"type": "Point", "coordinates": [-122.3531572027, 47.7446368253]}, "type": "Feature", "properties": {"collection_times": [{"days": "Mon-Fri", "time": "4:00pm"}, {"days": "Sat-Sun", "time": "Closed"}], "id": "9813301402", "name": "USPS COLLECTION BOX - BLUE BOX", "address": {"city": "SHORELINE", "state": "WA", "street": "15700 DAYTON AVE N", "postcode": "98133"}}},
{"geometry": {"type": "Point", "coordinates": [-122.339495769, 47.7123329342]}, "type": "Feature", "properties": {"collection_times": [{"days": "Mon-Fri", "time": "4:30pm"}, {"days": "Sat", "time": "10:00am"}, {"days": "Sun", "time": "Closed"}], "id": "9813302200", "name": "USPS COLLECTION BOX - BLUE BOX", "address": {"city": "SHORELINE", "state": "WA", "street": "1530 N 115TH ST", "postcode": "98133"}}},
{"geometry": {"type": "Point", "coordinates": [-122.3441898557, 47.7231843695]}, "type": "Feature", "properties": {"collection_times": [{"days": "Mon-Fri", "time": "2:00pm"}, {"days": "Sat", "time": "9:30am"}, {"days": "Sun", "time": "Closed"}], "id": "9813302204", "name": "USPS COLLECTION BOX - BLUE BOX", "address": {"city": "SHORELINE", "state": "WA", "street": "1155 N 130TH ST", "postcode": "98133"}}},
{"geometry": {"type": "Point", "coordinates": [-122.333893728, 47.7071004124]}, "type": "Feature", "properties": {"collection_times": [{"days": "Mon-Fri", "time": "2:45pm"}, {"days": "Sat", "time": "9:30am"}, {"days": "Sun", "time": "Closed"}], "id": "9813302209", "name": "USPS COLLECTION BOX - BLUE BOX", "address": {"city": "SHORELINE", "state": "WA", "street": "10740 MERIDIAN AVE N", "postcode": "98133"}}},
{"geometry": {"type": "Point", "coordinates": [-122.3461021141, 47.7340643468]}, "type": "Feature", "properties": {"collection_times": [{"days": "Mon-Fri", "time": "6:00pm"}, {"days": "Sat", "time": "3:00pm"}, {"days": "Sun", "time": "Closed"}], "id": "9813302211", "name": "USPS COLLECTION BOX - PO LOBBY", "address": {"city": "SHORELINE", "state": "WA", "street": "929 N 145TH ST", "postcode": "98133"}}},
{"geometry": {"type": "Point", "coordinates": [-122.3450366992, 47.7358156832]}, "type": "Feature", "properties": {"collection_times": [{"days": "Mon-Fri", "time": "4:00pm"}, {"days": "Sat", "time": "10:00am"}, {"days": "Sun", "time": "Closed"}], "id": "9813302214", "name": "USPS COLLECTION BOX - BLUE BOX", "address": {"city": "SHORELINE", "state": "WA", "street": "15505 WESTMINSTER WAY N", "postcode": "98133"}}},
{"geometry": {"type": "Point", "coordinates": [-122.3348638472, 47.759936452]}, "type": "Feature", "properties": {"collection_times": [{"days": "Mon-Fri", "time": "3:45pm"}, {"days": "Sat-Sun", "time": "Closed"}], "id": "9813302215", "name": "USPS COLLECTION BOX - BLUE BOX", "address": {"city": "SHORELINE", "state": "WA", "street": "18050 MERIDIAN AVE N", "postcode": "98133"}}},
{"geometry": {"type": "Point", "coordinates": [-122.3461021141, 47.7340643468]}, "type": "Feature", "properties": {"collection_times": [{"days": "Mon-Fri", "time": "6:00pm"}, {"days": "Sat", "time": "3:00pm"}, {"days": "Sun", "time": "Closed"}], "id": "9813302216", "name": "USPS COLLECTION BOX - APC", "address": {"city": "SHORELINE", "state": "WA", "street": "929 N 145TH ST", "postcode": "98133"}}},
{"geometry": {"type": "Point", "coordinates": [-122.3461232602, 47.7612807508]}, "type": "Feature", "properties": {"collection_times": [{"days": "Mon-Fri", "time": "4:00pm"}, {"days": "Sat", "time": "9:30am"}, {"days": "Sun", "time": "Closed"}], "id": "9813302217", "name": "USPS COLLECTION BOX - BLUE BOX", "address": {"city": "SHORELINE", "state": "WA", "street": "18325 AURORA AVE N", "postcode": "98133"}}},
{"geometry": {"type": "Point", "coordinates": [-122.345927894, 47.7622239597]}, "type": "Feature", "properties": {"collection_times": [{"days": "Mon-Fri", "time": "3:45pm"}, {"days": "Sat", "time": "9:30am"}, {"days": "Sun", "time": "Closed"}], "id": "9813302218", "name": "USPS COLLECTION BOX - BLUE BOX", "address": {"city": "SHORELINE", "state": "WA", "street": "18336 AURORA AVE N", "postcode": "98133"}}},
{"geometry": {"type": "Point", "coordinates": [-122.3342572802, 47.5705854021]}, "type": "Feature", "properties": {"collection_times": [{"days": "Mon-Fri", "time": "4:15pm"}, {"days": "Sat-Sun", "time": "Closed"}], "id": "9813400124", "name": "USPS COLLECTION BOX - BLUE BOX", "address": {"city": "SEATTLE", "state": "WA", "street": "3841 1ST AVE S", "postcode": "98134"}}},
{"geometry": {"type": "Point", "coordinates": [-122.3281355133, 47.5862601834]}, "type": "Feature", "properties": {"collection_times": [{"days": "Mon-Fri", "time": "2:30pm"}, {"days": "Sat-Sun", "time": "Closed"}], "id": "9813400180", "name": "USPS COLLECTION BOX - BLUE BOX", "address": {"city": "SEATTLE", "state": "WA", "street": "466 S HOLGATE ST", "postcode": "98134"}}},
{"geometry": {"type": "Point", "coordinates": [-122.3391894249, 47.561630807]}, "type": "Feature", "properties": {"collection_times": [{"days": "Mon-Fri", "time": "5:00pm"}, {"days": "Sat", "time": "1:00pm"}, {"days": "Sun", "time": "Closed"}], "id": "9813400746", "name": "USPS COLLECTION BOX - BLUE BOX", "address": {"city": "SEATTLE", "state": "WA", "street": "4634 E MARGINAL WAY S", "postcode": "98134"}}},
{"geometry": {"type": "Point", "coordinates": [-122.3214770545, 47.5839595765]}, "type": "Feature", "properties": {"collection_times": [{"days": "Mon-Fri", "time": "4:30pm"}, {"days": "Sat-Sun", "time": "Closed"}], "id": "9813401060", "name": "USPS COLLECTION BOX - BLUE BOX", "address": {"city": "SEATTLE", "state": "WA", "street": "2203 AIRPORT WAY S", "postcode": "98134"}}},
{"geometry": {"type": "Point", "coordinates": [-122.3395206864, 47.5609728794]}, "type": "Feature", "properties": {"collection_times": [{"days": "Mon-Fri", "time": "2:30pm"}, {"days": "Sat-Sun", "time": "Closed"}], "id": "9813402157", "name": "USPS COLLECTION BOX - BLUE BOX", "address": {"city": "SEATTLE", "state": "WA", "street": "4735 E MARGINAL WAY S", "postcode": "98134"}}},
{"geometry": {"type": "Point", "coordinates": [-122.3352329554, 47.5818562516]}, "type": "Feature", "properties": {"collection_times": [{"days": "Mon-Fri", "time": "4:00pm"}, {"days": "Sat-Sun", "time": "Closed"}], "id": "9813402159", "name": "USPS COLLECTION BOX - BLUE BOX", "address": {"city": "SEATTLE", "state": "WA", "street": "2401 UTAH AVE S", "postcode": "98134"}}},
{"geometry": {"type": "Point", "coordinates": [-122.329007336, 47.5821959223]}, "type": "Feature", "properties": {"collection_times": [{"days": "Mon-Fri", "time": "6:30pm"}, {"days": "Sat", "time": "3:00pm"}, {"days": "Sun", "time": "Closed"}], "id": "9813402166", "name": "USPS COLLECTION BOX - BLUE BOX", "address": {"city": "SEATTLE", "state": "WA", "street": "2420 4TH AVE S", "postcode": "98134"}}},
{"geometry": {"type": "Point", "coordinates": [-122.329007336, 47.5821959223]}, "type": "Feature", "properties": {"collection_times": [{"days": "Mon-Fri", "time": "5:30pm"}, {"days": "Sat-Sun", "time": "Closed"}], "id": "9813402171", "name": "USPS COLLECTION BOX - APC", "address": {"city": "SEATTLE", "state": "WA", "street": "2420 4TH AVE S", "postcode": "98134"}}},
{"geometry": {"type": "Point", "coordinates": [-122.3497087354, 47.5706234375]}, "type": "Feature", "properties": {"collection_times": [{"days": "Mon-Fri", "time": "2:30pm"}, {"days": "Sat-Sun", "time": "Closed"}], "id": "9813402172", "name": "USPS COLLECTION BOX - BLUE BOX", "address": {"city": "SEATTLE", "state": "WA", "street": "1031 SW KLICKITAT WAY", "postcode": "98134"}}},
{"geometry": {"type": "Point", "coordinates": [-122.329007336, 47.5821959223]}, "type": "Feature", "properties": {"collection_times": [{"days": "Mon-Fri", "time": "5:30pm"}, {"days": "Sat-Sun", "time": "Closed"}], "id": "9813402173", "name": "USPS COLLECTION BOX - PO LOBBY", "address": {"city": "SEATTLE", "state": "WA", "street": "2420 4TH AVE S", "postcode": "98134"}}},
{"geometry": {"type": "Point", "coordinates": [-122.3400886913, 47.5644767633]}, "type": "Feature", "properties": {"collection_times": [{"days": "Mon-Fri", "time": "2:30pm"}, {"days": "Sat-Sun", "time": "Closed"}], "id": "9813402174", "name": "USPS COLLECTION BOX - BLUE BOX", "address": {"city": "SEATTLE", "state": "WA", "street": "24 S IDAHO ST", "postcode": "98134"}}},
{"geometry": {"type": "Point", "coordinates": [-122.3871153482, 47.5530009086]}, "type": "Feature", "properties": {"collection_times": [{"days": "Mon-Fri", "time": "11:30am"}, {"days": "Sat", "time": "9:30am"}, {"days": "Sun", "time": "Closed"}], "id": "9813600695", "name": "USPS COLLECTION BOX - BLUE BOX", "address": {"city": "SEATTLE", "state": "WA", "street": "5401 CALIFORNIA AVE SW", "postcode": "98136"}}},
{"geometry": {"type": "Point", "coordinates": [-122.3872329678, 47.5491100067]}, "type": "Feature", "properties": {"collection_times": [{"days": "Mon-Fri", "time": "11:30am"}, {"days": "Sat", "time": "9:30am"}, {"days": "Sun", "time": "Closed"}], "id": "9813600703", "name": "USPS COLLECTION BOX - BLUE BOX", "address": {"city": "SEATTLE", "state": "WA", "street": "5901 CALIFORNIA AVE SW", "postcode": "98136"}}},
{"geometry": {"type": "Point", "coordinates": [-122.3873263304, 47.5446133034]}, "type": "Feature", "properties": {"collection_times": [{"days": "Mon-Fri", "time": "4:45pm"}, {"days": "Sat", "time": "11:30am"}, {"days": "Sun", "time": "Closed"}], "id": "9813601497", "name": "USPS COLLECTION BOX - BLUE BOX", "address": {"city": "SEATTLE", "state": "WA", "street": "6523 CALIFORNIA AVE SW", "postcode": "98136"}}},
{"geometry": {"type": "Point", "coordinates": [-122.3173076641, 47.5974663912]}, "type": "Feature", "properties": {"collection_times": [{"days": "Mon-Fri", "time": "3:00pm"}, {"days": "Sat", "time": "12:30pm"}, {"days": "Sun", "time": "Closed"}], "id": "9814400270", "name": "USPS COLLECTION BOX - BLUE BOX", "address": {"city": "SEATTLE", "state": "WA", "street": "601 12TH AVE S", "postcode": "98144"}}},
{"geometry": {"type": "Point", "coordinates": [-122.3017196283, 47.5992273387]}, "type": "Feature", "properties": {"collection_times": [{"days": "Mon-Fri", "time": "2:30pm"}, {"days": "Sat", "time": "12:30pm"}, {"days": "Sun", "time": "Closed"}], "id": "9814400408", "name": "USPS COLLECTION BOX - BLUE BOX", "address": {"city": "SEATTLE", "state": "WA", "street": "2349 S JACKSON ST", "postcode": "98144"}}},
{"geometry": {"type": "Point", "coordinates": [-122.2929677978, 47.5837734548]}, "type": "Feature", "properties": {"collection_times": [{"days": "Mon-Fri", "time": "2:00pm"}, {"days": "Sat", "time": "11:45am"}, {"days": "Sun", "time": "Closed"}], "id": "9814400460", "name": "USPS COLLECTION BOX - BLUE BOX", "address": {"city": "SEATTLE", "state": "WA", "street": "2121 31ST AVE S", "postcode": "98144"}}},
{"geometry": {"type": "Point", "coordinates": [-122.2877984513, 47.5964469963]}, "type": "Feature", "properties": {"collection_times": [{"days": "Mon-Fri", "time": "2:00pm"}, {"days": "Sat", "time": "12:30pm"}, {"days": "Sun", "time": "Closed"}], "id": "9814400496", "name": "USPS COLLECTION BOX - BLUE BOX", "address": {"city": "SEATTLE", "state": "WA", "street": "3501 S LANE ST", "postcode": "98144"}}},
{"geometry": {"type": "Point", "coordinates": [-122.309366137, 47.5921247383]}, "type": "Feature", "properties": {"collection_times": [{"days": "Mon-Fri", "time": "3:15pm"}, {"days": "Sat", "time": "11:30am"}, {"days": "Sun", "time": "Closed"}], "id": "9814400917", "name": "USPS COLLECTION BOX - BLUE BOX", "address": {"city": "SEATTLE", "state": "WA", "street": "1804 S BUSH PL", "postcode": "98144"}}},
{"geometry": {"type": "Point", "coordinates": [-122.314156, 47.61176]}, "type": "Feature", "properties": {"collection_times": [{"days": "Mon-Fri", "time": "4:00pm"}, {"days": "Sat-Sun", "time": "Closed"}], "id": "9814401238", "name": "USPS COLLECTION BOX - BLUE BOX", "address": {"city": "SEATTLE", "state": "WA", "street": "1131 14TH AVE", "postcode": "98144"}}},
{"geometry": {"type": "Point", "coordinates": [-122.3089788026, 47.575106856]}, "type": "Feature", "properties": {"collection_times": [{"days": "Mon-Fri", "time": "2:30pm"}, {"days": "Sat", "time": "11:45am"}, {"days": "Sun", "time": "Closed"}], "id": "9814402134", "name": "USPS COLLECTION BOX - BLUE BOX", "address": {"city": "SEATTLE", "state": "WA", "street": "1742 S HANFORD ST", "postcode": "98144"}}},
{"geometry": {"type": "Point", "coordinates": [-122.3551129003, 47.4995926026]}, "type": "Feature", "properties": {"collection_times": [{"days": "Mon-Fri", "time": "10:30am"}, {"days": "Sat", "time": "11:30am"}, {"days": "Sun", "time": "Closed"}], "id": "9814601503", "name": "USPS COLLECTION BOX - BLUE BOX", "address": {"city": "SEATTLE", "state": "WA", "street": "11454 16TH AVE SW", "postcode": "98146"}}},
{"geometry": {"type": "Point", "coordinates": [-122.3279086875, 47.4473464231]}, "type": "Feature", "properties": {"collection_times": [{"days": "Mon-Fri", "time": "4:30pm"}, {"days": "Sat", "time": "12:45pm"}, {"days": "Sun", "time": "Closed"}], "id": "9814800723", "name": "USPS COLLECTION BOX - BLUE BOX", "address": {"city": "SEATAC", "state": "WA", "street": "19247 DES MOINES MEMORIAL DR", "postcode": "98148"}}},
{"geometry": {"type": "Point", "coordinates": [-122.3192626354, 47.4336045272]}, "type": "Feature", "properties": {"collection_times": [{"days": "Mon-Fri", "time": "4:30pm"}, {"days": "Sat", "time": "12:45pm"}, {"days": "Sun", "time": "Closed"}], "id": "9814801643", "name": "USPS COLLECTION BOX - BLUE BOX", "address": {"city": "SEATAC", "state": "WA", "street": "18934 DES MOINES WAY S", "postcode": "98148"}}},
{"geometry": {"type": "Point", "coordinates": [-122.3182594223, 47.4312204424]}, "type": "Feature", "properties": {"collection_times": [{"days": "Mon-Fri", "time": "4:00pm"}, {"days": "Sat", "time": "12:45pm"}, {"days": "Sun", "time": "Closed"}], "id": "9814801646", "name": "USPS COLLECTION BOX - BLUE BOX", "address": {"city": "SEATAC", "state": "WA", "street": "1200 S 192ND ST", "postcode": "98148"}}},
{"geometry": {"type": "Point", "coordinates": [-122.3338237638, 47.4617068595]}, "type": "Feature", "properties": {"collection_times": [{"days": "Mon-Fri", "time": "4:00pm"}, {"days": "Sat-Sun", "time": "Closed"}], "id": "9814801647", "name": "USPS COLLECTION BOX - BLUE BOX", "address": {"city": "SEATAC", "state": "WA", "street": "15840 1ST AVE S", "postcode": "98148"}}},
{"geometry": {"type": "Point", "coordinates": [-122.3238713601, 47.7498122051]}, "type": "Feature", "properties": {"collection_times": [{"days": "Mon-Fri", "time": "1:00pm"}, {"days": "Sat", "time": "9:00am"}, {"days": "Sun", "time": "Closed"}], "id": "9815500154", "name": "USPS COLLECTION BOX - BLUE BOX", "address": {"city": "SHORELINE", "state": "WA", "street": "16506 5TH AVE NE", "postcode": "98155"}}},
{"geometry": {"type": "Point", "coordinates": [-122.2907634016, 47.7627976482]}, "type": "Feature", "properties": {"collection_times": [{"days": "Mon-Fri", "time": "12:30pm"}, {"days": "Sat", "time": "1:00pm"}, {"days": "Sun", "time": "Closed"}], "id": "9815500487", "name": "USPS COLLECTION BOX - BLUE BOX", "address": {"city": "SHORELINE", "state": "WA", "street": "18498 BALLINGER WAY NE", "postcode": "98155"}}},
{"geometry": {"type": "Point", "coordinates": [-122.2789055465, 47.7526911317]}, "type": "Feature", "properties": {"collection_times": [{"days": "Mon-Fri", "time": "12:30pm"}, {"days": "Sat", "time": "9:00am"}, {"days": "Sun", "time": "Closed"}], "id": "9815501254", "name": "USPS COLLECTION BOX - BLUE BOX", "address": {"city": "SHORELINE", "state": "WA", "street": "17171 BOTHELL WAY NE", "postcode": "98155"}}},
{"geometry": {"type": "Point", "coordinates": [-122.311052401, 47.7757370353]}, "type": "Feature", "properties": {"collection_times": [{"days": "Mon-Fri", "time": "12:30pm"}, {"days": "Sat", "time": "1:00pm"}, {"days": "Sun", "time": "Closed"}], "id": "9815501527", "name": "USPS COLLECTION BOX - BLUE BOX", "address": {"city": "SHORELINE", "state": "WA", "street": "20238 BALLINGER WAY NE", "postcode": "98155"}}},
{"geometry": {"type": "Point", "coordinates": [-122.3134456596, 47.7533910794]}, "type": "Feature", "properties": {"collection_times": [{"days": "Mon-Fri", "time": "5:15pm"}, {"days": "Sat", "time": "3:30pm"}, {"days": "Sun", "time": "Closed"}], "id": "9815501533", "name": "USPS COLLECTION BOX - BLUE BOX", "address": {"city": "SHORELINE", "state": "WA", "street": "17233 15TH AVE NE", "postcode": "98155"}}},
{"geometry": {"type": "Point", "coordinates": [-122.3134456596, 47.7533910794]}, "type": "Feature", "properties": {"collection_times": [{"days": "Mon-Fri", "time": "5:15pm"}, {"days": "Sat", "time": "2:15pm"}, {"days": "Sun", "time": "Closed"}], "id": "9815501535", "name": "USPS COLLECTION BOX - PO LOBBY", "address": {"city": "SHORELINE", "state": "WA", "street": "17233 15TH AVE NE", "postcode": "98155"}}},
{"geometry": {"type": "Point", "coordinates": [-122.2963166166, 47.4435256876]}, "type": "Feature", "properties": {"collection_times": [{"days": "Mon-Sat", "time": "12:00pm"}, {"days": "Sun", "time": "Closed"}], "id": "9815801532", "name": "USPS COLLECTION BOX - BLUE BOX", "address": {"city": "SEATAC", "state": "WA", "street": "17801 INTERNATIONAL BLVD", "postcode": "98158"}}},
{"geometry": {"type": "Point", "coordinates": [-122.3346338713, 47.4705900568]}, "type": "Feature", "properties": {"collection_times": [{"days": "Mon-Fri", "time": "3:30pm"}, {"days": "Sat", "time": "11:30am"}, {"days": "Sun", "time": "Closed"}], "id": "9816600690", "name": "USPS COLLECTION BOX - BLUE BOX", "address": {"city": "BURIEN", "state": "WA", "street": "138 SW 148TH ST", "postcode": "98166"}}},
{"geometry": {"type": "Point", "coordinates": [-122.3411256425, 47.4572379505]}, "type": "Feature", "properties": {"collection_times": [{"days": "Mon-Fri", "time": "4:00pm"}, {"days": "Sat", "time": "1:15pm"}, {"days": "Sun", "time": "Closed"}], "id": "9816600691", "name": "USPS COLLECTION BOX - BLUE BOX", "address": {"city": "BURIEN", "state": "WA", "street": "16251 SYLVESTER RD SW", "postcode": "98166"}}},
{"geometry": {"type": "Point", "coordinates": [-122.3421441679, 47.4685888687]}, "type": "Feature", "properties": {"collection_times": [{"days": "Mon-Fri", "time": "5:30pm"}, {"days": "Sat", "time": "3:30pm"}, {"days": "Sun", "time": "Closed"}], "id": "9816602183", "name": "USPS COLLECTION BOX - PO LOBBY", "address": {"city": "BURIEN", "state": "WA", "street": "609 SW 150TH ST", "postcode": "98166"}}},
{"geometry": {"type": "Point", "coordinates": [-122.3424, 47.46861]}, "type": "Feature", "properties": {"collection_times": [{"days": "Mon-Fri", "time": "5:30pm"}, {"days": "Sat", "time": "3:30pm"}, {"days": "Sun", "time": "Closed"}], "id": "9816602184", "name": "USPS COLLECTION BOX - BLUE BOX", "address": {"city": "BURIEN", "state": "WA", "street": "609 SW 150TH ST", "postcode": "98166"}}},
{"geometry": {"type": "Point", "coordinates": [-122.3421441679, 47.4685888687]}, "type": "Feature", "properties": {"collection_times": [{"days": "Mon-Fri", "time": "5:30pm"}, {"days": "Sat", "time": "3:30pm"}, {"days": "Sun", "time": "Closed"}], "id": "9816602195", "name": "USPS COLLECTION BOX - APC", "address": {"city": "BURIEN", "state": "WA", "street": "609 SW 150TH ST", "postcode": "98166"}}},
{"geometry": {"type": "Point", "coordinates": [-122.3337526713, 47.5023834887]}, "type": "Feature", "properties": {"collection_times": [{"days": "Mon-Fri", "time": "3:30pm"}, {"days": "Sat", "time": "12:30pm"}, {"days": "Sun", "time": "Closed"}], "id": "9816800117", "name": "USPS COLLECTION BOX - BLUE BOX", "address": {"city": "TUKWILA", "state": "WA", "street": "11225 1ST AVE S", "postcode": "98168"}}},
{"geometry": {"type": "Point", "coordinates": [-122.3338193573, 47.4752794883]}, "type": "Feature", "properties": {"collection_times": [{"days": "Mon-Fri", "time": "3:30pm"}, {"days": "Sat", "time": "11:30am"}, {"days": "Sun", "time": "Closed"}], "id": "9816800119", "name": "USPS COLLECTION BOX - BLUE BOX", "address": {"city": "TUKWILA", "state": "WA", "street": "14300 1ST AVE S", "postcode": "98168"}}},
{"geometry": {"type": "Point", "coordinates": [-122.3102394472, 47.4948814871]}, "type": "Feature", "properties": {"collection_times": [{"days": "Mon-Fri", "time": "4:15pm"}, {"days": "Sat", "time": "11:30am"}, {"days": "Sun", "time": "Closed"}], "id": "9816800720", "name": "USPS COLLECTION BOX - BLUE BOX", "address": {"city": "TUKWILA", "state": "WA", "street": "12000 DES MOINES MEMORIAL DR", "postcode": "98168"}}},
{"geometry": {"type": "Point", "coordinates": [-122.2852660531, 47.474180396]}, "type": "Feature", "properties": {"collection_times": [{"days": "Mon-Fri", "time": "11:30am"}, {"days": "Sat", "time": "12:00pm"}, {"days": "Sun", "time": "Closed"}], "id": "9816802201", "name": "USPS COLLECTION BOX - BLUE BOX", "address": {"city": "TUKWILA", "state": "WA", "street": "3725 S 144TH ST", "postcode": "98168"}}},
{"geometry": {"type": "Point", "coordinates": [-122.2793077349, 47.4888190165]}, "type": "Feature", "properties": {"collection_times": [{"days": "Mon-Fri", "time": "3:30pm"}, {"days": "Sat", "time": "11:30am"}, {"days": "Sun", "time": "Closed"}], "id": "9816802202", "name": "USPS COLLECTION BOX - BLUE BOX", "address": {"city": "TUKWILA", "state": "WA", "street": "12800 INTERURBAN AVE S", "postcode": "98168"}}},
{"geometry": {"type": "Point", "coordinates": [-122.2533292371, 47.4696704062]}, "type": "Feature", "properties": {"collection_times": [{"days": "Mon-Fri", "time": "3:30pm"}, {"days": "Sat", "time": "11:30am"}, {"days": "Sun", "time": "Closed"}], "id": "9816802205", "name": "USPS COLLECTION BOX - BLUE BOX", "address": {"city": "TUKWILA", "state": "WA", "street": "14900 INTERURBAN AVE S", "postcode": "98168"}}},
{"geometry": {"type": "Point", "coordinates": [-122.3326137908, 47.4882350903]}, "type": "Feature", "properties": {"collection_times": [{"days": "Mon-Fri", "time": "12:00pm"}, {"days": "Sat", "time": "12:30pm"}, {"days": "Sun", "time": "Closed"}], "id": "9816802209", "name": "USPS COLLECTION BOX - BLUE BOX", "address": {"city": "TUKWILA", "state": "WA", "street": "12725 1ST AVE S", "postcode": "98168"}}},
{"geometry": {"type": "Point", "coordinates": [-122.3644460522, 47.7651487497]}, "type": "Feature", "properties": {"collection_times": [{"days": "Mon-Fri", "time": "4:30pm"}, {"days": "Sat", "time": "9:00am"}, {"days": "Sun", "time": "Closed"}], "id": "9817702190", "name": "USPS COLLECTION BOX - BLUE BOX", "address": {"city": "SHORELINE", "state": "WA", "street": "604 NW RICHMOND BEACH RD", "postcode": "98177"}}},
{"geometry": {"type": "Point", "coordinates": [-122.2211285584, 47.5000732879]}, "type": "Feature", "properties": {"collection_times": [{"days": "Mon-Fri", "time": "12:00pm"}, {"days": "Sat", "time": "12:30pm"}, {"days": "Sun", "time": "Closed"}], "id": "9817800942", "name": "USPS COLLECTION BOX - BLUE BOX", "address": {"city": "SEATTLE", "state": "WA", "street": "11449 RAINIER AVE S", "postcode": "98178"}}},
{"geometry": {"type": "Point", "coordinates": [-122.2366826699, 47.490189072]}, "type": "Feature", "properties": {"collection_times": [{"days": "Mon-Fri", "time": "5:00pm"}, {"days": "Sat", "time": "1:00pm"}, {"days": "Sun", "time": "Closed"}], "id": "9817801555", "name": "USPS COLLECTION BOX - PO LOBBY", "address": {"city": "SEATTLE", "state": "WA", "street": "7633 S 126TH ST", "postcode": "98178"}}},
{"geometry": {"type": "Point", "coordinates": [-122.2366826699, 47.490189072]}, "type": "Feature", "properties": {"collection_times": [{"days": "Mon-Fri", "time": "5:00pm"}, {"days": "Sat", "time": "1:00pm"}, {"days": "Sun", "time": "Closed"}], "id": "9817801559", "name": "USPS COLLECTION BOX - BLUE BOX", "address": {"city": "SEATTLE", "state": "WA", "street": "7633 S 126TH ST", "postcode": "98178"}}},
{"geometry": {"type": "Point", "coordinates": [-122.277736909, 47.451226513]}, "type": "Feature", "properties": {"collection_times": [{"days": "Mon-Fri", "time": "2:30pm"}, {"days": "Sat", "time": "11:30am"}, {"days": "Sun", "time": "Closed"}], "id": "9818800707", "name": "USPS COLLECTION BOX - BLUE BOX", "address": {"city": "TUKWILA", "state": "WA", "street": "16300 CHRISTENSEN RD", "postcode": "98188"}}},
{"geometry": {"type": "Point", "coordinates": [-122.2811731042, 47.4558038863]}, "type": "Feature", "properties": {"collection_times": [{"days": "Mon-Sat", "time": "1:00pm"}, {"days": "Sun", "time": "Closed"}], "id": "9818800873", "name": "USPS COLLECTION BOX - BLUE BOX", "address": {"city": "TUKWILA", "state": "WA", "street": "16429 MILITARY RD S", "postcode": "98188"}}},
{"geometry": {"type": "Point", "coordinates": [-122.2624567095, 47.4558986629]}, "type": "Feature", "properties": {"collection_times": [{"days": "Mon-Fri", "time": "3:30pm"}, {"days": "Sat", "time": "1:15pm"}, {"days": "Sun", "time": "Closed"}], "id": "9818801012", "name": "USPS COLLECTION BOX - BLUE BOX", "address": {"city": "TUKWILA", "state": "WA", "street": "411 STRANDER BLVD", "postcode": "98188"}}},
{"geometry": {"type": "Point", "coordinates": [-122.2530565973, 47.4487462305]}, "type": "Feature", "properties": {"collection_times": [{"days": "Mon-Fri", "time": "3:30pm"}, {"days": "Sat", "time": "11:30am"}, {"days": "Sun", "time": "Closed"}], "id": "9818802160", "name": "USPS COLLECTION BOX - BLUE BOX", "address": {"city": "TUKWILA", "state": "WA", "street": "436 MINKLER BLVD", "postcode": "98188"}}},
{"geometry": {"type": "Point", "coordinates": [-122.2487491834, 47.4538642231]}, "type": "Feature", "properties": {"collection_times": [{"days": "Mon-Fri", "time": "3:30pm"}, {"days": "Sat", "time": "11:30am"}, {"days": "Sun", "time": "Closed"}], "id": "9818802163", "name": "USPS COLLECTION BOX - BLUE BOX", "address": {"city": "TUKWILA", "state": "WA", "street": "574 INDUSTRY DR", "postcode": "98188"}}},
{"geometry": {"type": "Point", "coordinates": [-122.2624340603, 47.4556782426]}, "type": "Feature", "properties": {"collection_times": [{"days": "Mon-Fri", "time": "3:30pm"}, {"days": "Sat", "time": "11:30am"}, {"days": "Sun", "time": "Closed"}], "id": "9818802170", "name": "USPS COLLECTION BOX - BLUE BOX", "address": {"city": "TUKWILA", "state": "WA", "street": "16400 SOUTHCENTER PKWY", "postcode": "98188"}}},
{"geometry": {"type": "Point", "coordinates": [-122.277736909, 47.451226513]}, "type": "Feature", "properties": {"collection_times": [{"days": "Mon-Fri", "time": "3:30pm"}, {"days": "Sat", "time": "11:30am"}, {"days": "Sun", "time": "Closed"}], "id": "9818802172", "name": "USPS COLLECTION BOX - BLUE BOX", "address": {"city": "TUKWILA", "state": "WA", "street": "575 CORPORATE DR S", "postcode": "98188"}}},
{"geometry": {"type": "Point", "coordinates": [-122.2467541811, 47.4558091255]}, "type": "Feature", "properties": {"collection_times": [{"days": "Mon-Fri", "time": "3:30pm"}, {"days": "Sat", "time": "11:30am"}, {"days": "Sun", "time": "Closed"}], "id": "9818802174", "name": "USPS COLLECTION BOX - BLUE BOX", "address": {"city": "TUKWILA", "state": "WA", "street": "601 STRANDER BLVD", "postcode": "98188"}}},
{"geometry": {"type": "Point", "coordinates": [-122.2544555977, 47.4577104419]}, "type": "Feature", "properties": {"collection_times": [{"days": "Mon-Fri", "time": "5:00pm"}, {"days": "Sat", "time": "3:00pm"}, {"days": "Sun", "time": "Closed"}], "id": "9818802179", "name": "USPS COLLECTION BOX - BLUE BOX", "address": {"city": "TUKWILA", "state": "WA", "street": "225 ANDOVER PARK W", "postcode": "98188"}}},
{"geometry": {"type": "Point", "coordinates": [-122.2544555977, 47.4577104419]}, "type": "Feature", "properties": {"collection_times": [{"days": "Mon-Fri", "time": "6:00pm"}, {"days": "Sat-Sun", "time": "Closed"}], "id": "9818802188", "name": "USPS COLLECTION BOX - PO LOBBY", "address": {"city": "TUKWILA", "state": "WA", "street": "225 ANDOVER PARK W", "postcode": "98188"}}},
{"geometry": {"type": "Point", "coordinates": [-122.2917943026, 47.4655745609]}, "type": "Feature", "properties": {"collection_times": [{"days": "Mon-Fri", "time": "6:00pm"}, {"days": "Sat", "time": "3:00pm"}, {"days": "Sun", "time": "Closed"}], "id": "9818802193", "name": "USPS COLLECTION BOX - BLUE BOX", "address": {"city": "TUKWILA", "state": "WA", "street": "15250 32ND AVE S", "postcode": "98188"}}},
{"geometry": {"type": "Point", "coordinates": [-122.2917943026, 47.4655745609]}, "type": "Feature", "properties": {"collection_times": [{"days": "Mon-Fri", "time": "6:00pm"}, {"days": "Sat", "time": "3:00pm"}, {"days": "Sun", "time": "Closed"}], "id": "9818802198", "name": "USPS COLLECTION BOX - PO LOBBY", "address": {"city": "TUKWILA", "state": "WA", "street": "15250 32ND AVE S", "postcode": "98188"}}},
{"geometry": {"type": "Point", "coordinates": [-122.2956330192, 47.4271568665]}, "type": "Feature", "properties": {"collection_times": [{"days": "Mon-Fri", "time": "3:30pm"}, {"days": "Sat", "time": "9:30am"}, {"days": "Sun", "time": "Closed"}], "id": "9818802213", "name": "USPS COLLECTION BOX - BLUE BOX", "address": {"city": "TUKWILA", "state": "WA", "street": "19530 INTERNATIONAL BLVD", "postcode": "98188"}}},
{"geometry": {"type": "Point", "coordinates": [-122.2743288219, 47.4481149726]}, "type": "Feature", "properties": {"collection_times": [{"days": "Mon-Fri", "time": "3:30pm"}, {"days": "Sat", "time": "12:45pm"}, {"days": "Sun", "time": "Closed"}], "id": "9818802214", "name": "USPS COLLECTION BOX - BLUE BOX", "address": {"city": "TUKWILA", "state": "WA", "street": "2580 S 156TH ST", "postcode": "98188"}}},
{"geometry": {"type": "Point", "coordinates": [-122.2749535571, 47.4341951169]}, "type": "Feature", "properties": {"collection_times": [{"days": "Mon-Fri", "time": "1:00pm"}, {"days": "Sat", "time": "12:30pm"}, {"days": "Sun", "time": "Closed"}], "id": "9818802215", "name": "USPS COLLECTION BOX - BLUE BOX", "address": {"city": "TUKWILA", "state": "WA", "street": "4800 S 188TH ST", "postcode": "98188"}}},
{"geometry": {"type": "Point", "coordinates": [-122.2544101928, 47.4567582952]}, "type": "Feature", "properties": {"collection_times": [{"days": "Mon-Fri", "time": "3:00pm"}, {"days": "Sat-Sun", "time": "Closed"}], "id": "9818802220", "name": "USPS COLLECTION BOX - APC", "address": {"city": "TUKWILA", "state": "WA", "street": "225 ANDOVER PARK W", "postcode": "98188"}}},
{"geometry": {"type": "Point", "coordinates": [-122.3100332487, 47.6549241859]}, "type": "Feature", "properties": {"collection_times": [{"days": "Mon-Fri", "time": "2:30pm"}, {"days": "Sat-Sun", "time": "Closed"}], "id": "9819501038", "name": "USPS COLLECTION BOX - BLUE BOX", "address": {"city": "SEATTLE", "state": "WA", "street": "1701 GRANT LANE", "postcode": "98195"}}},
{"geometry": {"type": "Point", "coordinates": [-122.3084967994, 47.6509254184]}, "type": "Feature", "properties": {"collection_times": [{"days": "Mon-Fri", "time": "4:00pm"}, {"days": "Sat-Sun", "time": "Closed"}], "id": "9819501140", "name": "USPS COLLECTION BOX - BLUE BOX", "address": {"city": "SEATTLE", "state": "WA", "street": "1959 NE PACIFIC ST", "postcode": "98195"}}},
{"geometry": {"type": "Point", "coordinates": [-122.3248934274, 47.4069066572]}, "type": "Feature", "properties": {"collection_times": [{"days": "Mon-Fri", "time": "1:30pm"}, {"days": "Sat", "time": "2:30pm"}, {"days": "Sun", "time": "Closed"}], "id": "9819800850", "name": "USPS COLLECTION BOX - BLUE BOX", "address": {"city": "DES MOINES", "state": "WA", "street": "21815 MARINE VIEW DR S", "postcode": "98198"}}},
{"geometry": {"type": "Point", "coordinates": [-122.3065425293, 47.4082658467]}, "type": "Feature", "properties": {"collection_times": [{"days": "Mon-Fri", "time": "6:00pm"}, {"days": "Sat", "time": "3:00pm"}, {"days": "Sun", "time": "Closed"}], "id": "9819801546", "name": "USPS COLLECTION BOX - PO LOBBY", "address": {"city": "DES MOINES", "state": "WA", "street": "2003 S 216TH ST", "postcode": "98198"}}},
{"geometry": {"type": "Point", "coordinates": [-122.3088045228, 47.3594140451]}, "type": "Feature", "properties": {"collection_times": [{"days": "Mon-Fri", "time": "3:00pm"}, {"days": "Sat", "time": "11:30am"}, {"days": "Sun", "time": "Closed"}], "id": "9819801554", "name": "USPS COLLECTION BOX - BLUE BOX", "address": {"city": "DES MOINES", "state": "WA", "street": "27055 PACIFIC HWY S", "postcode": "98198"}}},
{"geometry": {"type": "Point", "coordinates": [-122.3065425293, 47.4082658467]}, "type": "Feature", "properties": {"collection_times": [{"days": "Mon-Fri", "time": "6:00pm"}, {"days": "Sat", "time": "3:00pm"}, {"days": "Sun", "time": "Closed"}], "id": "9819801555", "name": "USPS COLLECTION BOX - BLUE BOX", "address": {"city": "DES MOINES", "state": "WA", "street": "2003 S 216TH ST", "postcode": "98198"}}},
{"geometry": {"type": "Point", "coordinates": [-122.3065425293, 47.4082658467]}, "type": "Feature", "properties": {"collection_times": [{"days": "Mon-Fri", "time": "6:00pm"}, {"days": "Sat", "time": "3:00pm"}, {"days": "Sun", "time": "Closed"}], "id": "9819801556", "name": "USPS COLLECTION BOX - PO LOBBY", "address": {"city": "DES MOINES", "state": "WA", "street": "2003 S 216TH ST", "postcode": "98198"}}},
{"geometry": {"type": "Point", "coordinates": [-122.400984558, 47.6536151548]}, "type": "Feature", "properties": {"collection_times": [{"days": "Mon-Sat", "time": "12:30pm"}, {"days": "Sun", "time": "Closed"}], "id": "9819900484", "name": "USPS COLLECTION BOX - BLUE BOX", "address": {"city": "SEATTLE", "state": "WA", "street": "3655 34TH AVE W", "postcode": "98199"}}},
{"geometry": {"type": "Point", "coordinates": [-122.3864494077, 47.6557544181]}, "type": "Feature", "properties": {"collection_times": [{"days": "Mon-Fri", "time": "2:45pm"}, {"days": "Sat", "time": "12:30pm"}, {"days": "Sun", "time": "Closed"}], "id": "9819900788", "name": "USPS COLLECTION BOX - BLUE BOX", "address": {"city": "SEATTLE", "state": "WA", "street": "4001 GILMAN AVE W", "postcode": "98199"}}},
{"geometry": {"type": "Point", "coordinates": [-122.3825313831, 47.6457462936]}, "type": "Feature", "properties": {"collection_times": [{"days": "Mon-Sat", "time": "12:30pm"}, {"days": "Sun", "time": "Closed"}], "id": "9819901033", "name": "USPS COLLECTION BOX - BLUE BOX", "address": {"city": "SEATTLE", "state": "WA", "street": "2809 THORNDYKE AVE W", "postcode": "98199"}}},
{"geometry": {"type": "Point", "coordinates": [-122.3984828334, 47.639491176]}, "type": "Feature", "properties": {"collection_times": [{"days": "Mon-Fri", "time": "5:00pm"}, {"days": "Sat", "time": "3:00pm"}, {"days": "Sun", "time": "Closed"}], "id": "9819901567", "name": "USPS COLLECTION BOX - BLUE BOX", "address": {"city": "SEATTLE", "state": "WA", "street": "3211 W MCGRAW ST", "postcode": "98199"}}},
{"geometry": {"type": "Point", "coordinates": [-122.3984828334, 47.639491176]}, "type": "Feature", "properties": {"collection_times": [{"days": "Mon-Fri", "time": "5:00pm"}, {"days": "Sat-Sun", "time": "Closed"}], "id": "9819901568", "name": "USPS COLLECTION BOX - PO LOBBY", "address": {"city": "SEATTLE", "state": "WA", "street": "3211 W MCGRAW ST", "postcode": "98199"}}},
{"geometry": {"type": "Point", "coordinates": [-122.3834679543, 47.6558420592]}, "type": "Feature", "properties": {"collection_times": [{"days": "Mon-Fri", "time": "2:45pm"}, {"days": "Sat", "time": "12:30pm"}, {"days": "Sun", "time": "Closed"}], "id": "9819901569", "name": "USPS COLLECTION BOX - BLUE BOX", "address": {"city": "SEATTLE", "state": "WA", "street": "4019 21ST AVE W", "postcode": "98199"}}},
{"geometry": {"type": "Point", "coordinates": [-122.389912468, 47.6583779449]}, "type": "Feature", "properties": {"collection_times": [{"days": "Mon-Sat", "time": "12:30pm"}, {"days": "Sun", "time": "Closed"}], "id": "9819901570", "name": "USPS COLLECTION BOX - BLUE BOX", "address": {"city": "SEATTLE", "state": "WA", "street": "4223 26TH AVE W", "postcode": "98199"}}},
{"geometry": {"type": "Point", "coordinates": [-122.389725, 47.635796]}, "type": "Feature", "properties": {"collection_times": [{"days": "Mon-Sat", "time": "12:30pm"}, {"days": "Sun", "time": "Closed"}], "id": "9819901572", "name": "USPS COLLECTION BOX - BLUE BOX", "address": {"city": "SEATTLE", "state": "WA", "street": "1897 MAGNOLIA BLVD W", "postcode": "98199"}}}
]}
