{"type": "FeatureCollection", "features": [
{"geometry": {"type": "Point", "coordinates": [-122.2179693824, 47.9764673299]}, "type": "Feature", "properties": {"collection_times": [{"days": "Mon-Fri", "time": "2:30pm"}, {"days": "Sat", "time": "1:30pm"}, {"days": "Sun", "time": "Closed"}], "id": "9820100001", "name": "USPS COLLECTION BOX - BLUE BOX", "address": {"city": "EVERETT", "state": "WA", "street": "900 PACIFIC AVE", "postcode": "98201"}}},
{"geometry": {"type": "Point", "coordinates": [-122.2054817385, 47.9739926817]}, "type": "Feature", "properties": {"collection_times": [{"days": "Mon-Fri", "time": "11:15am"}, {"days": "Sat-Sun", "time": "Closed"}], "id": "9820100002", "name": "USPS COLLECTION BOX - BLUE BOX", "address": {"city": "EVERETT", "state": "WA", "street": "1811 33RD ST", "postcode": "98201"}}},
{"geometry": {"type": "Point", "coordinates": [-122.2013878681, 47.9829518166]}, "type": "Feature", "properties": {"collection_times": [{"days": "Mon-Fri", "time": "11:20am"}, {"days": "Sat", "time": "1:30pm"}, {"days": "Sun", "time": "Closed"}], "id": "9820100005", "name": "USPS COLLECTION BOX - BLUE BOX", "address": {"city": "EVERETT", "state": "WA", "street": "2615 BROADWAY", "postcode": "98201"}}},
{"geometry": {"type": "Point", "coordinates": [-122.2030598451, 47.9804194377]}, "type": "Feature", "properties": {"collection_times": [{"days": "Mon-Fri", "time": "11:45am"}, {"days": "Sat-Sun", "time": "Closed"}], "id": "9820100007", "name": "USPS COLLECTION BOX - BLUE BOX", "address": {"city": "EVERETT", "state": "WA", "street": "2812 LOMBARD AVE", "postcode": "98201"}}},
{"geometry": {"type": "Point", "coordinates": [-122.2084236027, 47.9750541865]}, "type": "Feature", "properties": {"collection_times": [{"days": "Mon-Fri", "time": "2:45pm"}, {"days": "Sat-Sun", "time": "Closed"}], "id": "9820100008", "name": "USPS COLLECTION BOX - BLUE BOX", "address": {"city": "EVERETT", "state": "WA", "street": "3209 COLBY AVE", "postcode": "98201"}}},
{"geometry": {"type": "Point", "coordinates": [-122.2081602867, 47.9675146964]}, "type": "Feature", "properties": {"collection_times": [{"days": "Mon-Fri", "time": "2:45pm"}, {"days": "Sat-Sun", "time": "Closed"}], "id": "9820100009", "name": "USPS COLLECTION BOX - BLUE BOX", "address": {"city": "EVERETT", "state": "WA", "street": "3601 COLBY AVE", "postcode": "98201"}}},
{"geometry": {"type": "Point", "coordinates": [-122.208122432, 47.9668096529]}, "type": "Feature", "properties": {"collection_times": [{"days": "Mon-Fri", "time": "10:30am"}, {"days": "Sat-Sun", "time": "Closed"}], "id": "9820100010", "name": "USPS COLLECTION BOX - BLUE BOX", "address": {"city": "EVERETT", "state": "WA", "street": "3802 COLBY AVE", "postcode": "98201"}}},
{"geometry": {"type": "Point", "coordinates": [-122.2079639155, 47.9642189727]}, "type": "Feature", "properties": {"collection_times": [{"days": "Mon-Fri", "time": "11:15am"}, {"days": "Sat-Sun", "time": "Closed"}], "id": "9820100011", "name": "USPS COLLECTION BOX - BLUE BOX", "address": {"city": "EVERETT", "state": "WA", "street": "4009 COLBY AVE", "postcode": "98201"}}},
{"geometry": {"type": "Point", "coordinates": [-122.208583786, 47.9770150399]}, "type": "Feature", "properties": {"collection_times": [{"days": "Mon-Fri", "time": "12:00pm"}, {"days": "Sat-Sun", "time": "Closed"}], "id": "9820100012", "name": "USPS COLLECTION BOX - BLUE BOX", "address": {"city": "EVERETT", "state": "WA", "street": "3019 COLBY AVE", "postcode": "98201"}}},
{"geometry": {"type": "Point", "coordinates": [-122.1925842049, 47.9760430713]}, "type": "Feature", "properties": {"collection_times": [{"days": "Mon-Fri", "time": "11:30am"}, {"days": "Sat-Sun", "time": "Closed"}], "id": "9820100021", "name": "USPS COLLECTION BOX - BLUE BOX", "address": {"city": "EVERETT", "state": "WA", "street": "3102 PINE ST", "postcode": "98201"}}},
{"geometry": {"type": "Point", "coordinates": [-122.2014447956, 47.9739476131]}, "type": "Feature", "properties": {"collection_times": [{"days": "Mon-Fri", "time": "11:15am"}, {"days": "Sat-Sun", "time": "Closed"}], "id": "9820100022", "name": "USPS COLLECTION BOX - BLUE BOX", "address": {"city": "EVERETT", "state": "WA", "street": "3302 BROADWAY", "postcode": "98201"}}},
{"geometry": {"type": "Point", "coordinates": [-122.2010535978, 48.0060650186]}, "type": "Feature", "properties": {"collection_times": [{"days": "Mon-Fri", "time": "1:45pm"}, {"days": "Sat-Sun", "time": "Closed"}], "id": "9820100023", "name": "USPS COLLECTION BOX - BLUE BOX", "address": {"city": "EVERETT", "state": "WA", "street": "2000 TOWER ST", "postcode": "98201"}}},
{"geometry": {"type": "Point", "coordinates": [-122.1994271509, 48.004123234]}, "type": "Feature", "properties": {"collection_times": [{"days": "Mon-Fri", "time": "1:45pm"}, {"days": "Sat", "time": "1:00pm"}, {"days": "Sun", "time": "Closed"}], "id": "9820100024", "name": "USPS COLLECTION BOX - BLUE BOX", "address": {"city": "EVERETT", "state": "WA", "street": "1001 N BROADWAY", "postcode": "98201"}}},
{"geometry": {"type": "Point", "coordinates": [-122.2011642851, 47.9923329817]}, "type": "Feature", "properties": {"collection_times": [{"days": "Mon-Fri", "time": "1:45pm"}, {"days": "Sat", "time": "1:00pm"}, {"days": "Sun", "time": "Closed"}], "id": "9820100028", "name": "USPS COLLECTION BOX - BLUE BOX", "address": {"city": "EVERETT", "state": "WA", "street": "1901 BROADWAY", "postcode": "98201"}}},
{"geometry": {"type": "Point", "coordinates": [-122.2084536605, 47.9868927472]}, "type": "Feature", "properties": {"collection_times": [{"days": "Mon-Fri", "time": "2:15pm"}, {"days": "Sat", "time": "1:30pm"}, {"days": "Sun", "time": "Closed"}], "id": "9820100030", "name": "USPS COLLECTION BOX - BLUE BOX", "address": {"city": "EVERETT", "state": "WA", "street": "2302 COLBY AVE", "postcode": "98201"}}},
{"geometry": {"type": "Point", "coordinates": [-122.1955227361, 47.9818225851]}, "type": "Feature", "properties": {"collection_times": [{"days": "Mon-Fri", "time": "11:30am"}, {"days": "Sat-Sun", "time": "Closed"}], "id": "9820100031", "name": "USPS COLLECTION BOX - BLUE BOX", "address": {"city": "EVERETT", "state": "WA", "street": "2601 EVERETT AVE", "postcode": "98201"}}},
{"geometry": {"type": "Point", "coordinates": [-122.1843148671, 47.9817383204]}, "type": "Feature", "properties": {"collection_times": [{"days": "Mon-Fri", "time": "11:30am"}, {"days": "Sat-Sun", "time": "Closed"}], "id": "9820100032", "name": "USPS COLLECTION BOX - BLUE BOX", "address": {"city": "EVERETT", "state": "WA", "street": "3417 EVERETT AVE", "postcode": "98201"}}},
{"geometry": {"type": "Point", "coordinates": [-122.2157327064, 47.9760079404]}, "type": "Feature", "properties": {"collection_times": [{"days": "Mon-Fri", "time": "2:30pm"}, {"days": "Sat-Sun", "time": "Closed"}], "id": "9820100038", "name": "USPS COLLECTION BOX - BLUE BOX", "address": {"city": "EVERETT", "state": "WA", "street": "3131 NASSAU ST", "postcode": "98201"}}},
{"geometry": {"type": "Point", "coordinates": [-122.2097621915, 47.9806984505]}, "type": "Feature", "properties": {"collection_times": [{"days": "Mon-Fri", "time": "2:30pm"}, {"days": "Sat-Sun", "time": "Closed"}], "id": "9820100040", "name": "USPS COLLECTION BOX - BLUE BOX", "address": {"city": "EVERETT", "state": "WA", "street": "1515 CALIFORNIA ST", "postcode": "98201"}}},
{"geometry": {"type": "Point", "coordinates": [-122.2083851577, 47.9778993883]}, "type": "Feature", "properties": {"collection_times": [{"days": "Mon-Sat", "time": "12:00pm"}, {"days": "Sun", "time": "Closed"}], "id": "9820100042", "name": "USPS COLLECTION BOX - BLUE BOX", "address": {"city": "EVERETT", "state": "WA", "street": "1615 WALL ST", "postcode": "98201"}}},
{"geometry": {"type": "Point", "coordinates": [-122.2085576127, 47.9791934839]}, "type": "Feature", "properties": {"collection_times": [{"days": "Mon-Sat", "time": "1:30pm"}, {"days": "Sun", "time": "Closed"}], "id": "9820100044", "name": "USPS COLLECTION BOX - BLUE BOX", "address": {"city": "EVERETT", "state": "WA", "street": "2901 COLBY AVE", "postcode": "98201"}}},
{"geometry": {"type": "Point", "coordinates": [-122.2073268582, 47.9787561016]}, "type": "Feature", "properties": {"collection_times": [{"days": "Mon-Sat", "time": "12:00pm"}, {"days": "Sun", "time": "Closed"}], "id": "9820100047", "name": "USPS COLLECTION BOX - BLUE BOX", "address": {"city": "EVERETT", "state": "WA", "street": "2932 WETMORE AVE", "postcode": "98201"}}},
{"geometry": {"type": "Point", "coordinates": [-122.2099146148, 47.9758415446]}, "type": "Feature", "properties": {"collection_times": [{"days": "Mon-Sat", "time": "5:00pm"}, {"days": "Sun", "time": "Closed"}], "id": "9820100052", "name": "USPS COLLECTION BOX - BLUE BOX", "address": {"city": "EVERETT", "state": "WA", "street": "3102 HOYT AVE", "postcode": "98201"}}},
{"geometry": {"type": "Point", "coordinates": [-122.2099146148, 47.9758415446]}, "type": "Feature", "properties": {"collection_times": [{"days": "Mon-Fri", "time": "5:00pm"}, {"days": "Sat", "time": "4:00pm"}, {"days": "Sun", "time": "Closed"}], "id": "9820100053", "name": "USPS COLLECTION BOX - PO LOBBY", "address": {"city": "EVERETT", "state": "WA", "street": "3102 HOYT AVE", "postcode": "98201"}}},
{"geometry": {"type": "Point", "coordinates": [-122.2099146148, 47.9758415446]}, "type": "Feature", "properties": {"collection_times": [{"days": "Mon-Fri", "time": "5:00pm"}, {"days": "Sat", "time": "4:00pm"}, {"days": "Sun", "time": "Closed"}], "id": "9820100054", "name": "USPS COLLECTION BOX - PO LOBBY", "address": {"city": "EVERETT", "state": "WA", "street": "3102 HOYT AVE", "postcode": "98201"}}},
{"geometry": {"type": "Point", "coordinates": [-122.1967225587, 48.0063895848]}, "type": "Feature", "properties": {"collection_times": [{"days": "Mon-Fri", "time": "2:00pm"}, {"days": "Sat-Sun", "time": "Closed"}], "id": "9820100061", "name": "USPS COLLECTION BOX - BLUE BOX", "address": {"city": "EVERETT", "state": "WA", "street": "840 N BROADWAY", "postcode": "98201"}}},
{"geometry": {"type": "Point", "coordinates": [-122.2072103706, 47.9803072147]}, "type": "Feature", "properties": {"collection_times": [{"days": "Mon-Sat", "time": "1:30pm"}, {"days": "Sun", "time": "Closed"}], "id": "9820100063", "name": "USPS COLLECTION BOX - BLUE BOX", "address": {"city": "EVERETT", "state": "WA", "street": "2802 WETMORE AVE", "postcode": "98201"}}},
{"geometry": {"type": "Point", "coordinates": [-122.2073222716, 47.9791483194]}, "type": "Feature", "properties": {"collection_times": [{"days": "Mon-Sat", "time": "11:45am"}, {"days": "Sun", "time": "Closed"}], "id": "9820100065", "name": "USPS COLLECTION BOX - BLUE BOX", "address": {"city": "EVERETT", "state": "WA", "street": "2902 WETMORE AVE", "postcode": "98201"}}},
{"geometry": {"type": "Point", "coordinates": [-122.2085636757, 47.9822898539]}, "type": "Feature", "properties": {"collection_times": [{"days": "Mon-Fri", "time": "2:15pm"}, {"days": "Sat", "time": "1:30pm"}, {"days": "Sun", "time": "Closed"}], "id": "9820100069", "name": "USPS COLLECTION BOX - BLUE BOX", "address": {"city": "EVERETT", "state": "WA", "street": "2630 COLBY AVE", "postcode": "98201"}}},
{"geometry": {"type": "Point", "coordinates": [-122.2060676323, 47.9792839552]}, "type": "Feature", "properties": {"collection_times": [{"days": "Mon-Fri", "time": "11:45am"}, {"days": "Sat-Sun", "time": "Closed"}], "id": "9820100073", "name": "USPS COLLECTION BOX - BLUE BOX", "address": {"city": "EVERETT", "state": "WA", "street": "1721 HEWITT AVE", "postcode": "98201"}}},
{"geometry": {"type": "Point", "coordinates": [-122.2099146148, 47.9758415446]}, "type": "Feature", "properties": {"collection_times": [{"days": "Mon-Sat", "time": "5:00pm"}, {"days": "Sun", "time": "Closed"}], "id": "9820100081", "name": "USPS COLLECTION BOX - BLUE BOX", "address": {"city": "EVERETT", "state": "WA", "street": "3102 HOYT AVE", "postcode": "98201"}}},
{"geometry": {"type": "Point", "coordinates": [-122.2012108867, 47.9723511933]}, "type": "Feature", "properties": {"collection_times": [{"days": "Mon-Sat", "time": "11:15am"}, {"days": "Sun", "time": "Closed"}], "id": "9820100085", "name": "USPS COLLECTION BOX - BLUE BOX", "address": {"city": "EVERETT", "state": "WA", "street": "3425 BROADWAY", "postcode": "98201"}}},
{"geometry": {"type": "Point", "coordinates": [-122.2108181718, 47.9645594712]}, "type": "Feature", "properties": {"collection_times": [{"days": "Mon-Fri", "time": "10:30am"}, {"days": "Sat-Sun", "time": "Closed"}], "id": "9820100091", "name": "USPS COLLECTION BOX - BLUE BOX", "address": {"city": "EVERETT", "state": "WA", "street": "1400 40TH ST", "postcode": "98201"}}},
{"geometry": {"type": "Point", "coordinates": [-122.2099146148, 47.9758415446]}, "type": "Feature", "properties": {"collection_times": [{"days": "Mon-Fri", "time": "5:00pm"}, {"days": "Sat", "time": "4:00pm"}, {"days": "Sun", "time": "Closed"}], "id": "9820100092", "name": "USPS COLLECTION BOX - APC", "address": {"city": "EVERETT", "state": "WA", "street": "3102 HOYT AVE", "postcode": "98201"}}},
{"geometry": {"type": "Point", "coordinates": [-122.2317651062, 47.9567697245]}, "type": "Feature", "properties": {"collection_times": [{"days": "Mon-Fri", "time": "10:30am"}, {"days": "Sat", "time": "10:00am"}, {"days": "Sun", "time": "Closed"}], "id": "9820300000", "name": "USPS COLLECTION BOX - BLUE BOX", "address": {"city": "EVERETT", "state": "WA", "street": "307 W MUKILTEO BLVD", "postcode": "98203"}}},
{"geometry": {"type": "Point", "coordinates": [-122.2357634512, 47.9561571074]}, "type": "Feature", "properties": {"collection_times": [{"days": "Mon-Fri", "time": "10:30am"}, {"days": "Sat", "time": "10:00am"}, {"days": "Sun", "time": "Closed"}], "id": "9820300001", "name": "USPS COLLECTION BOX - BLUE BOX", "address": {"city": "EVERETT", "state": "WA", "street": "609 WOOD PL", "postcode": "98203"}}},
{"geometry": {"type": "Point", "coordinates": [-122.2101240759, 47.9368420184]}, "type": "Feature", "properties": {"collection_times": [{"days": "Mon-Fri", "time": "11:00am"}, {"days": "Sat", "time": "2:00pm"}, {"days": "Sun", "time": "Closed"}], "id": "9820300003", "name": "USPS COLLECTION BOX - BLUE BOX", "address": {"city": "EVERETT", "state": "WA", "street": "6731 BEVERLY BLVD", "postcode": "98203"}}},
{"geometry": {"type": "Point", "coordinates": [-122.2259886612, 47.9241308593]}, "type": "Feature", "properties": {"collection_times": [{"days": "Mon-Sat", "time": "2:00pm"}, {"days": "Sun", "time": "Closed"}], "id": "9820300008", "name": "USPS COLLECTION BOX - BLUE BOX", "address": {"city": "EVERETT", "state": "WA", "street": "8102 EVERGREEN WAY", "postcode": "98203"}}},
{"geometry": {"type": "Point", "coordinates": [-122.207929288, 47.9606651243]}, "type": "Feature", "properties": {"collection_times": [{"days": "Mon-Fri", "time": "10:45am"}, {"days": "Sat-Sun", "time": "Closed"}], "id": "9820300010", "name": "USPS COLLECTION BOX - BLUE BOX", "address": {"city": "EVERETT", "state": "WA", "street": "4302 COLBY AVE", "postcode": "98203"}}},
{"geometry": {"type": "Point", "coordinates": [-122.205695024, 47.9361938224]}, "type": "Feature", "properties": {"collection_times": [{"days": "Mon-Fri", "time": "10:45am"}, {"days": "Sat-Sun", "time": "Closed"}], "id": "9820300028", "name": "USPS COLLECTION BOX - BLUE BOX", "address": {"city": "EVERETT", "state": "WA", "street": "2000 MADISON ST", "postcode": "98203"}}},
{"geometry": {"type": "Point", "coordinates": [-122.1947254217, 47.9502103727]}, "type": "Feature", "properties": {"collection_times": [{"days": "Mon-Fri", "time": "11:00am"}, {"days": "Sat-Sun", "time": "Closed"}], "id": "9820300030", "name": "USPS COLLECTION BOX - BLUE BOX", "address": {"city": "EVERETT", "state": "WA", "street": "5202 S 2ND AVE", "postcode": "98203"}}},
{"geometry": {"type": "Point", "coordinates": [-122.2214230237, 47.9289592044]}, "type": "Feature", "properties": {"collection_times": [{"days": "Mon-Sat", "time": "2:00pm"}, {"days": "Sun", "time": "Closed"}], "id": "9820300031", "name": "USPS COLLECTION BOX - BLUE BOX", "address": {"city": "EVERETT", "state": "WA", "street": "7601 EVERGREEN WAY", "postcode": "98203"}}},
{"geometry": {"type": "Point", "coordinates": [-122.2408512118, 47.9253219869]}, "type": "Feature", "properties": {"collection_times": [{"days": "Mon-Sat", "time": "5:00pm"}, {"days": "Sun", "time": "Closed"}], "id": "9820300032", "name": "USPS COLLECTION BOX - BLUE BOX", "address": {"city": "EVERETT", "state": "WA", "street": "8120 HARDESON RD", "postcode": "98203"}}},
{"geometry": {"type": "Point", "coordinates": [-122.2408512118, 47.9253219869]}, "type": "Feature", "properties": {"collection_times": [{"days": "Mon-Sat", "time": "5:00pm"}, {"days": "Sun", "time": "Closed"}], "id": "9820300033", "name": "USPS COLLECTION BOX - BLUE BOX", "address": {"city": "EVERETT", "state": "WA", "street": "8120 HARDESON RD", "postcode": "98203"}}},
{"geometry": {"type": "Point", "coordinates": [-122.2136103924, 47.9516248668]}, "type": "Feature", "properties": {"collection_times": [{"days": "Mon-Fri", "time": "10:45am"}, {"days": "Sat-Sun", "time": "Closed"}], "id": "9820300035", "name": "USPS COLLECTION BOX - BLUE BOX", "address": {"city": "EVERETT", "state": "WA", "street": "4919 EVERGREEN WAY", "postcode": "98203"}}},
{"geometry": {"type": "Point", "coordinates": [-122.2706797517, 47.8763474466]}, "type": "Feature", "properties": {"collection_times": [{"days": "Mon-Fri", "time": "11:00am"}, {"days": "Sat-Sun", "time": "Closed"}], "id": "9820400000", "name": "USPS COLLECTION BOX - BLUE BOX", "address": {"city": "EVERETT", "state": "WA", "street": "13410 EVERGREEN WAY", "postcode": "98204"}}},
{"geometry": {"type": "Point", "coordinates": [-122.234186388, 47.9152772198]}, "type": "Feature", "properties": {"collection_times": [{"days": "Mon-Sat", "time": "1:45pm"}, {"days": "Sun", "time": "Closed"}], "id": "9820400008", "name": "USPS COLLECTION BOX - BLUE BOX", "address": {"city": "EVERETT", "state": "WA", "street": "9105 EVERGREEN WAY", "postcode": "98204"}}},
{"geometry": {"type": "Point", "coordinates": [-122.2409304342, 47.8818171467]}, "type": "Feature", "properties": {"collection_times": [{"days": "Mon-Sat", "time": "12:00pm"}, {"days": "Sun", "time": "Closed"}], "id": "9820400010", "name": "USPS COLLECTION BOX - BLUE BOX", "address": {"city": "EVERETT", "state": "WA", "street": "520 128TH ST SW", "postcode": "98204"}}},
{"geometry": {"type": "Point", "coordinates": [-122.2409304342, 47.8818171467]}, "type": "Feature", "properties": {"collection_times": [{"days": "Mon-Sat", "time": "12:00pm"}, {"days": "Sun", "time": "Closed"}], "id": "9820400011", "name": "USPS COLLECTION BOX - BLUE BOX", "address": {"city": "EVERETT", "state": "WA", "street": "520 128TH ST SW", "postcode": "98204"}}},
{"geometry": {"type": "Point", "coordinates": [-122.2409304342, 47.8818171467]}, "type": "Feature", "properties": {"collection_times": [{"days": "Mon-Sat", "time": "12:00pm"}, {"days": "Sun", "time": "Closed"}], "id": "9820400012", "name": "USPS COLLECTION BOX - BLUE BOX", "address": {"city": "EVERETT", "state": "WA", "street": "520 128TH ST SW", "postcode": "98204"}}},
{"geometry": {"type": "Point", "coordinates": [-122.2404817205, 47.923976001]}, "type": "Feature", "properties": {"collection_times": [{"days": "Mon-Sat", "time": "5:00pm"}, {"days": "Sun", "time": "Closed"}], "id": "9820400019", "name": "USPS COLLECTION BOX - PO LOBBY", "address": {"city": "EVERETT", "state": "WA", "street": "8120 HARDESON RD", "postcode": "98204"}}},
{"geometry": {"type": "Point", "coordinates": [-122.243580444, 47.881935896]}, "type": "Feature", "properties": {"collection_times": [{"days": "Mon-Sat", "time": "9:30am"}, {"days": "Sun", "time": "Closed"}], "id": "9820400021", "name": "USPS COLLECTION BOX - BLUE BOX", "address": {"city": "EVERETT", "state": "WA", "street": "717 128TH ST SW", "postcode": "98204"}}},
{"geometry": {"type": "Point", "coordinates": [-122.2704052215, 47.9200981522]}, "type": "Feature", "properties": {"collection_times": [{"days": "Mon-Fri", "time": "10:30am"}, {"days": "Sat-Sun", "time": "Closed"}], "id": "9820400022", "name": "USPS COLLECTION BOX - BLUE BOX", "address": {"city": "EVERETT", "state": "WA", "street": "2615 W CASINO RD", "postcode": "98204"}}},
{"geometry": {"type": "Point", "coordinates": [-122.2404817205, 47.923976001]}, "type": "Feature", "properties": {"collection_times": [{"days": "Mon-Sat", "time": "5:00pm"}, {"days": "Sun", "time": "Closed"}], "id": "9820400023", "name": "USPS COLLECTION BOX - APC", "address": {"city": "EVERETT", "state": "WA", "street": "8120 HARDESON RD", "postcode": "98204"}}},
{"geometry": {"type": "Point", "coordinates": [-122.2301302006, 47.9197136906]}, "type": "Feature", "properties": {"collection_times": [{"days": "Mon-Sat", "time": "2:15pm"}, {"days": "Sun", "time": "Closed"}], "id": "9820800005", "name": "USPS COLLECTION BOX - BLUE BOX", "address": {"city": "EVERETT", "state": "WA", "street": "8530 EVERGREEN WAY", "postcode": "98208"}}},
{"geometry": {"type": "Point", "coordinates": [-122.2417020582, 47.9072151762]}, "type": "Feature", "properties": {"collection_times": [{"days": "Mon-Sat", "time": "1:45pm"}, {"days": "Sun", "time": "Closed"}], "id": "9820800007", "name": "USPS COLLECTION BOX - BLUE BOX", "address": {"city": "EVERETT", "state": "WA", "street": "10011 EVERGREEN WAY", "postcode": "98208"}}},
{"geometry": {"type": "Point", "coordinates": [-122.2194480811, 47.9106072724]}, "type": "Feature", "properties": {"collection_times": [{"days": "Mon-Fri", "time": "12:45pm"}, {"days": "Sat-Sun", "time": "Closed"}], "id": "9820800008", "name": "USPS COLLECTION BOX - BLUE BOX", "address": {"city": "EVERETT", "state": "WA", "street": "1010 SE EVERETT MALL WAY", "postcode": "98208"}}},
{"geometry": {"type": "Point", "coordinates": [-122.2238321271, 47.9094396919]}, "type": "Feature", "properties": {"collection_times": [{"days": "Mon-Sat", "time": "1:15pm"}, {"days": "Sun", "time": "Closed"}], "id": "9820800010", "name": "USPS COLLECTION BOX - BLUE BOX", "address": {"city": "EVERETT", "state": "WA", "street": "607 SE EVERETT MALL WAY", "postcode": "98208"}}},
{"geometry": {"type": "Point", "coordinates": [-122.206767944, 47.8975107337]}, "type": "Feature", "properties": {"collection_times": [{"days": "Mon-Sat", "time": "12:30pm"}, {"days": "Sun", "time": "Closed"}], "id": "9820800011", "name": "USPS COLLECTION BOX - BLUE BOX", "address": {"city": "EVERETT", "state": "WA", "street": "11020 19TH AVE SE", "postcode": "98208"}}},
{"geometry": {"type": "Point", "coordinates": [-122.2067166938, 47.8978153918]}, "type": "Feature", "properties": {"collection_times": [{"days": "Mon-Sat", "time": "12:30pm"}, {"days": "Sun", "time": "Closed"}], "id": "9820800012", "name": "USPS COLLECTION BOX - BLUE BOX", "address": {"city": "EVERETT", "state": "WA", "street": "11031 19TH AVE SE", "postcode": "98208"}}},
{"geometry": {"type": "Point", "coordinates": [-122.2311376145, 47.9075563768]}, "type": "Feature", "properties": {"collection_times": [{"days": "Mon-Fri", "time": "1:30pm"}, {"days": "Sat-Sun", "time": "Closed"}], "id": "9820800013", "name": "USPS COLLECTION BOX - BLUE BOX", "address": {"city": "EVERETT", "state": "WA", "street": "111 SE EVERETT MALL WAY", "postcode": "98208"}}},
{"geometry": {"type": "Point", "coordinates": [-122.2163876121, 47.9113522993]}, "type": "Feature", "properties": {"collection_times": [{"days": "Mon-Sat", "time": "12:30pm"}, {"days": "Sun", "time": "Closed"}], "id": "9820800015", "name": "USPS COLLECTION BOX - BLUE BOX", "address": {"city": "EVERETT", "state": "WA", "street": "1302 SE EVERETT MALL WAY", "postcode": "98208"}}},
{"geometry": {"type": "Point", "coordinates": [-122.2301574086, 47.9219341045]}, "type": "Feature", "properties": {"collection_times": [{"days": "Mon-Sat", "time": "2:15pm"}, {"days": "Sun", "time": "Closed"}], "id": "9820800017", "name": "USPS COLLECTION BOX - BLUE BOX", "address": {"city": "EVERETT", "state": "WA", "street": "205 E CASINO RD", "postcode": "98208"}}},
{"geometry": {"type": "Point", "coordinates": [-122.2151223305, 47.9118228944]}, "type": "Feature", "properties": {"collection_times": [{"days": "Mon-Fri", "time": "1:00pm"}, {"days": "Sat-Sun", "time": "Closed"}], "id": "9820800023", "name": "USPS COLLECTION BOX - BLUE BOX", "address": {"city": "EVERETT", "state": "WA", "street": "1325 SE EVERETT MALL WAY", "postcode": "98208"}}},
{"geometry": {"type": "Point", "coordinates": [-122.2200632198, 47.9104452071]}, "type": "Feature", "properties": {"collection_times": [{"days": "Mon-Fri", "time": "12:15pm"}, {"days": "Sat-Sun", "time": "Closed"}], "id": "9820800024", "name": "USPS COLLECTION BOX - BLUE BOX", "address": {"city": "EVERETT", "state": "WA", "street": "1000 SE EVERETT MALL WAY", "postcode": "98208"}}},
{"geometry": {"type": "Point", "coordinates": [-122.2194480811, 47.9106072724]}, "type": "Feature", "properties": {"collection_times": [{"days": "Mon-Fri", "time": "12:45pm"}, {"days": "Sat-Sun", "time": "Closed"}], "id": "9820800025", "name": "USPS COLLECTION BOX - BLUE BOX", "address": {"city": "EVERETT", "state": "WA", "street": "1010 SE EVERETT MALL WAY", "postcode": "98208"}}},
{"geometry": {"type": "Point", "coordinates": [-122.2028513625, 48.7081246618]}, "type": "Feature", "properties": {"collection_times": [{"days": "Mon-Fri", "time": "4:00pm"}, {"days": "Sat", "time": "9:45am"}, {"days": "Sun", "time": "Closed"}], "id": "9822000000", "name": "USPS COLLECTION BOX - BLUE BOX", "address": {"city": "ACME", "state": "WA", "street": "2026 VALLEY HWY", "postcode": "98220"}}},
{"geometry": {"type": "Point", "coordinates": [-122.2028513625, 48.7081246618]}, "type": "Feature", "properties": {"collection_times": [{"days": "Mon-Fri", "time": "4:00pm"}, {"days": "Sat", "time": "9:45am"}, {"days": "Sun", "time": "Closed"}], "id": "9822000002", "name": "USPS COLLECTION BOX - PO LOBBY", "address": {"city": "ACME", "state": "WA", "street": "2026 VALLEY HWY", "postcode": "98220"}}},
{"geometry": {"type": "Point", "coordinates": [-122.6113281791, 48.4964576267]}, "type": "Feature", "properties": {"collection_times": [{"days": "Mon-Sat", "time": "2:00pm"}, {"days": "Sun", "time": "Closed"}], "id": "9822100000", "name": "USPS COLLECTION BOX - BLUE BOX", "address": {"city": "ANACORTES", "state": "WA", "street": "1010 32ND ST", "postcode": "98221"}}},
{"geometry": {"type": "Point", "coordinates": [-122.613527336, 48.5142435665]}, "type": "Feature", "properties": {"collection_times": [{"days": "Mon-Sat", "time": "2:10pm"}, {"days": "Sun", "time": "Closed"}], "id": "9822100002", "name": "USPS COLLECTION BOX - BLUE BOX", "address": {"city": "ANACORTES", "state": "WA", "street": "1220 10TH ST", "postcode": "98221"}}},
{"geometry": {"type": "Point", "coordinates": [-122.58188, 48.462166]}, "type": "Feature", "properties": {"collection_times": [{"days": "Mon-Sat", "time": "11:00am"}, {"days": "Sun", "time": "Closed"}], "id": "9822100004", "name": "USPS COLLECTION BOX - BLUE BOX", "address": {"city": "ANACORTES", "state": "WA", "street": "7648 STATE ROUTE 20", "postcode": "98221"}}},
{"geometry": {"type": "Point", "coordinates": [-122.6125305613, 48.5099768494]}, "type": "Feature", "properties": {"collection_times": [{"days": "Mon-Sat", "time": "1:00pm"}, {"days": "Sun", "time": "Closed"}], "id": "9822100006", "name": "USPS COLLECTION BOX - BLUE BOX", "address": {"city": "ANACORTES", "state": "WA", "street": "1519 COMMERCIAL AVE", "postcode": "98221"}}},
{"geometry": {"type": "Point", "coordinates": [-122.623924, 48.51266]}, "type": "Feature", "properties": {"collection_times": [{"days": "Mon-Sat", "time": "1:00pm"}, {"days": "Sun", "time": "Closed"}], "id": "9822100007", "name": "USPS COLLECTION BOX - BLUE BOX", "address": {"city": "ANACORTES", "state": "WA", "street": "1719 12TH ST", "postcode": "98221"}}},
{"geometry": {"type": "Point", "coordinates": [-122.6067101717, 48.4978887794]}, "type": "Feature", "properties": {"collection_times": [{"days": "Mon-Fri", "time": "2:20pm"}, {"days": "Sat", "time": "2:00pm"}, {"days": "Sun", "time": "Closed"}], "id": "9822100012", "name": "USPS COLLECTION BOX - BLUE BOX", "address": {"city": "ANACORTES", "state": "WA", "street": "605 30TH ST", "postcode": "98221"}}},
{"geometry": {"type": "Point", "coordinates": [-122.6106978468, 48.5133091358]}, "type": "Feature", "properties": {"collection_times": [{"days": "Mon-Fri", "time": "2:40pm"}, {"days": "Sat", "time": "2:00pm"}, {"days": "Sun", "time": "Closed"}], "id": "9822100018", "name": "USPS COLLECTION BOX - BLUE BOX", "address": {"city": "ANACORTES", "state": "WA", "street": "909 11TH ST", "postcode": "98221"}}},
{"geometry": {"type": "Point", "coordinates": [-122.6173247941, 48.465149825]}, "type": "Feature", "properties": {"collection_times": [{"days": "Mon-Sat", "time": "11:00am"}, {"days": "Sun", "time": "Closed"}], "id": "9822100021", "name": "USPS COLLECTION BOX - BLUE BOX", "address": {"city": "ANACORTES", "state": "WA", "street": "701 GUEMES ISLAND RD", "postcode": "98221"}}},
{"geometry": {"type": "Point", "coordinates": [-122.6113775489, 48.4923117178]}, "type": "Feature", "properties": {"collection_times": [{"days": "Mon-Sat", "time": "2:00pm"}, {"days": "Sun", "time": "Closed"}], "id": "9822100025", "name": "USPS COLLECTION BOX - BLUE BOX", "address": {"city": "ANACORTES", "state": "WA", "street": "919 37TH ST", "postcode": "98221"}}},
{"geometry": {"type": "Point", "coordinates": [-122.6148936527, 48.5027610299]}, "type": "Feature", "properties": {"collection_times": [{"days": "Mon-Fri", "time": "2:30pm"}, {"days": "Sat", "time": "2:00pm"}, {"days": "Sun", "time": "Closed"}], "id": "9822100026", "name": "USPS COLLECTION BOX - BLUE BOX", "address": {"city": "ANACORTES", "state": "WA", "street": "1211 24TH ST", "postcode": "98221"}}},
{"geometry": {"type": "Point", "coordinates": [-122.6124859554, 48.5181122426]}, "type": "Feature", "properties": {"collection_times": [{"days": "Mon-Fri", "time": "5:00pm"}, {"days": "Sat", "time": "2:30pm"}, {"days": "Sun", "time": "Closed"}], "id": "9822100031", "name": "USPS COLLECTION BOX - BLUE BOX", "address": {"city": "ANACORTES", "state": "WA", "street": "519 COMMERCIAL AVE", "postcode": "98221"}}},
{"geometry": {"type": "Point", "coordinates": [-122.6124859554, 48.5181122426]}, "type": "Feature", "properties": {"collection_times": [{"days": "Mon-Fri", "time": "5:00pm"}, {"days": "Sat", "time": "2:30pm"}, {"days": "Sun", "time": "Closed"}], "id": "9822100032", "name": "USPS COLLECTION BOX - PO LOBBY", "address": {"city": "ANACORTES", "state": "WA", "street": "519 COMMERCIAL AVE", "postcode": "98221"}}},
{"geometry": {"type": "Point", "coordinates": [-122.6124859554, 48.5181122426]}, "type": "Feature", "properties": {"collection_times": [{"days": "Mon-Fri", "time": "5:00pm"}, {"days": "Sat", "time": "2:30pm"}, {"days": "Sun", "time": "Closed"}], "id": "9822100033", "name": "USPS COLLECTION BOX - PO LOBBY", "address": {"city": "ANACORTES", "state": "WA", "street": "519 COMMERCIAL AVE", "postcode": "98221"}}},
{"geometry": {"type": "Point", "coordinates": [-122.6083273272, 48.4283372096]}, "type": "Feature", "properties": {"collection_times": [{"days": "Mon-Sat", "time": "12:00pm"}, {"days": "Sun", "time": "Closed"}], "id": "9822100034", "name": "USPS COLLECTION BOX - BLUE BOX", "address": {"city": "ANACORTES", "state": "WA", "street": "6186 STATE ROUTE 20", "postcode": "98221"}}},
{"geometry": {"type": "Point", "coordinates": [-122.6124948766, 48.5164820116]}, "type": "Feature", "properties": {"collection_times": [{"days": "Mon-Sat", "time": "1:00pm"}, {"days": "Sun", "time": "Closed"}], "id": "9822100035", "name": "USPS COLLECTION BOX - BLUE BOX", "address": {"city": "ANACORTES", "state": "WA", "street": "719 COMMERCIAL AVE", "postcode": "98221"}}},
{"geometry": {"type": "Point", "coordinates": [-122.6851044915, 48.4977362311]}, "type": "Feature", "properties": {"collection_times": [{"days": "Mon-Sat", "time": "1:00pm"}, {"days": "Sun", "time": "Closed"}], "id": "9822100038", "name": "USPS COLLECTION BOX - BLUE BOX", "address": {"city": "ANACORTES", "state": "WA", "street": "1909 SKYLINE WAY", "postcode": "98221"}}},
{"geometry": {"type": "Point", "coordinates": [-122.1871222574, 48.1538193041]}, "type": "Feature", "properties": {"collection_times": [{"days": "Mon-Sat", "time": "10:00am"}, {"days": "Sun", "time": "Closed"}], "id": "9822300001", "name": "USPS COLLECTION BOX - BLUE BOX", "address": {"city": "ARLINGTON", "state": "WA", "street": "17325 SMOKEY POINT DR", "postcode": "98223"}}},
{"geometry": {"type": "Point", "coordinates": [-122.1265231055, 48.1905071932]}, "type": "Feature", "properties": {"collection_times": [{"days": "Mon-Sat", "time": "10:00am"}, {"days": "Sun", "time": "Closed"}], "id": "9822300005", "name": "USPS COLLECTION BOX - BLUE BOX", "address": {"city": "ARLINGTON", "state": "WA", "street": "238 N OLYMPIC AVE", "postcode": "98223"}}},
{"geometry": {"type": "Point", "coordinates": [-122.1262947945, 48.1980733987]}, "type": "Feature", "properties": {"collection_times": [{"days": "Mon-Fri", "time": "5:00pm"}, {"days": "Sat", "time": "2:00pm"}, {"days": "Sun", "time": "Closed"}], "id": "9822300007", "name": "USPS COLLECTION BOX - BLUE BOX", "address": {"city": "ARLINGTON", "state": "WA", "street": "524 N OLYMPIC AVE", "postcode": "98223"}}},
{"geometry": {"type": "Point", "coordinates": [-122.1262947945, 48.1980733987]}, "type": "Feature", "properties": {"collection_times": [{"days": "Mon-Fri", "time": "5:00pm"}, {"days": "Sat", "time": "2:00pm"}, {"days": "Sun", "time": "Closed"}], "id": "9822300008", "name": "USPS COLLECTION BOX - PO LOBBY", "address": {"city": "ARLINGTON", "state": "WA", "street": "524 N OLYMPIC AVE", "postcode": "98223"}}},
{"geometry": {"type": "Point", "coordinates": [-122.1813273037, 48.1486195966]}, "type": "Feature", "properties": {"collection_times": [{"days": "Mon-Fri", "time": "5:00pm"}, {"days": "Sat", "time": "2:00pm"}, {"days": "Sun", "time": "Closed"}], "id": "9822300009", "name": "USPS COLLECTION BOX - BLUE BOX", "address": {"city": "ARLINGTON", "state": "WA", "street": "3621 168TH ST NE", "postcode": "98223"}}},
{"geometry": {"type": "Point", "coordinates": [-122.1813273037, 48.1486195966]}, "type": "Feature", "properties": {"collection_times": [{"days": "Mon-Fri", "time": "5:00pm"}, {"days": "Sat", "time": "2:00pm"}, {"days": "Sun", "time": "Closed"}], "id": "9822300010", "name": "USPS COLLECTION BOX - PO LOBBY", "address": {"city": "ARLINGTON", "state": "WA", "street": "3621 168TH ST NE", "postcode": "98223"}}},
{"geometry": {"type": "Point", "coordinates": [-122.1238626308, 48.1987110136]}, "type": "Feature", "properties": {"collection_times": [{"days": "Mon-Sat", "time": "10:00am"}, {"days": "Sun", "time": "Closed"}], "id": "9822300011", "name": "USPS COLLECTION BOX - BLUE BOX", "address": {"city": "ARLINGTON", "state": "WA", "street": "225 E DIVISION ST", "postcode": "98223"}}},
{"geometry": {"type": "Point", "coordinates": [-122.1830022984, 48.1452258899]}, "type": "Feature", "properties": {"collection_times": [{"days": "Mon-Sat", "time": "10:00am"}, {"days": "Sun", "time": "Closed"}], "id": "9822300012", "name": "USPS COLLECTION BOX - BLUE BOX", "address": {"city": "ARLINGTON", "state": "WA", "street": "16404 SMOKEY POINT BLVD", "postcode": "98223"}}},
{"geometry": {"type": "Point", "coordinates": [-122.1270931482, 48.1797899249]}, "type": "Feature", "properties": {"collection_times": [{"days": "Mon-Sat", "time": "10:00am"}, {"days": "Sun", "time": "Closed"}], "id": "9822300013", "name": "USPS COLLECTION BOX - BLUE BOX", "address": {"city": "ARLINGTON", "state": "WA", "street": "20313 77TH AVE NE", "postcode": "98223"}}},
{"geometry": {"type": "Point", "coordinates": [-122.1271889107, 48.1565517923]}, "type": "Feature", "properties": {"collection_times": [{"days": "Mon-Sat", "time": "10:00am"}, {"days": "Sun", "time": "Closed"}], "id": "9822300014", "name": "USPS COLLECTION BOX - BLUE BOX", "address": {"city": "ARLINGTON", "state": "WA", "street": "7700 E COUNTRY CLUB DR", "postcode": "98223"}}},
{"geometry": {"type": "Point", "coordinates": [-121.5264020172, 47.7387933783]}, "type": "Feature", "properties": {"collection_times": [{"days": "Mon-Fri", "time": "3:30pm"}, {"days": "Sat", "time": "9:45am"}, {"days": "Sun", "time": "Closed"}], "id": "9822400000", "name": "USPS COLLECTION BOX - BLUE BOX", "address": {"city": "BARING", "state": "WA", "street": "63501 NE STEVENS PASS HWY", "postcode": "98224"}}},
{"geometry": {"type": "Point", "coordinates": [-121.5264020172, 47.7387933783]}, "type": "Feature", "properties": {"collection_times": [{"days": "Mon-Fri", "time": "3:30pm"}, {"days": "Sat", "time": "9:45am"}, {"days": "Sun", "time": "Closed"}], "id": "9822400001", "name": "USPS COLLECTION BOX - PO LOBBY", "address": {"city": "BARING", "state": "WA", "street": "63501 NE STEVENS PASS HWY", "postcode": "98224"}}},
{"geometry": {"type": "Point", "coordinates": [-122.4754447683, 48.7524738024]}, "type": "Feature", "properties": {"collection_times": [{"days": "Mon-Sat", "time": "12:00pm"}, {"days": "Sun", "time": "Closed"}], "id": "9822500003", "name": "USPS COLLECTION BOX - BLUE BOX", "address": {"city": "BELLINGHAM", "state": "WA", "street": "1815 CORNWALL AVE", "postcode": "98225"}}},
{"geometry": {"type": "Point", "coordinates": [-122.4732643126, 48.7439811664]}, "type": "Feature", "properties": {"collection_times": [{"days": "Mon-Fri", "time": "2:15pm"}, {"days": "Sat", "time": "1:15pm"}, {"days": "Sun", "time": "Closed"}], "id": "9822500004", "name": "USPS COLLECTION BOX - BLUE BOX", "address": {"city": "BELLINGHAM", "state": "WA", "street": "809 E CHESTNUT ST", "postcode": "98225"}}},
{"geometry": {"type": "Point", "coordinates": [-122.4722799574, 48.7715408942]}, "type": "Feature", "properties": {"collection_times": [{"days": "Mon-Fri", "time": "12:45pm"}, {"days": "Sat", "time": "1:05pm"}, {"days": "Sun", "time": "Closed"}], "id": "9822500006", "name": "USPS COLLECTION BOX - BLUE BOX", "address": {"city": "BELLINGHAM", "state": "WA", "street": "3149 ELLIS ST", "postcode": "98225"}}},
{"geometry": {"type": "Point", "coordinates": [-122.5031712093, 48.7201757548]}, "type": "Feature", "properties": {"collection_times": [{"days": "Mon-Fri", "time": "2:30pm"}, {"days": "Sat", "time": "1:10pm"}, {"days": "Sun", "time": "Closed"}], "id": "9822500008", "name": "USPS COLLECTION BOX - BLUE BOX", "address": {"city": "BELLINGHAM", "state": "WA", "street": "1115 HARRIS AVE", "postcode": "98225"}}},
{"geometry": {"type": "Point", "coordinates": [-122.4795560255, 48.7467743466]}, "type": "Feature", "properties": {"collection_times": [{"days": "Mon-Fri", "time": "2:00pm"}, {"days": "Sat", "time": "1:25pm"}, {"days": "Sun", "time": "Closed"}], "id": "9822500011", "name": "USPS COLLECTION BOX - BLUE BOX", "address": {"city": "BELLINGHAM", "state": "WA", "street": "1155 N STATE ST", "postcode": "98225"}}},
{"geometry": {"type": "Point", "coordinates": [-122.4776751468, 48.7508452722]}, "type": "Feature", "properties": {"collection_times": [{"days": "Mon-Fri", "time": "2:30pm"}, {"days": "Sat", "time": "1:30pm"}, {"days": "Sun", "time": "Closed"}], "id": "9822500013", "name": "USPS COLLECTION BOX - BLUE BOX", "address": {"city": "BELLINGHAM", "state": "WA", "street": "104 W MAGNOLIA ST", "postcode": "98225"}}},
{"geometry": {"type": "Point", "coordinates": [-122.4780022105, 48.7521411218]}, "type": "Feature", "properties": {"collection_times": [{"days": "Mon-Fri", "time": "12:20pm"}, {"days": "Sat", "time": "1:20pm"}, {"days": "Sun", "time": "Closed"}], "id": "9822500016", "name": "USPS COLLECTION BOX - BLUE BOX", "address": {"city": "BELLINGHAM", "state": "WA", "street": "124 N COMMERCIAL ST", "postcode": "98225"}}},
{"geometry": {"type": "Point", "coordinates": [-122.4780243492, 48.754107154]}, "type": "Feature", "properties": {"collection_times": [{"days": "Mon-Fri", "time": "12:30pm"}, {"days": "Sat-Sun", "time": "Closed"}], "id": "9822500019", "name": "USPS COLLECTION BOX - BLUE BOX", "address": {"city": "BELLINGHAM", "state": "WA", "street": "322 N COMMERCIAL ST", "postcode": "98225"}}},
{"geometry": {"type": "Point", "coordinates": [-122.5021052654, 48.7184706591]}, "type": "Feature", "properties": {"collection_times": [{"days": "Mon-Fri", "time": "4:00pm"}, {"days": "Sat", "time": "1:15pm"}, {"days": "Sun", "time": "Closed"}], "id": "9822500024", "name": "USPS COLLECTION BOX - BLUE BOX", "address": {"city": "BELLINGHAM", "state": "WA", "street": "1501 12TH ST", "postcode": "98225"}}},
{"geometry": {"type": "Point", "coordinates": [-122.5003452963, 48.7799678153]}, "type": "Feature", "properties": {"collection_times": [{"days": "Mon-Sat", "time": "1:00pm"}, {"days": "Sun", "time": "Closed"}], "id": "9822500027", "name": "USPS COLLECTION BOX - BLUE BOX", "address": {"city": "BELLINGHAM", "state": "WA", "street": "3300 NORTHWEST AVE", "postcode": "98225"}}},
{"geometry": {"type": "Point", "coordinates": [-122.4811920056, 48.7540177402]}, "type": "Feature", "properties": {"collection_times": [{"days": "Mon-Fri", "time": "4:00pm"}, {"days": "Sat", "time": "4:45pm"}, {"days": "Sun", "time": "Closed"}], "id": "9822500036", "name": "USPS COLLECTION BOX - PO LOBBY", "address": {"city": "BELLINGHAM", "state": "WA", "street": "315 PROSPECT ST", "postcode": "98225"}}},
{"geometry": {"type": "Point", "coordinates": [-122.4807099825, 48.7486818393]}, "type": "Feature", "properties": {"collection_times": [{"days": "Mon-Fri", "time": "2:00pm"}, {"days": "Sat-Sun", "time": "Closed"}], "id": "9822500038", "name": "USPS COLLECTION BOX - BLUE BOX", "address": {"city": "BELLINGHAM", "state": "WA", "street": "100 E CHESTNUT ST", "postcode": "98225"}}},
{"geometry": {"type": "Point", "coordinates": [-122.4830947999, 48.7562311489]}, "type": "Feature", "properties": {"collection_times": [{"days": "Mon-Fri", "time": "1:30pm"}, {"days": "Sat-Sun", "time": "Closed"}], "id": "9822500042", "name": "USPS COLLECTION BOX - BLUE BOX", "address": {"city": "BELLINGHAM", "state": "WA", "street": "805 DUPONT ST", "postcode": "98225"}}},
{"geometry": {"type": "Point", "coordinates": [-122.4856436578, 48.738617381]}, "type": "Feature", "properties": {"collection_times": [{"days": "Mon-Fri", "time": "2:00pm"}, {"days": "Sat-Sun", "time": "Closed"}], "id": "9822500048", "name": "USPS COLLECTION BOX - BLUE BOX", "address": {"city": "BELLINGHAM", "state": "WA", "street": "501 HIGH ST", "postcode": "98225"}}},
{"geometry": {"type": "Point", "coordinates": [-122.4791098677, 48.7497654286]}, "type": "Feature", "properties": {"collection_times": [{"days": "Mon-Fri", "time": "2:10pm"}, {"days": "Sat", "time": "12:10pm"}, {"days": "Sun", "time": "Closed"}], "id": "9822500051", "name": "USPS COLLECTION BOX - BLUE BOX", "address": {"city": "BELLINGHAM", "state": "WA", "street": "101 E HOLLY ST", "postcode": "98225"}}},
{"geometry": {"type": "Point", "coordinates": [-122.481108156, 48.7520876193]}, "type": "Feature", "properties": {"collection_times": [{"days": "Mon-Fri", "time": "1:45pm"}, {"days": "Sat", "time": "12:20pm"}, {"days": "Sun", "time": "Closed"}], "id": "9822500053", "name": "USPS COLLECTION BOX - BLUE BOX", "address": {"city": "BELLINGHAM", "state": "WA", "street": "121 PROSPECT ST", "postcode": "98225"}}},
{"geometry": {"type": "Point", "coordinates": [-122.5121118225, 48.7651193673]}, "type": "Feature", "properties": {"collection_times": [{"days": "Mon-Fri", "time": "1:00pm"}, {"days": "Sat-Sun", "time": "Closed"}], "id": "9822500055", "name": "USPS COLLECTION BOX - BLUE BOX", "address": {"city": "BELLINGHAM", "state": "WA", "street": "3025 LINDBERGH AVE", "postcode": "98225"}}},
{"geometry": {"type": "Point", "coordinates": [-122.4798072672, 48.754806764]}, "type": "Feature", "properties": {"collection_times": [{"days": "Mon-Fri", "time": "1:30pm"}, {"days": "Sat", "time": "12:00pm"}, {"days": "Sun", "time": "Closed"}], "id": "9822500056", "name": "USPS COLLECTION BOX - BLUE BOX", "address": {"city": "BELLINGHAM", "state": "WA", "street": "315 LOTTIE ST", "postcode": "98225"}}},
{"geometry": {"type": "Point", "coordinates": [-122.5029311453, 48.759008933]}, "type": "Feature", "properties": {"collection_times": [{"days": "Mon-Fri", "time": "12:15pm"}, {"days": "Sat-Sun", "time": "Closed"}], "id": "9822500061", "name": "USPS COLLECTION BOX - BLUE BOX", "address": {"city": "BELLINGHAM", "state": "WA", "street": "851 COHO WAY", "postcode": "98225"}}},
{"geometry": {"type": "Point", "coordinates": [-122.482319474, 48.7788219584]}, "type": "Feature", "properties": {"collection_times": [{"days": "Mon-Fri", "time": "12:45pm"}, {"days": "Sat", "time": "12:15pm"}, {"days": "Sun", "time": "Closed"}], "id": "9822500066", "name": "USPS COLLECTION BOX - BLUE BOX", "address": {"city": "BELLINGHAM", "state": "WA", "street": "801 W ORCHARD DR", "postcode": "98225"}}},
{"geometry": {"type": "Point", "coordinates": [-122.4776751468, 48.7508452722]}, "type": "Feature", "properties": {"collection_times": [{"days": "Mon-Sat", "time": "4:00pm"}, {"days": "Sun", "time": "Closed"}], "id": "9822500068", "name": "USPS COLLECTION BOX - PO LOBBY", "address": {"city": "BELLINGHAM", "state": "WA", "street": "104 W MAGNOLIA ST", "postcode": "98225"}}},
{"geometry": {"type": "Point", "coordinates": [-122.4788362899, 48.7499035764]}, "type": "Feature", "properties": {"collection_times": [{"days": "Mon-Fri", "time": "12:10pm"}, {"days": "Sat", "time": "12:00pm"}, {"days": "Sun", "time": "Closed"}], "id": "9822500072", "name": "USPS COLLECTION BOX - BLUE BOX", "address": {"city": "BELLINGHAM", "state": "WA", "street": "1500 CORNWALL AVE", "postcode": "98225"}}},
{"geometry": {"type": "Point", "coordinates": [-122.4859802104, 48.7669224694]}, "type": "Feature", "properties": {"collection_times": [{"days": "Mon-Fri", "time": "1:30pm"}, {"days": "Sat", "time": "12:10pm"}, {"days": "Sun", "time": "Closed"}], "id": "9822500074", "name": "USPS COLLECTION BOX - BLUE BOX", "address": {"city": "BELLINGHAM", "state": "WA", "street": "2800 MERIDIAN ST", "postcode": "98225"}}},
{"geometry": {"type": "Point", "coordinates": [-122.4811920056, 48.7540177402]}, "type": "Feature", "properties": {"collection_times": [{"days": "Mon-Fri", "time": "5:00pm"}, {"days": "Sat", "time": "2:00pm"}, {"days": "Sun", "time": "Closed"}], "id": "9822500076", "name": "USPS COLLECTION BOX - BLUE BOX", "address": {"city": "BELLINGHAM", "state": "WA", "street": "315 PROSPECT ST", "postcode": "98225"}}},
{"geometry": {"type": "Point", "coordinates": [-122.4720701407, 48.7523005416]}, "type": "Feature", "properties": {"collection_times": [{"days": "Mon-Fri", "time": "12:30pm"}, {"days": "Sat", "time": "12:20pm"}, {"days": "Sun", "time": "Closed"}], "id": "9822500079", "name": "USPS COLLECTION BOX - BLUE BOX", "address": {"city": "BELLINGHAM", "state": "WA", "street": "1720 ELLIS ST", "postcode": "98225"}}},
{"geometry": {"type": "Point", "coordinates": [-122.4696049053, 48.7328684218]}, "type": "Feature", "properties": {"collection_times": [{"days": "Mon-Sat", "time": "12:15pm"}, {"days": "Sun", "time": "Closed"}], "id": "9822500080", "name": "USPS COLLECTION BOX - BLUE BOX", "address": {"city": "BELLINGHAM", "state": "WA", "street": "222 36TH ST", "postcode": "98225"}}},
{"geometry": {"type": "Point", "coordinates": [-122.4954785768, 48.754701089]}, "type": "Feature", "properties": {"collection_times": [{"days": "Mon-Fri", "time": "12:15pm"}, {"days": "Sat", "time": "12:10pm"}, {"days": "Sun", "time": "Closed"}], "id": "9822500081", "name": "USPS COLLECTION BOX - BLUE BOX", "address": {"city": "BELLINGHAM", "state": "WA", "street": "11 BELLWETHER WAY", "postcode": "98225"}}},
{"geometry": {"type": "Point", "coordinates": [-122.4811920056, 48.7540177402]}, "type": "Feature", "properties": {"collection_times": [{"days": "Mon-Sat", "time": "4:00pm"}, {"days": "Sun", "time": "Closed"}], "id": "9822500082", "name": "USPS COLLECTION BOX - APC", "address": {"city": "BELLINGHAM", "state": "WA", "street": "315 PROSPECT ST", "postcode": "98225"}}},
{"geometry": {"type": "Point", "coordinates": [-122.4860706576, 48.7922706468]}, "type": "Feature", "properties": {"collection_times": [{"days": "Mon-Sat", "time": "1:05pm"}, {"days": "Sun", "time": "Closed"}], "id": "9822600014", "name": "USPS COLLECTION BOX - BLUE BOX", "address": {"city": "BELLINGHAM", "state": "WA", "street": "4179 MERIDIAN ST", "postcode": "98226"}}},
{"geometry": {"type": "Point", "coordinates": [-122.486022392, 48.7861615244]}, "type": "Feature", "properties": {"collection_times": [{"days": "Mon-Sat", "time": "2:00pm"}, {"days": "Sun", "time": "Closed"}], "id": "9822600016", "name": "USPS COLLECTION BOX - BLUE BOX", "address": {"city": "BELLINGHAM", "state": "WA", "street": "3930 MERIDIAN ST", "postcode": "98226"}}},
{"geometry": {"type": "Point", "coordinates": [-122.4859039559, 48.7933995526]}, "type": "Feature", "properties": {"collection_times": [{"days": "Mon-Fri", "time": "2:10pm"}, {"days": "Sat-Sun", "time": "Closed"}], "id": "9822600018", "name": "USPS COLLECTION BOX - BLUE BOX", "address": {"city": "BELLINGHAM", "state": "WA", "street": "4200 MERIDIAN ST", "postcode": "98226"}}},
{"geometry": {"type": "Point", "coordinates": [-122.4575823002, 48.7720850185]}, "type": "Feature", "properties": {"collection_times": [{"days": "Mon-Fri", "time": "5:00pm"}, {"days": "Sat", "time": "2:00pm"}, {"days": "Sun", "time": "Closed"}], "id": "9822600023", "name": "USPS COLLECTION BOX - BLUE BOX", "address": {"city": "BELLINGHAM", "state": "WA", "street": "3150 ORLEANS ST", "postcode": "98226"}}},
{"geometry": {"type": "Point", "coordinates": [-122.4452310603, 48.7680638779]}, "type": "Feature", "properties": {"collection_times": [{"days": "Mon-Fri", "time": "2:15pm"}, {"days": "Sat-Sun", "time": "Closed"}], "id": "9822600026", "name": "USPS COLLECTION BOX - BLUE BOX", "address": {"city": "BELLINGHAM", "state": "WA", "street": "2900 WOBURN ST", "postcode": "98226"}}},
{"geometry": {"type": "Point", "coordinates": [-122.4452265981, 48.7731039865]}, "type": "Feature", "properties": {"collection_times": [{"days": "Mon-Fri", "time": "2:20pm"}, {"days": "Sat-Sun", "time": "Closed"}], "id": "9822600027", "name": "USPS COLLECTION BOX - BLUE BOX", "address": {"city": "BELLINGHAM", "state": "WA", "street": "2200 RIMLAND DR", "postcode": "98226"}}},
{"geometry": {"type": "Point", "coordinates": [-122.486009653, 48.7960545304]}, "type": "Feature", "properties": {"collection_times": [{"days": "Mon-Sat", "time": "1:15pm"}, {"days": "Sun", "time": "Closed"}], "id": "9822600028", "name": "USPS COLLECTION BOX - BLUE BOX", "address": {"city": "BELLINGHAM", "state": "WA", "street": "4273 MERIDIAN ST", "postcode": "98226"}}},
{"geometry": {"type": "Point", "coordinates": [-122.4575823002, 48.7720850185]}, "type": "Feature", "properties": {"collection_times": [{"days": "Mon-Fri", "time": "5:00pm"}, {"days": "Sat", "time": "4:00pm"}, {"days": "Sun", "time": "Closed"}], "id": "9822600032", "name": "USPS COLLECTION BOX - PO LOBBY", "address": {"city": "BELLINGHAM", "state": "WA", "street": "3150 ORLEANS ST", "postcode": "98226"}}},
{"geometry": {"type": "Point", "coordinates": [-122.4859491108, 48.7903530165]}, "type": "Feature", "properties": {"collection_times": [{"days": "Mon-Fri", "time": "2:30pm"}, {"days": "Sat-Sun", "time": "Closed"}], "id": "9822600037", "name": "USPS COLLECTION BOX - BLUE BOX", "address": {"city": "BELLINGHAM", "state": "WA", "street": "4120 MERIDIAN ST", "postcode": "98226"}}},
{"geometry": {"type": "Point", "coordinates": [-122.4859301032, 48.8015477174]}, "type": "Feature", "properties": {"collection_times": [{"days": "Mon-Fri", "time": "2:35pm"}, {"days": "Sat", "time": "1:35pm"}, {"days": "Sun", "time": "Closed"}], "id": "9822600038", "name": "USPS COLLECTION BOX - BLUE BOX", "address": {"city": "BELLINGHAM", "state": "WA", "street": "4420 MERIDIAN ST", "postcode": "98226"}}},
{"geometry": {"type": "Point", "coordinates": [-122.4575823002, 48.7720850185]}, "type": "Feature", "properties": {"collection_times": [{"days": "Mon-Fri", "time": "5:00pm"}, {"days": "Sat", "time": "4:00pm"}, {"days": "Sun", "time": "Closed"}], "id": "9822600039", "name": "USPS COLLECTION BOX - APC", "address": {"city": "BELLINGHAM", "state": "WA", "street": "3150 ORLEANS ST", "postcode": "98226"}}},
{"geometry": {"type": "Point", "coordinates": [-122.4596864662, 48.7517718262]}, "type": "Feature", "properties": {"collection_times": [{"days": "Mon-Fri", "time": "12:00pm"}, {"days": "Sat-Sun", "time": "Closed"}], "id": "9822900001", "name": "USPS COLLECTION BOX - BLUE BOX", "address": {"city": "BELLINGHAM", "state": "WA", "street": "1200 FRASER ST", "postcode": "98229"}}},
{"geometry": {"type": "Point", "coordinates": [-122.4521583265, 48.7563594068]}, "type": "Feature", "properties": {"collection_times": [{"days": "Mon-Fri", "time": "12:00pm"}, {"days": "Sat-Sun", "time": "Closed"}], "id": "9822900002", "name": "USPS COLLECTION BOX - BLUE BOX", "address": {"city": "BELLINGHAM", "state": "WA", "street": "1700 IOWA ST", "postcode": "98229"}}},
{"geometry": {"type": "Point", "coordinates": [-122.3312305468, 48.7132186339]}, "type": "Feature", "properties": {"collection_times": [{"days": "Mon-Sat", "time": "12:00pm"}, {"days": "Sun", "time": "Closed"}], "id": "9822900003", "name": "USPS COLLECTION BOX - BLUE BOX", "address": {"city": "BELLINGHAM", "state": "WA", "street": "1941 LAKE WHATCOM BLVD", "postcode": "98229"}}},
{"geometry": {"type": "Point", "coordinates": [-122.4649238888, 48.744906426]}, "type": "Feature", "properties": {"collection_times": [{"days": "Mon-Sat", "time": "12:00pm"}, {"days": "Sun", "time": "Closed"}], "id": "9822900004", "name": "USPS COLLECTION BOX - BLUE BOX", "address": {"city": "BELLINGHAM", "state": "WA", "street": "800 LAKEWAY DR", "postcode": "98229"}}},
{"geometry": {"type": "Point", "coordinates": [-122.4637465501, 48.7466246153]}, "type": "Feature", "properties": {"collection_times": [{"days": "Mon-Sat", "time": "12:00pm"}, {"days": "Sun", "time": "Closed"}], "id": "9822900006", "name": "USPS COLLECTION BOX - BLUE BOX", "address": {"city": "BELLINGHAM", "state": "WA", "street": "900 POTTER ST", "postcode": "98229"}}},
{"geometry": {"type": "Point", "coordinates": [-122.4249891454, 48.742848918]}, "type": "Feature", "properties": {"collection_times": [{"days": "Mon-Sat", "time": "12:00pm"}, {"days": "Sun", "time": "Closed"}], "id": "9822900008", "name": "USPS COLLECTION BOX - BLUE BOX", "address": {"city": "BELLINGHAM", "state": "WA", "street": "2410 ALABAMA ST", "postcode": "98229"}}},
{"geometry": {"type": "Point", "coordinates": [-122.7464299192, 48.9939863252]}, "type": "Feature", "properties": {"collection_times": [{"days": "Mon-Fri", "time": "4:15pm"}, {"days": "Sat", "time": "3:00pm"}, {"days": "Sun", "time": "Closed"}], "id": "9823000005", "name": "USPS COLLECTION BOX - PO LOBBY", "address": {"city": "BLAINE", "state": "WA", "street": "701 HARRISON AVE", "postcode": "98230"}}},
{"geometry": {"type": "Point", "coordinates": [-122.7464299192, 48.9939863252]}, "type": "Feature", "properties": {"collection_times": [{"days": "Mon-Fri", "time": "4:15pm"}, {"days": "Sat", "time": "3:00pm"}, {"days": "Sun", "time": "Closed"}], "id": "9823000008", "name": "USPS COLLECTION BOX - BLUE BOX", "address": {"city": "BLAINE", "state": "WA", "street": "701 HARRISON AVE", "postcode": "98230"}}},
{"geometry": {"type": "Point", "coordinates": [-122.4220890497, 48.5794158809]}, "type": "Feature", "properties": {"collection_times": [{"days": "Mon-Fri", "time": "4:10pm"}, {"days": "Sat", "time": "10:00am"}, {"days": "Sun", "time": "Closed"}], "id": "9823200005", "name": "USPS COLLECTION BOX - BLUE BOX", "address": {"city": "BOW", "state": "WA", "street": "5530 CHUCKANUT DR", "postcode": "98232"}}},
{"geometry": {"type": "Point", "coordinates": [-122.4220890497, 48.5794158809]}, "type": "Feature", "properties": {"collection_times": [{"days": "Mon-Fri", "time": "4:30pm"}, {"days": "Sat", "time": "10:00am"}, {"days": "Sun", "time": "Closed"}], "id": "9823200007", "name": "USPS COLLECTION BOX - PO LOBBY", "address": {"city": "BOW", "state": "WA", "street": "5530 CHUCKANUT DR", "postcode": "98232"}}},
{"geometry": {"type": "Point", "coordinates": [-122.3275716796, 48.4548640607]}, "type": "Feature", "properties": {"collection_times": [{"days": "Mon-Fri", "time": "1:35pm"}, {"days": "Sat", "time": "1:05pm"}, {"days": "Sun", "time": "Closed"}], "id": "9823300005", "name": "USPS COLLECTION BOX - BLUE BOX", "address": {"city": "BURLINGTON", "state": "WA", "street": "1575 PORT DR", "postcode": "98233"}}},
{"geometry": {"type": "Point", "coordinates": [-122.3387796856, 48.464340287]}, "type": "Feature", "properties": {"collection_times": [{"days": "Mon-Fri", "time": "1:40pm"}, {"days": "Sat", "time": "1:10pm"}, {"days": "Sun", "time": "Closed"}], "id": "9823300008", "name": "USPS COLLECTION BOX - BLUE BOX", "address": {"city": "BURLINGTON", "state": "WA", "street": "330 CASCADE MALL DR", "postcode": "98233"}}},
{"geometry": {"type": "Point", "coordinates": [-122.3377076265, 48.4560935201]}, "type": "Feature", "properties": {"collection_times": [{"days": "Mon-Fri", "time": "1:45pm"}, {"days": "Sat", "time": "1:15pm"}, {"days": "Sun", "time": "Closed"}], "id": "9823300009", "name": "USPS COLLECTION BOX - BLUE BOX", "address": {"city": "BURLINGTON", "state": "WA", "street": "444 FASHION WAY", "postcode": "98233"}}},
{"geometry": {"type": "Point", "coordinates": [-122.3405469302, 48.4603900795]}, "type": "Feature", "properties": {"collection_times": [{"days": "Mon-Fri", "time": "1:35pm"}, {"days": "Sat", "time": "1:05pm"}, {"days": "Sun", "time": "Closed"}], "id": "9823300015", "name": "USPS COLLECTION BOX - BLUE BOX", "address": {"city": "BURLINGTON", "state": "WA", "street": "700 CASCADE MALL DR", "postcode": "98233"}}},
{"geometry": {"type": "Point", "coordinates": [-122.3259895222, 48.475440115]}, "type": "Feature", "properties": {"collection_times": [{"days": "Mon-Fri", "time": "4:45pm"}, {"days": "Sat", "time": "3:00pm"}, {"days": "Sun", "time": "Closed"}], "id": "9823300017", "name": "USPS COLLECTION BOX - BLUE BOX", "address": {"city": "BURLINGTON", "state": "WA", "street": "720 E FAIRHAVEN AVE", "postcode": "98233"}}},
{"geometry": {"type": "Point", "coordinates": [-122.3259895222, 48.475440115]}, "type": "Feature", "properties": {"collection_times": [{"days": "Mon-Fri", "time": "4:45pm"}, {"days": "Sat", "time": "3:00pm"}, {"days": "Sun", "time": "Closed"}], "id": "9823300018", "name": "USPS COLLECTION BOX - BLUE BOX", "address": {"city": "BURLINGTON", "state": "WA", "street": "720 E FAIRHAVEN AVE", "postcode": "98233"}}},
{"geometry": {"type": "Point", "coordinates": [-122.335689502, 48.4674817685]}, "type": "Feature", "properties": {"collection_times": [{"days": "Mon-Fri", "time": "1:45pm"}, {"days": "Sat", "time": "1:15pm"}, {"days": "Sun", "time": "Closed"}], "id": "9823300020", "name": "USPS COLLECTION BOX - BLUE BOX", "address": {"city": "BURLINGTON", "state": "WA", "street": "920 S BURLINGTON BLVD", "postcode": "98233"}}},
{"geometry": {"type": "Point", "coordinates": [-122.3336080105, 48.4602168693]}, "type": "Feature", "properties": {"collection_times": [{"days": "Mon-Fri", "time": "1:40pm"}, {"days": "Sat", "time": "1:10pm"}, {"days": "Sun", "time": "Closed"}], "id": "9823300022", "name": "USPS COLLECTION BOX - BLUE BOX", "address": {"city": "BURLINGTON", "state": "WA", "street": "160 CASCADE PL", "postcode": "98233"}}},
{"geometry": {"type": "Point", "coordinates": [-122.3259895222, 48.475440115]}, "type": "Feature", "properties": {"collection_times": [{"days": "Mon-Fri", "time": "4:45pm"}, {"days": "Sat-Sun", "time": "Closed"}], "id": "9823300023", "name": "USPS COLLECTION BOX - PO LOBBY", "address": {"city": "BURLINGTON", "state": "WA", "street": "720 E FAIRHAVEN AVE", "postcode": "98233"}}},
{"geometry": {"type": "Point", "coordinates": [-122.3356785686, 48.4760238612]}, "type": "Feature", "properties": {"collection_times": [{"days": "Mon-Sat", "time": "5:00pm"}, {"days": "Sun", "time": "Closed"}], "id": "9823300024", "name": "USPS COLLECTION BOX - BLUE BOX", "address": {"city": "BURLINGTON", "state": "WA", "street": "151 N BURLINGTON BLVD", "postcode": "98233"}}},
{"geometry": {"type": "Point", "coordinates": [-122.3356785686, 48.4760238612]}, "type": "Feature", "properties": {"collection_times": [{"days": "Mon-Sat", "time": "5:00pm"}, {"days": "Sun", "time": "Closed"}], "id": "9823300025", "name": "USPS COLLECTION BOX - BLUE BOX", "address": {"city": "BURLINGTON", "state": "WA", "street": "151 N BURLINGTON BLVD", "postcode": "98233"}}},
{"geometry": {"type": "Point", "coordinates": [-122.3346259659, 48.4519829474]}, "type": "Feature", "properties": {"collection_times": [{"days": "Mon-Sat", "time": "1:00pm"}, {"days": "Sun", "time": "Closed"}], "id": "9823300031", "name": "USPS COLLECTION BOX - BLUE BOX", "address": {"city": "BURLINGTON", "state": "WA", "street": "120 E GEORGE HOPPER RD", "postcode": "98233"}}},
{"geometry": {"type": "Point", "coordinates": [-122.3376047847, 48.4699580173]}, "type": "Feature", "properties": {"collection_times": [{"days": "Mon-Fri", "time": "1:30pm"}, {"days": "Sat", "time": "1:00pm"}, {"days": "Sun", "time": "Closed"}], "id": "9823300032", "name": "USPS COLLECTION BOX - BLUE BOX", "address": {"city": "BURLINGTON", "state": "WA", "street": "757 HAGGEN DR", "postcode": "98233"}}},
{"geometry": {"type": "Point", "coordinates": [-122.2342863225, 48.4630821257]}, "type": "Feature", "properties": {"collection_times": [{"days": "Mon-Fri", "time": "5:00pm"}, {"days": "Sat", "time": "9:30am"}, {"days": "Sun", "time": "Closed"}], "id": "9823500000", "name": "USPS COLLECTION BOX - BLUE BOX", "address": {"city": "CLEARLAKE", "state": "WA", "street": "12639 STATE HIGHWAY 9", "postcode": "98235"}}},
{"geometry": {"type": "Point", "coordinates": [-122.2342863225, 48.4630821257]}, "type": "Feature", "properties": {"collection_times": [{"days": "Mon-Fri", "time": "5:00pm"}, {"days": "Sat", "time": "9:30am"}, {"days": "Sun", "time": "Closed"}], "id": "9823500001", "name": "USPS COLLECTION BOX - PO LOBBY", "address": {"city": "CLEARLAKE", "state": "WA", "street": "12639 STATE HIGHWAY 9", "postcode": "98235"}}},
{"geometry": {"type": "Point", "coordinates": [-122.2342863225, 48.4630821257]}, "type": "Feature", "properties": {"collection_times": [{"days": "Mon-Fri", "time": "5:00pm"}, {"days": "Sat", "time": "9:30am"}, {"days": "Sun", "time": "Closed"}], "id": "9823500002", "name": "USPS COLLECTION BOX - PO LOBBY", "address": {"city": "CLEARLAKE", "state": "WA", "street": "12639 STATE HIGHWAY 9", "postcode": "98235"}}},
{"geometry": {"type": "Point", "coordinates": [-122.389505831, 47.9844517706]}, "type": "Feature", "properties": {"collection_times": [{"days": "Mon-Fri", "time": "11:00am"}, {"days": "Sat-Sun", "time": "Closed"}], "id": "9823600000", "name": "USPS COLLECTION BOX - BLUE BOX", "address": {"city": "CLINTON", "state": "WA", "street": "11042 STATE ROUTE 525", "postcode": "98236"}}},
{"geometry": {"type": "Point", "coordinates": [-122.3580798357, 47.9792777688]}, "type": "Feature", "properties": {"collection_times": [{"days": "Mon-Fri", "time": "4:15pm"}, {"days": "Sat", "time": "11:00am"}, {"days": "Sun", "time": "Closed"}], "id": "9823600001", "name": "USPS COLLECTION BOX - BLUE BOX", "address": {"city": "CLINTON", "state": "WA", "street": "4801 DEER LAKE RD", "postcode": "98236"}}},
{"geometry": {"type": "Point", "coordinates": [-122.3829464937, 47.9689827936]}, "type": "Feature", "properties": {"collection_times": [{"days": "Mon-Fri", "time": "4:15pm"}, {"days": "Sat", "time": "11:00am"}, {"days": "Sun", "time": "Closed"}], "id": "9823600003", "name": "USPS COLLECTION BOX - PO LOBBY", "address": {"city": "CLINTON", "state": "WA", "street": "4801 DEER LAKE RD", "postcode": "98236"}}},
{"geometry": {"type": "Point", "coordinates": [-121.7566851659, 48.5385687849]}, "type": "Feature", "properties": {"collection_times": [{"days": "Mon-Fri", "time": "3:30pm"}, {"days": "Sat", "time": "10:00am"}, {"days": "Sun", "time": "Closed"}], "id": "9823700000", "name": "USPS COLLECTION BOX - BLUE BOX", "address": {"city": "CONCRETE", "state": "WA", "street": "45650 MAIN ST", "postcode": "98237"}}},
{"geometry": {"type": "Point", "coordinates": [-121.7566851659, 48.5385687849]}, "type": "Feature", "properties": {"collection_times": [{"days": "Mon-Fri", "time": "3:30pm"}, {"days": "Sat", "time": "10:30am"}, {"days": "Sun", "time": "Closed"}], "id": "9823700002", "name": "USPS COLLECTION BOX - PO LOBBY", "address": {"city": "CONCRETE", "state": "WA", "street": "45650 MAIN ST", "postcode": "98237"}}},
{"geometry": {"type": "Point", "coordinates": [-122.3415974291, 48.3404971703]}, "type": "Feature", "properties": {"collection_times": [{"days": "Mon-Fri", "time": "4:30pm"}, {"days": "Sat", "time": "10:45am"}, {"days": "Sun", "time": "Closed"}], "id": "9823800000", "name": "USPS COLLECTION BOX - BLUE BOX", "address": {"city": "CONWAY", "state": "WA", "street": "18620 MAIN ST", "postcode": "98238"}}},
{"geometry": {"type": "Point", "coordinates": [-122.3434372257, 48.3404418413]}, "type": "Feature", "properties": {"collection_times": [{"days": "Mon-Fri", "time": "4:30pm"}, {"days": "Sat", "time": "10:45am"}, {"days": "Sun", "time": "Closed"}], "id": "9823800001", "name": "USPS COLLECTION BOX - PO LOBBY", "address": {"city": "CONWAY", "state": "WA", "street": "18620 MAIN ST", "postcode": "98238"}}},
{"geometry": {"type": "Point", "coordinates": [-122.6895870244, 48.2204094121]}, "type": "Feature", "properties": {"collection_times": [{"days": "Mon-Fri", "time": "4:15pm"}, {"days": "Sat", "time": "3:00pm"}, {"days": "Sun", "time": "Closed"}], "id": "9823900000", "name": "USPS COLLECTION BOX - BLUE BOX", "address": {"city": "COUPEVILLE", "state": "WA", "street": "201 NW COVELAND ST", "postcode": "98239"}}},
{"geometry": {"type": "Point", "coordinates": [-122.6861875209, 48.1996365611]}, "type": "Feature", "properties": {"collection_times": [{"days": "Mon-Sat", "time": "10:00am"}, {"days": "Sun", "time": "Closed"}], "id": "9823900002", "name": "USPS COLLECTION BOX - BLUE BOX", "address": {"city": "COUPEVILLE", "state": "WA", "street": "400 S MAIN ST", "postcode": "98239"}}},
{"geometry": {"type": "Point", "coordinates": [-122.6895870244, 48.2204094121]}, "type": "Feature", "properties": {"collection_times": [{"days": "Mon-Fri", "time": "4:15pm"}, {"days": "Sat", "time": "3:00pm"}, {"days": "Sun", "time": "Closed"}], "id": "9823900003", "name": "USPS COLLECTION BOX - PO LOBBY", "address": {"city": "COUPEVILLE", "state": "WA", "street": "201 NW COVELAND ST", "postcode": "98239"}}},
{"geometry": {"type": "Point", "coordinates": [-122.6362816261, 48.9146911846]}, "type": "Feature", "properties": {"collection_times": [{"days": "Mon-Fri", "time": "4:30pm"}, {"days": "Sat", "time": "10:00am"}, {"days": "Sun", "time": "Closed"}], "id": "9824000004", "name": "USPS COLLECTION BOX - PO LOBBY", "address": {"city": "CUSTER", "state": "WA", "street": "7632 PORTAL WAY", "postcode": "98240"}}},
{"geometry": {"type": "Point", "coordinates": [-122.6362816261, 48.9146911846]}, "type": "Feature", "properties": {"collection_times": [{"days": "Mon-Fri", "time": "4:30pm"}, {"days": "Sat", "time": "10:00am"}, {"days": "Sun", "time": "Closed"}], "id": "9824000005", "name": "USPS COLLECTION BOX - BLUE BOX", "address": {"city": "CUSTER", "state": "WA", "street": "7632 PORTAL WAY", "postcode": "98240"}}},
{"geometry": {"type": "Point", "coordinates": [-121.6034588718, 48.250241889]}, "type": "Feature", "properties": {"collection_times": [{"days": "Mon-Fri", "time": "1:00pm"}, {"days": "Sat", "time": "9:00am"}, {"days": "Sun", "time": "Closed"}], "id": "9824100000", "name": "USPS COLLECTION BOX - BLUE BOX", "address": {"city": "DARRINGTON", "state": "WA", "street": "715 GIVENS AVE", "postcode": "98241"}}},
{"geometry": {"type": "Point", "coordinates": [-121.6034588718, 48.250241889]}, "type": "Feature", "properties": {"collection_times": [{"days": "Mon-Fri", "time": "1:00pm"}, {"days": "Sat", "time": "9:00am"}, {"days": "Sun", "time": "Closed"}], "id": "9824100001", "name": "USPS COLLECTION BOX - PO LOBBY", "address": {"city": "DARRINGTON", "state": "WA", "street": "715 GIVENS AVE", "postcode": "98241"}}},
{"geometry": {"type": "Point", "coordinates": [-121.6034588718, 48.250241889]}, "type": "Feature", "properties": {"collection_times": [{"days": "Mon-Fri", "time": "1:00pm"}, {"days": "Sat", "time": "9:00am"}, {"days": "Sun", "time": "Closed"}], "id": "9824100002", "name": "USPS COLLECTION BOX - PO LOBBY", "address": {"city": "DARRINGTON", "state": "WA", "street": "715 GIVENS AVE", "postcode": "98241"}}},
{"geometry": {"type": "Point", "coordinates": [-122.9999897933, 48.6210671038]}, "type": "Feature", "properties": {"collection_times": [{"days": "Mon-Fri", "time": "2:20pm"}, {"days": "Sat", "time": "10:00am"}, {"days": "Sun", "time": "Closed"}], "id": "9824300000", "name": "USPS COLLECTION BOX - BLUE BOX", "address": {"city": "DEER HARBOR", "state": "WA", "street": "20 JACK AND JILL PL", "postcode": "98243"}}},
{"geometry": {"type": "Point", "coordinates": [-122.9999897933, 48.6210671038]}, "type": "Feature", "properties": {"collection_times": [{"days": "Mon-Fri", "time": "2:20pm"}, {"days": "Sat", "time": "10:00am"}, {"days": "Sun", "time": "Closed"}], "id": "9824300001", "name": "USPS COLLECTION BOX - PO LOBBY", "address": {"city": "DEER HARBOR", "state": "WA", "street": "20 JACK AND JILL PL", "postcode": "98243"}}},
{"geometry": {"type": "Point", "coordinates": [-122.2161467547, 48.8235467183]}, "type": "Feature", "properties": {"collection_times": [{"days": "Mon-Fri", "time": "4:00pm"}, {"days": "Sat", "time": "10:00am"}, {"days": "Sun", "time": "Closed"}], "id": "9824400000", "name": "USPS COLLECTION BOX - BLUE BOX", "address": {"city": "DEMING", "state": "WA", "street": "5014 DEMING RD", "postcode": "98244"}}},
{"geometry": {"type": "Point", "coordinates": [-122.2161467547, 48.8235467183]}, "type": "Feature", "properties": {"collection_times": [{"days": "Mon-Fri", "time": "4:00pm"}, {"days": "Sat", "time": "10:00am"}, {"days": "Sun", "time": "Closed"}], "id": "9824400001", "name": "USPS COLLECTION BOX - PO LOBBY", "address": {"city": "DEMING", "state": "WA", "street": "5014 DEMING RD", "postcode": "98244"}}},
{"geometry": {"type": "Point", "coordinates": [-122.9153795012, 48.6742282461]}, "type": "Feature", "properties": {"collection_times": [{"days": "Mon-Fri", "time": "2:00pm"}, {"days": "Sat", "time": "10:45am"}, {"days": "Sun", "time": "Closed"}], "id": "9824500002", "name": "USPS COLLECTION BOX - BLUE BOX", "address": {"city": "EASTSOUND", "state": "WA", "street": "68 N BEACH RD", "postcode": "98245"}}},
{"geometry": {"type": "Point", "coordinates": [-122.9396156664, 48.6538925892]}, "type": "Feature", "properties": {"collection_times": [{"days": "Mon-Fri", "time": "2:00pm"}, {"days": "Sat", "time": "10:45am"}, {"days": "Sun", "time": "Closed"}], "id": "9824500004", "name": "USPS COLLECTION BOX - BLUE BOX", "address": {"city": "EASTSOUND", "state": "WA", "street": "469 MARKET ST", "postcode": "98245"}}},
{"geometry": {"type": "Point", "coordinates": [-122.9070560057, 48.6967284907]}, "type": "Feature", "properties": {"collection_times": [{"days": "Mon-Fri", "time": "3:00pm"}, {"days": "Sat", "time": "10:45am"}, {"days": "Sun", "time": "Closed"}], "id": "9824500005", "name": "USPS COLLECTION BOX - BLUE BOX", "address": {"city": "EASTSOUND", "state": "WA", "street": "221 A ST", "postcode": "98245"}}},
{"geometry": {"type": "Point", "coordinates": [-122.9070560057, 48.6967284907]}, "type": "Feature", "properties": {"collection_times": [{"days": "Mon-Fri", "time": "3:00pm"}, {"days": "Sat", "time": "10:45am"}, {"days": "Sun", "time": "Closed"}], "id": "9824500009", "name": "USPS COLLECTION BOX - PO LOBBY", "address": {"city": "EASTSOUND", "state": "WA", "street": "221 A ST STE 1", "postcode": "98245"}}},
{"geometry": {"type": "Point", "coordinates": [-122.9070560057, 48.6967284907]}, "type": "Feature", "properties": {"collection_times": [{"days": "Mon-Fri", "time": "3:00pm"}, {"days": "Sat", "time": "10:45am"}, {"days": "Sun", "time": "Closed"}], "id": "9824500010", "name": "USPS COLLECTION BOX - PO LOBBY", "address": {"city": "EASTSOUND", "state": "WA", "street": "221 A ST STE 1", "postcode": "98245"}}},
{"geometry": {"type": "Point", "coordinates": [-122.3375851093, 48.9199397306]}, "type": "Feature", "properties": {"collection_times": [{"days": "Mon-Fri", "time": "4:15pm"}, {"days": "Sat", "time": "10:00am"}, {"days": "Sun", "time": "Closed"}], "id": "9824700000", "name": "USPS COLLECTION BOX - BLUE BOX", "address": {"city": "EVERSON", "state": "WA", "street": "108 BLAIR DR", "postcode": "98247"}}},
{"geometry": {"type": "Point", "coordinates": [-122.3375851093, 48.9199397306]}, "type": "Feature", "properties": {"collection_times": [{"days": "Mon-Fri", "time": "4:15pm"}, {"days": "Sat", "time": "10:00am"}, {"days": "Sun", "time": "Closed"}], "id": "9824700002", "name": "USPS COLLECTION BOX - PO LOBBY", "address": {"city": "EVERSON", "state": "WA", "street": "108 BLAIR DR", "postcode": "98247"}}},
{"geometry": {"type": "Point", "coordinates": [-122.3375851093, 48.9199397306]}, "type": "Feature", "properties": {"collection_times": [{"days": "Mon-Fri", "time": "4:15pm"}, {"days": "Sat", "time": "10:00am"}, {"days": "Sun", "time": "Closed"}], "id": "9824700003", "name": "USPS COLLECTION BOX - PO LOBBY", "address": {"city": "EVERSON", "state": "WA", "street": "108 BLAIR DR", "postcode": "98247"}}},
{"geometry": {"type": "Point", "coordinates": [-122.5951368255, 48.8472231787]}, "type": "Feature", "properties": {"collection_times": [{"days": "Mon-Fri", "time": "4:45pm"}, {"days": "Sat", "time": "3:00pm"}, {"days": "Sun", "time": "Closed"}], "id": "9824800000", "name": "USPS COLLECTION BOX - BLUE BOX", "address": {"city": "FERNDALE", "state": "WA", "street": "5703 4TH AVE", "postcode": "98248"}}},
{"geometry": {"type": "Point", "coordinates": [-122.5951368255, 48.8472231787]}, "type": "Feature", "properties": {"collection_times": [{"days": "Mon-Fri", "time": "4:45pm"}, {"days": "Sat", "time": "3:00pm"}, {"days": "Sun", "time": "Closed"}], "id": "9824800002", "name": "USPS COLLECTION BOX - PO LOBBY", "address": {"city": "FERNDALE", "state": "WA", "street": "5703 4TH AVE", "postcode": "98248"}}},
{"geometry": {"type": "Point", "coordinates": [-122.627815, 48.81734]}, "type": "Feature", "properties": {"collection_times": [{"days": "Mon-Sat", "time": "12:00pm"}, {"days": "Sun", "time": "Closed"}], "id": "9824800003", "name": "USPS COLLECTION BOX - BLUE BOX", "address": {"city": "FERNDALE", "state": "WA", "street": "4884 HAXTON WAY", "postcode": "98248"}}},
{"geometry": {"type": "Point", "coordinates": [-122.5295609473, 48.0095477418]}, "type": "Feature", "properties": {"collection_times": [{"days": "Mon-Fri", "time": "4:00pm"}, {"days": "Sat", "time": "11:00am"}, {"days": "Sun", "time": "Closed"}], "id": "9824900000", "name": "USPS COLLECTION BOX - PO LOBBY", "address": {"city": "FREELAND", "state": "WA", "street": "1619 MAIN ST", "postcode": "98249"}}},
{"geometry": {"type": "Point", "coordinates": [-122.5295609473, 48.0095477418]}, "type": "Feature", "properties": {"collection_times": [{"days": "Mon-Fri", "time": "4:00pm"}, {"days": "Sat", "time": "11:00am"}, {"days": "Sun", "time": "Closed"}], "id": "9824900001", "name": "USPS COLLECTION BOX - PO LOBBY", "address": {"city": "FREELAND", "state": "WA", "street": "1619 MAIN ST", "postcode": "98249"}}},
{"geometry": {"type": "Point", "coordinates": [-122.5295609473, 48.0095477418]}, "type": "Feature", "properties": {"collection_times": [{"days": "Mon-Fri", "time": "4:00pm"}, {"days": "Sat", "time": "11:00am"}, {"days": "Sun", "time": "Closed"}], "id": "9824900003", "name": "USPS COLLECTION BOX - BLUE BOX", "address": {"city": "FREELAND", "state": "WA", "street": "1619 MAIN ST", "postcode": "98249"}}},
{"geometry": {"type": "Point", "coordinates": [-123.016795186, 48.5362844465]}, "type": "Feature", "properties": {"collection_times": [{"days": "Mon-Sat", "time": "12:00pm"}, {"days": "Sun", "time": "Closed"}], "id": "9825000000", "name": "USPS COLLECTION BOX - BLUE BOX", "address": {"city": "FRIDAY HARBOR", "state": "WA", "street": "204 FRONT ST", "postcode": "98250"}}},
{"geometry": {"type": "Point", "coordinates": [-123.015918494, 48.5349907213]}, "type": "Feature", "properties": {"collection_times": [{"days": "Mon-Sat", "time": "12:00pm"}, {"days": "Sun", "time": "Closed"}], "id": "9825000001", "name": "USPS COLLECTION BOX - BLUE BOX", "address": {"city": "FRIDAY HARBOR", "state": "WA", "street": "105 SPRING ST", "postcode": "98250"}}},
{"geometry": {"type": "Point", "coordinates": [-123.0837642514, 48.5378343447]}, "type": "Feature", "properties": {"collection_times": [{"days": "Mon-Sat", "time": "3:00pm"}, {"days": "Sun", "time": "Closed"}], "id": "9825000004", "name": "USPS COLLECTION BOX - BLUE BOX", "address": {"city": "FRIDAY HARBOR", "state": "WA", "street": "220 BLAIR AVE", "postcode": "98250"}}},
{"geometry": {"type": "Point", "coordinates": [-123.0837642514, 48.5378343447]}, "type": "Feature", "properties": {"collection_times": [{"days": "Mon-Sat", "time": "3:00pm"}, {"days": "Sun", "time": "Closed"}], "id": "9825000005", "name": "USPS COLLECTION BOX - BLUE BOX", "address": {"city": "FRIDAY HARBOR", "state": "WA", "street": "220 BLAIR AVE", "postcode": "98250"}}},
{"geometry": {"type": "Point", "coordinates": [-123.0837642514, 48.5378343447]}, "type": "Feature", "properties": {"collection_times": [{"days": "Mon-Sat", "time": "3:00pm"}, {"days": "Sun", "time": "Closed"}], "id": "9825000006", "name": "USPS COLLECTION BOX - BLUE BOX", "address": {"city": "FRIDAY HARBOR", "state": "WA", "street": "220 BLAIR AVE", "postcode": "98250"}}},
{"geometry": {"type": "Point", "coordinates": [-123.0837642514, 48.5378343447]}, "type": "Feature", "properties": {"collection_times": [{"days": "Mon-Sat", "time": "3:00pm"}, {"days": "Sun", "time": "Closed"}], "id": "9825000007", "name": "USPS COLLECTION BOX - PO LOBBY", "address": {"city": "FRIDAY HARBOR", "state": "WA", "street": "220 BLAIR AVE", "postcode": "98250"}}},
{"geometry": {"type": "Point", "coordinates": [-123.0837642514, 48.5378343447]}, "type": "Feature", "properties": {"collection_times": [{"days": "Mon-Sat", "time": "3:00pm"}, {"days": "Sun", "time": "Closed"}], "id": "9825000008", "name": "USPS COLLECTION BOX - PO LOBBY", "address": {"city": "FRIDAY HARBOR", "state": "WA", "street": "220 BLAIR AVE", "postcode": "98250"}}},
{"geometry": {"type": "Point", "coordinates": [-123.1518656546, 48.6084213528]}, "type": "Feature", "properties": {"collection_times": [{"days": "Mon-Sat", "time": "11:00am"}, {"days": "Sun", "time": "Closed"}], "id": "9825000009", "name": "USPS COLLECTION BOX - BLUE BOX", "address": {"city": "FRIDAY HARBOR", "state": "WA", "street": "195 REUBEN MEMORIAL DR", "postcode": "98250"}}},
{"geometry": {"type": "Point", "coordinates": [-121.6920897064, 47.8529297422]}, "type": "Feature", "properties": {"collection_times": [{"days": "Mon-Fri", "time": "2:00pm"}, {"days": "Sat", "time": "11:30am"}, {"days": "Sun", "time": "Closed"}], "id": "9825100000", "name": "USPS COLLECTION BOX - PO LOBBY", "address": {"city": "GOLD BAR", "state": "WA", "street": "122 10TH ST", "postcode": "98251"}}},
{"geometry": {"type": "Point", "coordinates": [-121.6920897064, 47.8529297422]}, "type": "Feature", "properties": {"collection_times": [{"days": "Mon-Fri", "time": "2:00pm"}, {"days": "Sat", "time": "11:30am"}, {"days": "Sun", "time": "Closed"}], "id": "9825100001", "name": "USPS COLLECTION BOX - BLUE BOX", "address": {"city": "GOLD BAR", "state": "WA", "street": "122 10TH ST", "postcode": "98251"}}},
{"geometry": {"type": "Point", "coordinates": [-121.6920897064, 47.8529297422]}, "type": "Feature", "properties": {"collection_times": [{"days": "Mon-Fri", "time": "2:00pm"}, {"days": "Sat", "time": "11:30am"}, {"days": "Sun", "time": "Closed"}], "id": "9825100002", "name": "USPS COLLECTION BOX - BLUE BOX", "address": {"city": "GOLD BAR", "state": "WA", "street": "122 10TH ST", "postcode": "98251"}}},
{"geometry": {"type": "Point", "coordinates": [-121.9676848394, 48.0833772463]}, "type": "Feature", "properties": {"collection_times": [{"days": "Mon-Fri", "time": "4:15pm"}, {"days": "Sat", "time": "1:15pm"}, {"days": "Sun", "time": "Closed"}], "id": "9825200000", "name": "USPS COLLECTION BOX - BLUE BOX", "address": {"city": "GRANITE FALLS", "state": "WA", "street": "205 E STANLEY ST", "postcode": "98252"}}},
{"geometry": {"type": "Point", "coordinates": [-121.9676848394, 48.0833772463]}, "type": "Feature", "properties": {"collection_times": [{"days": "Mon-Fri", "time": "4:15pm"}, {"days": "Sat", "time": "1:15pm"}, {"days": "Sun", "time": "Closed"}], "id": "9825200001", "name": "USPS COLLECTION BOX - PO LOBBY", "address": {"city": "GRANITE FALLS", "state": "WA", "street": "205 E STANLEY ST", "postcode": "98252"}}},
{"geometry": {"type": "Point", "coordinates": [-121.9694119595, 48.0844892277]}, "type": "Feature", "properties": {"collection_times": [{"days": "Mon-Sat", "time": "12:30pm"}, {"days": "Sun", "time": "Closed"}], "id": "9825200002", "name": "USPS COLLECTION BOX - BLUE BOX", "address": {"city": "GRANITE FALLS", "state": "WA", "street": "115 N GRANITE AVE", "postcode": "98252"}}},
{"geometry": {"type": "Point", "coordinates": [-122.5741627959, 48.1001872334]}, "type": "Feature", "properties": {"collection_times": [{"days": "Mon-Fri", "time": "4:00pm"}, {"days": "Sat", "time": "9:00am"}, {"days": "Sun", "time": "Closed"}], "id": "9825300000", "name": "USPS COLLECTION BOX - BLUE BOX", "address": {"city": "GREENBANK", "state": "WA", "street": "25189 STATE ROUTE 525", "postcode": "98253"}}},
{"geometry": {"type": "Point", "coordinates": [-122.5741627959, 48.1001872334]}, "type": "Feature", "properties": {"collection_times": [{"days": "Mon-Fri", "time": "4:00pm"}, {"days": "Sat-Sun", "time": "Closed"}], "id": "9825300001", "name": "USPS COLLECTION BOX - PO LOBBY", "address": {"city": "GREENBANK", "state": "WA", "street": "25189 STATE ROUTE 525", "postcode": "98253"}}},
{"geometry": {"type": "Point", "coordinates": [-121.9901888688, 48.5220934675]}, "type": "Feature", "properties": {"collection_times": [{"days": "Mon-Fri", "time": "1:00pm"}, {"days": "Sat", "time": "9:45am"}, {"days": "Sun", "time": "Closed"}], "id": "9825500000", "name": "USPS COLLECTION BOX - BLUE BOX", "address": {"city": "HAMILTON", "state": "WA", "street": "520B MAPLE ST", "postcode": "98255"}}},
{"geometry": {"type": "Point", "coordinates": [-121.9901888688, 48.5220934675]}, "type": "Feature", "properties": {"collection_times": [{"days": "Mon-Fri", "time": "1:00pm"}, {"days": "Sat", "time": "9:45am"}, {"days": "Sun", "time": "Closed"}], "id": "9825500001", "name": "USPS COLLECTION BOX - PO LOBBY", "address": {"city": "HAMILTON", "state": "WA", "street": "520B MAPLE ST", "postcode": "98255"}}},
{"geometry": {"type": "Point", "coordinates": [-121.5539163209, 47.8202763885]}, "type": "Feature", "properties": {"collection_times": [{"days": "Mon-Fri", "time": "3:00pm"}, {"days": "Sat", "time": "10:00am"}, {"days": "Sun", "time": "Closed"}], "id": "9825600001", "name": "USPS COLLECTION BOX - PO LOBBY", "address": {"city": "INDEX", "state": "WA", "street": "503 AVENUE A", "postcode": "98256"}}},
{"geometry": {"type": "Point", "coordinates": [-122.495852181, 48.3920447283]}, "type": "Feature", "properties": {"collection_times": [{"days": "Mon-Fri", "time": "5:00pm"}, {"days": "Sat", "time": "10:00am"}, {"days": "Sun", "time": "Closed"}], "id": "9825700000", "name": "USPS COLLECTION BOX - BLUE BOX", "address": {"city": "LA CONNER", "state": "WA", "street": "125 1ST ST", "postcode": "98257"}}},
{"geometry": {"type": "Point", "coordinates": [-122.5113470193, 48.4158301149]}, "type": "Feature", "properties": {"collection_times": [{"days": "Mon-Sat", "time": "12:00pm"}, {"days": "Sun", "time": "Closed"}], "id": "9825700001", "name": "USPS COLLECTION BOX - BLUE BOX", "address": {"city": "LA CONNER", "state": "WA", "street": "GH1 SHELTER BAY DR", "postcode": "98257"}}},
{"geometry": {"type": "Point", "coordinates": [-122.495852181, 48.3920447283]}, "type": "Feature", "properties": {"collection_times": [{"days": "Mon-Fri", "time": "5:00pm"}, {"days": "Sat", "time": "10:00am"}, {"days": "Sun", "time": "Closed"}], "id": "9825700002", "name": "USPS COLLECTION BOX - PO LOBBY", "address": {"city": "LA CONNER", "state": "WA", "street": "125 1ST ST", "postcode": "98257"}}},
{"geometry": {"type": "Point", "coordinates": [-122.495852181, 48.3920447283]}, "type": "Feature", "properties": {"collection_times": [{"days": "Mon-Fri", "time": "5:00pm"}, {"days": "Sat", "time": "10:00am"}, {"days": "Sun", "time": "Closed"}], "id": "9825700003", "name": "USPS COLLECTION BOX - PO LOBBY", "address": {"city": "LA CONNER", "state": "WA", "street": "125 1ST ST", "postcode": "98257"}}},
{"geometry": {"type": "Point", "coordinates": [-122.0640400086, 48.0131688891]}, "type": "Feature", "properties": {"collection_times": [{"days": "Mon-Fri", "time": "5:00pm"}, {"days": "Sat", "time": "11:00am"}, {"days": "Sun", "time": "Closed"}], "id": "9825800001", "name": "USPS COLLECTION BOX - BLUE BOX", "address": {"city": "LAKE STEVENS", "state": "WA", "street": "1709 124TH AVE NE", "postcode": "98258"}}},
{"geometry": {"type": "Point", "coordinates": [-122.0640400086, 48.0131688891]}, "type": "Feature", "properties": {"collection_times": [{"days": "Mon-Fri", "time": "5:00pm"}, {"days": "Sat", "time": "11:00am"}, {"days": "Sun", "time": "Closed"}], "id": "9825800004", "name": "USPS COLLECTION BOX - PO LOBBY", "address": {"city": "LAKE STEVENS", "state": "WA", "street": "1709 124TH AVE NE", "postcode": "98258"}}},
{"geometry": {"type": "Point", "coordinates": [-122.06414, 48.01322]}, "type": "Feature", "properties": {"collection_times": [{"days": "Mon-Fri", "time": "2:00pm"}, {"days": "Sat", "time": "10:30am"}, {"days": "Sun", "time": "Closed"}], "id": "9825800005", "name": "USPS COLLECTION BOX - BLUE BOX", "address": {"city": "LAKE STEVENS", "state": "WA", "street": "1710 124TH AVE NE", "postcode": "98258"}}},
{"geometry": {"type": "Point", "coordinates": [-122.0677424187, 48.042557214]}, "type": "Feature", "properties": {"collection_times": [{"days": "Mon-Fri", "time": "9:30am"}, {"days": "Sat-Sun", "time": "Closed"}], "id": "9825800006", "name": "USPS COLLECTION BOX - BLUE BOX", "address": {"city": "LAKE STEVENS", "state": "WA", "street": "512 91ST AVE NE", "postcode": "98258"}}},
{"geometry": {"type": "Point", "coordinates": [-122.1083326491, 47.9980037771]}, "type": "Feature", "properties": {"collection_times": [{"days": "Mon-Fri", "time": "9:30am"}, {"days": "Sat-Sun", "time": "Closed"}], "id": "9825800007", "name": "USPS COLLECTION BOX - BLUE BOX", "address": {"city": "LAKE STEVENS", "state": "WA", "street": "303 91ST AVE NE", "postcode": "98258"}}},
{"geometry": {"type": "Point", "coordinates": [-122.2081081961, 48.1518568897]}, "type": "Feature", "properties": {"collection_times": [{"days": "Mon-Fri", "time": "4:30pm"}, {"days": "Sat", "time": "8:00am"}, {"days": "Sun", "time": "Closed"}], "id": "9825900000", "name": "USPS COLLECTION BOX - BLUE BOX", "address": {"city": "N LAKEWOOD", "state": "WA", "street": "1610 172ND ST NE", "postcode": "98259"}}},
{"geometry": {"type": "Point", "coordinates": [-122.4062816827, 48.0398363673]}, "type": "Feature", "properties": {"collection_times": [{"days": "Mon-Fri", "time": "4:00pm"}, {"days": "Sat", "time": "10:00am"}, {"days": "Sun", "time": "Closed"}], "id": "9826000000", "name": "USPS COLLECTION BOX - BLUE BOX", "address": {"city": "LANGLEY", "state": "WA", "street": "115 2ND ST", "postcode": "98260"}}},
{"geometry": {"type": "Point", "coordinates": [-122.4615485638, 47.9958185256]}, "type": "Feature", "properties": {"collection_times": [{"days": "Mon-Sat", "time": "10:30am"}, {"days": "Sun", "time": "Closed"}], "id": "9826000001", "name": "USPS COLLECTION BOX - BLUE BOX", "address": {"city": "LANGLEY", "state": "WA", "street": "5603 BAYVIEW RD", "postcode": "98260"}}},
{"geometry": {"type": "Point", "coordinates": [-122.4062816827, 48.0398363673]}, "type": "Feature", "properties": {"collection_times": [{"days": "Mon-Fri", "time": "4:00pm"}, {"days": "Sat", "time": "10:00am"}, {"days": "Sun", "time": "Closed"}], "id": "9826000003", "name": "USPS COLLECTION BOX - PO LOBBY", "address": {"city": "LANGLEY", "state": "WA", "street": "115 2ND ST", "postcode": "98260"}}},
{"geometry": {"type": "Point", "coordinates": [-122.4062816827, 48.0398363673]}, "type": "Feature", "properties": {"collection_times": [{"days": "Mon-Fri", "time": "4:00pm"}, {"days": "Sat", "time": "10:00am"}, {"days": "Sun", "time": "Closed"}], "id": "9826000004", "name": "USPS COLLECTION BOX - PO LOBBY", "address": {"city": "LANGLEY", "state": "WA", "street": "115 2ND ST", "postcode": "98260"}}},
{"geometry": {"type": "Point", "coordinates": [-122.4062816827, 48.0398363673]}, "type": "Feature", "properties": {"collection_times": [{"days": "Mon-Fri", "time": "4:00pm"}, {"days": "Sat", "time": "10:00am"}, {"days": "Sun", "time": "Closed"}], "id": "9826000005", "name": "USPS COLLECTION BOX - PO LOBBY", "address": {"city": "LANGLEY", "state": "WA", "street": "115 2ND ST", "postcode": "98260"}}},
{"geometry": {"type": "Point", "coordinates": [-122.4062816827, 48.0398363673]}, "type": "Feature", "properties": {"collection_times": [{"days": "Mon-Fri", "time": "4:00pm"}, {"days": "Sat", "time": "10:00am"}, {"days": "Sun", "time": "Closed"}], "id": "9826000006", "name": "USPS COLLECTION BOX - PO LOBBY", "address": {"city": "LANGLEY", "state": "WA", "street": "115 2ND ST", "postcode": "98260"}}},
{"geometry": {"type": "Point", "coordinates": [-122.9144472043, 48.5255527174]}, "type": "Feature", "properties": {"collection_times": [{"days": "Mon-Fri", "time": "2:30pm"}, {"days": "Sat", "time": "12:00pm"}, {"days": "Sun", "time": "Closed"}], "id": "9826100000", "name": "USPS COLLECTION BOX - BLUE BOX", "address": {"city": "LOPEZ ISLAND", "state": "WA", "street": "209 WEEKS RD", "postcode": "98261"}}},
{"geometry": {"type": "Point", "coordinates": [-122.9144472043, 48.5255527174]}, "type": "Feature", "properties": {"collection_times": [{"days": "Mon-Fri", "time": "2:30pm"}, {"days": "Sat", "time": "12:00pm"}, {"days": "Sun", "time": "Closed"}], "id": "9826100001", "name": "USPS COLLECTION BOX - PO LOBBY", "address": {"city": "LOPEZ ISLAND", "state": "WA", "street": "209 WEEKS RD", "postcode": "98261"}}},
{"geometry": {"type": "Point", "coordinates": [-122.8599508198, 48.4453220307]}, "type": "Feature", "properties": {"collection_times": [{"days": "Mon-Fri", "time": "12:00pm"}, {"days": "Sat-Sun", "time": "Closed"}], "id": "9826100002", "name": "USPS COLLECTION BOX - BLUE BOX", "address": {"city": "LOPEZ ISLAND", "state": "WA", "street": "3024 MUD BAY RD", "postcode": "98261"}}},
{"geometry": {"type": "Point", "coordinates": [-122.6938937446, 48.7331724898]}, "type": "Feature", "properties": {"collection_times": [{"days": "Mon-Fri", "time": "2:45pm"}, {"days": "Sat", "time": "12:00pm"}, {"days": "Sun", "time": "Closed"}], "id": "9826200000", "name": "USPS COLLECTION BOX - BLUE BOX", "address": {"city": "LUMMI ISLAND", "state": "WA", "street": "2211 N NUGENT RD", "postcode": "98262"}}},
{"geometry": {"type": "Point", "coordinates": [-122.6938937446, 48.7331724898]}, "type": "Feature", "properties": {"collection_times": [{"days": "Mon-Fri", "time": "2:45pm"}, {"days": "Sat", "time": "12:00pm"}, {"days": "Sun", "time": "Closed"}], "id": "9826200001", "name": "USPS COLLECTION BOX - PO LOBBY", "address": {"city": "LUMMI ISLAND", "state": "WA", "street": "2211 N NUGENT RD", "postcode": "98262"}}},
{"geometry": {"type": "Point", "coordinates": [-122.0597885959, 48.5255851182]}, "type": "Feature", "properties": {"collection_times": [{"days": "Mon-Fri", "time": "4:00pm"}, {"days": "Sat", "time": "9:15am"}, {"days": "Sun", "time": "Closed"}], "id": "9826300000", "name": "USPS COLLECTION BOX - BLUE BOX", "address": {"city": "LYMAN", "state": "WA", "street": "8353 S MAIN ST", "postcode": "98263"}}},
{"geometry": {"type": "Point", "coordinates": [-122.0597885959, 48.5255851182]}, "type": "Feature", "properties": {"collection_times": [{"days": "Mon-Fri", "time": "4:00pm"}, {"days": "Sat", "time": "9:15am"}, {"days": "Sun", "time": "Closed"}], "id": "9826300001", "name": "USPS COLLECTION BOX - PO LOBBY", "address": {"city": "LYMAN", "state": "WA", "street": "8353 S MAIN ST", "postcode": "98263"}}},
{"geometry": {"type": "Point", "coordinates": [-122.4570788267, 48.9416054968]}, "type": "Feature", "properties": {"collection_times": [{"days": "Mon-Fri", "time": "4:30pm"}, {"days": "Sat", "time": "3:00pm"}, {"days": "Sun", "time": "Closed"}], "id": "9826400010", "name": "USPS COLLECTION BOX - BLUE BOX", "address": {"city": "LYNDEN", "state": "WA", "street": "600 FRONT ST", "postcode": "98264"}}},
{"geometry": {"type": "Point", "coordinates": [-122.4587672182, 48.9432883667]}, "type": "Feature", "properties": {"collection_times": [{"days": "Mon-Sat", "time": "12:00pm"}, {"days": "Sun", "time": "Closed"}], "id": "9826400015", "name": "USPS COLLECTION BOX - BLUE BOX", "address": {"city": "LYNDEN", "state": "WA", "street": "1970 KOK RD", "postcode": "98264"}}},
{"geometry": {"type": "Point", "coordinates": [-122.4570788267, 48.9416054968]}, "type": "Feature", "properties": {"collection_times": [{"days": "Mon-Fri", "time": "4:30pm"}, {"days": "Sat", "time": "3:00pm"}, {"days": "Sun", "time": "Closed"}], "id": "9826400017", "name": "USPS COLLECTION BOX - PO LOBBY", "address": {"city": "LYNDEN", "state": "WA", "street": "600 FRONT ST", "postcode": "98264"}}},
{"geometry": {"type": "Point", "coordinates": [-122.0726611764, 48.9592505456]}, "type": "Feature", "properties": {"collection_times": [{"days": "Mon-Fri", "time": "3:00pm"}, {"days": "Sat", "time": "11:30am"}, {"days": "Sun", "time": "Closed"}], "id": "9826600000", "name": "USPS COLLECTION BOX - BLUE BOX", "address": {"city": "MAPLE FALLS", "state": "WA", "street": "7392 MOUNT BAKER HWY", "postcode": "98266"}}},
{"geometry": {"type": "Point", "coordinates": [-122.0726611764, 48.9592505456]}, "type": "Feature", "properties": {"collection_times": [{"days": "Mon-Fri", "time": "3:00pm"}, {"days": "Sat", "time": "11:30am"}, {"days": "Sun", "time": "Closed"}], "id": "9826600001", "name": "USPS COLLECTION BOX - PO LOBBY", "address": {"city": "MAPLE FALLS", "state": "WA", "street": "7392 MOUNT BAKER HWY", "postcode": "98266"}}},
{"geometry": {"type": "Point", "coordinates": [-121.4252968456, 48.5415410682]}, "type": "Feature", "properties": {"collection_times": [{"days": "Mon-Fri", "time": "1:00pm"}, {"days": "Sat", "time": "9:30am"}, {"days": "Sun", "time": "Closed"}], "id": "9826700000", "name": "USPS COLLECTION BOX - BLUE BOX", "address": {"city": "MARBLEMOUNT", "state": "WA", "street": "60096 STATE ROUTE 20", "postcode": "98267"}}},
{"geometry": {"type": "Point", "coordinates": [-121.4252968456, 48.5415410682]}, "type": "Feature", "properties": {"collection_times": [{"days": "Mon-Fri", "time": "11:45am"}, {"days": "Sat", "time": "9:30am"}, {"days": "Sun", "time": "Closed"}], "id": "9826700001", "name": "USPS COLLECTION BOX - PO LOBBY", "address": {"city": "MARBLEMOUNT", "state": "WA", "street": "60096 STATE ROUTE 20", "postcode": "98267"}}},
{"geometry": {"type": "Point", "coordinates": [-121.4252968456, 48.5415410682]}, "type": "Feature", "properties": {"collection_times": [{"days": "Mon-Fri", "time": "11:45am"}, {"days": "Sat", "time": "9:30am"}, {"days": "Sun", "time": "Closed"}], "id": "9826700002", "name": "USPS COLLECTION BOX - PO LOBBY", "address": {"city": "MARBLEMOUNT", "state": "WA", "street": "60096 STATE ROUTE 20", "postcode": "98267"}}},
{"geometry": {"type": "Point", "coordinates": [-122.1731081423, 48.0616166814]}, "type": "Feature", "properties": {"collection_times": [{"days": "Mon-Sat", "time": "1:00pm"}, {"days": "Sun", "time": "Closed"}], "id": "9827000002", "name": "USPS COLLECTION BOX - BLUE BOX", "address": {"city": "MARYSVILLE", "state": "WA", "street": "7226 43RD AVE NE", "postcode": "98270"}}},
{"geometry": {"type": "Point", "coordinates": [-122.176795175, 48.063381192]}, "type": "Feature", "properties": {"collection_times": [{"days": "Mon-Sat", "time": "1:00pm"}, {"days": "Sun", "time": "Closed"}], "id": "9827000003", "name": "USPS COLLECTION BOX - BLUE BOX", "address": {"city": "MARYSVILLE", "state": "WA", "street": "1258 STATE AVE", "postcode": "98270"}}},
{"geometry": {"type": "Point", "coordinates": [-122.1721795256, 48.0850083204]}, "type": "Feature", "properties": {"collection_times": [{"days": "Mon-Sat", "time": "1:00pm"}, {"days": "Sun", "time": "Closed"}], "id": "9827000007", "name": "USPS COLLECTION BOX - BLUE BOX", "address": {"city": "MARYSVILLE", "state": "WA", "street": "9925 STATE AVE", "postcode": "98270"}}},
{"geometry": {"type": "Point", "coordinates": [-122.1495512197, 48.0587839996]}, "type": "Feature", "properties": {"collection_times": [{"days": "Mon-Sat", "time": "1:00pm"}, {"days": "Sun", "time": "Closed"}], "id": "9827000012", "name": "USPS COLLECTION BOX - BLUE BOX", "address": {"city": "MARYSVILLE", "state": "WA", "street": "115 MARYSVILLE MALL", "postcode": "98270"}}},
{"geometry": {"type": "Point", "coordinates": [-122.1750852, 48.0563675391]}, "type": "Feature", "properties": {"collection_times": [{"days": "Mon-Fri", "time": "5:00pm"}, {"days": "Sat", "time": "3:00pm"}, {"days": "Sun", "time": "Closed"}], "id": "9827000016", "name": "USPS COLLECTION BOX - BLUE BOX", "address": {"city": "MARYSVILLE", "state": "WA", "street": "900 COLUMBIA AVE", "postcode": "98270"}}},
{"geometry": {"type": "Point", "coordinates": [-122.1769372678, 48.0574952871]}, "type": "Feature", "properties": {"collection_times": [{"days": "Mon-Fri", "time": "5:00pm"}, {"days": "Sat", "time": "3:00pm"}, {"days": "Sun", "time": "Closed"}], "id": "9827000017", "name": "USPS COLLECTION BOX - PO LOBBY", "address": {"city": "MARYSVILLE", "state": "WA", "street": "1010 STATE AVE", "postcode": "98270"}}},
{"geometry": {"type": "Point", "coordinates": [-122.1770102682, 48.0585257017]}, "type": "Feature", "properties": {"collection_times": [{"days": "Mon-Fri", "time": "1:00pm"}, {"days": "Sat", "time": "11:30am"}, {"days": "Sun", "time": "Closed"}], "id": "9827000021", "name": "USPS COLLECTION BOX - BLUE BOX", "address": {"city": "MARYSVILLE", "state": "WA", "street": "1049 STATE AVE", "postcode": "98270"}}},
{"geometry": {"type": "Point", "coordinates": [-122.1418613515, 48.0542386011]}, "type": "Feature", "properties": {"collection_times": [{"days": "Mon-Sat", "time": "1:00pm"}, {"days": "Sun", "time": "Closed"}], "id": "9827000022", "name": "USPS COLLECTION BOX - BLUE BOX", "address": {"city": "MARYSVILLE", "state": "WA", "street": "6610 64TH ST NE", "postcode": "98270"}}},
{"geometry": {"type": "Point", "coordinates": [-122.1769372678, 48.0574952871]}, "type": "Feature", "properties": {"collection_times": [{"days": "Mon-Fri", "time": "5:00pm"}, {"days": "Sat", "time": "3:00pm"}, {"days": "Sun", "time": "Closed"}], "id": "9827000025", "name": "USPS COLLECTION BOX - APC", "address": {"city": "MARYSVILLE", "state": "WA", "street": "1010 STATE AVE", "postcode": "98270"}}},
{"geometry": {"type": "Point", "coordinates": [-121.9722143893, 47.8560563027]}, "type": "Feature", "properties": {"collection_times": [{"days": "Mon-Fri", "time": "5:00pm"}, {"days": "Sat", "time": "3:00pm"}, {"days": "Sun", "time": "Closed"}], "id": "9827200000", "name": "USPS COLLECTION BOX - BLUE BOX", "address": {"city": "MONROE", "state": "WA", "street": "122 N BLAKELEY ST", "postcode": "98272"}}},
{"geometry": {"type": "Point", "coordinates": [-121.9695148769, 47.8590787629]}, "type": "Feature", "properties": {"collection_times": [{"days": "Mon-Fri", "time": "2:00pm"}, {"days": "Sat", "time": "12:30pm"}, {"days": "Sun", "time": "Closed"}], "id": "9827200004", "name": "USPS COLLECTION BOX - BLUE BOX", "address": {"city": "MONROE", "state": "WA", "street": "19501 STATE ROUTE 2", "postcode": "98272"}}},
{"geometry": {"type": "Point", "coordinates": [-121.9639828847, 47.8578953911]}, "type": "Feature", "properties": {"collection_times": [{"days": "Mon-Fri", "time": "2:00pm"}, {"days": "Sat", "time": "12:30pm"}, {"days": "Sun", "time": "Closed"}], "id": "9827200006", "name": "USPS COLLECTION BOX - BLUE BOX", "address": {"city": "MONROE", "state": "WA", "street": "19923 STATE ROUTE 2", "postcode": "98272"}}},
{"geometry": {"type": "Point", "coordinates": [-121.9906259626, 47.8638200624]}, "type": "Feature", "properties": {"collection_times": [{"days": "Mon-Fri", "time": "2:00pm"}, {"days": "Sat", "time": "12:30pm"}, {"days": "Sun", "time": "Closed"}], "id": "9827200009", "name": "USPS COLLECTION BOX - BLUE BOX", "address": {"city": "MONROE", "state": "WA", "street": "14701 179TH AVE SE", "postcode": "98272"}}},
{"geometry": {"type": "Point", "coordinates": [-121.977999366, 47.8609688915]}, "type": "Feature", "properties": {"collection_times": [{"days": "Mon-Fri", "time": "2:00pm"}, {"days": "Sat", "time": "12:30pm"}, {"days": "Sun", "time": "Closed"}], "id": "9827200010", "name": "USPS COLLECTION BOX - BLUE BOX", "address": {"city": "MONROE", "state": "WA", "street": "18802 STATE ROUTE 2", "postcode": "98272"}}},
{"geometry": {"type": "Point", "coordinates": [-121.9722143893, 47.8560563027]}, "type": "Feature", "properties": {"collection_times": [{"days": "Mon-Fri", "time": "5:00pm"}, {"days": "Sat", "time": "3:00pm"}, {"days": "Sun", "time": "Closed"}], "id": "9827200012", "name": "USPS COLLECTION BOX - PO LOBBY", "address": {"city": "MONROE", "state": "WA", "street": "122 N BLAKELEY ST", "postcode": "98272"}}},
{"geometry": {"type": "Point", "coordinates": [-121.9722143893, 47.8560563027]}, "type": "Feature", "properties": {"collection_times": [{"days": "Mon-Fri", "time": "5:00pm"}, {"days": "Sat", "time": "3:00pm"}, {"days": "Sun", "time": "Closed"}], "id": "9827200013", "name": "USPS COLLECTION BOX - PO LOBBY", "address": {"city": "MONROE", "state": "WA", "street": "122 N BLAKELEY ST", "postcode": "98272"}}},
{"geometry": {"type": "Point", "coordinates": [-122.3369959794, 48.4213746163]}, "type": "Feature", "properties": {"collection_times": [{"days": "Mon-Fri", "time": "2:05pm"}, {"days": "Sat", "time": "1:05pm"}, {"days": "Sun", "time": "Closed"}], "id": "9827300000", "name": "USPS COLLECTION BOX - BLUE BOX", "address": {"city": "MOUNT VERNON", "state": "WA", "street": "110 N 1ST ST STE A", "postcode": "98273"}}},
{"geometry": {"type": "Point", "coordinates": [-122.343395438, 48.4217241496]}, "type": "Feature", "properties": {"collection_times": [{"days": "Mon-Fri", "time": "2:10pm"}, {"days": "Sat", "time": "1:10pm"}, {"days": "Sun", "time": "Closed"}], "id": "9827300001", "name": "USPS COLLECTION BOX - BLUE BOX", "address": {"city": "MOUNT VERNON", "state": "WA", "street": "104 N BAKER ST", "postcode": "98273"}}},
{"geometry": {"type": "Point", "coordinates": [-122.3365655191, 48.4359085975]}, "type": "Feature", "properties": {"collection_times": [{"days": "Mon-Fri", "time": "2:15pm"}, {"days": "Sat", "time": "1:15pm"}, {"days": "Sun", "time": "Closed"}], "id": "9827300003", "name": "USPS COLLECTION BOX - BLUE BOX", "address": {"city": "MOUNT VERNON", "state": "WA", "street": "315 E COLLEGE WAY", "postcode": "98273"}}},
{"geometry": {"type": "Point", "coordinates": [-122.3384320945, 48.4358222862]}, "type": "Feature", "properties": {"collection_times": [{"days": "Mon-Fri", "time": "2:20pm"}, {"days": "Sat", "time": "1:20pm"}, {"days": "Sun", "time": "Closed"}], "id": "9827300004", "name": "USPS COLLECTION BOX - BLUE BOX", "address": {"city": "MOUNT VERNON", "state": "WA", "street": "202 E COLLEGE WAY", "postcode": "98273"}}},
{"geometry": {"type": "Point", "coordinates": [-122.3655119624, 48.4045092999]}, "type": "Feature", "properties": {"collection_times": [{"days": "Mon-Fri", "time": "2:25pm"}, {"days": "Sat", "time": "1:25pm"}, {"days": "Sun", "time": "Closed"}], "id": "9827300007", "name": "USPS COLLECTION BOX - BLUE BOX", "address": {"city": "MOUNT VERNON", "state": "WA", "street": "1700 PARKER WAY", "postcode": "98273"}}},
{"geometry": {"type": "Point", "coordinates": [-122.3386074121, 48.4203515846]}, "type": "Feature", "properties": {"collection_times": [{"days": "Mon-Fri", "time": "2:00pm"}, {"days": "Sat", "time": "1:00pm"}, {"days": "Sun", "time": "Closed"}], "id": "9827300017", "name": "USPS COLLECTION BOX - BLUE BOX", "address": {"city": "MOUNT VERNON", "state": "WA", "street": "401 S 1ST ST", "postcode": "98273"}}},
{"geometry": {"type": "Point", "coordinates": [-122.3360797122, 48.4203584452]}, "type": "Feature", "properties": {"collection_times": [{"days": "Mon-Fri", "time": "2:00pm"}, {"days": "Sat", "time": "1:00pm"}, {"days": "Sun", "time": "Closed"}], "id": "9827300018", "name": "USPS COLLECTION BOX - BLUE BOX", "address": {"city": "MOUNT VERNON", "state": "WA", "street": "316 S 2ND ST", "postcode": "98273"}}},
{"geometry": {"type": "Point", "coordinates": [-122.3390810246, 48.4137424034]}, "type": "Feature", "properties": {"collection_times": [{"days": "Mon-Fri", "time": "5:00pm"}, {"days": "Sat", "time": "3:00pm"}, {"days": "Sun", "time": "Closed"}], "id": "9827300022", "name": "USPS COLLECTION BOX - BLUE BOX", "address": {"city": "MOUNT VERNON", "state": "WA", "street": "1207 CLEVELAND AVE", "postcode": "98273"}}},
{"geometry": {"type": "Point", "coordinates": [-122.3333129206, 48.4358853262]}, "type": "Feature", "properties": {"collection_times": [{"days": "Mon-Fri", "time": "1:30pm"}, {"days": "Sat", "time": "1:00pm"}, {"days": "Sun", "time": "Closed"}], "id": "9827300026", "name": "USPS COLLECTION BOX - BLUE BOX", "address": {"city": "MOUNT VERNON", "state": "WA", "street": "525 E COLLEGE WAY", "postcode": "98273"}}},
{"geometry": {"type": "Point", "coordinates": [-122.337334989, 48.4185230256]}, "type": "Feature", "properties": {"collection_times": [{"days": "Mon-Fri", "time": "1:40pm"}, {"days": "Sat", "time": "1:10pm"}, {"days": "Sun", "time": "Closed"}], "id": "9827300028", "name": "USPS COLLECTION BOX - BLUE BOX", "address": {"city": "MOUNT VERNON", "state": "WA", "street": "605 S 2ND ST", "postcode": "98273"}}},
{"geometry": {"type": "Point", "coordinates": [-122.3390810246, 48.4137424034]}, "type": "Feature", "properties": {"collection_times": [{"days": "Mon-Fri", "time": "5:00pm"}, {"days": "Sat", "time": "3:00pm"}, {"days": "Sun", "time": "Closed"}], "id": "9827300029", "name": "USPS COLLECTION BOX - PO LOBBY", "address": {"city": "MOUNT VERNON", "state": "WA", "street": "1207 CLEVELAND AVE", "postcode": "98273"}}},
{"geometry": {"type": "Point", "coordinates": [-122.3518110993, 48.4224241472]}, "type": "Feature", "properties": {"collection_times": [{"days": "Mon-Fri", "time": "2:05pm"}, {"days": "Sat", "time": "1:05pm"}, {"days": "Sun", "time": "Closed"}], "id": "9827300031", "name": "USPS COLLECTION BOX - BLUE BOX", "address": {"city": "MOUNT VERNON", "state": "WA", "street": "1301 MEMORIAL HWY", "postcode": "98273"}}},
{"geometry": {"type": "Point", "coordinates": [-122.3380888986, 48.432667247]}, "type": "Feature", "properties": {"collection_times": [{"days": "Mon-Fri", "time": "2:10pm"}, {"days": "Sat", "time": "1:10pm"}, {"days": "Sun", "time": "Closed"}], "id": "9827300032", "name": "USPS COLLECTION BOX - BLUE BOX", "address": {"city": "MOUNT VERNON", "state": "WA", "street": "301 VALLEY MALL WAY", "postcode": "98273"}}},
{"geometry": {"type": "Point", "coordinates": [-122.3104390183, 48.4356263232]}, "type": "Feature", "properties": {"collection_times": [{"days": "Mon-Fri", "time": "2:15pm"}, {"days": "Sat", "time": "1:15pm"}, {"days": "Sun", "time": "Closed"}], "id": "9827300033", "name": "USPS COLLECTION BOX - BLUE BOX", "address": {"city": "MOUNT VERNON", "state": "WA", "street": "2405 E COLLEGE WAY", "postcode": "98273"}}},
{"geometry": {"type": "Point", "coordinates": [-122.3286439581, 48.4357119099]}, "type": "Feature", "properties": {"collection_times": [{"days": "Mon-Fri", "time": "2:20pm"}, {"days": "Sat", "time": "1:20pm"}, {"days": "Sun", "time": "Closed"}], "id": "9827300034", "name": "USPS COLLECTION BOX - BLUE BOX", "address": {"city": "MOUNT VERNON", "state": "WA", "street": "900 E COLLEGE WAY", "postcode": "98273"}}},
{"geometry": {"type": "Point", "coordinates": [-122.3350858801, 48.4400264168]}, "type": "Feature", "properties": {"collection_times": [{"days": "Mon-Fri", "time": "2:00pm"}, {"days": "Sat", "time": "1:00pm"}, {"days": "Sun", "time": "Closed"}], "id": "9827300035", "name": "USPS COLLECTION BOX - BLUE BOX", "address": {"city": "MOUNT VERNON", "state": "WA", "street": "2204 RIVERSIDE DR", "postcode": "98273"}}},
{"geometry": {"type": "Point", "coordinates": [-122.3375753369, 48.4178804929]}, "type": "Feature", "properties": {"collection_times": [{"days": "Mon-Fri", "time": "2:10pm"}, {"days": "Sat", "time": "1:10pm"}, {"days": "Sun", "time": "Closed"}], "id": "9827300039", "name": "USPS COLLECTION BOX - BLUE BOX", "address": {"city": "MOUNT VERNON", "state": "WA", "street": "700 S 2ND ST", "postcode": "98273"}}},
{"geometry": {"type": "Point", "coordinates": [-122.3390810246, 48.4137424034]}, "type": "Feature", "properties": {"collection_times": [{"days": "Mon-Fri", "time": "5:00pm"}, {"days": "Sat", "time": "3:00pm"}, {"days": "Sun", "time": "Closed"}], "id": "9827300041", "name": "USPS COLLECTION BOX - APC", "address": {"city": "MOUNT VERNON", "state": "WA", "street": "1207 CLEVELAND AVE", "postcode": "98273"}}},
{"geometry": {"type": "Point", "coordinates": [-122.3251131921, 48.4210049012]}, "type": "Feature", "properties": {"collection_times": [{"days": "Mon-Fri", "time": "1:00pm"}, {"days": "Sat", "time": "1:30pm"}, {"days": "Sun", "time": "Closed"}], "id": "9827400000", "name": "USPS COLLECTION BOX - BLUE BOX", "address": {"city": "MOUNT VERNON", "state": "WA", "street": "1310 E DIVISION ST", "postcode": "98274"}}},
{"geometry": {"type": "Point", "coordinates": [-122.3239202459, 48.417468774]}, "type": "Feature", "properties": {"collection_times": [{"days": "Mon-Sat", "time": "1:00pm"}, {"days": "Sun", "time": "Closed"}], "id": "9827400002", "name": "USPS COLLECTION BOX - BLUE BOX", "address": {"city": "MOUNT VERNON", "state": "WA", "street": "1415 E KINCAID ST", "postcode": "98274"}}},
{"geometry": {"type": "Point", "coordinates": [-122.3077861866, 48.4210083048]}, "type": "Feature", "properties": {"collection_times": [{"days": "Mon-Sat", "time": "1:00pm"}, {"days": "Sun", "time": "Closed"}], "id": "9827400003", "name": "USPS COLLECTION BOX - BLUE BOX", "address": {"city": "MOUNT VERNON", "state": "WA", "street": "2601 E DIVISION ST", "postcode": "98274"}}},
{"geometry": {"type": "Point", "coordinates": [-122.3139685972, 48.4137137291]}, "type": "Feature", "properties": {"collection_times": [{"days": "Mon-Sat", "time": "1:00pm"}, {"days": "Sun", "time": "Closed"}], "id": "9827400004", "name": "USPS COLLECTION BOX - BLUE BOX", "address": {"city": "MOUNT VERNON", "state": "WA", "street": "2323 E SECTION ST", "postcode": "98274"}}},
{"geometry": {"type": "Point", "coordinates": [-122.2932197681, 47.9227089427]}, "type": "Feature", "properties": {"collection_times": [{"days": "Mon-Fri", "time": "11:15am"}, {"days": "Sat-Sun", "time": "Closed"}], "id": "9827500000", "name": "USPS COLLECTION BOX - BLUE BOX", "address": {"city": "MUKILTEO", "state": "WA", "street": "8227 44TH AVE W", "postcode": "98275"}}},
{"geometry": {"type": "Point", "coordinates": [-122.3000821917, 47.9229185944]}, "type": "Feature", "properties": {"collection_times": [{"days": "Mon-Fri", "time": "11:15am"}, {"days": "Sat-Sun", "time": "Closed"}], "id": "9827500002", "name": "USPS COLLECTION BOX - BLUE BOX", "address": {"city": "MUKILTEO", "state": "WA", "street": "8309 MUKILTEO SPEEDWAY", "postcode": "98275"}}},
{"geometry": {"type": "Point", "coordinates": [-122.300316943, 47.9249880317]}, "type": "Feature", "properties": {"collection_times": [{"days": "Mon-Fri", "time": "5:00pm"}, {"days": "Sat", "time": "2:15pm"}, {"days": "Sun", "time": "Closed"}], "id": "9827500005", "name": "USPS COLLECTION BOX - BLUE BOX", "address": {"city": "MUKILTEO", "state": "WA", "street": "8050 MUKILTEO SPEEDWAY", "postcode": "98275"}}},
{"geometry": {"type": "Point", "coordinates": [-122.3034192403, 47.9457778254]}, "type": "Feature", "properties": {"collection_times": [{"days": "Mon-Sat", "time": "11:30am"}, {"days": "Sun", "time": "Closed"}], "id": "9827500011", "name": "USPS COLLECTION BOX - BLUE BOX", "address": {"city": "MUKILTEO", "state": "WA", "street": "315 LINCOLN AVE", "postcode": "98275"}}},
{"geometry": {"type": "Point", "coordinates": [-122.3093394512, 47.8869563256]}, "type": "Feature", "properties": {"collection_times": [{"days": "Mon-Sat", "time": "11:45am"}, {"days": "Sun", "time": "Closed"}], "id": "9827500012", "name": "USPS COLLECTION BOX - BLUE BOX", "address": {"city": "MUKILTEO", "state": "WA", "street": "12303 HARBOUR POINTE BLVD", "postcode": "98275"}}},
{"geometry": {"type": "Point", "coordinates": [-122.2865839482, 47.8919715875]}, "type": "Feature", "properties": {"collection_times": [{"days": "Mon-Fri", "time": "11:00am"}, {"days": "Sat", "time": "2:00pm"}, {"days": "Sun", "time": "Closed"}], "id": "9827500013", "name": "USPS COLLECTION BOX - BLUE BOX", "address": {"city": "MUKILTEO", "state": "WA", "street": "11700 MUKILTEO SPEEDWAY", "postcode": "98275"}}},
{"geometry": {"type": "Point", "coordinates": [-122.300316943, 47.9249880317]}, "type": "Feature", "properties": {"collection_times": [{"days": "Mon-Fri", "time": "5:00pm"}, {"days": "Sat-Sun", "time": "Closed"}], "id": "9827500015", "name": "USPS COLLECTION BOX - PO LOBBY", "address": {"city": "MUKILTEO", "state": "WA", "street": "8050 MUKILTEO SPEEDWAY", "postcode": "98275"}}},
{"geometry": {"type": "Point", "coordinates": [-122.2938626212, 47.8974035402]}, "type": "Feature", "properties": {"collection_times": [{"days": "Mon-Fri", "time": "11:30am"}, {"days": "Sat-Sun", "time": "Closed"}], "id": "9827500017", "name": "USPS COLLECTION BOX - BLUE BOX", "address": {"city": "MUKILTEO", "state": "WA", "street": "4480 CHENNAULT BEACH RD", "postcode": "98275"}}},
{"geometry": {"type": "Point", "coordinates": [-122.300316943, 47.9249880317]}, "type": "Feature", "properties": {"collection_times": [{"days": "Mon-Fri", "time": "5:00pm"}, {"days": "Sat", "time": "2:15pm"}, {"days": "Sun", "time": "Closed"}], "id": "9827500018", "name": "USPS COLLECTION BOX - APC", "address": {"city": "MUKILTEO", "state": "WA", "street": "8050 MUKILTEO SPEEDWAY", "postcode": "98275"}}},
{"geometry": {"type": "Point", "coordinates": [-122.300316943, 47.9249880317]}, "type": "Feature", "properties": {"collection_times": [{"days": "Mon-Fri", "time": "5:00pm"}, {"days": "Sat", "time": "2:15pm"}, {"days": "Sun", "time": "Closed"}], "id": "9827500020", "name": "USPS COLLECTION BOX - APC", "address": {"city": "MUKILTEO", "state": "WA", "street": "8050 MUKILTEO SPEEDWAY", "postcode": "98275"}}},
{"geometry": {"type": "Point", "coordinates": [-122.321851239, 48.928240492]}, "type": "Feature", "properties": {"collection_times": [{"days": "Mon-Sat", "time": "12:00pm"}, {"days": "Sun", "time": "Closed"}], "id": "9827600000", "name": "USPS COLLECTION BOX - BLUE BOX", "address": {"city": "NOOKSACK", "state": "WA", "street": "104 W MADISON ST", "postcode": "98276"}}},
{"geometry": {"type": "Point", "coordinates": [-122.653341811, 48.297997558]}, "type": "Feature", "properties": {"collection_times": [{"days": "Mon-Sat", "time": "1:15pm"}, {"days": "Sun", "time": "Closed"}], "id": "9827700000", "name": "USPS COLLECTION BOX - BLUE BOX", "address": {"city": "OAK HARBOR", "state": "WA", "street": "32199 SR 20", "postcode": "98277"}}},
{"geometry": {"type": "Point", "coordinates": [-122.6579340272, 48.289833573]}, "type": "Feature", "properties": {"collection_times": [{"days": "Mon-Sat", "time": "1:20pm"}, {"days": "Sun", "time": "Closed"}], "id": "9827700001", "name": "USPS COLLECTION BOX - BLUE BOX", "address": {"city": "OAK HARBOR", "state": "WA", "street": "31565 SR 20", "postcode": "98277"}}},
{"geometry": {"type": "Point", "coordinates": [-122.6533221307, 48.2878594291]}, "type": "Feature", "properties": {"collection_times": [{"days": "Mon-Sat", "time": "1:30pm"}, {"days": "Sun", "time": "Closed"}], "id": "9827700003", "name": "USPS COLLECTION BOX - BLUE BOX", "address": {"city": "OAK HARBOR", "state": "WA", "street": "361 SE PIONEER WAY", "postcode": "98277"}}},
{"geometry": {"type": "Point", "coordinates": [-122.6433142242, 48.3026286152]}, "type": "Feature", "properties": {"collection_times": [{"days": "Mon-Fri", "time": "2:05pm"}, {"days": "Sat", "time": "1:05pm"}, {"days": "Sun", "time": "Closed"}], "id": "9827700008", "name": "USPS COLLECTION BOX - BLUE BOX", "address": {"city": "OAK HARBOR", "state": "WA", "street": "551 NE MIDWAY BLVD", "postcode": "98277"}}},
{"geometry": {"type": "Point", "coordinates": [-122.6468997109, 48.2906490641]}, "type": "Feature", "properties": {"collection_times": [{"days": "Mon-Fri", "time": "2:00pm"}, {"days": "Sat", "time": "1:00pm"}, {"days": "Sun", "time": "Closed"}], "id": "9827700010", "name": "USPS COLLECTION BOX - BLUE BOX", "address": {"city": "OAK HARBOR", "state": "WA", "street": "865 SE BARRINGTON DR", "postcode": "98277"}}},
{"geometry": {"type": "Point", "coordinates": [-122.6309302314, 48.3165726531]}, "type": "Feature", "properties": {"collection_times": [{"days": "Mon-Fri", "time": "2:15pm"}, {"days": "Sat", "time": "1:35pm"}, {"days": "Sun", "time": "Closed"}], "id": "9827700013", "name": "USPS COLLECTION BOX - BLUE BOX", "address": {"city": "OAK HARBOR", "state": "WA", "street": "17 NAVY SEAPLANE BASE", "postcode": "98277"}}},
{"geometry": {"type": "Point", "coordinates": [-122.6531334047, 48.288790007]}, "type": "Feature", "properties": {"collection_times": [{"days": "Mon-Fri", "time": "4:30pm"}, {"days": "Sat", "time": "2:00pm"}, {"days": "Sun", "time": "Closed"}], "id": "9827700015", "name": "USPS COLLECTION BOX - PO LOBBY", "address": {"city": "OAK HARBOR", "state": "WA", "street": "1155 SE CITY BEACH ST", "postcode": "98277"}}},
{"geometry": {"type": "Point", "coordinates": [-122.6531334047, 48.288790007]}, "type": "Feature", "properties": {"collection_times": [{"days": "Mon-Fri", "time": "4:30pm"}, {"days": "Sat", "time": "2:00pm"}, {"days": "Sun", "time": "Closed"}], "id": "9827700017", "name": "USPS COLLECTION BOX - BLUE BOX", "address": {"city": "OAK HARBOR", "state": "WA", "street": "1155 SE CITY BEACH ST", "postcode": "98277"}}},
{"geometry": {"type": "Point", "coordinates": [-122.6628795542, 48.2886796041]}, "type": "Feature", "properties": {"collection_times": [{"days": "Mon-Sat", "time": "1:25pm"}, {"days": "Sun", "time": "Closed"}], "id": "9827700019", "name": "USPS COLLECTION BOX - BLUE BOX", "address": {"city": "OAK HARBOR", "state": "WA", "street": "1250 SW ERIE ST", "postcode": "98277"}}},
{"geometry": {"type": "Point", "coordinates": [-122.6535588057, 48.2953917884]}, "type": "Feature", "properties": {"collection_times": [{"days": "Mon-Fri", "time": "2:20pm"}, {"days": "Sat", "time": "1:10pm"}, {"days": "Sun", "time": "Closed"}], "id": "9827700020", "name": "USPS COLLECTION BOX - BLUE BOX", "address": {"city": "OAK HARBOR", "state": "WA", "street": "275 SE CABOT DR STE A1", "postcode": "98277"}}},
{"geometry": {"type": "Point", "coordinates": [-122.6531334047, 48.288790007]}, "type": "Feature", "properties": {"collection_times": [{"days": "Mon-Sat", "time": "4:30pm"}, {"days": "Sun", "time": "Closed"}], "id": "9827700021", "name": "USPS COLLECTION BOX - APC", "address": {"city": "OAK HARBOR", "state": "WA", "street": "1155 SE CITY BEACH ST", "postcode": "98277"}}},
{"geometry": {"type": "Point", "coordinates": [-122.675118077, 48.3404188536]}, "type": "Feature", "properties": {"collection_times": [{"days": "Mon-Fri", "time": "12:00pm"}, {"days": "Sat-Sun", "time": "Closed"}], "id": "9827800001", "name": "USPS COLLECTION BOX - BLUE BOX", "address": {"city": "OAK HARBOR", "state": "WA", "street": "BLD100 WHIDBY ISLAND NAS", "postcode": "98278"}}},
{"geometry": {"type": "Point", "coordinates": [-122.8356393878, 48.6217824728]}, "type": "Feature", "properties": {"collection_times": [{"days": "Mon-Fri", "time": "1:45pm"}, {"days": "Sat-Sun", "time": "Closed"}], "id": "9827900001", "name": "USPS COLLECTION BOX - PO LOBBY", "address": {"city": "OLGA", "state": "WA", "street": "7025 OLGA RD", "postcode": "98279"}}},
{"geometry": {"type": "Point", "coordinates": [-122.9444719095, 48.5978980311]}, "type": "Feature", "properties": {"collection_times": [{"days": "Mon-Fri", "time": "2:30pm"}, {"days": "Sat", "time": "9:00am"}, {"days": "Sun", "time": "Closed"}], "id": "9828000000", "name": "USPS COLLECTION BOX - BLUE BOX", "address": {"city": "ORCAS ISLAND", "state": "WA", "street": "121 KILLEBREW LAKE RD", "postcode": "98280"}}},
{"geometry": {"type": "Point", "coordinates": [-122.9444719095, 48.5978980311]}, "type": "Feature", "properties": {"collection_times": [{"days": "Mon-Fri", "time": "2:30pm"}, {"days": "Sat", "time": "9:00am"}, {"days": "Sun", "time": "Closed"}], "id": "9828000001", "name": "USPS COLLECTION BOX - PO LOBBY", "address": {"city": "ORCAS ISLAND", "state": "WA", "street": "121 KILLEBREW LAKE RD", "postcode": "98280"}}},
{"geometry": {"type": "Point", "coordinates": [-122.9444719095, 48.5978980311]}, "type": "Feature", "properties": {"collection_times": [{"days": "Mon-Fri", "time": "2:30pm"}, {"days": "Sat", "time": "9:00am"}, {"days": "Sun", "time": "Closed"}], "id": "9828000003", "name": "USPS COLLECTION BOX - PO LOBBY", "address": {"city": "ORCAS ISLAND", "state": "WA", "street": "121 KILLEBREW LAKE RD", "postcode": "98280"}}},
{"geometry": {"type": "Point", "coordinates": [-123.0686625627, 48.9847415658]}, "type": "Feature", "properties": {"collection_times": [{"days": "Mon-Fri", "time": "2:00pm"}, {"days": "Sat", "time": "1:15pm"}, {"days": "Sun", "time": "Closed"}], "id": "9828100001", "name": "USPS COLLECTION BOX - BLUE BOX", "address": {"city": "POINT ROBERTS", "state": "WA", "street": "1582 GULF RD", "postcode": "98281"}}},
{"geometry": {"type": "Point", "coordinates": [-123.0686625627, 48.9847415658]}, "type": "Feature", "properties": {"collection_times": [{"days": "Mon-Fri", "time": "2:00pm"}, {"days": "Sat", "time": "1:15pm"}, {"days": "Sun", "time": "Closed"}], "id": "9828100002", "name": "USPS COLLECTION BOX - PO LOBBY", "address": {"city": "POINT ROBERTS", "state": "WA", "street": "1582 GULF RD", "postcode": "98281"}}},
{"geometry": {"type": "Point", "coordinates": [-123.0686625627, 48.9847415658]}, "type": "Feature", "properties": {"collection_times": [{"days": "Mon-Fri", "time": "2:00pm"}, {"days": "Sat", "time": "1:15pm"}, {"days": "Sun", "time": "Closed"}], "id": "9828100003", "name": "USPS COLLECTION BOX - PO LOBBY", "address": {"city": "POINT ROBERTS", "state": "WA", "street": "1582 GULF RD", "postcode": "98281"}}},
{"geometry": {"type": "Point", "coordinates": [-122.4933158367, 48.1870567329]}, "type": "Feature", "properties": {"collection_times": [{"days": "Mon-Sat", "time": "10:00am"}, {"days": "Sun", "time": "Closed"}], "id": "9828200000", "name": "USPS COLLECTION BOX - BLUE BOX", "address": {"city": "STANWOOD", "state": "WA", "street": "370 N EAST CAMANO DR", "postcode": "98282"}}},
{"geometry": {"type": "Point", "coordinates": [-121.5965257698, 48.485108003]}, "type": "Feature", "properties": {"collection_times": [{"days": "Mon-Fri", "time": "3:15pm"}, {"days": "Sat", "time": "9:00am"}, {"days": "Sun", "time": "Closed"}], "id": "9828300000", "name": "USPS COLLECTION BOX - BLUE BOX", "address": {"city": "ROCKPORT", "state": "WA", "street": "52779 RAILROAD AVE", "postcode": "98283"}}},
{"geometry": {"type": "Point", "coordinates": [-121.5965257698, 48.485108003]}, "type": "Feature", "properties": {"collection_times": [{"days": "Mon-Fri", "time": "3:15pm"}, {"days": "Sat", "time": "9:00am"}, {"days": "Sun", "time": "Closed"}], "id": "9828300001", "name": "USPS COLLECTION BOX - PO LOBBY", "address": {"city": "ROCKPORT", "state": "WA", "street": "52779 RAILROAD AVE", "postcode": "98283"}}},
{"geometry": {"type": "Point", "coordinates": [-122.2486931445, 48.5062330232]}, "type": "Feature", "properties": {"collection_times": [{"days": "Mon-Sat", "time": "10:00am"}, {"days": "Sun", "time": "Closed"}], "id": "9828400002", "name": "USPS COLLECTION BOX - BLUE BOX", "address": {"city": "SEDRO WOOLLEY", "state": "WA", "street": "530 CROSSROADS SQ", "postcode": "98284"}}},
{"geometry": {"type": "Point", "coordinates": [-122.2402231414, 48.504462261]}, "type": "Feature", "properties": {"collection_times": [{"days": "Mon-Fri", "time": "5:00pm"}, {"days": "Sat", "time": "3:00pm"}, {"days": "Sun", "time": "Closed"}], "id": "9828400004", "name": "USPS COLLECTION BOX - BLUE BOX", "address": {"city": "SEDRO WOOLLEY", "state": "WA", "street": "111 WOODWORTH ST", "postcode": "98284"}}},
{"geometry": {"type": "Point", "coordinates": [-122.2402231414, 48.504462261]}, "type": "Feature", "properties": {"collection_times": [{"days": "Mon-Fri", "time": "5:00pm"}, {"days": "Sat", "time": "10:30am"}, {"days": "Sun", "time": "Closed"}], "id": "9828400009", "name": "USPS COLLECTION BOX - PO LOBBY", "address": {"city": "SEDRO WOOLLEY", "state": "WA", "street": "111 WOODWORTH ST", "postcode": "98284"}}},
{"geometry": {"type": "Point", "coordinates": [-122.3249443467, 48.6560384152]}, "type": "Feature", "properties": {"collection_times": [{"days": "Mon-Sat", "time": "10:00am"}, {"days": "Sun", "time": "Closed"}], "id": "9828400011", "name": "USPS COLLECTION BOX - BLUE BOX", "address": {"city": "SEDRO WOOLLEY", "state": "WA", "street": "3094 GLENHAVEN DR", "postcode": "98284"}}},
{"geometry": {"type": "Point", "coordinates": [-122.9286074241, 48.5837370668]}, "type": "Feature", "properties": {"collection_times": [{"days": "Mon-Fri", "time": "2:00pm"}, {"days": "Sat", "time": "8:30am"}, {"days": "Sun", "time": "Closed"}], "id": "9828600000", "name": "USPS COLLECTION BOX - BLUE BOX", "address": {"city": "SHAW ISLAND", "state": "WA", "street": "35 BLIND BAY RD", "postcode": "98286"}}},
{"geometry": {"type": "Point", "coordinates": [-122.9286074241, 48.5837370668]}, "type": "Feature", "properties": {"collection_times": [{"days": "Mon-Fri", "time": "2:15pm"}, {"days": "Sat", "time": "8:30am"}, {"days": "Sun", "time": "Closed"}], "id": "9828600001", "name": "USPS COLLECTION BOX - PO LOBBY", "address": {"city": "SHAW ISLAND", "state": "WA", "street": "35 BLIND BAY RD", "postcode": "98286"}}},
{"geometry": {"type": "Point", "coordinates": [-122.2521883464, 48.2004833441]}, "type": "Feature", "properties": {"collection_times": [{"days": "Mon-Fri", "time": "5:00pm"}, {"days": "Sat", "time": "10:45am"}, {"days": "Sun", "time": "Closed"}], "id": "9828700000", "name": "USPS COLLECTION BOX - BLUE BOX", "address": {"city": "SILVANA", "state": "WA", "street": "1501 PIONEER HWY", "postcode": "98287"}}},
{"geometry": {"type": "Point", "coordinates": [-122.2521883464, 48.2004833441]}, "type": "Feature", "properties": {"collection_times": [{"days": "Mon-Fri", "time": "5:00pm"}, {"days": "Sat", "time": "11:00am"}, {"days": "Sun", "time": "Closed"}], "id": "9828700001", "name": "USPS COLLECTION BOX - PO LOBBY", "address": {"city": "SILVANA", "state": "WA", "street": "1501 PIONEER HWY", "postcode": "98287"}}},
{"geometry": {"type": "Point", "coordinates": [-121.3490781021, 47.6374374171]}, "type": "Feature", "properties": {"collection_times": [{"days": "Mon-Fri", "time": "3:15pm"}, {"days": "Sat", "time": "9:30am"}, {"days": "Sun", "time": "Closed"}], "id": "9828800000", "name": "USPS COLLECTION BOX - BLUE BOX", "address": {"city": "SKYKOMISH", "state": "WA", "street": "108 THELMA ST", "postcode": "98288"}}},
{"geometry": {"type": "Point", "coordinates": [-121.3490781021, 47.6374374171]}, "type": "Feature", "properties": {"collection_times": [{"days": "Mon-Fri", "time": "3:15pm"}, {"days": "Sat", "time": "9:30am"}, {"days": "Sun", "time": "Closed"}], "id": "9828800001", "name": "USPS COLLECTION BOX - PO LOBBY", "address": {"city": "SKYKOMISH", "state": "WA", "street": "108 THELMA ST", "postcode": "98288"}}},
{"geometry": {"type": "Point", "coordinates": [-122.0962854914, 47.9113915742]}, "type": "Feature", "properties": {"collection_times": [{"days": "Mon-Fri", "time": "2:00pm"}, {"days": "Sat", "time": "1:30pm"}, {"days": "Sun", "time": "Closed"}], "id": "9829000000", "name": "USPS COLLECTION BOX - BLUE BOX", "address": {"city": "SNOHOMISH", "state": "WA", "street": "1102 1ST ST", "postcode": "98290"}}},
{"geometry": {"type": "Point", "coordinates": [-122.0860990318, 47.9134558376]}, "type": "Feature", "properties": {"collection_times": [{"days": "Mon-Fri", "time": "2:10pm"}, {"days": "Sat", "time": "1:10pm"}, {"days": "Sun", "time": "Closed"}], "id": "9829000001", "name": "USPS COLLECTION BOX - BLUE BOX", "address": {"city": "SNOHOMISH", "state": "WA", "street": "205 PINE AVE", "postcode": "98290"}}},
{"geometry": {"type": "Point", "coordinates": [-122.0932247599, 47.9116040521]}, "type": "Feature", "properties": {"collection_times": [{"days": "Mon-Fri", "time": "2:15pm"}, {"days": "Sat", "time": "1:15pm"}, {"days": "Sun", "time": "Closed"}], "id": "9829000003", "name": "USPS COLLECTION BOX - BLUE BOX", "address": {"city": "SNOHOMISH", "state": "WA", "street": "116 UNION AVE", "postcode": "98290"}}},
{"geometry": {"type": "Point", "coordinates": [-122.0889980877, 47.912936548]}, "type": "Feature", "properties": {"collection_times": [{"days": "Mon-Fri", "time": "2:20pm"}, {"days": "Sat", "time": "1:20pm"}, {"days": "Sun", "time": "Closed"}], "id": "9829000005", "name": "USPS COLLECTION BOX - BLUE BOX", "address": {"city": "SNOHOMISH", "state": "WA", "street": "210 MAPLE AVE", "postcode": "98290"}}},
{"geometry": {"type": "Point", "coordinates": [-122.0992499866, 47.9285965294]}, "type": "Feature", "properties": {"collection_times": [{"days": "Mon-Fri", "time": "2:25pm"}, {"days": "Sat", "time": "1:25pm"}, {"days": "Sun", "time": "Closed"}], "id": "9829000006", "name": "USPS COLLECTION BOX - BLUE BOX", "address": {"city": "SNOHOMISH", "state": "WA", "street": "1325 AVENUE D", "postcode": "98290"}}},
{"geometry": {"type": "Point", "coordinates": [-122.0984827988, 47.9276145862]}, "type": "Feature", "properties": {"collection_times": [{"days": "Mon-Fri", "time": "5:00pm"}, {"days": "Sat", "time": "2:30pm"}, {"days": "Sun", "time": "Closed"}], "id": "9829000008", "name": "USPS COLLECTION BOX - BLUE BOX", "address": {"city": "SNOHOMISH", "state": "WA", "street": "1323 AVENUE D", "postcode": "98290"}}},
{"geometry": {"type": "Point", "coordinates": [-122.0984827988, 47.9276145862]}, "type": "Feature", "properties": {"collection_times": [{"days": "Mon-Fri", "time": "5:00pm"}, {"days": "Sat", "time": "2:30pm"}, {"days": "Sun", "time": "Closed"}], "id": "9829000009", "name": "USPS COLLECTION BOX - PO LOBBY", "address": {"city": "SNOHOMISH", "state": "WA", "street": "1323 AVENUE D", "postcode": "98290"}}},
{"geometry": {"type": "Point", "coordinates": [-122.0953670298, 47.9270919007]}, "type": "Feature", "properties": {"collection_times": [{"days": "Mon-Fri", "time": "2:00pm"}, {"days": "Sat", "time": "1:30pm"}, {"days": "Sun", "time": "Closed"}], "id": "9829000014", "name": "USPS COLLECTION BOX - BLUE BOX", "address": {"city": "SNOHOMISH", "state": "WA", "street": "1115 13TH ST", "postcode": "98290"}}},
{"geometry": {"type": "Point", "coordinates": [-122.1034005654, 47.9341635981]}, "type": "Feature", "properties": {"collection_times": [{"days": "Mon-Fri", "time": "2:00pm"}, {"days": "Sat", "time": "10:30am"}, {"days": "Sun", "time": "Closed"}], "id": "9829000015", "name": "USPS COLLECTION BOX - BLUE BOX", "address": {"city": "SNOHOMISH", "state": "WA", "street": "1850 BICKFORD AVE", "postcode": "98290"}}},
{"geometry": {"type": "Point", "coordinates": [-122.0984827988, 47.9276145862]}, "type": "Feature", "properties": {"collection_times": [{"days": "Mon-Fri", "time": "5:00pm"}, {"days": "Sat", "time": "2:30pm"}, {"days": "Sun", "time": "Closed"}], "id": "9829000016", "name": "USPS COLLECTION BOX - APC", "address": {"city": "SNOHOMISH", "state": "WA", "street": "1323 AVENUE D", "postcode": "98290"}}},
{"geometry": {"type": "Point", "coordinates": [-122.0984827988, 47.9276145862]}, "type": "Feature", "properties": {"collection_times": [{"days": "Mon-Fri", "time": "5:00pm"}, {"days": "Sat", "time": "2:30pm"}, {"days": "Sun", "time": "Closed"}], "id": "9829000017", "name": "USPS COLLECTION BOX - APC", "address": {"city": "SNOHOMISH", "state": "WA", "street": "1323 AVENUE D", "postcode": "98290"}}},
{"geometry": {"type": "Point", "coordinates": [-122.3585285666, 48.2421646452]}, "type": "Feature", "properties": {"collection_times": [{"days": "Mon-Fri", "time": "4:30pm"}, {"days": "Sat", "time": "2:00pm"}, {"days": "Sun", "time": "Closed"}], "id": "9829200000", "name": "USPS COLLECTION BOX - BLUE BOX", "address": {"city": "STANWOOD", "state": "WA", "street": "9229 271ST ST NW", "postcode": "98292"}}},
{"geometry": {"type": "Point", "coordinates": [-122.3723338345, 48.2410253932]}, "type": "Feature", "properties": {"collection_times": [{"days": "Mon-Fri", "time": "2:00pm"}, {"days": "Sat", "time": "1:30pm"}, {"days": "Sun", "time": "Closed"}], "id": "9829200003", "name": "USPS COLLECTION BOX - BLUE BOX", "address": {"city": "STANWOOD", "state": "WA", "street": "10200 STATE ROUTE 532", "postcode": "98292"}}},
{"geometry": {"type": "Point", "coordinates": [-122.3699349729, 48.2416539919]}, "type": "Feature", "properties": {"collection_times": [{"days": "Mon-Fri", "time": "2:00pm"}, {"days": "Sat", "time": "1:30pm"}, {"days": "Sun", "time": "Closed"}], "id": "9829200004", "name": "USPS COLLECTION BOX - BLUE BOX", "address": {"city": "STANWOOD", "state": "WA", "street": "10121 270TH ST NW", "postcode": "98292"}}},
{"geometry": {"type": "Point", "coordinates": [-122.3301790675, 48.2379529288]}, "type": "Feature", "properties": {"collection_times": [{"days": "Mon-Sat", "time": "10:30am"}, {"days": "Sun", "time": "Closed"}], "id": "9829200005", "name": "USPS COLLECTION BOX - BLUE BOX", "address": {"city": "STANWOOD", "state": "WA", "street": "26603 72ND AVE NW", "postcode": "98292"}}},
{"geometry": {"type": "Point", "coordinates": [-122.3585285666, 48.2421646452]}, "type": "Feature", "properties": {"collection_times": [{"days": "Mon-Fri", "time": "4:30pm"}, {"days": "Sat", "time": "2:00pm"}, {"days": "Sun", "time": "Closed"}], "id": "9829200007", "name": "USPS COLLECTION BOX - PO LOBBY", "address": {"city": "STANWOOD", "state": "WA", "street": "9229 271ST ST NW", "postcode": "98292"}}},
{"geometry": {"type": "Point", "coordinates": [-121.7422939775, 47.8672486105]}, "type": "Feature", "properties": {"collection_times": [{"days": "Mon-Fri", "time": "4:15pm"}, {"days": "Sat", "time": "10:15am"}, {"days": "Sun", "time": "Closed"}], "id": "9829300000", "name": "USPS COLLECTION BOX - BLUE BOX", "address": {"city": "STARTUP", "state": "WA", "street": "36513 STATE ROUTE 2", "postcode": "98293"}}},
{"geometry": {"type": "Point", "coordinates": [-121.7422939775, 47.8672486105]}, "type": "Feature", "properties": {"collection_times": [{"days": "Mon-Fri", "time": "4:15pm"}, {"days": "Sat", "time": "10:15am"}, {"days": "Sun", "time": "Closed"}], "id": "9829300001", "name": "USPS COLLECTION BOX - PO LOBBY", "address": {"city": "STARTUP", "state": "WA", "street": "36513 STATE ROUTE 2", "postcode": "98293"}}},
{"geometry": {"type": "Point", "coordinates": [-121.8165121473, 47.8624537448]}, "type": "Feature", "properties": {"collection_times": [{"days": "Mon-Fri", "time": "4:30pm"}, {"days": "Sat", "time": "12:00pm"}, {"days": "Sun", "time": "Closed"}], "id": "9829400000", "name": "USPS COLLECTION BOX - BLUE BOX", "address": {"city": "SULTAN", "state": "WA", "street": "102 4TH ST", "postcode": "98294"}}},
{"geometry": {"type": "Point", "coordinates": [-121.8165121473, 47.8624537448]}, "type": "Feature", "properties": {"collection_times": [{"days": "Mon-Fri", "time": "4:30pm"}, {"days": "Sat", "time": "12:00pm"}, {"days": "Sun", "time": "Closed"}], "id": "9829400001", "name": "USPS COLLECTION BOX - PO LOBBY", "address": {"city": "SULTAN", "state": "WA", "street": "102 4TH ST", "postcode": "98294"}}},
{"geometry": {"type": "Point", "coordinates": [-122.2257138211, 48.9696492712]}, "type": "Feature", "properties": {"collection_times": [{"days": "Mon-Fri", "time": "3:45pm"}, {"days": "Sat", "time": "11:30am"}, {"days": "Sun", "time": "Closed"}], "id": "9829500001", "name": "USPS COLLECTION BOX - BLUE BOX", "address": {"city": "SUMAS", "state": "WA", "street": "534 RAILROAD AVE", "postcode": "98295"}}},
{"geometry": {"type": "Point", "coordinates": [-122.2257138211, 48.9696492712]}, "type": "Feature", "properties": {"collection_times": [{"days": "Mon-Fri", "time": "3:45pm"}, {"days": "Sat", "time": "11:30am"}, {"days": "Sun", "time": "Closed"}], "id": "9829500002", "name": "USPS COLLECTION BOX - PO LOBBY", "address": {"city": "SUMAS", "state": "WA", "street": "534 RAILROAD AVE", "postcode": "98295"}}},
{"geometry": {"type": "Point", "coordinates": [-122.2257138211, 48.9696492712]}, "type": "Feature", "properties": {"collection_times": [{"days": "Mon-Fri", "time": "3:45pm"}, {"days": "Sat", "time": "11:30am"}, {"days": "Sun", "time": "Closed"}], "id": "9829500003", "name": "USPS COLLECTION BOX - PO LOBBY", "address": {"city": "SUMAS", "state": "WA", "street": "534 RAILROAD AVE", "postcode": "98295"}}},
{"geometry": {"type": "Point", "coordinates": [-122.1238512542, 47.8378911836]}, "type": "Feature", "properties": {"collection_times": [{"days": "Mon-Sat", "time": "10:30am"}, {"days": "Sun", "time": "Closed"}], "id": "9829600000", "name": "USPS COLLECTION BOX - BLUE BOX", "address": {"city": "SNOHOMISH", "state": "WA", "street": "17520 STATE ROUTE 9 SE", "postcode": "98296"}}}
]}
