{"type": "FeatureCollection", "features": [
{"geometry": {"type": "Point", "coordinates": [-122.0327700587, 46.7583780325]}, "type": "Feature", "properties": {"collection_times": [{"days": "Mon-Fri", "time": "3:45pm"}, {"days": "Sat", "time": "10:15am"}, {"days": "Sun", "time": "Closed"}], "id": "9830400000", "name": "USPS COLLECTION BOX - BLUE BOX", "address": {"city": "ASHFORD", "state": "WA", "street": "30312 STATE ROUTE 706 E", "postcode": "98304"}}},
{"geometry": {"type": "Point", "coordinates": [-122.0327700587, 46.7583780325]}, "type": "Feature", "properties": {"collection_times": [{"days": "Mon-Fri", "time": "3:45pm"}, {"days": "Sat", "time": "10:15am"}, {"days": "Sun", "time": "Closed"}], "id": "9830400001", "name": "USPS COLLECTION BOX - PO LOBBY", "address": {"city": "ASHFORD", "state": "WA", "street": "30312 STATE ROUTE 706 E", "postcode": "98304"}}},
{"geometry": {"type": "Point", "coordinates": [-124.2588103075, 48.0687993873]}, "type": "Feature", "properties": {"collection_times": [{"days": "Mon-Fri", "time": "3:00pm"}, {"days": "Sat", "time": "11:00am"}, {"days": "Sun", "time": "Closed"}], "id": "9830500000", "name": "USPS COLLECTION BOX - BLUE BOX", "address": {"city": "BEAVER", "state": "WA", "street": "200341 HIGHWAY 101", "postcode": "98305"}}},
{"geometry": {"type": "Point", "coordinates": [-124.2588103075, 48.0687993873]}, "type": "Feature", "properties": {"collection_times": [{"days": "Mon-Fri", "time": "3:00pm"}, {"days": "Sat", "time": "11:00am"}, {"days": "Sun", "time": "Closed"}], "id": "9830500001", "name": "USPS COLLECTION BOX - PO LOBBY", "address": {"city": "BEAVER", "state": "WA", "street": "200341 HIGHWAY 101", "postcode": "98305"}}},
{"geometry": {"type": "Point", "coordinates": [-122.6290903928, 47.6033805377]}, "type": "Feature", "properties": {"collection_times": [{"days": "Mon-Sat", "time": "3:00pm"}, {"days": "Sun", "time": "Closed"}], "id": "9831000000", "name": "USPS COLLECTION BOX - BLUE BOX", "address": {"city": "BREMERTON", "state": "WA", "street": "4212 WHEATON WAY", "postcode": "98310"}}},
{"geometry": {"type": "Point", "coordinates": [-122.6260571025, 47.5828507468]}, "type": "Feature", "properties": {"collection_times": [{"days": "Mon-Sat", "time": "3:00pm"}, {"days": "Sun", "time": "Closed"}], "id": "9831000002", "name": "USPS COLLECTION BOX - BLUE BOX", "address": {"city": "BREMERTON", "state": "WA", "street": "2520 CHERRY AVE", "postcode": "98310"}}},
{"geometry": {"type": "Point", "coordinates": [-122.6136323436, 47.589901409]}, "type": "Feature", "properties": {"collection_times": [{"days": "Mon-Sat", "time": "3:00pm"}, {"days": "Sun", "time": "Closed"}], "id": "9831000004", "name": "USPS COLLECTION BOX - BLUE BOX", "address": {"city": "BREMERTON", "state": "WA", "street": "2901 PERRY AVE", "postcode": "98310"}}},
{"geometry": {"type": "Point", "coordinates": [-122.613444394, 47.593539964]}, "type": "Feature", "properties": {"collection_times": [{"days": "Mon-Sat", "time": "3:00pm"}, {"days": "Sun", "time": "Closed"}], "id": "9831000005", "name": "USPS COLLECTION BOX - BLUE BOX", "address": {"city": "BREMERTON", "state": "WA", "street": "3249 PERRY AVE", "postcode": "98310"}}},
{"geometry": {"type": "Point", "coordinates": [-122.6295188706, 47.5893990852]}, "type": "Feature", "properties": {"collection_times": [{"days": "Mon-Sat", "time": "3:00pm"}, {"days": "Sun", "time": "Closed"}], "id": "9831000008", "name": "USPS COLLECTION BOX - BLUE BOX", "address": {"city": "BREMERTON", "state": "WA", "street": "2900 WHEATON WAY", "postcode": "98310"}}},
{"geometry": {"type": "Point", "coordinates": [-122.6282596005, 47.5816695816]}, "type": "Feature", "properties": {"collection_times": [{"days": "Mon-Sat", "time": "3:00pm"}, {"days": "Sun", "time": "Closed"}], "id": "9831000013", "name": "USPS COLLECTION BOX - BLUE BOX", "address": {"city": "BREMERTON", "state": "WA", "street": "742 LEBO BLVD", "postcode": "98310"}}},
{"geometry": {"type": "Point", "coordinates": [-122.6268709783, 47.5956479969]}, "type": "Feature", "properties": {"collection_times": [{"days": "Mon-Fri", "time": "5:00pm"}, {"days": "Sat", "time": "4:15pm"}, {"days": "Sun", "time": "Closed"}], "id": "9831000016", "name": "USPS COLLECTION BOX - PO LOBBY", "address": {"city": "BREMERTON", "state": "WA", "street": "1281 SYLVAN WAY", "postcode": "98310"}}},
{"geometry": {"type": "Point", "coordinates": [-122.6268709783, 47.5956479969]}, "type": "Feature", "properties": {"collection_times": [{"days": "Mon-Fri", "time": "5:00pm"}, {"days": "Sat", "time": "4:15pm"}, {"days": "Sun", "time": "Closed"}], "id": "9831000017", "name": "USPS COLLECTION BOX - PO LOBBY", "address": {"city": "BREMERTON", "state": "WA", "street": "1281 SYLVAN WAY", "postcode": "98310"}}},
{"geometry": {"type": "Point", "coordinates": [-122.6268709783, 47.5956479969]}, "type": "Feature", "properties": {"collection_times": [{"days": "Mon-Fri", "time": "5:00pm"}, {"days": "Sat", "time": "4:15pm"}, {"days": "Sun", "time": "Closed"}], "id": "9831000018", "name": "USPS COLLECTION BOX - BLUE BOX", "address": {"city": "BREMERTON", "state": "WA", "street": "1281 SYLVAN WAY", "postcode": "98310"}}},
{"geometry": {"type": "Point", "coordinates": [-122.6287672685, 47.609868293]}, "type": "Feature", "properties": {"collection_times": [{"days": "Mon-Fri", "time": "3:00pm"}, {"days": "Sat", "time": "2:30pm"}, {"days": "Sun", "time": "Closed"}], "id": "9831100000", "name": "USPS COLLECTION BOX - BLUE BOX", "address": {"city": "BREMERTON", "state": "WA", "street": "5050 STATE HIGHWAY 303 NE", "postcode": "98311"}}},
{"geometry": {"type": "Point", "coordinates": [-122.6308149635, 47.6213667077]}, "type": "Feature", "properties": {"collection_times": [{"days": "Mon-Fri", "time": "3:00pm"}, {"days": "Sat", "time": "2:30pm"}, {"days": "Sun", "time": "Closed"}], "id": "9831100002", "name": "USPS COLLECTION BOX - BLUE BOX", "address": {"city": "BREMERTON", "state": "WA", "street": "1401 NE MCWILLIAMS RD", "postcode": "98311"}}},
{"geometry": {"type": "Point", "coordinates": [-122.6679326669, 47.5613930541]}, "type": "Feature", "properties": {"collection_times": [{"days": "Mon-Fri", "time": "5:30pm"}, {"days": "Sat", "time": "5:00pm"}, {"days": "Sun", "time": "Closed"}], "id": "9831200001", "name": "USPS COLLECTION BOX - BLUE BOX", "address": {"city": "BREMERTON", "state": "WA", "street": "200 NATIONAL AVE S", "postcode": "98312"}}},
{"geometry": {"type": "Point", "coordinates": [-122.6607770705, 47.5673069868]}, "type": "Feature", "properties": {"collection_times": [{"days": "Mon-Fri", "time": "3:00pm"}, {"days": "Sat", "time": "2:00pm"}, {"days": "Sun", "time": "Closed"}], "id": "9831200003", "name": "USPS COLLECTION BOX - BLUE BOX", "address": {"city": "BREMERTON", "state": "WA", "street": "3423 6TH ST", "postcode": "98312"}}},
{"geometry": {"type": "Point", "coordinates": [-122.6712403069, 47.5683119901]}, "type": "Feature", "properties": {"collection_times": [{"days": "Mon-Fri", "time": "3:00pm"}, {"days": "Sat", "time": "2:00pm"}, {"days": "Sun", "time": "Closed"}], "id": "9831200004", "name": "USPS COLLECTION BOX - BLUE BOX", "address": {"city": "BREMERTON", "state": "WA", "street": "4206 KITSAP WAY", "postcode": "98312"}}},
{"geometry": {"type": "Point", "coordinates": [-122.6905822764, 47.5774344651]}, "type": "Feature", "properties": {"collection_times": [{"days": "Mon-Fri", "time": "3:00pm"}, {"days": "Sat", "time": "2:00pm"}, {"days": "Sun", "time": "Closed"}], "id": "9831200005", "name": "USPS COLLECTION BOX - BLUE BOX", "address": {"city": "BREMERTON", "state": "WA", "street": "5700 KITSAP WAY", "postcode": "98312"}}},
{"geometry": {"type": "Point", "coordinates": [-122.7039788714, 47.579625598]}, "type": "Feature", "properties": {"collection_times": [{"days": "Mon-Fri", "time": "3:00pm"}, {"days": "Sat", "time": "2:00pm"}, {"days": "Sun", "time": "Closed"}], "id": "9831200006", "name": "USPS COLLECTION BOX - BLUE BOX", "address": {"city": "BREMERTON", "state": "WA", "street": "6720 KITSAP WAY", "postcode": "98312"}}},
{"geometry": {"type": "Point", "coordinates": [-122.7093244011, 47.5965080081]}, "type": "Feature", "properties": {"collection_times": [{"days": "Mon-Fri", "time": "3:00pm"}, {"days": "Sat", "time": "2:00pm"}, {"days": "Sun", "time": "Closed"}], "id": "9831200007", "name": "USPS COLLECTION BOX - BLUE BOX", "address": {"city": "BREMERTON", "state": "WA", "street": "3629 CHICO WAY NW", "postcode": "98312"}}},
{"geometry": {"type": "Point", "coordinates": [-122.6798047104, 47.5607446272]}, "type": "Feature", "properties": {"collection_times": [{"days": "Mon-Fri", "time": "3:00pm"}, {"days": "Sat", "time": "2:00pm"}, {"days": "Sun", "time": "Closed"}], "id": "9831200012", "name": "USPS COLLECTION BOX - BLUE BOX", "address": {"city": "BREMERTON", "state": "WA", "street": "4710 AUTO CENTER BLVD", "postcode": "98312"}}},
{"geometry": {"type": "Point", "coordinates": [-122.6532345075, 47.5692904692]}, "type": "Feature", "properties": {"collection_times": [{"days": "Mon-Fri", "time": "3:00pm"}, {"days": "Sat", "time": "2:00pm"}, {"days": "Sun", "time": "Closed"}], "id": "9831200017", "name": "USPS COLLECTION BOX - BLUE BOX", "address": {"city": "BREMERTON", "state": "WA", "street": "900 N CALLOW AVE", "postcode": "98312"}}},
{"geometry": {"type": "Point", "coordinates": [-122.6598436285, 47.5716926225]}, "type": "Feature", "properties": {"collection_times": [{"days": "Mon-Fri", "time": "3:00pm"}, {"days": "Sat", "time": "2:00pm"}, {"days": "Sun", "time": "Closed"}], "id": "9831200018", "name": "USPS COLLECTION BOX - BLUE BOX", "address": {"city": "BREMERTON", "state": "WA", "street": "3330 KITSAP WAY", "postcode": "98312"}}},
{"geometry": {"type": "Point", "coordinates": [-122.6679326669, 47.5613930541]}, "type": "Feature", "properties": {"collection_times": [{"days": "Mon-Fri", "time": "5:30pm"}, {"days": "Sat", "time": "5:00pm"}, {"days": "Sun", "time": "Closed"}], "id": "9831200019", "name": "USPS COLLECTION BOX - PO LOBBY", "address": {"city": "BREMERTON", "state": "WA", "street": "200 NATIONAL AVE S", "postcode": "98312"}}},
{"geometry": {"type": "Point", "coordinates": [-122.651201992, 47.5593382858]}, "type": "Feature", "properties": {"collection_times": [{"days": "Mon-Sat", "time": "2:30pm"}, {"days": "Sun", "time": "Closed"}], "id": "9831400001", "name": "USPS COLLECTION BOX - BLUE BOX", "address": {"city": "BREMERTON", "state": "WA", "street": "886 AMBLE ST", "postcode": "98314"}}},
{"geometry": {"type": "Point", "coordinates": [-122.651201992, 47.5593382858]}, "type": "Feature", "properties": {"collection_times": [{"days": "Mon-Fri", "time": "2:30pm"}, {"days": "Sat-Sun", "time": "Closed"}], "id": "9831400002", "name": "USPS COLLECTION BOX - BLUE BOX", "address": {"city": "BREMERTON", "state": "WA", "street": "850A PUGET SOUND NAVAL SHIPYARD", "postcode": "98314"}}},
{"geometry": {"type": "Point", "coordinates": [-122.7144851772, 47.7233721778]}, "type": "Feature", "properties": {"collection_times": [{"days": "Mon-Fri", "time": "4:30pm"}, {"days": "Sat-Sun", "time": "Closed"}], "id": "9831500003", "name": "USPS COLLECTION BOX - BLUE BOX", "address": {"city": "SILVERDALE", "state": "WA", "street": "2650 OHIO ST", "postcode": "98315"}}},
{"geometry": {"type": "Point", "coordinates": [-122.9012936688, 47.6935962839]}, "type": "Feature", "properties": {"collection_times": [{"days": "Mon-Fri", "time": "3:45pm"}, {"days": "Sat", "time": "11:00am"}, {"days": "Sun", "time": "Closed"}], "id": "9832000000", "name": "USPS COLLECTION BOX - BLUE BOX", "address": {"city": "BRINNON", "state": "WA", "street": "144 BRINNON LN", "postcode": "98320"}}},
{"geometry": {"type": "Point", "coordinates": [-122.9012936688, 47.6935962839]}, "type": "Feature", "properties": {"collection_times": [{"days": "Mon-Fri", "time": "3:45pm"}, {"days": "Sat", "time": "11:00am"}, {"days": "Sun", "time": "Closed"}], "id": "9832000001", "name": "USPS COLLECTION BOX - PO LOBBY", "address": {"city": "BRINNON", "state": "WA", "street": "144 BRINNON LN", "postcode": "98320"}}},
{"geometry": {"type": "Point", "coordinates": [-122.0307980661, 47.1612666479]}, "type": "Feature", "properties": {"collection_times": [{"days": "Mon-Fri", "time": "4:30pm"}, {"days": "Sat", "time": "9:00am"}, {"days": "Sun", "time": "Closed"}], "id": "9832100000", "name": "USPS COLLECTION BOX - BLUE BOX", "address": {"city": "BUCKLEY", "state": "WA", "street": "219 S RIVER AVE", "postcode": "98321"}}},
{"geometry": {"type": "Point", "coordinates": [-122.0307980661, 47.1612666479]}, "type": "Feature", "properties": {"collection_times": [{"days": "Mon-Fri", "time": "4:30pm"}, {"days": "Sat", "time": "9:00am"}, {"days": "Sun", "time": "Closed"}], "id": "9832100001", "name": "USPS COLLECTION BOX - PO LOBBY", "address": {"city": "BUCKLEY", "state": "WA", "street": "219 S RIVER AVE", "postcode": "98321"}}},
{"geometry": {"type": "Point", "coordinates": [-122.0307980661, 47.1612666479]}, "type": "Feature", "properties": {"collection_times": [{"days": "Mon-Fri", "time": "4:30pm"}, {"days": "Sat", "time": "9:00am"}, {"days": "Sun", "time": "Closed"}], "id": "9832100002", "name": "USPS COLLECTION BOX - PO LOBBY", "address": {"city": "BUCKLEY", "state": "WA", "street": "219 S RIVER AVE", "postcode": "98321"}}},
{"geometry": {"type": "Point", "coordinates": [-122.629637317, 47.4136197333]}, "type": "Feature", "properties": {"collection_times": [{"days": "Mon-Fri", "time": "4:30pm"}, {"days": "Sat", "time": "9:30am"}, {"days": "Sun", "time": "Closed"}], "id": "9832200000", "name": "USPS COLLECTION BOX - BLUE BOX", "address": {"city": "BURLEY", "state": "WA", "street": "14831 BURLEY AVE", "postcode": "98322"}}},
{"geometry": {"type": "Point", "coordinates": [-122.629637317, 47.4136197333]}, "type": "Feature", "properties": {"collection_times": [{"days": "Mon-Fri", "time": "4:30pm"}, {"days": "Sat", "time": "9:30am"}, {"days": "Sun", "time": "Closed"}], "id": "9832200001", "name": "USPS COLLECTION BOX - PO LOBBY", "address": {"city": "BURLEY", "state": "WA", "street": "14831 BURLEY AVE", "postcode": "98322"}}},
{"geometry": {"type": "Point", "coordinates": [-122.0495816488, 47.0806848592]}, "type": "Feature", "properties": {"collection_times": [{"days": "Mon-Fri", "time": "4:00pm"}, {"days": "Sat", "time": "9:30am"}, {"days": "Sun", "time": "Closed"}], "id": "9832300000", "name": "USPS COLLECTION BOX - BLUE BOX", "address": {"city": "CARBONADO", "state": "WA", "street": "818 8TH AVE", "postcode": "98323"}}},
{"geometry": {"type": "Point", "coordinates": [-122.0495816488, 47.0806848592]}, "type": "Feature", "properties": {"collection_times": [{"days": "Mon-Fri", "time": "4:00pm"}, {"days": "Sat", "time": "9:30am"}, {"days": "Sun", "time": "Closed"}], "id": "9832300001", "name": "USPS COLLECTION BOX - PO LOBBY", "address": {"city": "CARBONADO", "state": "WA", "street": "818 8TH AVE", "postcode": "98323"}}},
{"geometry": {"type": "Point", "coordinates": [-123.1726137599, 48.0887193254]}, "type": "Feature", "properties": {"collection_times": [{"days": "Mon-Fri", "time": "4:00pm"}, {"days": "Sat", "time": "10:30am"}, {"days": "Sun", "time": "Closed"}], "id": "9832400000", "name": "USPS COLLECTION BOX - BLUE BOX", "address": {"city": "CARLSBORG", "state": "WA", "street": "20 BUSINESS PARK LOOP", "postcode": "98324"}}},
{"geometry": {"type": "Point", "coordinates": [-123.1726137599, 48.0887193254]}, "type": "Feature", "properties": {"collection_times": [{"days": "Mon-Fri", "time": "4:00pm"}, {"days": "Sat", "time": "10:30am"}, {"days": "Sun", "time": "Closed"}], "id": "9832400001", "name": "USPS COLLECTION BOX - PO LOBBY", "address": {"city": "CARLSBORG", "state": "WA", "street": "20 BUSINESS PARK LOOP", "postcode": "98324"}}},
{"geometry": {"type": "Point", "coordinates": [-123.1726137599, 48.0887193254]}, "type": "Feature", "properties": {"collection_times": [{"days": "Mon-Fri", "time": "4:00pm"}, {"days": "Sat", "time": "10:30am"}, {"days": "Sun", "time": "Closed"}], "id": "9832400002", "name": "USPS COLLECTION BOX - PO LOBBY", "address": {"city": "CARLSBORG", "state": "WA", "street": "20 BUSINESS PARK LOOP", "postcode": "98324"}}},
{"geometry": {"type": "Point", "coordinates": [-122.7697032678, 48.0116887357]}, "type": "Feature", "properties": {"collection_times": [{"days": "Mon-Fri", "time": "4:30pm"}, {"days": "Sat", "time": "10:30am"}, {"days": "Sun", "time": "Closed"}], "id": "9832500000", "name": "USPS COLLECTION BOX - BLUE BOX", "address": {"city": "CHIMACUM", "state": "WA", "street": "9223 RHODY DR", "postcode": "98325"}}},
{"geometry": {"type": "Point", "coordinates": [-122.7697032678, 48.0116887357]}, "type": "Feature", "properties": {"collection_times": [{"days": "Mon-Fri", "time": "4:30pm"}, {"days": "Sat", "time": "10:30am"}, {"days": "Sun", "time": "Closed"}], "id": "9832500001", "name": "USPS COLLECTION BOX - PO LOBBY", "address": {"city": "CHIMACUM", "state": "WA", "street": "9223 RHODY DR", "postcode": "98325"}}},
{"geometry": {"type": "Point", "coordinates": [-124.2565938126, 48.2390716706]}, "type": "Feature", "properties": {"collection_times": [{"days": "Mon-Fri", "time": "3:00pm"}, {"days": "Sat", "time": "1:30pm"}, {"days": "Sun", "time": "Closed"}], "id": "9832600000", "name": "USPS COLLECTION BOX - BLUE BOX", "address": {"city": "CLALLAM BAY", "state": "WA", "street": "17203 HIGHWAY 112", "postcode": "98326"}}},
{"geometry": {"type": "Point", "coordinates": [-124.2565938126, 48.2390716706]}, "type": "Feature", "properties": {"collection_times": [{"days": "Mon-Fri", "time": "3:00pm"}, {"days": "Sat", "time": "10:30am"}, {"days": "Sun", "time": "Closed"}], "id": "9832600002", "name": "USPS COLLECTION BOX - PO LOBBY", "address": {"city": "CLALLAM BAY", "state": "WA", "street": "17203 HIGHWAY 112", "postcode": "98326"}}},
{"geometry": {"type": "Point", "coordinates": [-124.2565938126, 48.2390716706]}, "type": "Feature", "properties": {"collection_times": [{"days": "Mon-Fri", "time": "3:00pm"}, {"days": "Sat", "time": "10:30am"}, {"days": "Sun", "time": "Closed"}], "id": "9832600003", "name": "USPS COLLECTION BOX - PO LOBBY", "address": {"city": "CLALLAM BAY", "state": "WA", "street": "17203 HIGHWAY 112", "postcode": "98326"}}},
{"geometry": {"type": "Point", "coordinates": [-122.6388768288, 47.0937161421]}, "type": "Feature", "properties": {"collection_times": [{"days": "Mon-Fri", "time": "4:30pm"}, {"days": "Sat", "time": "9:00am"}, {"days": "Sun", "time": "Closed"}], "id": "9832700000", "name": "USPS COLLECTION BOX - BLUE BOX", "address": {"city": "DUPONT", "state": "WA", "street": "1313 THOMPSON CIR", "postcode": "98327"}}},
{"geometry": {"type": "Point", "coordinates": [-122.6388768288, 47.0937161421]}, "type": "Feature", "properties": {"collection_times": [{"days": "Mon-Fri", "time": "4:30pm"}, {"days": "Sat", "time": "9:00am"}, {"days": "Sun", "time": "Closed"}], "id": "9832700001", "name": "USPS COLLECTION BOX - PO LOBBY", "address": {"city": "DUPONT", "state": "WA", "street": "1313 THOMPSON CIR", "postcode": "98327"}}},
{"geometry": {"type": "Point", "coordinates": [-122.2675566563, 46.8673451146]}, "type": "Feature", "properties": {"collection_times": [{"days": "Mon-Fri", "time": "4:30pm"}, {"days": "Sat", "time": "10:30am"}, {"days": "Sun", "time": "Closed"}], "id": "9832800000", "name": "USPS COLLECTION BOX - BLUE BOX", "address": {"city": "EATONVILLE", "state": "WA", "street": "103 CENTER ST W", "postcode": "98328"}}},
{"geometry": {"type": "Point", "coordinates": [-122.2675566563, 46.8673451146]}, "type": "Feature", "properties": {"collection_times": [{"days": "Mon-Fri", "time": "4:30pm"}, {"days": "Sat", "time": "10:30am"}, {"days": "Sun", "time": "Closed"}], "id": "9832800001", "name": "USPS COLLECTION BOX - BLUE BOX", "address": {"city": "EATONVILLE", "state": "WA", "street": "103 CENTER ST W", "postcode": "98328"}}},
{"geometry": {"type": "Point", "coordinates": [-122.2675566563, 46.8673451146]}, "type": "Feature", "properties": {"collection_times": [{"days": "Mon-Fri", "time": "4:45pm"}, {"days": "Sat", "time": "10:30am"}, {"days": "Sun", "time": "Closed"}], "id": "9832800004", "name": "USPS COLLECTION BOX - PO LOBBY", "address": {"city": "EATONVILLE", "state": "WA", "street": "103 CENTER ST W", "postcode": "98328"}}},
{"geometry": {"type": "Point", "coordinates": [-122.2675566563, 46.8673451146]}, "type": "Feature", "properties": {"collection_times": [{"days": "Mon-Fri", "time": "4:45pm"}, {"days": "Sat", "time": "10:30am"}, {"days": "Sun", "time": "Closed"}], "id": "9832800005", "name": "USPS COLLECTION BOX - PO LOBBY", "address": {"city": "EATONVILLE", "state": "WA", "street": "103 CENTER ST W", "postcode": "98328"}}},
{"geometry": {"type": "Point", "coordinates": [-122.1691291515, 46.7620869157]}, "type": "Feature", "properties": {"collection_times": [{"days": "Mon-Fri", "time": "4:15pm"}, {"days": "Sat", "time": "10:15am"}, {"days": "Sun", "time": "Closed"}], "id": "9833000000", "name": "USPS COLLECTION BOX - BLUE BOX", "address": {"city": "ELBE", "state": "WA", "street": "54125 HIGHWAY 7 E", "postcode": "98330"}}},
{"geometry": {"type": "Point", "coordinates": [-122.1691291515, 46.7620869157]}, "type": "Feature", "properties": {"collection_times": [{"days": "Mon-Fri", "time": "4:15pm"}, {"days": "Sat", "time": "10:15am"}, {"days": "Sun", "time": "Closed"}], "id": "9833000001", "name": "USPS COLLECTION BOX - PO LOBBY", "address": {"city": "ELBE", "state": "WA", "street": "54125 HIGHWAY 7 E", "postcode": "98330"}}},
{"geometry": {"type": "Point", "coordinates": [-124.3841530632, 47.9498723068]}, "type": "Feature", "properties": {"collection_times": [{"days": "Mon-Fri", "time": "2:45pm"}, {"days": "Sat", "time": "2:30pm"}, {"days": "Sun", "time": "Closed"}], "id": "9833100000", "name": "USPS COLLECTION BOX - BLUE BOX", "address": {"city": "FORKS", "state": "WA", "street": "61 S SPARTAN AVE", "postcode": "98331"}}},
{"geometry": {"type": "Point", "coordinates": [-124.3841530632, 47.9498723068]}, "type": "Feature", "properties": {"collection_times": [{"days": "Mon-Fri", "time": "2:45pm"}, {"days": "Sat", "time": "2:30pm"}, {"days": "Sun", "time": "Closed"}], "id": "9833100005", "name": "USPS COLLECTION BOX - PO LOBBY", "address": {"city": "FORKS", "state": "WA", "street": "61 S SPARTAN AVE", "postcode": "98331"}}},
{"geometry": {"type": "Point", "coordinates": [-124.3841530632, 47.9498723068]}, "type": "Feature", "properties": {"collection_times": [{"days": "Mon-Fri", "time": "2:45pm"}, {"days": "Sat", "time": "2:30pm"}, {"days": "Sun", "time": "Closed"}], "id": "9833100006", "name": "USPS COLLECTION BOX - PO LOBBY", "address": {"city": "FORKS", "state": "WA", "street": "61 S SPARTAN AVE", "postcode": "98331"}}},
{"geometry": {"type": "Point", "coordinates": [-122.6261520129, 47.3860529998]}, "type": "Feature", "properties": {"collection_times": [{"days": "Mon-Sat", "time": "2:30pm"}, {"days": "Sun", "time": "Closed"}], "id": "9833200001", "name": "USPS COLLECTION BOX - BLUE BOX", "address": {"city": "GIG HARBOR", "state": "WA", "street": "14004 PURDY DR NW", "postcode": "98332"}}},
{"geometry": {"type": "Point", "coordinates": [-122.5902986189, 47.3390298916]}, "type": "Feature", "properties": {"collection_times": [{"days": "Mon-Sat", "time": "2:30pm"}, {"days": "Sun", "time": "Closed"}], "id": "9833200002", "name": "USPS COLLECTION BOX - BLUE BOX", "address": {"city": "GIG HARBOR", "state": "WA", "street": "8815 N HARBORVIEW DR", "postcode": "98332"}}},
{"geometry": {"type": "Point", "coordinates": [-122.59352, 47.37487]}, "type": "Feature", "properties": {"collection_times": [{"days": "Mon-Sat", "time": "2:30pm"}, {"days": "Sun", "time": "Closed"}], "id": "9833200003", "name": "USPS COLLECTION BOX - BLUE BOX", "address": {"city": "GIG HARBOR", "state": "WA", "street": "4026 CANTERWOOD DR NW", "postcode": "98332"}}},
{"geometry": {"type": "Point", "coordinates": [-122.6069548276, 47.3614251424]}, "type": "Feature", "properties": {"collection_times": [{"days": "Mon-Sat", "time": "2:30pm"}, {"days": "Sun", "time": "Closed"}], "id": "9833200004", "name": "USPS COLLECTION BOX - BLUE BOX", "address": {"city": "GIG HARBOR", "state": "WA", "street": "11430 51ST AVE NW", "postcode": "98332"}}},
{"geometry": {"type": "Point", "coordinates": [-122.6289784636, 47.2480192958]}, "type": "Feature", "properties": {"collection_times": [{"days": "Mon-Fri", "time": "4:00pm"}, {"days": "Sat", "time": "10:30am"}, {"days": "Sun", "time": "Closed"}], "id": "9833300000", "name": "USPS COLLECTION BOX - BLUE BOX", "address": {"city": "FOX ISLAND", "state": "WA", "street": "560 FOX DRIVE FI", "postcode": "98333"}}},
{"geometry": {"type": "Point", "coordinates": [-122.6289784636, 47.2480192958]}, "type": "Feature", "properties": {"collection_times": [{"days": "Mon-Fri", "time": "4:30pm"}, {"days": "Sat", "time": "10:30am"}, {"days": "Sun", "time": "Closed"}], "id": "9833300001", "name": "USPS COLLECTION BOX - PO LOBBY", "address": {"city": "FOX ISLAND", "state": "WA", "street": "560 FOX DRIVE FI", "postcode": "98333"}}},
{"geometry": {"type": "Point", "coordinates": [-122.6289784636, 47.2480192958]}, "type": "Feature", "properties": {"collection_times": [{"days": "Mon-Fri", "time": "4:30pm"}, {"days": "Sat", "time": "10:30am"}, {"days": "Sun", "time": "Closed"}], "id": "9833300002", "name": "USPS COLLECTION BOX - PO LOBBY", "address": {"city": "FOX ISLAND", "state": "WA", "street": "560 FOX DRIVE FI", "postcode": "98333"}}},
{"geometry": {"type": "Point", "coordinates": [-122.6035471464, 47.30271857]}, "type": "Feature", "properties": {"collection_times": [{"days": "Mon-Sat", "time": "2:30pm"}, {"days": "Sun", "time": "Closed"}], "id": "9833500003", "name": "USPS COLLECTION BOX - BLUE BOX", "address": {"city": "GIG HARBOR", "state": "WA", "street": "3309 HARBORVIEW DR", "postcode": "98335"}}},
{"geometry": {"type": "Point", "coordinates": [-122.581129504, 47.3280543983]}, "type": "Feature", "properties": {"collection_times": [{"days": "Mon-Fri", "time": "5:30pm"}, {"days": "Sat", "time": "3:00pm"}, {"days": "Sun", "time": "Closed"}], "id": "9833500004", "name": "USPS COLLECTION BOX - BLUE BOX", "address": {"city": "GIG HARBOR", "state": "WA", "street": "3118 JUDSON ST", "postcode": "98335"}}},
{"geometry": {"type": "Point", "coordinates": [-122.581129504, 47.3280543983]}, "type": "Feature", "properties": {"collection_times": [{"days": "Mon-Fri", "time": "5:30pm"}, {"days": "Sat", "time": "3:00pm"}, {"days": "Sun", "time": "Closed"}], "id": "9833500009", "name": "USPS COLLECTION BOX - BLUE BOX", "address": {"city": "GIG HARBOR", "state": "WA", "street": "3118 JUDSON ST", "postcode": "98335"}}},
{"geometry": {"type": "Point", "coordinates": [-122.5793601765, 47.3033057371]}, "type": "Feature", "properties": {"collection_times": [{"days": "Mon-Sat", "time": "2:30pm"}, {"days": "Sun", "time": "Closed"}], "id": "9833500013", "name": "USPS COLLECTION BOX - BLUE BOX", "address": {"city": "GIG HARBOR", "state": "WA", "street": "5010 POINT FOSDICK DR NW", "postcode": "98335"}}},
{"geometry": {"type": "Point", "coordinates": [-122.5793065642, 47.3004287576]}, "type": "Feature", "properties": {"collection_times": [{"days": "Mon-Sat", "time": "2:30pm"}, {"days": "Sun", "time": "Closed"}], "id": "9833500014", "name": "USPS COLLECTION BOX - BLUE BOX", "address": {"city": "GIG HARBOR", "state": "WA", "street": "4700 POINT FOSDICK DR NW", "postcode": "98335"}}},
{"geometry": {"type": "Point", "coordinates": [-122.57921, 47.301567]}, "type": "Feature", "properties": {"collection_times": [{"days": "Mon-Sat", "time": "2:30pm"}, {"days": "Sun", "time": "Closed"}], "id": "9833500015", "name": "USPS COLLECTION BOX - BLUE BOX", "address": {"city": "GIG HARBOR", "state": "WA", "street": "4831 POINT FOSDICK DR NW", "postcode": "98335"}}},
{"geometry": {"type": "Point", "coordinates": [-122.5789013182, 47.3107317869]}, "type": "Feature", "properties": {"collection_times": [{"days": "Mon-Sat", "time": "2:30pm"}, {"days": "Sun", "time": "Closed"}], "id": "9833500018", "name": "USPS COLLECTION BOX - BLUE BOX", "address": {"city": "GIG HARBOR", "state": "WA", "street": "5775 SOUNDVIEW DR", "postcode": "98335"}}},
{"geometry": {"type": "Point", "coordinates": [-122.5791515966, 47.3068888965]}, "type": "Feature", "properties": {"collection_times": [{"days": "Mon-Sat", "time": "2:30pm"}, {"days": "Sun", "time": "Closed"}], "id": "9833500019", "name": "USPS COLLECTION BOX - BLUE BOX", "address": {"city": "GIG HARBOR", "state": "WA", "street": "5303 POINT FOSDICK DR NW", "postcode": "98335"}}},
{"geometry": {"type": "Point", "coordinates": [-122.5792154764, 47.2982485642]}, "type": "Feature", "properties": {"collection_times": [{"days": "Mon-Sat", "time": "2:30pm"}, {"days": "Sun", "time": "Closed"}], "id": "9833500022", "name": "USPS COLLECTION BOX - BLUE BOX", "address": {"city": "GIG HARBOR", "state": "WA", "street": "4423 POINT FOSDICK DR NW", "postcode": "98335"}}},
{"geometry": {"type": "Point", "coordinates": [-122.5754749601, 47.3061140584]}, "type": "Feature", "properties": {"collection_times": [{"days": "Mon-Sat", "time": "2:30pm"}, {"days": "Sun", "time": "Closed"}], "id": "9833500023", "name": "USPS COLLECTION BOX - BLUE BOX", "address": {"city": "GIG HARBOR", "state": "WA", "street": "5500 OLYMPIC DR", "postcode": "98335"}}},
{"geometry": {"type": "Point", "coordinates": [-122.5632171425, 47.2822678334]}, "type": "Feature", "properties": {"collection_times": [{"days": "Mon-Sat", "time": "2:30pm"}, {"days": "Sun", "time": "Closed"}], "id": "9833500029", "name": "USPS COLLECTION BOX - BLUE BOX", "address": {"city": "GIG HARBOR", "state": "WA", "street": "2601 JAHN AVE NW", "postcode": "98335"}}},
{"geometry": {"type": "Point", "coordinates": [-122.581129504, 47.3280543983]}, "type": "Feature", "properties": {"collection_times": [{"days": "Mon-Fri", "time": "5:30pm"}, {"days": "Sat", "time": "3:00pm"}, {"days": "Sun", "time": "Closed"}], "id": "9833500030", "name": "USPS COLLECTION BOX - APC", "address": {"city": "GIG HARBOR", "state": "WA", "street": "3118 JUDSON ST", "postcode": "98335"}}},
{"geometry": {"type": "Point", "coordinates": [-122.1313898081, 46.5306238363]}, "type": "Feature", "properties": {"collection_times": [{"days": "Mon-Fri", "time": "4:00pm"}, {"days": "Sat", "time": "9:00am"}, {"days": "Sun", "time": "Closed"}], "id": "9833600000", "name": "USPS COLLECTION BOX - BLUE BOX", "address": {"city": "GLENOMA", "state": "WA", "street": "108 MARTIN RD", "postcode": "98336"}}},
{"geometry": {"type": "Point", "coordinates": [-122.1313898081, 46.5306238363]}, "type": "Feature", "properties": {"collection_times": [{"days": "Mon-Fri", "time": "4:00pm"}, {"days": "Sat", "time": "9:00am"}, {"days": "Sun", "time": "Closed"}], "id": "9833600001", "name": "USPS COLLECTION BOX - PO LOBBY", "address": {"city": "GLENOMA", "state": "WA", "street": "108 MARTIN RD", "postcode": "98336"}}},
{"geometry": {"type": "Point", "coordinates": [-122.1313898081, 46.5306238363]}, "type": "Feature", "properties": {"collection_times": [{"days": "Mon-Fri", "time": "4:00pm"}, {"days": "Sat", "time": "9:00am"}, {"days": "Sun", "time": "Closed"}], "id": "9833600002", "name": "USPS COLLECTION BOX - PO LOBBY", "address": {"city": "GLENOMA", "state": "WA", "street": "108 MARTIN RD", "postcode": "98336"}}},
{"geometry": {"type": "Point", "coordinates": [-122.6268329025, 47.5673647297]}, "type": "Feature", "properties": {"collection_times": [{"days": "Mon-Fri", "time": "5:00pm"}, {"days": "Sat", "time": "3:15pm"}, {"days": "Sun", "time": "Closed"}], "id": "9833700001", "name": "USPS COLLECTION BOX - BLUE BOX", "address": {"city": "BREMERTON", "state": "WA", "street": "602 PACIFIC AVE", "postcode": "98337"}}},
{"geometry": {"type": "Point", "coordinates": [-122.6328990481, 47.5660487692]}, "type": "Feature", "properties": {"collection_times": [{"days": "Mon-Fri", "time": "3:00pm"}, {"days": "Sat", "time": "2:30pm"}, {"days": "Sun", "time": "Closed"}], "id": "9833700003", "name": "USPS COLLECTION BOX - BLUE BOX", "address": {"city": "BREMERTON", "state": "WA", "street": "400 WARREN AVE", "postcode": "98337"}}},
{"geometry": {"type": "Point", "coordinates": [-122.6269194796, 47.5644131484]}, "type": "Feature", "properties": {"collection_times": [{"days": "Mon-Fri", "time": "3:00pm"}, {"days": "Sat", "time": "2:30pm"}, {"days": "Sun", "time": "Closed"}], "id": "9833700004", "name": "USPS COLLECTION BOX - BLUE BOX", "address": {"city": "BREMERTON", "state": "WA", "street": "202 PACIFIC AVE", "postcode": "98337"}}},
{"geometry": {"type": "Point", "coordinates": [-122.6253472781, 47.5658785648]}, "type": "Feature", "properties": {"collection_times": [{"days": "Mon-Fri", "time": "3:00pm"}, {"days": "Sat", "time": "2:30pm"}, {"days": "Sun", "time": "Closed"}], "id": "9833700007", "name": "USPS COLLECTION BOX - BLUE BOX", "address": {"city": "BREMERTON", "state": "WA", "street": "270 4TH ST", "postcode": "98337"}}},
{"geometry": {"type": "Point", "coordinates": [-122.6336079504, 47.5674243099]}, "type": "Feature", "properties": {"collection_times": [{"days": "Mon-Fri", "time": "3:00pm"}, {"days": "Sat", "time": "2:30pm"}, {"days": "Sun", "time": "Closed"}], "id": "9833700008", "name": "USPS COLLECTION BOX - BLUE BOX", "address": {"city": "BREMERTON", "state": "WA", "street": "1000 6TH ST", "postcode": "98337"}}},
{"geometry": {"type": "Point", "coordinates": [-122.640254976, 47.5673776435]}, "type": "Feature", "properties": {"collection_times": [{"days": "Mon-Fri", "time": "3:00pm"}, {"days": "Sat", "time": "2:30pm"}, {"days": "Sun", "time": "Closed"}], "id": "9833700009", "name": "USPS COLLECTION BOX - BLUE BOX", "address": {"city": "BREMERTON", "state": "WA", "street": "1534 6TH ST", "postcode": "98337"}}},
{"geometry": {"type": "Point", "coordinates": [-122.6355716415, 47.5729209893]}, "type": "Feature", "properties": {"collection_times": [{"days": "Mon-Fri", "time": "3:00pm"}, {"days": "Sat", "time": "2:30pm"}, {"days": "Sun", "time": "Closed"}], "id": "9833700011", "name": "USPS COLLECTION BOX - BLUE BOX", "address": {"city": "BREMERTON", "state": "WA", "street": "1303 CHESTER AVE", "postcode": "98337"}}},
{"geometry": {"type": "Point", "coordinates": [-122.6268329025, 47.5673647297]}, "type": "Feature", "properties": {"collection_times": [{"days": "Mon-Fri", "time": "5:00pm"}, {"days": "Sat", "time": "3:15pm"}, {"days": "Sun", "time": "Closed"}], "id": "9833700012", "name": "USPS COLLECTION BOX - PO LOBBY", "address": {"city": "BREMERTON", "state": "WA", "street": "602 PACIFIC AVE", "postcode": "98337"}}},
{"geometry": {"type": "Point", "coordinates": [-122.6268329025, 47.5673647297]}, "type": "Feature", "properties": {"collection_times": [{"days": "Mon-Fri", "time": "5:00pm"}, {"days": "Sat", "time": "3:15pm"}, {"days": "Sun", "time": "Closed"}], "id": "9833700013", "name": "USPS COLLECTION BOX - PO LOBBY", "address": {"city": "BREMERTON", "state": "WA", "street": "602 PACIFIC AVE", "postcode": "98337"}}},
{"geometry": {"type": "Point", "coordinates": [-122.6254449094, 47.5636271312]}, "type": "Feature", "properties": {"collection_times": [{"days": "Mon-Fri", "time": "3:00pm"}, {"days": "Sat", "time": "2:30pm"}, {"days": "Sun", "time": "Closed"}], "id": "9833700017", "name": "USPS COLLECTION BOX - BLUE BOX", "address": {"city": "BREMERTON", "state": "WA", "street": "40 WASHINGTON AVE", "postcode": "98337"}}},
{"geometry": {"type": "Point", "coordinates": [-122.2978700467, 46.9803937071]}, "type": "Feature", "properties": {"collection_times": [{"days": "Mon-Sat", "time": "1:00pm"}, {"days": "Sun", "time": "Closed"}], "id": "9833800000", "name": "USPS COLLECTION BOX - BLUE BOX", "address": {"city": "GRAHAM", "state": "WA", "street": "30323 MERIDIAN AVE E", "postcode": "98338"}}},
{"geometry": {"type": "Point", "coordinates": [-122.2963257781, 47.0531226232]}, "type": "Feature", "properties": {"collection_times": [{"days": "Mon-Sat", "time": "1:00pm"}, {"days": "Sun", "time": "Closed"}], "id": "9833800001", "name": "USPS COLLECTION BOX - BLUE BOX", "address": {"city": "GRAHAM", "state": "WA", "street": "10103 224TH ST E", "postcode": "98338"}}},
{"geometry": {"type": "Point", "coordinates": [-122.2963296973, 47.0530130102]}, "type": "Feature", "properties": {"collection_times": [{"days": "Mon-Fri", "time": "5:00pm"}, {"days": "Sat", "time": "1:15pm"}, {"days": "Sun", "time": "Closed"}], "id": "9833800002", "name": "USPS COLLECTION BOX - BLUE BOX", "address": {"city": "GRAHAM", "state": "WA", "street": "10102 224TH ST E", "postcode": "98338"}}},
{"geometry": {"type": "Point", "coordinates": [-122.2963296973, 47.0530130102]}, "type": "Feature", "properties": {"collection_times": [{"days": "Mon-Fri", "time": "5:00pm"}, {"days": "Sat", "time": "1:15pm"}, {"days": "Sun", "time": "Closed"}], "id": "9833800004", "name": "USPS COLLECTION BOX - PO LOBBY", "address": {"city": "GRAHAM", "state": "WA", "street": "10102 224TH ST E", "postcode": "98338"}}},
{"geometry": {"type": "Point", "coordinates": [-122.2963296973, 47.0530130102]}, "type": "Feature", "properties": {"collection_times": [{"days": "Mon-Fri", "time": "5:00pm"}, {"days": "Sat", "time": "1:15pm"}, {"days": "Sun", "time": "Closed"}], "id": "9833800005", "name": "USPS COLLECTION BOX - PO LOBBY", "address": {"city": "GRAHAM", "state": "WA", "street": "10102 224TH ST E", "postcode": "98338"}}},
{"geometry": {"type": "Point", "coordinates": [-122.7207684133, 47.9865404748]}, "type": "Feature", "properties": {"collection_times": [{"days": "Mon-Fri", "time": "4:30pm"}, {"days": "Sat-Sun", "time": "Closed"}], "id": "9833900001", "name": "USPS COLLECTION BOX - BLUE BOX", "address": {"city": "PORT HADLOCK", "state": "WA", "street": "67 OAK BAY RD", "postcode": "98339"}}},
{"geometry": {"type": "Point", "coordinates": [-122.757996877, 48.031934074]}, "type": "Feature", "properties": {"collection_times": [{"days": "Mon-Fri", "time": "4:30pm"}, {"days": "Sat-Sun", "time": "Closed"}], "id": "9833900002", "name": "USPS COLLECTION BOX - BLUE BOX", "address": {"city": "PORT HADLOCK", "state": "WA", "street": "1890 IRONDALE RD", "postcode": "98339"}}},
{"geometry": {"type": "Point", "coordinates": [-122.7434691915, 48.0064706955]}, "type": "Feature", "properties": {"collection_times": [{"days": "Mon-Fri", "time": "5:00pm"}, {"days": "Sat", "time": "11:30am"}, {"days": "Sun", "time": "Closed"}], "id": "9833900003", "name": "USPS COLLECTION BOX - BLUE BOX", "address": {"city": "PORT HADLOCK", "state": "WA", "street": "93 MATHESON ST", "postcode": "98339"}}},
{"geometry": {"type": "Point", "coordinates": [-122.7819601858, 48.0401261928]}, "type": "Feature", "properties": {"collection_times": [{"days": "Mon-Fri", "time": "4:30pm"}, {"days": "Sat-Sun", "time": "Closed"}], "id": "9833900004", "name": "USPS COLLECTION BOX - BLUE BOX", "address": {"city": "PORT HADLOCK", "state": "WA", "street": "281 W PATISON ST", "postcode": "98339"}}},
{"geometry": {"type": "Point", "coordinates": [-122.7434691915, 48.0064706955]}, "type": "Feature", "properties": {"collection_times": [{"days": "Mon-Fri", "time": "5:00pm"}, {"days": "Sat", "time": "11:30am"}, {"days": "Sun", "time": "Closed"}], "id": "9833900005", "name": "USPS COLLECTION BOX - PO LOBBY", "address": {"city": "PORT HADLOCK", "state": "WA", "street": "93 MATHESON ST", "postcode": "98339"}}},
{"geometry": {"type": "Point", "coordinates": [-122.7434691915, 48.0064706955]}, "type": "Feature", "properties": {"collection_times": [{"days": "Mon-Fri", "time": "5:00pm"}, {"days": "Sat", "time": "11:30am"}, {"days": "Sun", "time": "Closed"}], "id": "9833900006", "name": "USPS COLLECTION BOX - PO LOBBY", "address": {"city": "PORT HADLOCK", "state": "WA", "street": "93 MATHESON ST", "postcode": "98339"}}},
{"geometry": {"type": "Point", "coordinates": [-122.5467160447, 47.9164629193]}, "type": "Feature", "properties": {"collection_times": [{"days": "Mon-Fri", "time": "4:00pm"}, {"days": "Sat", "time": "1:30pm"}, {"days": "Sun", "time": "Closed"}], "id": "9834000000", "name": "USPS COLLECTION BOX - BLUE BOX", "address": {"city": "HANSVILLE", "state": "WA", "street": "38937 HANSVILLE RD NE", "postcode": "98340"}}},
{"geometry": {"type": "Point", "coordinates": [-122.5467160447, 47.9164629193]}, "type": "Feature", "properties": {"collection_times": [{"days": "Mon-Fri", "time": "4:00pm"}, {"days": "Sat", "time": "1:30pm"}, {"days": "Sun", "time": "Closed"}], "id": "9834000002", "name": "USPS COLLECTION BOX - PO LOBBY", "address": {"city": "HANSVILLE", "state": "WA", "street": "38937 HANSVILLE RD NE", "postcode": "98340"}}},
{"geometry": {"type": "Point", "coordinates": [-122.5255327985, 47.7475458428]}, "type": "Feature", "properties": {"collection_times": [{"days": "Mon-Fri", "time": "4:30pm"}, {"days": "Sat", "time": "12:00pm"}, {"days": "Sun", "time": "Closed"}], "id": "9834200000", "name": "USPS COLLECTION BOX - BLUE BOX", "address": {"city": "INDIANOLA", "state": "WA", "street": "9200 NE SHORE DR", "postcode": "98342"}}},
{"geometry": {"type": "Point", "coordinates": [-122.5255327985, 47.7475458428]}, "type": "Feature", "properties": {"collection_times": [{"days": "Mon-Fri", "time": "4:30pm"}, {"days": "Sat", "time": "12:00pm"}, {"days": "Sun", "time": "Closed"}], "id": "9834200001", "name": "USPS COLLECTION BOX - PO LOBBY", "address": {"city": "INDIANOLA", "state": "WA", "street": "9200 NE SHORE DR", "postcode": "98342"}}},
{"geometry": {"type": "Point", "coordinates": [-123.7320968683, 48.1354879201]}, "type": "Feature", "properties": {"collection_times": [{"days": "Mon-Fri", "time": "3:45pm"}, {"days": "Sat", "time": "9:15am"}, {"days": "Sun", "time": "Closed"}], "id": "9834300000", "name": "USPS COLLECTION BOX - BLUE BOX", "address": {"city": "JOYCE", "state": "WA", "street": "50883 HIGHWAY 112", "postcode": "98343"}}},
{"geometry": {"type": "Point", "coordinates": [-123.7320968683, 48.1354879201]}, "type": "Feature", "properties": {"collection_times": [{"days": "Mon-Fri", "time": "3:45pm"}, {"days": "Sat", "time": "9:15am"}, {"days": "Sun", "time": "Closed"}], "id": "9834300001", "name": "USPS COLLECTION BOX - PO LOBBY", "address": {"city": "JOYCE", "state": "WA", "street": "50883 HIGHWAY 112", "postcode": "98343"}}},
{"geometry": {"type": "Point", "coordinates": [-122.223983305, 46.9860827905]}, "type": "Feature", "properties": {"collection_times": [{"days": "Mon-Fri", "time": "4:00pm"}, {"days": "Sat", "time": "10:30am"}, {"days": "Sun", "time": "Closed"}], "id": "9834400000", "name": "USPS COLLECTION BOX - BLUE BOX", "address": {"city": "KAPOWSIN", "state": "WA", "street": "14814 KAPOWSIN HWY E", "postcode": "98344"}}},
{"geometry": {"type": "Point", "coordinates": [-122.223983305, 46.9860827905]}, "type": "Feature", "properties": {"collection_times": [{"days": "Mon-Fri", "time": "4:00pm"}, {"days": "Sat", "time": "10:30am"}, {"days": "Sun", "time": "Closed"}], "id": "9834400001", "name": "USPS COLLECTION BOX - PO LOBBY", "address": {"city": "KAPOWSIN", "state": "WA", "street": "14814 KAPOWSIN HWY E", "postcode": "98344"}}},
{"geometry": {"type": "Point", "coordinates": [-122.6235952357, 47.7025710953]}, "type": "Feature", "properties": {"collection_times": [{"days": "Mon-Fri", "time": "4:30pm"}, {"days": "Sat", "time": "10:00am"}, {"days": "Sun", "time": "Closed"}], "id": "9834500000", "name": "USPS COLLECTION BOX - BLUE BOX", "address": {"city": "KEYPORT", "state": "WA", "street": "1998 STATE HIGHWAY 308 NE", "postcode": "98345"}}},
{"geometry": {"type": "Point", "coordinates": [-122.6235952357, 47.7025710953]}, "type": "Feature", "properties": {"collection_times": [{"days": "Mon-Fri", "time": "4:30pm"}, {"days": "Sat", "time": "10:00am"}, {"days": "Sun", "time": "Closed"}], "id": "9834500001", "name": "USPS COLLECTION BOX - PO LOBBY", "address": {"city": "KEYPORT", "state": "WA", "street": "1998 STATE HIGHWAY 308 NE", "postcode": "98345"}}},
{"geometry": {"type": "Point", "coordinates": [-122.5024733794, 47.8022588779]}, "type": "Feature", "properties": {"collection_times": [{"days": "Mon-Fri", "time": "5:00pm"}, {"days": "Sat", "time": "1:00pm"}, {"days": "Sun", "time": "Closed"}], "id": "9834600002", "name": "USPS COLLECTION BOX - BLUE BOX", "address": {"city": "KINGSTON", "state": "WA", "street": "10990 NE STATE HIGHWAY 104", "postcode": "98346"}}},
{"geometry": {"type": "Point", "coordinates": [-122.5024733794, 47.8022588779]}, "type": "Feature", "properties": {"collection_times": [{"days": "Mon-Fri", "time": "5:00pm"}, {"days": "Sat", "time": "1:00pm"}, {"days": "Sun", "time": "Closed"}], "id": "9834600006", "name": "USPS COLLECTION BOX - PO LOBBY", "address": {"city": "KINGSTON", "state": "WA", "street": "10990 NE STATE HIGHWAY 104", "postcode": "98346"}}},
{"geometry": {"type": "Point", "coordinates": [-122.540884057, 47.8095175141]}, "type": "Feature", "properties": {"collection_times": [{"days": "Mon-Sat", "time": "1:00pm"}, {"days": "Sun", "time": "Closed"}], "id": "9834600007", "name": "USPS COLLECTION BOX - BLUE BOX", "address": {"city": "KINGSTON", "state": "WA", "street": "8196 NE STATE HIGHWAY 104", "postcode": "98346"}}},
{"geometry": {"type": "Point", "coordinates": [-122.3185060956, 46.8339663417]}, "type": "Feature", "properties": {"collection_times": [{"days": "Mon-Fri", "time": "9:45am"}, {"days": "Sat", "time": "10:00am"}, {"days": "Sun", "time": "Closed"}], "id": "9834800000", "name": "USPS COLLECTION BOX - PO LOBBY", "address": {"city": "LA GRANDE", "state": "WA", "street": "46518 MOUNTAIN HWY E", "postcode": "98348"}}},
{"geometry": {"type": "Point", "coordinates": [-122.768954724, 47.268974385]}, "type": "Feature", "properties": {"collection_times": [{"days": "Mon-Fri", "time": "4:00pm"}, {"days": "Sat", "time": "10:00am"}, {"days": "Sun", "time": "Closed"}], "id": "9834900000", "name": "USPS COLLECTION BOX - BLUE BOX", "address": {"city": "LAKEBAY", "state": "WA", "street": "1302 KEY PENINSULA HWY N", "postcode": "98349"}}},
{"geometry": {"type": "Point", "coordinates": [-122.7684285799, 47.268763312]}, "type": "Feature", "properties": {"collection_times": [{"days": "Mon-Fri", "time": "4:30pm"}, {"days": "Sat", "time": "10:00am"}, {"days": "Sun", "time": "Closed"}], "id": "9834900002", "name": "USPS COLLECTION BOX - PO LOBBY", "address": {"city": "LAKEBAY", "state": "WA", "street": "1302 KEY PENINSULA HWY N", "postcode": "98349"}}},
{"geometry": {"type": "Point", "coordinates": [-124.630754755, 47.9054287277]}, "type": "Feature", "properties": {"collection_times": [{"days": "Mon-Fri", "time": "1:00pm"}, {"days": "Sat", "time": "11:15am"}, {"days": "Sun", "time": "Closed"}], "id": "9835000000", "name": "USPS COLLECTION BOX - BLUE BOX", "address": {"city": "LA PUSH", "state": "WA", "street": "500 OCEAN DR", "postcode": "98350"}}},
{"geometry": {"type": "Point", "coordinates": [-124.630754755, 47.9054287277]}, "type": "Feature", "properties": {"collection_times": [{"days": "Mon-Fri", "time": "1:00pm"}, {"days": "Sat", "time": "11:15am"}, {"days": "Sun", "time": "Closed"}], "id": "9835000001", "name": "USPS COLLECTION BOX - PO LOBBY", "address": {"city": "LA PUSH", "state": "WA", "street": "500 OCEAN DR", "postcode": "98350"}}},
{"geometry": {"type": "Point", "coordinates": [-124.630754755, 47.9054287277]}, "type": "Feature", "properties": {"collection_times": [{"days": "Mon-Fri", "time": "1:00pm"}, {"days": "Sat", "time": "11:15am"}, {"days": "Sun", "time": "Closed"}], "id": "9835000002", "name": "USPS COLLECTION BOX - PO LOBBY", "address": {"city": "LA PUSH", "state": "WA", "street": "500 OCEAN DR", "postcode": "98350"}}},
{"geometry": {"type": "Point", "coordinates": [-122.5450892822, 47.5549819974]}, "type": "Feature", "properties": {"collection_times": [{"days": "Mon-Fri", "time": "3:45pm"}, {"days": "Sat", "time": "10:00am"}, {"days": "Sun", "time": "Closed"}], "id": "9835300000", "name": "USPS COLLECTION BOX - BLUE BOX", "address": {"city": "MANCHESTER", "state": "WA", "street": "2325 COLCHESTER DR SE", "postcode": "98353"}}},
{"geometry": {"type": "Point", "coordinates": [-122.5450892822, 47.5549819974]}, "type": "Feature", "properties": {"collection_times": [{"days": "Mon-Fri", "time": "3:45pm"}, {"days": "Sat", "time": "10:00am"}, {"days": "Sun", "time": "Closed"}], "id": "9835300001", "name": "USPS COLLECTION BOX - PO LOBBY", "address": {"city": "MANCHESTER", "state": "WA", "street": "2325 COLCHESTER DR SE", "postcode": "98353"}}},
{"geometry": {"type": "Point", "coordinates": [-122.5450892822, 47.5549819974]}, "type": "Feature", "properties": {"collection_times": [{"days": "Mon-Fri", "time": "3:45pm"}, {"days": "Sat", "time": "10:00am"}, {"days": "Sun", "time": "Closed"}], "id": "9835300002", "name": "USPS COLLECTION BOX - PO LOBBY", "address": {"city": "MANCHESTER", "state": "WA", "street": "2325 COLCHESTER DR SE", "postcode": "98353"}}},
{"geometry": {"type": "Point", "coordinates": [-122.2968313418, 47.2500619137]}, "type": "Feature", "properties": {"collection_times": [{"days": "Mon-Fri", "time": "5:00pm"}, {"days": "Sat", "time": "1:00pm"}, {"days": "Sun", "time": "Closed"}], "id": "9835400000", "name": "USPS COLLECTION BOX - BLUE BOX", "address": {"city": "MILTON", "state": "WA", "street": "2825 MILTON WAY", "postcode": "98354"}}},
{"geometry": {"type": "Point", "coordinates": [-122.2938959995, 47.2504931793]}, "type": "Feature", "properties": {"collection_times": [{"days": "Mon-Fri", "time": "1:00pm"}, {"days": "Sat", "time": "12:30pm"}, {"days": "Sun", "time": "Closed"}], "id": "9835400001", "name": "USPS COLLECTION BOX - BLUE BOX", "address": {"city": "MILTON", "state": "WA", "street": "730 MERIDIAN E", "postcode": "98354"}}},
{"geometry": {"type": "Point", "coordinates": [-122.2938925323, 47.2491042267]}, "type": "Feature", "properties": {"collection_times": [{"days": "Mon-Fri", "time": "1:00pm"}, {"days": "Sat", "time": "12:30pm"}, {"days": "Sun", "time": "Closed"}], "id": "9835400003", "name": "USPS COLLECTION BOX - BLUE BOX", "address": {"city": "MILTON", "state": "WA", "street": "900 MERIDIAN E", "postcode": "98354"}}},
{"geometry": {"type": "Point", "coordinates": [-122.2968313418, 47.2500619137]}, "type": "Feature", "properties": {"collection_times": [{"days": "Mon-Fri", "time": "5:00pm"}, {"days": "Sat", "time": "1:00pm"}, {"days": "Sun", "time": "Closed"}], "id": "9835400004", "name": "USPS COLLECTION BOX - PO LOBBY", "address": {"city": "MILTON", "state": "WA", "street": "2825 MILTON WAY", "postcode": "98354"}}},
{"geometry": {"type": "Point", "coordinates": [-122.2968313418, 47.2500619137]}, "type": "Feature", "properties": {"collection_times": [{"days": "Mon-Fri", "time": "5:00pm"}, {"days": "Sat", "time": "1:00pm"}, {"days": "Sun", "time": "Closed"}], "id": "9835400005", "name": "USPS COLLECTION BOX - PO LOBBY", "address": {"city": "MILTON", "state": "WA", "street": "2825 MILTON WAY", "postcode": "98354"}}},
{"geometry": {"type": "Point", "coordinates": [-122.2968313418, 47.2500619137]}, "type": "Feature", "properties": {"collection_times": [{"days": "Mon-Fri", "time": "5:00pm"}, {"days": "Sat", "time": "1:00pm"}, {"days": "Sun", "time": "Closed"}], "id": "9835400006", "name": "USPS COLLECTION BOX - PO LOBBY", "address": {"city": "MILTON", "state": "WA", "street": "2825 MILTON WAY", "postcode": "98354"}}},
{"geometry": {"type": "Point", "coordinates": [-122.2968313418, 47.2500619137]}, "type": "Feature", "properties": {"collection_times": [{"days": "Mon-Fri", "time": "5:00pm"}, {"days": "Sat", "time": "1:00pm"}, {"days": "Sun", "time": "Closed"}], "id": "9835400007", "name": "USPS COLLECTION BOX - BLUE BOX", "address": {"city": "MILTON", "state": "WA", "street": "2825 MILTON WAY", "postcode": "98354"}}},
{"geometry": {"type": "Point", "coordinates": [-122.321996483, 47.249068453]}, "type": "Feature", "properties": {"collection_times": [{"days": "Mon-Fri", "time": "1:00pm"}, {"days": "Sat", "time": "12:30pm"}, {"days": "Sun", "time": "Closed"}], "id": "9835400009", "name": "USPS COLLECTION BOX - BLUE BOX", "address": {"city": "MILTON", "state": "WA", "street": "1000 LAUREL ST", "postcode": "98354"}}},
{"geometry": {"type": "Point", "coordinates": [-122.1794941441, 46.71626164]}, "type": "Feature", "properties": {"collection_times": [{"days": "Mon-Fri", "time": "4:15pm"}, {"days": "Sat", "time": "10:30am"}, {"days": "Sun", "time": "Closed"}], "id": "9835500000", "name": "USPS COLLECTION BOX - BLUE BOX", "address": {"city": "MINERAL", "state": "WA", "street": "100 WASHINGTON ST", "postcode": "98355"}}},
{"geometry": {"type": "Point", "coordinates": [-122.1794941441, 46.71626164]}, "type": "Feature", "properties": {"collection_times": [{"days": "Mon-Fri", "time": "4:15pm"}, {"days": "Sat", "time": "10:30am"}, {"days": "Sun", "time": "Closed"}], "id": "9835500001", "name": "USPS COLLECTION BOX - PO LOBBY", "address": {"city": "MINERAL", "state": "WA", "street": "100 WASHINGTON ST", "postcode": "98355"}}},
{"geometry": {"type": "Point", "coordinates": [-122.2368073105, 46.511912842]}, "type": "Feature", "properties": {"collection_times": [{"days": "Mon-Fri", "time": "4:00pm"}, {"days": "Sat", "time": "10:00am"}, {"days": "Sun", "time": "Closed"}], "id": "9835600000", "name": "USPS COLLECTION BOX - BLUE BOX", "address": {"city": "MORTON", "state": "WA", "street": "170 2ND ST", "postcode": "98356"}}},
{"geometry": {"type": "Point", "coordinates": [-122.2368073105, 46.511912842]}, "type": "Feature", "properties": {"collection_times": [{"days": "Mon-Fri", "time": "4:15pm"}, {"days": "Sat", "time": "10:00am"}, {"days": "Sun", "time": "Closed"}], "id": "9835600001", "name": "USPS COLLECTION BOX - PO LOBBY", "address": {"city": "MORTON", "state": "WA", "street": "170 2ND ST", "postcode": "98356"}}},
{"geometry": {"type": "Point", "coordinates": [-122.2368073105, 46.511912842]}, "type": "Feature", "properties": {"collection_times": [{"days": "Mon-Fri", "time": "4:15pm"}, {"days": "Sat", "time": "10:00am"}, {"days": "Sun", "time": "Closed"}], "id": "9835600002", "name": "USPS COLLECTION BOX - PO LOBBY", "address": {"city": "MORTON", "state": "WA", "street": "170 2ND ST", "postcode": "98356"}}},
{"geometry": {"type": "Point", "coordinates": [-122.2368073105, 46.511912842]}, "type": "Feature", "properties": {"collection_times": [{"days": "Mon-Fri", "time": "4:15pm"}, {"days": "Sat", "time": "10:00am"}, {"days": "Sun", "time": "Closed"}], "id": "9835600003", "name": "USPS COLLECTION BOX - PO LOBBY", "address": {"city": "MORTON", "state": "WA", "street": "170 2ND ST", "postcode": "98356"}}},
{"geometry": {"type": "Point", "coordinates": [-122.2368073105, 46.511912842]}, "type": "Feature", "properties": {"collection_times": [{"days": "Mon-Fri", "time": "4:15pm"}, {"days": "Sat", "time": "10:00am"}, {"days": "Sun", "time": "Closed"}], "id": "9835600004", "name": "USPS COLLECTION BOX - PO LOBBY", "address": {"city": "MORTON", "state": "WA", "street": "170 2ND ST", "postcode": "98356"}}},
{"geometry": {"type": "Point", "coordinates": [-124.6068975789, 48.3661332859]}, "type": "Feature", "properties": {"collection_times": [{"days": "Mon-Fri", "time": "1:45pm"}, {"days": "Sat", "time": "11:45am"}, {"days": "Sun", "time": "Closed"}], "id": "9835700001", "name": "USPS COLLECTION BOX - BLUE BOX", "address": {"city": "NEAH BAY", "state": "WA", "street": "130 BUCHANAN ST", "postcode": "98357"}}},
{"geometry": {"type": "Point", "coordinates": [-124.6068975789, 48.3661332859]}, "type": "Feature", "properties": {"collection_times": [{"days": "Mon-Fri", "time": "1:45pm"}, {"days": "Sat", "time": "11:45am"}, {"days": "Sun", "time": "Closed"}], "id": "9835700002", "name": "USPS COLLECTION BOX - PO LOBBY", "address": {"city": "NEAH BAY", "state": "WA", "street": "130 BUCHANAN ST", "postcode": "98357"}}},
{"geometry": {"type": "Point", "coordinates": [-124.6068975789, 48.3661332859]}, "type": "Feature", "properties": {"collection_times": [{"days": "Mon-Fri", "time": "1:45pm"}, {"days": "Sat", "time": "11:45am"}, {"days": "Sun", "time": "Closed"}], "id": "9835700003", "name": "USPS COLLECTION BOX - PO LOBBY", "address": {"city": "NEAH BAY", "state": "WA", "street": "130 BUCHANAN ST", "postcode": "98357"}}},
{"geometry": {"type": "Point", "coordinates": [-124.6068975789, 48.3661332859]}, "type": "Feature", "properties": {"collection_times": [{"days": "Mon-Fri", "time": "1:45pm"}, {"days": "Sat", "time": "11:45am"}, {"days": "Sun", "time": "Closed"}], "id": "9835700004", "name": "USPS COLLECTION BOX - PO LOBBY", "address": {"city": "NEAH BAY", "state": "WA", "street": "130 BUCHANAN ST", "postcode": "98357"}}},
{"geometry": {"type": "Point", "coordinates": [-124.6068975789, 48.3661332859]}, "type": "Feature", "properties": {"collection_times": [{"days": "Mon-Fri", "time": "1:45pm"}, {"days": "Sat", "time": "11:45am"}, {"days": "Sun", "time": "Closed"}], "id": "9835700005", "name": "USPS COLLECTION BOX - PO LOBBY", "address": {"city": "NEAH BAY", "state": "WA", "street": "130 BUCHANAN ST", "postcode": "98357"}}},
{"geometry": {"type": "Point", "coordinates": [-122.6916378629, 48.0283939926]}, "type": "Feature", "properties": {"collection_times": [{"days": "Mon-Fri", "time": "4:00pm"}, {"days": "Sat", "time": "12:00pm"}, {"days": "Sun", "time": "Closed"}], "id": "9835800001", "name": "USPS COLLECTION BOX - PO LOBBY", "address": {"city": "NORDLAND", "state": "WA", "street": "7180 FLAGLER RD", "postcode": "98358"}}},
{"geometry": {"type": "Point", "coordinates": [-122.573719449, 47.4325108579]}, "type": "Feature", "properties": {"collection_times": [{"days": "Mon-Fri", "time": "4:30pm"}, {"days": "Sat", "time": "8:30am"}, {"days": "Sun", "time": "Closed"}], "id": "9835900000", "name": "USPS COLLECTION BOX - BLUE BOX", "address": {"city": "OLALLA", "state": "WA", "street": "6030 SE BURLEY OLALLA RD", "postcode": "98359"}}},
{"geometry": {"type": "Point", "coordinates": [-122.573719449, 47.4325108579]}, "type": "Feature", "properties": {"collection_times": [{"days": "Mon-Fri", "time": "5:00pm"}, {"days": "Sat", "time": "8:30am"}, {"days": "Sun", "time": "Closed"}], "id": "9835900001", "name": "USPS COLLECTION BOX - PO LOBBY", "address": {"city": "OLALLA", "state": "WA", "street": "6030 SE BURLEY OLALLA RD", "postcode": "98359"}}},
{"geometry": {"type": "Point", "coordinates": [-122.2048468268, 47.0972460659]}, "type": "Feature", "properties": {"collection_times": [{"days": "Mon-Fri", "time": "5:00pm"}, {"days": "Sat", "time": "11:00am"}, {"days": "Sun", "time": "Closed"}], "id": "9836000000", "name": "USPS COLLECTION BOX - PO LOBBY", "address": {"city": "ORTING", "state": "WA", "street": "117 VAN SCOYOC AVE SW", "postcode": "98360"}}},
{"geometry": {"type": "Point", "coordinates": [-122.2048468268, 47.0972460659]}, "type": "Feature", "properties": {"collection_times": [{"days": "Mon-Fri", "time": "5:00pm"}, {"days": "Sat", "time": "10:45am"}, {"days": "Sun", "time": "Closed"}], "id": "9836000001", "name": "USPS COLLECTION BOX - BLUE BOX", "address": {"city": "ORTING", "state": "WA", "street": "117 VAN SCOYOC AVE SW", "postcode": "98360"}}},
{"geometry": {"type": "Point", "coordinates": [-121.6669986397, 46.7093707015]}, "type": "Feature", "properties": {"collection_times": [{"days": "Mon-Fri", "time": "3:15pm"}, {"days": "Sat", "time": "10:00am"}, {"days": "Sun", "time": "Closed"}], "id": "9836100000", "name": "USPS COLLECTION BOX - BLUE BOX", "address": {"city": "PACKWOOD", "state": "WA", "street": "111 SMITH RD", "postcode": "98361"}}},
{"geometry": {"type": "Point", "coordinates": [-121.6714890903, 46.6077290557]}, "type": "Feature", "properties": {"collection_times": [{"days": "Mon-Fri", "time": "3:15pm"}, {"days": "Sat", "time": "10:00am"}, {"days": "Sun", "time": "Closed"}], "id": "9836100001", "name": "USPS COLLECTION BOX - PO LOBBY", "address": {"city": "PACKWOOD", "state": "WA", "street": "111 SMITH RD", "postcode": "98361"}}},
{"geometry": {"type": "Point", "coordinates": [-121.6714890903, 46.6077290557]}, "type": "Feature", "properties": {"collection_times": [{"days": "Mon-Fri", "time": "3:15pm"}, {"days": "Sat", "time": "10:00am"}, {"days": "Sun", "time": "Closed"}], "id": "9836100002", "name": "USPS COLLECTION BOX - PO LOBBY", "address": {"city": "PACKWOOD", "state": "WA", "street": "111 SMITH RD", "postcode": "98361"}}},
{"geometry": {"type": "Point", "coordinates": [-123.3890763458, 48.0977285714]}, "type": "Feature", "properties": {"collection_times": [{"days": "Mon-Fri", "time": "3:00pm"}, {"days": "Sat", "time": "2:30pm"}, {"days": "Sun", "time": "Closed"}], "id": "9836200006", "name": "USPS COLLECTION BOX - BLUE BOX", "address": {"city": "PORT ANGELES", "state": "WA", "street": "138 W 1ST ST", "postcode": "98362"}}},
{"geometry": {"type": "Point", "coordinates": [-123.4151023155, 48.1115318676]}, "type": "Feature", "properties": {"collection_times": [{"days": "Mon-Fri", "time": "3:00pm"}, {"days": "Sat", "time": "2:30pm"}, {"days": "Sun", "time": "Closed"}], "id": "9836200009", "name": "USPS COLLECTION BOX - BLUE BOX", "address": {"city": "PORT ANGELES", "state": "WA", "street": "1105 E 1ST ST", "postcode": "98362"}}},
{"geometry": {"type": "Point", "coordinates": [-123.4335312278, 48.1155297593]}, "type": "Feature", "properties": {"collection_times": [{"days": "Mon-Fri", "time": "3:00pm"}, {"days": "Sat", "time": "2:30pm"}, {"days": "Sun", "time": "Closed"}], "id": "9836200013", "name": "USPS COLLECTION BOX - BLUE BOX", "address": {"city": "PORT ANGELES", "state": "WA", "street": "223 E 4TH ST", "postcode": "98362"}}},
{"geometry": {"type": "Point", "coordinates": [-123.4335312278, 48.1155297593]}, "type": "Feature", "properties": {"collection_times": [{"days": "Mon-Fri", "time": "3:00pm"}, {"days": "Sat", "time": "2:30pm"}, {"days": "Sun", "time": "Closed"}], "id": "9836200014", "name": "USPS COLLECTION BOX - BLUE BOX", "address": {"city": "PORT ANGELES", "state": "WA", "street": "223 E 4TH ST", "postcode": "98362"}}},
{"geometry": {"type": "Point", "coordinates": [-123.4275797991, 48.1165295886]}, "type": "Feature", "properties": {"collection_times": [{"days": "Mon-Sat", "time": "5:00pm"}, {"days": "Sun", "time": "Closed"}], "id": "9836200017", "name": "USPS COLLECTION BOX - BLUE BOX", "address": {"city": "PORT ANGELES", "state": "WA", "street": "424 E 1ST ST", "postcode": "98362"}}},
{"geometry": {"type": "Point", "coordinates": [-123.4275797991, 48.1165295886]}, "type": "Feature", "properties": {"collection_times": [{"days": "Mon-Sat", "time": "5:00pm"}, {"days": "Sun", "time": "Closed"}], "id": "9836200028", "name": "USPS COLLECTION BOX - PO LOBBY", "address": {"city": "PORT ANGELES", "state": "WA", "street": "424 E 1ST ST", "postcode": "98362"}}},
{"geometry": {"type": "Point", "coordinates": [-123.4326027401, 48.1198156008]}, "type": "Feature", "properties": {"collection_times": [{"days": "Mon-Fri", "time": "3:00pm"}, {"days": "Sat", "time": "2:30pm"}, {"days": "Sun", "time": "Closed"}], "id": "9836200031", "name": "USPS COLLECTION BOX - BLUE BOX", "address": {"city": "PORT ANGELES", "state": "WA", "street": "102 E FRONT ST", "postcode": "98362"}}},
{"geometry": {"type": "Point", "coordinates": [-123.4275797991, 48.1165295886]}, "type": "Feature", "properties": {"collection_times": [{"days": "Mon-Sat", "time": "5:00pm"}, {"days": "Sun", "time": "Closed"}], "id": "9836200033", "name": "USPS COLLECTION BOX - APC", "address": {"city": "PORT ANGELES", "state": "WA", "street": "424 E 1ST ST", "postcode": "98362"}}},
{"geometry": {"type": "Point", "coordinates": [-123.443867026, 48.1073090869]}, "type": "Feature", "properties": {"collection_times": [{"days": "Mon-Fri", "time": "3:00pm"}, {"days": "Sat", "time": "2:30pm"}, {"days": "Sun", "time": "Closed"}], "id": "9836200034", "name": "USPS COLLECTION BOX - BLUE BOX", "address": {"city": "PORT ANGELES", "state": "WA", "street": "114 E LAURIDSEN BLVD", "postcode": "98362"}}},
{"geometry": {"type": "Point", "coordinates": [-123.4121933824, 48.1114187655]}, "type": "Feature", "properties": {"collection_times": [{"days": "Mon-Fri", "time": "3:00pm"}, {"days": "Sat", "time": "2:30pm"}, {"days": "Sun", "time": "Closed"}], "id": "9836200035", "name": "USPS COLLECTION BOX - BLUE BOX", "address": {"city": "PORT ANGELES", "state": "WA", "street": "1222 E FRONT ST", "postcode": "98362"}}},
{"geometry": {"type": "Point", "coordinates": [-123.4570585256, 48.1202819395]}, "type": "Feature", "properties": {"collection_times": [{"days": "Mon-Fri", "time": "3:00pm"}, {"days": "Sat", "time": "2:30pm"}, {"days": "Sun", "time": "Closed"}], "id": "9836300001", "name": "USPS COLLECTION BOX - BLUE BOX", "address": {"city": "PORT ANGELES", "state": "WA", "street": "802 S C ST", "postcode": "98363"}}},
{"geometry": {"type": "Point", "coordinates": [-122.5890170735, 47.8540417754]}, "type": "Feature", "properties": {"collection_times": [{"days": "Mon-Fri", "time": "3:30pm"}, {"days": "Sat", "time": "9:30am"}, {"days": "Sun", "time": "Closed"}], "id": "9836400001", "name": "USPS COLLECTION BOX - PO LOBBY", "address": {"city": "PORT GAMBLE", "state": "WA", "street": "4839 NE VIEW DR STE A", "postcode": "98364"}}},
{"geometry": {"type": "Point", "coordinates": [-122.702726973, 47.9200819038]}, "type": "Feature", "properties": {"collection_times": [{"days": "Mon-Fri", "time": "4:00pm"}, {"days": "Sat-Sun", "time": "Closed"}], "id": "9836500000", "name": "USPS COLLECTION BOX - BLUE BOX", "address": {"city": "PORT HADLOCK", "state": "WA", "street": "46 VILLAGE WAY", "postcode": "98365"}}},
{"geometry": {"type": "Point", "coordinates": [-122.6106043541, 47.5334235781]}, "type": "Feature", "properties": {"collection_times": [{"days": "Mon-Sat", "time": "2:15pm"}, {"days": "Sun", "time": "Closed"}], "id": "9836600000", "name": "USPS COLLECTION BOX - BLUE BOX", "address": {"city": "PORT ORCHARD", "state": "WA", "street": "1725 KIDD AVE SE", "postcode": "98366"}}},
{"geometry": {"type": "Point", "coordinates": [-122.5938583478, 47.5224873891]}, "type": "Feature", "properties": {"collection_times": [{"days": "Mon-Sat", "time": "2:15pm"}, {"days": "Sun", "time": "Closed"}], "id": "9836600001", "name": "USPS COLLECTION BOX - BLUE BOX", "address": {"city": "PORT ORCHARD", "state": "WA", "street": "2930 MERI LN SE", "postcode": "98366"}}},
{"geometry": {"type": "Point", "coordinates": [-122.5952765102, 47.5323324842]}, "type": "Feature", "properties": {"collection_times": [{"days": "Mon-Sat", "time": "2:15pm"}, {"days": "Sun", "time": "Closed"}], "id": "9836600003", "name": "USPS COLLECTION BOX - BLUE BOX", "address": {"city": "PORT ORCHARD", "state": "WA", "street": "1743 VILLAGE LN SE", "postcode": "98366"}}},
{"geometry": {"type": "Point", "coordinates": [-122.6522608265, 47.5188349224]}, "type": "Feature", "properties": {"collection_times": [{"days": "Mon-Sat", "time": "2:15pm"}, {"days": "Sun", "time": "Closed"}], "id": "9836600005", "name": "USPS COLLECTION BOX - BLUE BOX", "address": {"city": "PORT ORCHARD", "state": "WA", "street": "1950 POTTERY AVE", "postcode": "98366"}}},
{"geometry": {"type": "Point", "coordinates": [-122.6196501967, 47.5306278403]}, "type": "Feature", "properties": {"collection_times": [{"days": "Mon-Sat", "time": "2:15pm"}, {"days": "Sun", "time": "Closed"}], "id": "9836600006", "name": "USPS COLLECTION BOX - BLUE BOX", "address": {"city": "PORT ORCHARD", "state": "WA", "street": "1904 PIONEER LN SE", "postcode": "98366"}}},
{"geometry": {"type": "Point", "coordinates": [-122.6026241144, 47.5324378537]}, "type": "Feature", "properties": {"collection_times": [{"days": "Mon-Sat", "time": "2:15pm"}, {"days": "Sun", "time": "Closed"}], "id": "9836600007", "name": "USPS COLLECTION BOX - BLUE BOX", "address": {"city": "PORT ORCHARD", "state": "WA", "street": "1748 HARRISON AVE SE", "postcode": "98366"}}},
{"geometry": {"type": "Point", "coordinates": [-122.6366469512, 47.541852938]}, "type": "Feature", "properties": {"collection_times": [{"days": "Mon-Sat", "time": "2:15pm"}, {"days": "Sun", "time": "Closed"}], "id": "9836600008", "name": "USPS COLLECTION BOX - BLUE BOX", "address": {"city": "PORT ORCHARD", "state": "WA", "street": "739 BAY ST", "postcode": "98366"}}},
{"geometry": {"type": "Point", "coordinates": [-122.6391974107, 47.5419239155]}, "type": "Feature", "properties": {"collection_times": [{"days": "Mon-Sat", "time": "2:15pm"}, {"days": "Sun", "time": "Closed"}], "id": "9836600009", "name": "USPS COLLECTION BOX - BLUE BOX", "address": {"city": "PORT ORCHARD", "state": "WA", "street": "567 BAY ST", "postcode": "98366"}}},
{"geometry": {"type": "Point", "coordinates": [-122.6311946933, 47.5181748313]}, "type": "Feature", "properties": {"collection_times": [{"days": "Mon-Sat", "time": "2:15pm"}, {"days": "Sun", "time": "Closed"}], "id": "9836600010", "name": "USPS COLLECTION BOX - BLUE BOX", "address": {"city": "PORT ORCHARD", "state": "WA", "street": "3377 BETHEL RD SE", "postcode": "98366"}}},
{"geometry": {"type": "Point", "coordinates": [-122.6304366225, 47.5315828679]}, "type": "Feature", "properties": {"collection_times": [{"days": "Mon-Sat", "time": "5:00pm"}, {"days": "Sun", "time": "Closed"}], "id": "9836600012", "name": "USPS COLLECTION BOX - BLUE BOX", "address": {"city": "PORT ORCHARD", "state": "WA", "street": "1125 BETHEL AVE", "postcode": "98366"}}},
{"geometry": {"type": "Point", "coordinates": [-122.6566768123, 47.5233774848]}, "type": "Feature", "properties": {"collection_times": [{"days": "Mon-Sat", "time": "2:15pm"}, {"days": "Sun", "time": "Closed"}], "id": "9836600016", "name": "USPS COLLECTION BOX - BLUE BOX", "address": {"city": "PORT ORCHARD", "state": "WA", "street": "451 S KITSAP BLVD", "postcode": "98366"}}},
{"geometry": {"type": "Point", "coordinates": [-122.6364926959, 47.5338092463]}, "type": "Feature", "properties": {"collection_times": [{"days": "Mon-Sat", "time": "2:15pm"}, {"days": "Sun", "time": "Closed"}], "id": "9836600017", "name": "USPS COLLECTION BOX - BLUE BOX", "address": {"city": "PORT ORCHARD", "state": "WA", "street": "1026 SIDNEY AVE", "postcode": "98366"}}},
{"geometry": {"type": "Point", "coordinates": [-122.609716496, 47.5347998626]}, "type": "Feature", "properties": {"collection_times": [{"days": "Mon-Sat", "time": "2:15pm"}, {"days": "Sun", "time": "Closed"}], "id": "9836600018", "name": "USPS COLLECTION BOX - BLUE BOX", "address": {"city": "PORT ORCHARD", "state": "WA", "street": "1456 OLNEY ST SE", "postcode": "98366"}}},
{"geometry": {"type": "Point", "coordinates": [-122.609546929, 47.5357540303]}, "type": "Feature", "properties": {"collection_times": [{"days": "Mon-Sat", "time": "2:15pm"}, {"days": "Sun", "time": "Closed"}], "id": "9836600019", "name": "USPS COLLECTION BOX - BLUE BOX", "address": {"city": "PORT ORCHARD", "state": "WA", "street": "1397 OLNEY ST SE", "postcode": "98366"}}},
{"geometry": {"type": "Point", "coordinates": [-122.624255456, 47.5340158348]}, "type": "Feature", "properties": {"collection_times": [{"days": "Mon-Sat", "time": "2:15pm"}, {"days": "Sun", "time": "Closed"}], "id": "9836600020", "name": "USPS COLLECTION BOX - BLUE BOX", "address": {"city": "PORT ORCHARD", "state": "WA", "street": "1700 SE MILE HILL DR", "postcode": "98366"}}},
{"geometry": {"type": "Point", "coordinates": [-122.6288718154, 47.5335061948]}, "type": "Feature", "properties": {"collection_times": [{"days": "Mon-Sat", "time": "5:00pm"}, {"days": "Sun", "time": "Closed"}], "id": "9836600024", "name": "USPS COLLECTION BOX - BLUE BOX", "address": {"city": "PORT ORCHARD", "state": "WA", "street": "1125 BETHEL AVE", "postcode": "98366"}}},
{"geometry": {"type": "Point", "coordinates": [-122.6157736402, 47.5473797222]}, "type": "Feature", "properties": {"collection_times": [{"days": "Mon-Sat", "time": "2:15pm"}, {"days": "Sun", "time": "Closed"}], "id": "9836600028", "name": "USPS COLLECTION BOX - BLUE BOX", "address": {"city": "PORT ORCHARD", "state": "WA", "street": "1141 BEACH DR E", "postcode": "98366"}}},
{"geometry": {"type": "Point", "coordinates": [-122.6293197033, 47.5049268739]}, "type": "Feature", "properties": {"collection_times": [{"days": "Mon-Sat", "time": "2:15pm"}, {"days": "Sun", "time": "Closed"}], "id": "9836600029", "name": "USPS COLLECTION BOX - BLUE BOX", "address": {"city": "PORT ORCHARD", "state": "WA", "street": "1900 SE SEDGWICK RD", "postcode": "98366"}}},
{"geometry": {"type": "Point", "coordinates": [-122.6288718154, 47.5335061948]}, "type": "Feature", "properties": {"collection_times": [{"days": "Mon-Sat", "time": "5:00pm"}, {"days": "Sun", "time": "Closed"}], "id": "9836600030", "name": "USPS COLLECTION BOX - APC", "address": {"city": "PORT ORCHARD", "state": "WA", "street": "1125 BETHEL AVE", "postcode": "98366"}}},
{"geometry": {"type": "Point", "coordinates": [-122.6288718154, 47.5335061948]}, "type": "Feature", "properties": {"collection_times": [{"days": "Mon-Sat", "time": "5:00pm"}, {"days": "Sun", "time": "Closed"}], "id": "9836600032", "name": "USPS COLLECTION BOX - APC", "address": {"city": "PORT ORCHARD", "state": "WA", "street": "1125 BETHEL AVE", "postcode": "98366"}}},
{"geometry": {"type": "Point", "coordinates": [-122.6383350336, 47.5380012236]}, "type": "Feature", "properties": {"collection_times": [{"days": "Mon-Sat", "time": "2:15pm"}, {"days": "Sun", "time": "Closed"}], "id": "9836600033", "name": "USPS COLLECTION BOX - BLUE BOX", "address": {"city": "PORT ORCHARD", "state": "WA", "street": "614 DIVISION ST", "postcode": "98366"}}},
{"geometry": {"type": "Point", "coordinates": [-122.649056734, 47.4650479755]}, "type": "Feature", "properties": {"collection_times": [{"days": "Mon-Sat", "time": "2:15pm"}, {"days": "Sun", "time": "Closed"}], "id": "9836700000", "name": "USPS COLLECTION BOX - BLUE BOX", "address": {"city": "PORT ORCHARD", "state": "WA", "street": "390 SW SEDGWICK RD", "postcode": "98367"}}},
{"geometry": {"type": "Point", "coordinates": [-122.7614666758, 48.1133194953]}, "type": "Feature", "properties": {"collection_times": [{"days": "Mon-Sat", "time": "5:00pm"}, {"days": "Sun", "time": "Closed"}], "id": "9836800000", "name": "USPS COLLECTION BOX - BLUE BOX", "address": {"city": "PORT TOWNSEND", "state": "WA", "street": "1322 WASHINGTON ST", "postcode": "98368"}}},
{"geometry": {"type": "Point", "coordinates": [-122.7671697009, 48.1118903802]}, "type": "Feature", "properties": {"collection_times": [{"days": "Mon-Fri", "time": "3:30pm"}, {"days": "Sat", "time": "2:30pm"}, {"days": "Sun", "time": "Closed"}], "id": "9836800003", "name": "USPS COLLECTION BOX - BLUE BOX", "address": {"city": "PORT TOWNSEND", "state": "WA", "street": "1820 JEFFERSON ST", "postcode": "98368"}}},
{"geometry": {"type": "Point", "coordinates": [-122.7903281531, 48.103601931]}, "type": "Feature", "properties": {"collection_times": [{"days": "Mon-Fri", "time": "3:30pm"}, {"days": "Sat", "time": "2:30pm"}, {"days": "Sun", "time": "Closed"}], "id": "9836800005", "name": "USPS COLLECTION BOX - BLUE BOX", "address": {"city": "PORT TOWNSEND", "state": "WA", "street": "527 SHERIDAN ST", "postcode": "98368"}}},
{"geometry": {"type": "Point", "coordinates": [-122.7817594932, 48.1075410471]}, "type": "Feature", "properties": {"collection_times": [{"days": "Mon-Sat", "time": "2:30pm"}, {"days": "Sun", "time": "Closed"}], "id": "9836800010", "name": "USPS COLLECTION BOX - BLUE BOX", "address": {"city": "PORT TOWNSEND", "state": "WA", "street": "442 W SIMS WAY", "postcode": "98368"}}},
{"geometry": {"type": "Point", "coordinates": [-122.7556190921, 48.1147074453]}, "type": "Feature", "properties": {"collection_times": [{"days": "Mon-Sat", "time": "2:30pm"}, {"days": "Sun", "time": "Closed"}], "id": "9836800015", "name": "USPS COLLECTION BOX - BLUE BOX", "address": {"city": "PORT TOWNSEND", "state": "WA", "street": "817 WATER ST", "postcode": "98368"}}},
{"geometry": {"type": "Point", "coordinates": [-122.7606738207, 48.117458505]}, "type": "Feature", "properties": {"collection_times": [{"days": "Mon-Sat", "time": "2:30pm"}, {"days": "Sun", "time": "Closed"}], "id": "9836800016", "name": "USPS COLLECTION BOX - BLUE BOX", "address": {"city": "PORT TOWNSEND", "state": "WA", "street": "1002 LAWRENCE ST", "postcode": "98368"}}},
{"geometry": {"type": "Point", "coordinates": [-122.7614666758, 48.1133194953]}, "type": "Feature", "properties": {"collection_times": [{"days": "Mon-Sat", "time": "5:00pm"}, {"days": "Sun", "time": "Closed"}], "id": "9836800017", "name": "USPS COLLECTION BOX - PO LOBBY", "address": {"city": "PORT TOWNSEND", "state": "WA", "street": "1322 WASHINGTON ST", "postcode": "98368"}}},
{"geometry": {"type": "Point", "coordinates": [-122.6353269797, 47.7335411154]}, "type": "Feature", "properties": {"collection_times": [{"days": "Mon-Sat", "time": "10:30am"}, {"days": "Sun", "time": "Closed"}], "id": "9837000000", "name": "USPS COLLECTION BOX - BLUE BOX", "address": {"city": "POULSBO", "state": "WA", "street": "1040 NE HOSTMARK ST", "postcode": "98370"}}},
{"geometry": {"type": "Point", "coordinates": [-122.6406347058, 47.7334331423]}, "type": "Feature", "properties": {"collection_times": [{"days": "Mon-Sat", "time": "10:30am"}, {"days": "Sun", "time": "Closed"}], "id": "9837000002", "name": "USPS COLLECTION BOX - BLUE BOX", "address": {"city": "POULSBO", "state": "WA", "street": "703 NE HOSTMARK ST", "postcode": "98370"}}},
{"geometry": {"type": "Point", "coordinates": [-122.6458882266, 47.7340210729]}, "type": "Feature", "properties": {"collection_times": [{"days": "Mon-Sat", "time": "1:00pm"}, {"days": "Sun", "time": "Closed"}], "id": "9837000003", "name": "USPS COLLECTION BOX - BLUE BOX", "address": {"city": "POULSBO", "state": "WA", "street": "18833 FRONT ST NE", "postcode": "98370"}}},
{"geometry": {"type": "Point", "coordinates": [-122.6551235872, 47.7467650899]}, "type": "Feature", "properties": {"collection_times": [{"days": "Mon-Sat", "time": "12:00pm"}, {"days": "Sun", "time": "Closed"}], "id": "9837000004", "name": "USPS COLLECTION BOX - BLUE BOX", "address": {"city": "POULSBO", "state": "WA", "street": "20245 VIKING AVE NW", "postcode": "98370"}}},
{"geometry": {"type": "Point", "coordinates": [-122.6377892617, 47.745578306]}, "type": "Feature", "properties": {"collection_times": [{"days": "Mon-Sat", "time": "10:30am"}, {"days": "Sun", "time": "Closed"}], "id": "9837000005", "name": "USPS COLLECTION BOX - BLUE BOX", "address": {"city": "POULSBO", "state": "WA", "street": "20148 10TH AVE NE", "postcode": "98370"}}},
{"geometry": {"type": "Point", "coordinates": [-122.6374515891, 47.7354729166]}, "type": "Feature", "properties": {"collection_times": [{"days": "Mon-Sat", "time": "10:30am"}, {"days": "Sun", "time": "Closed"}], "id": "9837000007", "name": "USPS COLLECTION BOX - BLUE BOX", "address": {"city": "POULSBO", "state": "WA", "street": "19045 STATE HIGHWAY 305 NE", "postcode": "98370"}}},
{"geometry": {"type": "Point", "coordinates": [-122.640140148, 47.739136415]}, "type": "Feature", "properties": {"collection_times": [{"days": "Mon-Sat", "time": "10:30am"}, {"days": "Sun", "time": "Closed"}], "id": "9837000009", "name": "USPS COLLECTION BOX - BLUE BOX", "address": {"city": "POULSBO", "state": "WA", "street": "19425 7TH AVE NE STE 101", "postcode": "98370"}}},
{"geometry": {"type": "Point", "coordinates": [-122.6399305357, 47.7421312145]}, "type": "Feature", "properties": {"collection_times": [{"days": "Mon-Sat", "time": "10:30am"}, {"days": "Sun", "time": "Closed"}], "id": "9837000010", "name": "USPS COLLECTION BOX - BLUE BOX", "address": {"city": "POULSBO", "state": "WA", "street": "19740 7TH AVE NE", "postcode": "98370"}}},
{"geometry": {"type": "Point", "coordinates": [-122.6467718969, 47.7376054386]}, "type": "Feature", "properties": {"collection_times": [{"days": "Mon-Fri", "time": "5:00pm"}, {"days": "Sat", "time": "3:00pm"}, {"days": "Sun", "time": "Closed"}], "id": "9837000018", "name": "USPS COLLECTION BOX - BLUE BOX", "address": {"city": "POULSBO", "state": "WA", "street": "19240 JENSEN WAY NE", "postcode": "98370"}}},
{"geometry": {"type": "Point", "coordinates": [-122.6467718969, 47.7376054386]}, "type": "Feature", "properties": {"collection_times": [{"days": "Mon-Fri", "time": "5:00pm"}, {"days": "Sat", "time": "3:00pm"}, {"days": "Sun", "time": "Closed"}], "id": "9837000022", "name": "USPS COLLECTION BOX - BLUE BOX", "address": {"city": "POULSBO", "state": "WA", "street": "19240 JENSEN WAY NE", "postcode": "98370"}}},
{"geometry": {"type": "Point", "coordinates": [-122.6467718969, 47.7376054386]}, "type": "Feature", "properties": {"collection_times": [{"days": "Mon-Fri", "time": "5:00pm"}, {"days": "Sat", "time": "3:00pm"}, {"days": "Sun", "time": "Closed"}], "id": "9837000023", "name": "USPS COLLECTION BOX - PO LOBBY", "address": {"city": "POULSBO", "state": "WA", "street": "19240 JENSEN WAY NE", "postcode": "98370"}}},
{"geometry": {"type": "Point", "coordinates": [-122.6389750144, 47.7248330307]}, "type": "Feature", "properties": {"collection_times": [{"days": "Mon-Sat", "time": "10:30am"}, {"days": "Sun", "time": "Closed"}], "id": "9837000025", "name": "USPS COLLECTION BOX - BLUE BOX", "address": {"city": "POULSBO", "state": "WA", "street": "17791 FJORD DR NE", "postcode": "98370"}}},
{"geometry": {"type": "Point", "coordinates": [-122.6375318045, 47.7418333339]}, "type": "Feature", "properties": {"collection_times": [{"days": "Mon-Sat", "time": "10:30am"}, {"days": "Sun", "time": "Closed"}], "id": "9837000026", "name": "USPS COLLECTION BOX - BLUE BOX", "address": {"city": "POULSBO", "state": "WA", "street": "19735 10TH AVE NE", "postcode": "98370"}}},
{"geometry": {"type": "Point", "coordinates": [-122.2939679877, 47.2010155385]}, "type": "Feature", "properties": {"collection_times": [{"days": "Mon-Fri", "time": "4:30pm"}, {"days": "Sat", "time": "3:45pm"}, {"days": "Sun", "time": "Closed"}], "id": "9837100003", "name": "USPS COLLECTION BOX - BLUE BOX", "address": {"city": "PUYALLUP", "state": "WA", "street": "1100 N MERIDIAN", "postcode": "98371"}}},
{"geometry": {"type": "Point", "coordinates": [-122.3168289235, 47.1948668435]}, "type": "Feature", "properties": {"collection_times": [{"days": "Mon-Fri", "time": "4:00pm"}, {"days": "Sat", "time": "3:45pm"}, {"days": "Sun", "time": "Closed"}], "id": "9837100007", "name": "USPS COLLECTION BOX - BLUE BOX", "address": {"city": "PUYALLUP", "state": "WA", "street": "900 S MERIDIAN", "postcode": "98371"}}},
{"geometry": {"type": "Point", "coordinates": [-122.2950758307, 47.1907720104]}, "type": "Feature", "properties": {"collection_times": [{"days": "Mon-Fri", "time": "5:00pm"}, {"days": "Sat", "time": "4:30pm"}, {"days": "Sun", "time": "Closed"}], "id": "9837100008", "name": "USPS COLLECTION BOX - BLUE BOX", "address": {"city": "PUYALLUP", "state": "WA", "street": "204 2ND ST SW", "postcode": "98371"}}},
{"geometry": {"type": "Point", "coordinates": [-122.2950758307, 47.1907720104]}, "type": "Feature", "properties": {"collection_times": [{"days": "Mon-Fri", "time": "5:00pm"}, {"days": "Sat", "time": "1:30pm"}, {"days": "Sun", "time": "Closed"}], "id": "9837100014", "name": "USPS COLLECTION BOX - PO LOBBY", "address": {"city": "PUYALLUP", "state": "WA", "street": "204 2ND ST SW", "postcode": "98371"}}},
{"geometry": {"type": "Point", "coordinates": [-122.2937079024, 47.1880095696]}, "type": "Feature", "properties": {"collection_times": [{"days": "Mon-Fri", "time": "4:00pm"}, {"days": "Sat", "time": "3:45pm"}, {"days": "Sun", "time": "Closed"}], "id": "9837100015", "name": "USPS COLLECTION BOX - BLUE BOX", "address": {"city": "PUYALLUP", "state": "WA", "street": "500 S MERIDIAN", "postcode": "98371"}}},
{"geometry": {"type": "Point", "coordinates": [-122.2950758307, 47.1907720104]}, "type": "Feature", "properties": {"collection_times": [{"days": "Mon-Fri", "time": "5:00pm"}, {"days": "Sat", "time": "1:30pm"}, {"days": "Sun", "time": "Closed"}], "id": "9837100017", "name": "USPS COLLECTION BOX - APC", "address": {"city": "PUYALLUP", "state": "WA", "street": "204 2ND ST SW", "postcode": "98371"}}},
{"geometry": {"type": "Point", "coordinates": [-122.2733930139, 47.1918268785]}, "type": "Feature", "properties": {"collection_times": [{"days": "Mon-Sat", "time": "3:00pm"}, {"days": "Sun", "time": "Closed"}], "id": "9837200001", "name": "USPS COLLECTION BOX - BLUE BOX", "address": {"city": "PUYALLUP", "state": "WA", "street": "1500 E MAIN", "postcode": "98372"}}},
{"geometry": {"type": "Point", "coordinates": [-122.2929725297, 47.1488349321]}, "type": "Feature", "properties": {"collection_times": [{"days": "Mon-Sat", "time": "12:00pm"}, {"days": "Sun", "time": "Closed"}], "id": "9837300000", "name": "USPS COLLECTION BOX - BLUE BOX", "address": {"city": "PUYALLUP", "state": "WA", "street": "4423 S MERIDIAN", "postcode": "98373"}}},
{"geometry": {"type": "Point", "coordinates": [-122.2929985548, 47.1584121679]}, "type": "Feature", "properties": {"collection_times": [{"days": "Mon-Sat", "time": "12:30pm"}, {"days": "Sun", "time": "Closed"}], "id": "9837300002", "name": "USPS COLLECTION BOX - BLUE BOX", "address": {"city": "PUYALLUP", "state": "WA", "street": "3500 S MERIDIAN", "postcode": "98373"}}},
{"geometry": {"type": "Point", "coordinates": [-122.3572735629, 47.1560179164]}, "type": "Feature", "properties": {"collection_times": [{"days": "Mon-Sat", "time": "3:00pm"}, {"days": "Sun", "time": "Closed"}], "id": "9837300006", "name": "USPS COLLECTION BOX - BLUE BOX", "address": {"city": "PUYALLUP", "state": "WA", "street": "11012 CANYON RD E", "postcode": "98373"}}},
{"geometry": {"type": "Point", "coordinates": [-122.3572225799, 47.1517461941]}, "type": "Feature", "properties": {"collection_times": [{"days": "Mon-Sat", "time": "3:00pm"}, {"days": "Sun", "time": "Closed"}], "id": "9837300010", "name": "USPS COLLECTION BOX - BLUE BOX", "address": {"city": "PUYALLUP", "state": "WA", "street": "11501 CANYON RD E", "postcode": "98373"}}},
{"geometry": {"type": "Point", "coordinates": [-122.2930907144, 47.1337907441]}, "type": "Feature", "properties": {"collection_times": [{"days": "Mon-Fri", "time": "5:30pm"}, {"days": "Sat", "time": "4:00pm"}, {"days": "Sun", "time": "Closed"}], "id": "9837300012", "name": "USPS COLLECTION BOX - PO LOBBY", "address": {"city": "PUYALLUP", "state": "WA", "street": "13516 MERIDIAN E", "postcode": "98373"}}},
{"geometry": {"type": "Point", "coordinates": [-122.2930907144, 47.1337907441]}, "type": "Feature", "properties": {"collection_times": [{"days": "Mon-Fri", "time": "5:30pm"}, {"days": "Sat", "time": "4:00pm"}, {"days": "Sun", "time": "Closed"}], "id": "9837300013", "name": "USPS COLLECTION BOX - PO LOBBY", "address": {"city": "PUYALLUP", "state": "WA", "street": "13516 MERIDIAN E", "postcode": "98373"}}},
{"geometry": {"type": "Point", "coordinates": [-122.2930907144, 47.1337907441]}, "type": "Feature", "properties": {"collection_times": [{"days": "Mon-Fri", "time": "5:30pm"}, {"days": "Sat", "time": "4:00pm"}, {"days": "Sun", "time": "Closed"}], "id": "9837300015", "name": "USPS COLLECTION BOX - BLUE BOX", "address": {"city": "PUYALLUP", "state": "WA", "street": "13516 MERIDIAN E", "postcode": "98373"}}},
{"geometry": {"type": "Point", "coordinates": [-122.2930907144, 47.1337907441]}, "type": "Feature", "properties": {"collection_times": [{"days": "Mon-Fri", "time": "5:30pm"}, {"days": "Sat", "time": "4:00pm"}, {"days": "Sun", "time": "Closed"}], "id": "9837300016", "name": "USPS COLLECTION BOX - APC", "address": {"city": "PUYALLUP", "state": "WA", "street": "13516 MERIDIAN E", "postcode": "98373"}}},
{"geometry": {"type": "Point", "coordinates": [-122.2911599171, 47.1566568675]}, "type": "Feature", "properties": {"collection_times": [{"days": "Mon-Sat", "time": "12:00pm"}, {"days": "Sun", "time": "Closed"}], "id": "9837400001", "name": "USPS COLLECTION BOX - BLUE BOX", "address": {"city": "PUYALLUP", "state": "WA", "street": "201 37TH AVE SE", "postcode": "98374"}}},
{"geometry": {"type": "Point", "coordinates": [-122.2934944538, 47.1108369966]}, "type": "Feature", "properties": {"collection_times": [{"days": "Mon-Sat", "time": "11:30am"}, {"days": "Sun", "time": "Closed"}], "id": "9837500001", "name": "USPS COLLECTION BOX - BLUE BOX", "address": {"city": "PUYALLUP", "state": "WA", "street": "16012 MERIDIAN E", "postcode": "98375"}}},
{"geometry": {"type": "Point", "coordinates": [-122.2935964072, 47.1000018423]}, "type": "Feature", "properties": {"collection_times": [{"days": "Mon-Sat", "time": "11:30am"}, {"days": "Sun", "time": "Closed"}], "id": "9837500002", "name": "USPS COLLECTION BOX - BLUE BOX", "address": {"city": "PUYALLUP", "state": "WA", "street": "17404 MERIDIAN E", "postcode": "98375"}}},
{"geometry": {"type": "Point", "coordinates": [-122.8437173254, 47.817006456]}, "type": "Feature", "properties": {"collection_times": [{"days": "Mon-Fri", "time": "4:00pm"}, {"days": "Sat", "time": "10:00am"}, {"days": "Sun", "time": "Closed"}], "id": "9837600000", "name": "USPS COLLECTION BOX - BLUE BOX", "address": {"city": "QUILCENE", "state": "WA", "street": "294843 US HIGHWAY 101 STE 3", "postcode": "98376"}}},
{"geometry": {"type": "Point", "coordinates": [-122.8437173254, 47.817006456]}, "type": "Feature", "properties": {"collection_times": [{"days": "Mon-Fri", "time": "4:00pm"}, {"days": "Sat", "time": "10:00am"}, {"days": "Sun", "time": "Closed"}], "id": "9837600001", "name": "USPS COLLECTION BOX - PO LOBBY", "address": {"city": "QUILCENE", "state": "WA", "street": "294843 US HIGHWAY 101 STE 3", "postcode": "98376"}}},
{"geometry": {"type": "Point", "coordinates": [-121.7586563224, 46.5325099623]}, "type": "Feature", "properties": {"collection_times": [{"days": "Mon-Fri", "time": "3:30pm"}, {"days": "Sat", "time": "10:30am"}, {"days": "Sun", "time": "Closed"}], "id": "9837700000", "name": "USPS COLLECTION BOX - BLUE BOX", "address": {"city": "RANDLE", "state": "WA", "street": "105 CHILCOAT AVE", "postcode": "98377"}}},
{"geometry": {"type": "Point", "coordinates": [-121.7586563224, 46.5325099623]}, "type": "Feature", "properties": {"collection_times": [{"days": "Mon-Fri", "time": "3:30pm"}, {"days": "Sat", "time": "10:30am"}, {"days": "Sun", "time": "Closed"}], "id": "9837700001", "name": "USPS COLLECTION BOX - PO LOBBY", "address": {"city": "RANDLE", "state": "WA", "street": "105 CHILCOAT AVE", "postcode": "98377"}}},
{"geometry": {"type": "Point", "coordinates": [-121.7586563224, 46.5325099623]}, "type": "Feature", "properties": {"collection_times": [{"days": "Mon-Fri", "time": "3:30pm"}, {"days": "Sat", "time": "10:30am"}, {"days": "Sun", "time": "Closed"}], "id": "9837700002", "name": "USPS COLLECTION BOX - PO LOBBY", "address": {"city": "RANDLE", "state": "WA", "street": "105 CHILCOAT AVE", "postcode": "98377"}}},
{"geometry": {"type": "Point", "coordinates": [-122.8288210009, 47.6407778814]}, "type": "Feature", "properties": {"collection_times": [{"days": "Mon-Fri", "time": "10:00am"}, {"days": "Sat-Sun", "time": "Closed"}], "id": "9838000000", "name": "USPS COLLECTION BOX - BLUE BOX", "address": {"city": "SEABECK", "state": "WA", "street": "15398 SEABECK HWY NW", "postcode": "98380"}}},
{"geometry": {"type": "Point", "coordinates": [-122.8438611412, 47.6063218356]}, "type": "Feature", "properties": {"collection_times": [{"days": "Mon-Fri", "time": "4:00pm"}, {"days": "Sat", "time": "10:00am"}, {"days": "Sun", "time": "Closed"}], "id": "9838000002", "name": "USPS COLLECTION BOX - BLUE BOX", "address": {"city": "SEABECK", "state": "WA", "street": "4691 SEABECK HOLLY RD NW", "postcode": "98380"}}},
{"geometry": {"type": "Point", "coordinates": [-122.8438611412, 47.6063218356]}, "type": "Feature", "properties": {"collection_times": [{"days": "Mon-Fri", "time": "4:00pm"}, {"days": "Sat", "time": "10:00am"}, {"days": "Sun", "time": "Closed"}], "id": "9838000003", "name": "USPS COLLECTION BOX - PO LOBBY", "address": {"city": "SEABECK", "state": "WA", "street": "4691 SEABECK HOLLY RD NW", "postcode": "98380"}}},
{"geometry": {"type": "Point", "coordinates": [-122.8438611412, 47.6063218356]}, "type": "Feature", "properties": {"collection_times": [{"days": "Mon-Fri", "time": "4:00pm"}, {"days": "Sat", "time": "10:00am"}, {"days": "Sun", "time": "Closed"}], "id": "9838000004", "name": "USPS COLLECTION BOX - PO LOBBY", "address": {"city": "SEABECK", "state": "WA", "street": "4691 SEABECK HOLLY RD NW", "postcode": "98380"}}},
{"geometry": {"type": "Point", "coordinates": [-122.8403702293, 47.5933731668]}, "type": "Feature", "properties": {"collection_times": [{"days": "Mon-Fri", "time": "10:00am"}, {"days": "Sat-Sun", "time": "Closed"}], "id": "9838000006", "name": "USPS COLLECTION BOX - BLUE BOX", "address": {"city": "SEABECK", "state": "WA", "street": "14174 NW HOLLY RD", "postcode": "98380"}}},
{"geometry": {"type": "Point", "coordinates": [-124.6244140659, 48.368014409]}, "type": "Feature", "properties": {"collection_times": [{"days": "Mon-Fri", "time": "2:15pm"}, {"days": "Sat", "time": "1:00pm"}, {"days": "Sun", "time": "Closed"}], "id": "9838100000", "name": "USPS COLLECTION BOX - BLUE BOX", "address": {"city": "SEKIU", "state": "WA", "street": "72 WASHINGTON ST", "postcode": "98381"}}},
{"geometry": {"type": "Point", "coordinates": [-124.6244140659, 48.368014409]}, "type": "Feature", "properties": {"collection_times": [{"days": "Mon-Fri", "time": "2:15pm"}, {"days": "Sat", "time": "9:15am"}, {"days": "Sun", "time": "Closed"}], "id": "9838100002", "name": "USPS COLLECTION BOX - PO LOBBY", "address": {"city": "SEKIU", "state": "WA", "street": "72 WASHINGTON ST", "postcode": "98381"}}},
{"geometry": {"type": "Point", "coordinates": [-123.1001410833, 48.078199161]}, "type": "Feature", "properties": {"collection_times": [{"days": "Mon-Fri", "time": "5:00pm"}, {"days": "Sat", "time": "2:45pm"}, {"days": "Sun", "time": "Closed"}], "id": "9838200000", "name": "USPS COLLECTION BOX - BLUE BOX", "address": {"city": "SEQUIM", "state": "WA", "street": "240 S SUNNYSIDE AVE", "postcode": "98382"}}},
{"geometry": {"type": "Point", "coordinates": [-123.1001410833, 48.078199161]}, "type": "Feature", "properties": {"collection_times": [{"days": "Mon-Fri", "time": "5:00pm"}, {"days": "Sat", "time": "2:45pm"}, {"days": "Sun", "time": "Closed"}], "id": "9838200001", "name": "USPS COLLECTION BOX - BLUE BOX", "address": {"city": "SEQUIM", "state": "WA", "street": "240 S SUNNYSIDE AVE", "postcode": "98382"}}},
{"geometry": {"type": "Point", "coordinates": [-123.1180711177, 48.0797703932]}, "type": "Feature", "properties": {"collection_times": [{"days": "Mon-Sat", "time": "10:00am"}, {"days": "Sun", "time": "Closed"}], "id": "9838200003", "name": "USPS COLLECTION BOX - BLUE BOX", "address": {"city": "SEQUIM", "state": "WA", "street": "680 W WASHINGTON ST", "postcode": "98382"}}},
{"geometry": {"type": "Point", "coordinates": [-123.1174223623, 48.0796470834]}, "type": "Feature", "properties": {"collection_times": [{"days": "Mon-Sat", "time": "10:00am"}, {"days": "Sun", "time": "Closed"}], "id": "9838200004", "name": "USPS COLLECTION BOX - BLUE BOX", "address": {"city": "SEQUIM", "state": "WA", "street": "651 W WASHINGTON ST", "postcode": "98382"}}},
{"geometry": {"type": "Point", "coordinates": [-123.1001939589, 48.0782007504]}, "type": "Feature", "properties": {"collection_times": [{"days": "Mon-Fri", "time": "5:30pm"}, {"days": "Sat", "time": "3:00pm"}, {"days": "Sun", "time": "Closed"}], "id": "9838200008", "name": "USPS COLLECTION BOX - PO LOBBY", "address": {"city": "SEQUIM", "state": "WA", "street": "240 S SUNNYSIDE AVE", "postcode": "98382"}}},
{"geometry": {"type": "Point", "coordinates": [-123.1001939589, 48.0782007504]}, "type": "Feature", "properties": {"collection_times": [{"days": "Mon-Fri", "time": "5:30pm"}, {"days": "Sat", "time": "3:00pm"}, {"days": "Sun", "time": "Closed"}], "id": "9838200009", "name": "USPS COLLECTION BOX - APC", "address": {"city": "SEQUIM", "state": "WA", "street": "240 S SUNNYSIDE AVE", "postcode": "98382"}}},
{"geometry": {"type": "Point", "coordinates": [-122.6845674359, 47.6619244559]}, "type": "Feature", "properties": {"collection_times": [{"days": "Mon-Fri", "time": "5:00pm"}, {"days": "Sat", "time": "4:00pm"}, {"days": "Sun", "time": "Closed"}], "id": "9838300000", "name": "USPS COLLECTION BOX - BLUE BOX", "address": {"city": "SILVERDALE", "state": "WA", "street": "10855 SILVERDALE WAY NW", "postcode": "98383"}}},
{"geometry": {"type": "Point", "coordinates": [-122.6961072006, 47.6452778573]}, "type": "Feature", "properties": {"collection_times": [{"days": "Mon-Fri", "time": "12:00pm"}, {"days": "Sat", "time": "11:00am"}, {"days": "Sun", "time": "Closed"}], "id": "9838300005", "name": "USPS COLLECTION BOX - BLUE BOX", "address": {"city": "SILVERDALE", "state": "WA", "street": "3428 NW LOWELL ST", "postcode": "98383"}}},
{"geometry": {"type": "Point", "coordinates": [-122.6912487881, 47.6531409855]}, "type": "Feature", "properties": {"collection_times": [{"days": "Mon-Sat", "time": "1:00pm"}, {"days": "Sun", "time": "Closed"}], "id": "9838300007", "name": "USPS COLLECTION BOX - BLUE BOX", "address": {"city": "SILVERDALE", "state": "WA", "street": "9985 SILVERDALE WAY NW", "postcode": "98383"}}},
{"geometry": {"type": "Point", "coordinates": [-122.6928244894, 47.6546930277]}, "type": "Feature", "properties": {"collection_times": [{"days": "Mon-Sat", "time": "1:00pm"}, {"days": "Sun", "time": "Closed"}], "id": "9838300008", "name": "USPS COLLECTION BOX - BLUE BOX", "address": {"city": "SILVERDALE", "state": "WA", "street": "10049 KITSAP MALL BLVD NW", "postcode": "98383"}}},
{"geometry": {"type": "Point", "coordinates": [-122.6672574265, 47.6866992869]}, "type": "Feature", "properties": {"collection_times": [{"days": "Mon-Sat", "time": "11:00am"}, {"days": "Sun", "time": "Closed"}], "id": "9838300009", "name": "USPS COLLECTION BOX - BLUE BOX", "address": {"city": "SILVERDALE", "state": "WA", "street": "13631 BENNINGTON DR NW", "postcode": "98383"}}},
{"geometry": {"type": "Point", "coordinates": [-122.6885599224, 47.6505680498]}, "type": "Feature", "properties": {"collection_times": [{"days": "Mon-Fri", "time": "12:00pm"}, {"days": "Sat", "time": "11:00am"}, {"days": "Sun", "time": "Closed"}], "id": "9838300012", "name": "USPS COLLECTION BOX - BLUE BOX", "address": {"city": "SILVERDALE", "state": "WA", "street": "2890 NW BUCKLIN HILL RD", "postcode": "98383"}}},
{"geometry": {"type": "Point", "coordinates": [-122.696211301, 47.6485298115]}, "type": "Feature", "properties": {"collection_times": [{"days": "Mon-Sat", "time": "1:00pm"}, {"days": "Sun", "time": "Closed"}], "id": "9838300013", "name": "USPS COLLECTION BOX - BLUE BOX", "address": {"city": "SILVERDALE", "state": "WA", "street": "9451 SILVERDALE WAY NW", "postcode": "98383"}}},
{"geometry": {"type": "Point", "coordinates": [-122.6795232988, 47.6505077189]}, "type": "Feature", "properties": {"collection_times": [{"days": "Mon-Fri", "time": "12:00pm"}, {"days": "Sat", "time": "11:00am"}, {"days": "Sun", "time": "Closed"}], "id": "9838300014", "name": "USPS COLLECTION BOX - BLUE BOX", "address": {"city": "SILVERDALE", "state": "WA", "street": "2222 NW BUCKLIN HILL RD", "postcode": "98383"}}},
{"geometry": {"type": "Point", "coordinates": [-122.6845674359, 47.6619244559]}, "type": "Feature", "properties": {"collection_times": [{"days": "Mon-Fri", "time": "5:00pm"}, {"days": "Sat", "time": "4:00pm"}, {"days": "Sun", "time": "Closed"}], "id": "9838300015", "name": "USPS COLLECTION BOX - PO LOBBY", "address": {"city": "SILVERDALE", "state": "WA", "street": "10855 SILVERDALE WAY NW", "postcode": "98383"}}},
{"geometry": {"type": "Point", "coordinates": [-122.6912156652, 47.6505834283]}, "type": "Feature", "properties": {"collection_times": [{"days": "Mon-Fri", "time": "12:00pm"}, {"days": "Sat", "time": "11:00am"}, {"days": "Sun", "time": "Closed"}], "id": "9838300017", "name": "USPS COLLECTION BOX - BLUE BOX", "address": {"city": "SILVERDALE", "state": "WA", "street": "3100 NW BUCKLIN HILL RD", "postcode": "98383"}}},
{"geometry": {"type": "Point", "coordinates": [-122.7161034513, 47.6549343845]}, "type": "Feature", "properties": {"collection_times": [{"days": "Mon-Fri", "time": "12:00pm"}, {"days": "Sat", "time": "11:00am"}, {"days": "Sun", "time": "Closed"}], "id": "9838300018", "name": "USPS COLLECTION BOX - BLUE BOX", "address": {"city": "SILVERDALE", "state": "WA", "street": "7978 SEABECK HWY NW", "postcode": "98383"}}},
{"geometry": {"type": "Point", "coordinates": [-122.6769728393, 47.6555364774]}, "type": "Feature", "properties": {"collection_times": [{"days": "Mon-Fri", "time": "12:00pm"}, {"days": "Sat", "time": "11:00am"}, {"days": "Sun", "time": "Closed"}], "id": "9838300020", "name": "USPS COLLECTION BOX - BLUE BOX", "address": {"city": "SILVERDALE", "state": "WA", "street": "1800 NW MYHRE RD", "postcode": "98383"}}},
{"geometry": {"type": "Point", "coordinates": [-122.6845674359, 47.6619244559]}, "type": "Feature", "properties": {"collection_times": [{"days": "Mon-Fri", "time": "5:00pm"}, {"days": "Sat", "time": "4:00pm"}, {"days": "Sun", "time": "Closed"}], "id": "9838300021", "name": "USPS COLLECTION BOX - APC", "address": {"city": "SILVERDALE", "state": "WA", "street": "10855 SILVERDALE WAY NW", "postcode": "98383"}}},
{"geometry": {"type": "Point", "coordinates": [-122.6845674359, 47.6619244559]}, "type": "Feature", "properties": {"collection_times": [{"days": "Mon-Fri", "time": "5:00pm"}, {"days": "Sat", "time": "4:00pm"}, {"days": "Sun", "time": "Closed"}], "id": "9838300022", "name": "USPS COLLECTION BOX - PO LOBBY", "address": {"city": "SILVERDALE", "state": "WA", "street": "10855 SILVERDALE WAY NW", "postcode": "98383"}}},
{"geometry": {"type": "Point", "coordinates": [-122.6845674359, 47.6619244559]}, "type": "Feature", "properties": {"collection_times": [{"days": "Mon-Fri", "time": "5:00pm"}, {"days": "Sat", "time": "4:00pm"}, {"days": "Sun", "time": "Closed"}], "id": "9838300023", "name": "USPS COLLECTION BOX - APC", "address": {"city": "SILVERDALE", "state": "WA", "street": "10855 SILVERDALE WAY NW", "postcode": "98383"}}},
{"geometry": {"type": "Point", "coordinates": [-122.5376159134, 47.5219986349]}, "type": "Feature", "properties": {"collection_times": [{"days": "Mon-Fri", "time": "3:30pm"}, {"days": "Sat", "time": "10:00am"}, {"days": "Sun", "time": "Closed"}], "id": "9838400000", "name": "USPS COLLECTION BOX - BLUE BOX", "address": {"city": "SOUTH COLBY", "state": "WA", "street": "9650 SE SOUTHWORTH DR", "postcode": "98384"}}},
{"geometry": {"type": "Point", "coordinates": [-122.5376159134, 47.5219986349]}, "type": "Feature", "properties": {"collection_times": [{"days": "Mon-Fri", "time": "3:30pm"}, {"days": "Sat", "time": "10:00am"}, {"days": "Sun", "time": "Closed"}], "id": "9838400001", "name": "USPS COLLECTION BOX - PO LOBBY", "address": {"city": "SOUTH COLBY", "state": "WA", "street": "9650 SE SOUTHWORTH DR", "postcode": "98384"}}},
{"geometry": {"type": "Point", "coordinates": [-122.0977798162, 47.1393159482]}, "type": "Feature", "properties": {"collection_times": [{"days": "Mon-Fri", "time": "4:30pm"}, {"days": "Sat", "time": "9:45am"}, {"days": "Sun", "time": "Closed"}], "id": "9838500000", "name": "USPS COLLECTION BOX - BLUE BOX", "address": {"city": "SOUTH PRAIRIE", "state": "WA", "street": "105 HIGHWAY 162 E", "postcode": "98385"}}},
{"geometry": {"type": "Point", "coordinates": [-122.0977798162, 47.1393159482]}, "type": "Feature", "properties": {"collection_times": [{"days": "Mon-Fri", "time": "4:30pm"}, {"days": "Sat", "time": "9:45am"}, {"days": "Sun", "time": "Closed"}], "id": "9838500001", "name": "USPS COLLECTION BOX - PO LOBBY", "address": {"city": "SOUTH PRAIRIE", "state": "WA", "street": "105 HIGHWAY 162 E", "postcode": "98385"}}},
{"geometry": {"type": "Point", "coordinates": [-122.501111684, 47.5130832089]}, "type": "Feature", "properties": {"collection_times": [{"days": "Mon-Fri", "time": "3:30pm"}, {"days": "Sat", "time": "9:00am"}, {"days": "Sun", "time": "Closed"}], "id": "9838600000", "name": "USPS COLLECTION BOX - BLUE BOX", "address": {"city": "SOUTHWORTH", "state": "WA", "street": "3985 CHERRY ST SE", "postcode": "98386"}}},
{"geometry": {"type": "Point", "coordinates": [-122.4349666431, 47.0942496566]}, "type": "Feature", "properties": {"collection_times": [{"days": "Mon-Fri", "time": "12:45pm"}, {"days": "Sat", "time": "3:30pm"}, {"days": "Sun", "time": "Closed"}], "id": "9838700000", "name": "USPS COLLECTION BOX - BLUE BOX", "address": {"city": "SPANAWAY", "state": "WA", "street": "17911 PACIFIC AVE S", "postcode": "98387"}}},
{"geometry": {"type": "Point", "coordinates": [-122.4347596191, 47.1043412379]}, "type": "Feature", "properties": {"collection_times": [{"days": "Mon-Fri", "time": "5:00pm"}, {"days": "Sat", "time": "4:00pm"}, {"days": "Sun", "time": "Closed"}], "id": "9838700002", "name": "USPS COLLECTION BOX - PO LOBBY", "address": {"city": "SPANAWAY", "state": "WA", "street": "16815 PACIFIC AVE S", "postcode": "98387"}}},
{"geometry": {"type": "Point", "coordinates": [-122.4347596191, 47.1043412379]}, "type": "Feature", "properties": {"collection_times": [{"days": "Mon-Fri", "time": "5:00pm"}, {"days": "Sat", "time": "4:00pm"}, {"days": "Sun", "time": "Closed"}], "id": "9838700003", "name": "USPS COLLECTION BOX - BLUE BOX", "address": {"city": "SPANAWAY", "state": "WA", "street": "16815 PACIFIC AVE S", "postcode": "98387"}}},
{"geometry": {"type": "Point", "coordinates": [-122.4347596191, 47.1043412379]}, "type": "Feature", "properties": {"collection_times": [{"days": "Mon-Fri", "time": "5:00pm"}, {"days": "Sat", "time": "4:00pm"}, {"days": "Sun", "time": "Closed"}], "id": "9838700004", "name": "USPS COLLECTION BOX - BLUE BOX", "address": {"city": "SPANAWAY", "state": "WA", "street": "16815 PACIFIC AVE S", "postcode": "98387"}}},
{"geometry": {"type": "Point", "coordinates": [-122.4347596191, 47.1043412379]}, "type": "Feature", "properties": {"collection_times": [{"days": "Mon-Fri", "time": "5:00pm"}, {"days": "Sat", "time": "4:00pm"}, {"days": "Sun", "time": "Closed"}], "id": "9838700005", "name": "USPS COLLECTION BOX - BLUE BOX", "address": {"city": "SPANAWAY", "state": "WA", "street": "16815 PACIFIC AVE S", "postcode": "98387"}}},
{"geometry": {"type": "Point", "coordinates": [-122.4023657752, 47.0576650621]}, "type": "Feature", "properties": {"collection_times": [{"days": "Mon-Fri", "time": "4:30pm"}, {"days": "Sat", "time": "3:30pm"}, {"days": "Sun", "time": "Closed"}], "id": "9838700007", "name": "USPS COLLECTION BOX - BLUE BOX", "address": {"city": "SPANAWAY", "state": "WA", "street": "21905 MOUNTAIN HWY E", "postcode": "98387"}}},
{"geometry": {"type": "Point", "coordinates": [-122.4023657752, 47.0576650621]}, "type": "Feature", "properties": {"collection_times": [{"days": "Mon-Fri", "time": "4:30pm"}, {"days": "Sat", "time": "3:30pm"}, {"days": "Sun", "time": "Closed"}], "id": "9838700008", "name": "USPS COLLECTION BOX - PO LOBBY", "address": {"city": "SPANAWAY", "state": "WA", "street": "21905 MOUNTAIN HWY E", "postcode": "98387"}}},
{"geometry": {"type": "Point", "coordinates": [-122.4023657752, 47.0576650621]}, "type": "Feature", "properties": {"collection_times": [{"days": "Mon-Fri", "time": "4:30pm"}, {"days": "Sat", "time": "3:30pm"}, {"days": "Sun", "time": "Closed"}], "id": "9838700009", "name": "USPS COLLECTION BOX - PO LOBBY", "address": {"city": "SPANAWAY", "state": "WA", "street": "21905 MOUNTAIN HWY E", "postcode": "98387"}}},
{"geometry": {"type": "Point", "coordinates": [-122.5993051964, 47.1723203638]}, "type": "Feature", "properties": {"collection_times": [{"days": "Mon-Fri", "time": "5:00pm"}, {"days": "Sat", "time": "4:00pm"}, {"days": "Sun", "time": "Closed"}], "id": "9838800000", "name": "USPS COLLECTION BOX - BLUE BOX", "address": {"city": "STEILACOOM", "state": "WA", "street": "1610 LAFAYETTE ST", "postcode": "98388"}}},
{"geometry": {"type": "Point", "coordinates": [-122.6053503612, 47.1584652956]}, "type": "Feature", "properties": {"collection_times": [{"days": "Mon-Fri", "time": "2:45pm"}, {"days": "Sat", "time": "2:00pm"}, {"days": "Sun", "time": "Closed"}], "id": "9838800001", "name": "USPS COLLECTION BOX - BLUE BOX", "address": {"city": "STEILACOOM", "state": "WA", "street": "611 CORMORANT DR", "postcode": "98388"}}},
{"geometry": {"type": "Point", "coordinates": [-122.5778895157, 47.1775661601]}, "type": "Feature", "properties": {"collection_times": [{"days": "Mon-Sat", "time": "11:00am"}, {"days": "Sun", "time": "Closed"}], "id": "9838800002", "name": "USPS COLLECTION BOX - BLUE BOX", "address": {"city": "STEILACOOM", "state": "WA", "street": "100 BYRD DR", "postcode": "98388"}}},
{"geometry": {"type": "Point", "coordinates": [-122.5993051964, 47.1723203638]}, "type": "Feature", "properties": {"collection_times": [{"days": "Mon-Fri", "time": "4:45pm"}, {"days": "Sat", "time": "2:00pm"}, {"days": "Sun", "time": "Closed"}], "id": "9838800003", "name": "USPS COLLECTION BOX - PO LOBBY", "address": {"city": "STEILACOOM", "state": "WA", "street": "1610 LAFAYETTE ST", "postcode": "98388"}}},
{"geometry": {"type": "Point", "coordinates": [-122.2213752075, 47.2024716067]}, "type": "Feature", "properties": {"collection_times": [{"days": "Mon-Sat", "time": "1:30pm"}, {"days": "Sun", "time": "Closed"}], "id": "9839000000", "name": "USPS COLLECTION BOX - BLUE BOX", "address": {"city": "SUMNER", "state": "WA", "street": "6019 PARKER RD E", "postcode": "98390"}}},
{"geometry": {"type": "Point", "coordinates": [-122.2400670559, 47.2033208391]}, "type": "Feature", "properties": {"collection_times": [{"days": "Mon-Sat", "time": "1:30pm"}, {"days": "Sun", "time": "Closed"}], "id": "9839000001", "name": "USPS COLLECTION BOX - BLUE BOX", "address": {"city": "SUMNER", "state": "WA", "street": "1119 MAIN ST", "postcode": "98390"}}},
{"geometry": {"type": "Point", "coordinates": [-122.242547456, 47.2066118887]}, "type": "Feature", "properties": {"collection_times": [{"days": "Mon-Fri", "time": "5:00pm"}, {"days": "Sat", "time": "4:30pm"}, {"days": "Sun", "time": "Closed"}], "id": "9839000012", "name": "USPS COLLECTION BOX - BLUE BOX", "address": {"city": "SUMNER", "state": "WA", "street": "1313 FRYAR AVE", "postcode": "98390"}}},
{"geometry": {"type": "Point", "coordinates": [-122.2427456984, 47.2061671612]}, "type": "Feature", "properties": {"collection_times": [{"days": "Mon-Fri", "time": "5:00pm"}, {"days": "Sat", "time": "4:30pm"}, {"days": "Sun", "time": "Closed"}], "id": "9839000017", "name": "USPS COLLECTION BOX - PO LOBBY", "address": {"city": "SUMNER", "state": "WA", "street": "1313 FRYAR AVE", "postcode": "98390"}}},
{"geometry": {"type": "Point", "coordinates": [-122.2427456984, 47.2061671612]}, "type": "Feature", "properties": {"collection_times": [{"days": "Mon-Fri", "time": "5:00pm"}, {"days": "Sat", "time": "4:30pm"}, {"days": "Sun", "time": "Closed"}], "id": "9839000018", "name": "USPS COLLECTION BOX - PO LOBBY", "address": {"city": "SUMNER", "state": "WA", "street": "1313 FRYAR AVE", "postcode": "98390"}}},
{"geometry": {"type": "Point", "coordinates": [-122.1678386849, 47.1842476501]}, "type": "Feature", "properties": {"collection_times": [{"days": "Mon-Fri", "time": "5:00pm"}, {"days": "Sat", "time": "2:15pm"}, {"days": "Sun", "time": "Closed"}], "id": "9839100005", "name": "USPS COLLECTION BOX - PO LOBBY", "address": {"city": "BONNEY LAKE", "state": "WA", "street": "18429 VETERANS MEMORIAL DR E", "postcode": "98391"}}},
{"geometry": {"type": "Point", "coordinates": [-122.1678386849, 47.1842476501]}, "type": "Feature", "properties": {"collection_times": [{"days": "Mon-Fri", "time": "5:00pm"}, {"days": "Sat", "time": "2:15pm"}, {"days": "Sun", "time": "Closed"}], "id": "9839100006", "name": "USPS COLLECTION BOX - PO LOBBY", "address": {"city": "BONNEY LAKE", "state": "WA", "street": "18429 VETERANS MEMORIAL DR E", "postcode": "98391"}}},
{"geometry": {"type": "Point", "coordinates": [-122.1472082487, 47.1675679341]}, "type": "Feature", "properties": {"collection_times": [{"days": "Mon-Sat", "time": "1:30pm"}, {"days": "Sun", "time": "Closed"}], "id": "9839100008", "name": "USPS COLLECTION BOX - BLUE BOX", "address": {"city": "BONNEY LAKE", "state": "WA", "street": "21192 STATE ROUTE 410 E", "postcode": "98391"}}},
{"geometry": {"type": "Point", "coordinates": [-122.5525226292, 47.7306684513]}, "type": "Feature", "properties": {"collection_times": [{"days": "Mon-Fri", "time": "4:30pm"}, {"days": "Sat", "time": "12:00pm"}, {"days": "Sun", "time": "Closed"}], "id": "9839200000", "name": "USPS COLLECTION BOX - PO LOBBY", "address": {"city": "SUQUAMISH", "state": "WA", "street": "18485 AUGUSTA AVE NE", "postcode": "98392"}}},
{"geometry": {"type": "Point", "coordinates": [-122.5525226292, 47.7306684513]}, "type": "Feature", "properties": {"collection_times": [{"days": "Mon-Fri", "time": "4:30pm"}, {"days": "Sat", "time": "12:00pm"}, {"days": "Sun", "time": "Closed"}], "id": "9839200001", "name": "USPS COLLECTION BOX - BLUE BOX", "address": {"city": "SUQUAMISH", "state": "WA", "street": "18485 AUGUSTA AVE NE", "postcode": "98392"}}},
{"geometry": {"type": "Point", "coordinates": [-122.6555072472, 47.610491588]}, "type": "Feature", "properties": {"collection_times": [{"days": "Mon-Fri", "time": "5:00pm"}, {"days": "Sat", "time": "4:00pm"}, {"days": "Sun", "time": "Closed"}], "id": "9839300001", "name": "USPS COLLECTION BOX - BLUE BOX", "address": {"city": "TRACYTON", "state": "WA", "street": "5201 TRACYTON BLVD NW", "postcode": "98393"}}},
{"geometry": {"type": "Point", "coordinates": [-122.6555072472, 47.610491588]}, "type": "Feature", "properties": {"collection_times": [{"days": "Mon-Fri", "time": "4:45pm"}, {"days": "Sat", "time": "9:00am"}, {"days": "Sun", "time": "Closed"}], "id": "9839300002", "name": "USPS COLLECTION BOX - PO LOBBY", "address": {"city": "TRACYTON", "state": "WA", "street": "5201 TRACYTON BLVD NW", "postcode": "98393"}}},
{"geometry": {"type": "Point", "coordinates": [-122.6555072472, 47.610491588]}, "type": "Feature", "properties": {"collection_times": [{"days": "Mon-Fri", "time": "4:45pm"}, {"days": "Sat", "time": "9:00am"}, {"days": "Sun", "time": "Closed"}], "id": "9839300003", "name": "USPS COLLECTION BOX - PO LOBBY", "address": {"city": "TRACYTON", "state": "WA", "street": "5201 TRACYTON BLVD NW", "postcode": "98393"}}},
{"geometry": {"type": "Point", "coordinates": [-122.7784119781, 47.3240221889]}, "type": "Feature", "properties": {"collection_times": [{"days": "Mon-Fri", "time": "4:30pm"}, {"days": "Sat", "time": "11:00am"}, {"days": "Sun", "time": "Closed"}], "id": "9839400000", "name": "USPS COLLECTION BOX - BLUE BOX", "address": {"city": "VAUGHN", "state": "WA", "street": "15613 OLSON DRIVE KP N", "postcode": "98394"}}},
{"geometry": {"type": "Point", "coordinates": [-122.7784119781, 47.3240221889]}, "type": "Feature", "properties": {"collection_times": [{"days": "Mon-Fri", "time": "4:30pm"}, {"days": "Sat", "time": "11:00am"}, {"days": "Sun", "time": "Closed"}], "id": "9839400001", "name": "USPS COLLECTION BOX - PO LOBBY", "address": {"city": "VAUGHN", "state": "WA", "street": "15613 OLSON DRIVE KP N", "postcode": "98394"}}},
{"geometry": {"type": "Point", "coordinates": [-122.7784119781, 47.3240221889]}, "type": "Feature", "properties": {"collection_times": [{"days": "Mon-Fri", "time": "4:30pm"}, {"days": "Sat", "time": "11:00am"}, {"days": "Sun", "time": "Closed"}], "id": "9839400003", "name": "USPS COLLECTION BOX - PO LOBBY", "address": {"city": "VAUGHN", "state": "WA", "street": "15613 OLSON DRIVE KP N", "postcode": "98394"}}},
{"geometry": {"type": "Point", "coordinates": [-122.6552895904, 47.387200236]}, "type": "Feature", "properties": {"collection_times": [{"days": "Mon-Fri", "time": "5:00pm"}, {"days": "Sat", "time": "10:30am"}, {"days": "Sun", "time": "Closed"}], "id": "9839500000", "name": "USPS COLLECTION BOX - BLUE BOX", "address": {"city": "WAUNA", "state": "WA", "street": "14304 92ND AVE NW", "postcode": "98395"}}},
{"geometry": {"type": "Point", "coordinates": [-122.6552895904, 47.387200236]}, "type": "Feature", "properties": {"collection_times": [{"days": "Mon-Fri", "time": "5:00pm"}, {"days": "Sat", "time": "10:30am"}, {"days": "Sun", "time": "Closed"}], "id": "9839500001", "name": "USPS COLLECTION BOX - PO LOBBY", "address": {"city": "WAUNA", "state": "WA", "street": "14304 92ND AVE NW", "postcode": "98395"}}},
{"geometry": {"type": "Point", "coordinates": [-122.0461465814, 47.1052382188]}, "type": "Feature", "properties": {"collection_times": [{"days": "Mon-Fri", "time": "4:15pm"}, {"days": "Sat", "time": "10:30am"}, {"days": "Sun", "time": "Closed"}], "id": "9839600000", "name": "USPS COLLECTION BOX - BLUE BOX", "address": {"city": "WILKESON", "state": "WA", "street": "517 CHURCH ST", "postcode": "98396"}}},
{"geometry": {"type": "Point", "coordinates": [-122.0461465814, 47.1052382188]}, "type": "Feature", "properties": {"collection_times": [{"days": "Mon-Fri", "time": "4:15pm"}, {"days": "Sat", "time": "10:30am"}, {"days": "Sun", "time": "Closed"}], "id": "9839600001", "name": "USPS COLLECTION BOX - PO LOBBY", "address": {"city": "WILKESON", "state": "WA", "street": "517 CHURCH ST", "postcode": "98396"}}}
]}
